~VERSION INFORMATION
 VERS.                2.0:   CWLS LOG ASCII STANDARD - VERSION 2.0
 WRAP.                 NO:   ONE LINE PER DEPTH STEP
~WELL INFORMATION
#MNEM.UNIT      DATA TYPE    INFORMATION
#----------   ------------   ------------------------------
 STRT.F          200.0000:   START DEPTH
 STOP.F         3209.0000:   STOP DEPTH
 STEP.F            0.5000:   STEP LENGTH
 NULL.          -999.2500:   NO VALUE
 COMP.    FENIX & SCISSON:   COMPANY
 WELL. FENIX & SCISSON "AX" #88-3:   WELL
 FLD .             NPR #3:   FIELD
 LOC .       S3 T38N R78W:   LOCATION
 CNTY.            NATRONA:   COUNTY
 STAT.            WYOMING:   STATE
 CTRY. UNITED STATES OF AMERICA:   COUNTRY
 SRVC.              WELEX:   SERVICE COMPANY
 DATE.        27-JUL-1977:   LOGDATE
 API .     49025104060000:   API NUMBER
~CURVE INFORMATION
#MNEM.UNIT       API CODE    CURVE DESCRIPTION
#----------   ------------   ------------------------------
 DEPT.F                  :   
 CALD.IN     45 280 60 00:   CALIPER FROM DENSITY LOG
 GRD .GAPI   45 310 01 00:   GAMMA RAY FROM DENSITY LOG
 RHOB.G/C3   45 350 01 00:   BULK DENSITY
 CORR.G/C3   45 356 01 00:   DENSITY CORRECTION
 NPHI.DEC    42 890 03 00:   NEUTRON POROSITY SANDSTONE
 SPR .MV     07 010 01 00:   SPONTANEOUS POTENTIAL
 SGRD.OHMM   07 220 05 00:   GUARD LOG RESISTIVITY
 FORX.OHMM   07 000 00 00:   
~PARAMETER INFORMATION
#MNEM.UNIT          VALUE    DESCRIPTION
#----------   ------------   ------------------------------
 EKB .F         5134.0000:   Kelly bushing
 EGL .F         5124.0000:   Ground level
 EDF .F            0.0000:   Drilling floor
 TD  .F         3211.0000:   Total depth
 CLNT.            A2DTECH:   Client Code
 SL  . 230' FSL & 380' FEL:   Surface Location
 PD  .                 GL:   Permanent Datum
 EPD .F              5124:   Elevation Permanent Datum
 LMF .                 KB:   Log Measured From
 DMF .                 KB:   Drilling Measured From
 DAPD.F                10:   Feet Above Permanent Datum
 DATE.        27-JUL-1977:   Date Logged [DD-MMM-YYYY]
 DD  .F              3200:   Depth driller
 DL  .F              3211:   Depth logger
 BLI .F              3210:   Bottom log interval
 TLI .F               200:   Top log interval
 CS1 .IN            8.625:   Casing size
 CBD1.      8.625" @ 218':   Casing driller 1
 CBL1.F               218:   Casing logger 1
 BS1 .IN            7.875:   Bit size
 BSD1.F              3200:   Depth drilled with bit1
 DFT .            KCL MUD:   Type fluid in hole
 DFD .                9.2:   Density
 DFV .                 36:   Viscosity
 DFPH.                9.5:   pH
 DFL .                9.6:   Fluid loss
 MSS .           FLOWLINE:   Source of sample
 RMS .OHMM           0.61:   Rm
 MST .F                85:   Rm Meas. temp.
 RMF .OHMM           0.53:   Rmf
 MFST.F                85:   Rmf Meas. temp.
 MFSS.               FANN:   Source Rmf.
 RMC .OHMM           0.48:   Rmc
 MCST.F                85:   Rmc Meas. temp.
 MCSS.                KIT:   Source Rmc.
 RMB .OHMM           0.42:   Rm. at BHT
 BHT .F               122:   BHT.
 TCS .HRS             2.5:   Time Circ. stopped
 MRT .F               122:   Maximum recorded temp.
 LUN .               8611:   Logging unit number
 LUL .             CASPER:   Logging unit location
 ENGI.            C. DOAK:   Recorded By
 WITN.      E. HARRINGTON:   Witnessed by
 ORIG.      2.5" 5" PRINT:   Origin of data
 UWI .     49025104060000:   Unique Well ID
 DICO. A2D TECHNOLOGIES, INC.:   Digitizing Company
~OTHER INFORMATION
~A   DEPT       CALD       GRD        RHOB      CORR        NPHI       SPR      SGRD         FORX 
# ...
 1577.0000    10.4342    96.6291     2.5404     0.0569     0.2596   -65.0606     6.3861     8.1697
 1577.5000    10.4227    96.6851     2.5412     0.0601     0.2615   -65.1073     6.8402     8.1722
 1578.0000    10.4113    97.0208     2.5372     0.0603     0.2626   -65.1541     6.7490     8.2870
 1578.5000    10.3848    97.4773     2.5324     0.0605     0.2618   -65.2004     6.5685     8.4035
 1579.0000    10.3727    98.1462     2.5303     0.0607     0.2599   -65.2476     6.3929     8.8787
 1579.5000    10.3330    99.5426     2.5349     0.0579     0.2590   -65.2953     6.2219     9.1275
 1580.0000    10.3210   100.3264     2.5425     0.0570     0.2607   -65.3653     6.1335     9.1300
 1580.5000    10.3101   101.1216     2.5433     0.0540     0.2663   -65.4357     6.0572     9.1324
 1581.0000    10.3059   101.9182     2.5339     0.0496     0.2719   -65.5070     5.9633     8.8835
 1581.5000    10.2864   102.1216     2.5248     0.0467     0.2780   -65.5779     5.7836     8.2885
 1582.0000    10.2900   102.7426     2.5204     0.0440     0.2774   -65.6488     5.5842     7.8511
 1582.5000    10.2941   103.0861     2.5116     0.0428     0.2667   -65.7198     5.5859     7.7419
 1583.0000    10.3035   103.1423     2.5079     0.0413     0.2614   -65.7907     5.5874     7.5502
 1583.5000    10.3300   102.3139     2.5065     0.0402     0.2596   -65.8617     5.6976     7.6020
 1584.0000    10.3486   101.1452     2.5059     0.0404     0.2596   -65.9327     5.8179     8.0272
 1584.5000    10.3667    99.7188     2.5060     0.0421     0.2620   -66.0036     5.9475     8.4305
 1585.0000    10.3700    98.6250     2.5083     0.0438     0.2681   -66.0746     5.9897     8.1243
 1585.5000    10.3585    97.7329     2.5233     0.0462     0.2736   -66.1455     5.9102     7.8776
 1586.0000    10.3454    96.8505     2.5421     0.0480     0.2780   -66.2165     5.7522     7.8212
 1586.5000    10.3065    96.6377     2.5512     0.0489     0.2764   -66.2874     5.6753     7.9359
 1587.0000    10.3018    96.6884     2.5543     0.0506     0.2727   -66.3584     5.7553     8.2756
 1587.5000    10.2536    96.7407     2.5394     0.0511     0.2709   -66.4293     5.9165     7.9774
 1588.0000    10.2569    97.4919     2.5246     0.0525     0.2706   -66.5003     5.9310     7.7812
 1588.5000    10.2448    98.3235     2.5157     0.0497     0.2706   -66.5712     5.8392     7.9996
 1589.0000    10.2636    99.2557     2.5061     0.0485     0.2709   -66.6422     5.6831     8.3371
 1589.5000    10.2676    99.9768     2.4980     0.0487     0.2715   -66.7131     5.6846     8.4543
 1590.0000    10.2883   100.5341     2.5069     0.0474     0.2721   -66.7841     5.6862     8.2282
 1590.5000    10.3184   101.1772     2.5228     0.0476     0.2721   -66.8550     5.7661     8.0082
 1591.0000    10.3221   101.6132     2.5274     0.0485     0.2721   -66.9260     5.9277     7.9015
 1591.5000    10.3254   101.8660     2.5245     0.0495     0.2750   -66.9969     6.0110     7.9036
 1592.0000    10.3287   101.9110     2.5164     0.0482     0.2786   -67.0679     6.0127     8.0146
 1592.5000    10.3242   101.6494     2.5109     0.0485     0.2810   -67.1388     6.0972     8.7049
 1593.0000    10.3056   100.8278     2.5076     0.0490     0.2852   -67.2098     6.0989     8.4497
 1593.5000    10.2944   100.2801     2.5155     0.0504     0.2875   -67.2807     6.0173     7.9011
 1594.0000    10.2824    99.5688     2.5332     0.0538     0.2881   -67.3517     5.9035     8.0727
 1594.5000    10.2661    98.5797     2.5393     0.0568     0.2872   -67.4226     5.8211     8.7124
 1595.0000    10.2453    97.7943     2.5446     0.0600     0.2839   -67.4936     5.7803     8.4261
 1595.5000    10.2337    96.6102     2.5487     0.0632     0.2760   -67.5645     5.7819     7.8911
 1596.0000    10.2199    96.0197     2.5519     0.0634     0.2674   -67.6355     5.8635     7.7088
 1596.5000    10.2106    95.4853     2.5531     0.0636     0.2640   -67.7064     6.1109     7.7498
 1597.0000    10.1990    94.9738     2.5488     0.0623     0.2614   -67.7774     7.2034     7.9718
 1597.5000    10.2032    94.8582     2.5391     0.0616     0.2614   -67.8483     6.7288     8.6513
 1598.0000    10.1916    94.4605     2.5295     0.0597     0.2643   -67.9192     6.3721     9.1568
 1598.5000    10.1949    94.2209     2.5220     0.0584     0.2691   -67.9902     6.2017     9.4190
 1599.0000    10.1833    94.2671     2.5148     0.0586     0.2709   -68.0611     6.1189     8.9402
 1599.5000    10.1718    94.3239     2.5201     0.0573     0.2691   -68.1321     6.1207     7.7243
 1600.0000    10.1759    94.3620     2.5389     0.0556     0.2643   -68.2030     6.2922     7.5174
 1600.5000    10.1792    94.4812     2.5404     0.0548     0.2619   -68.2740     6.2898     8.0523
 1601.0000    10.1825    94.7579     2.5271     0.0532     0.2614   -68.3449     6.1097     8.9864
 1601.5000    10.2079    95.1004     2.5212     0.0526     0.2614   -68.4159     5.8465     8.5100
 1602.0000    10.2289    95.6676     2.5167     0.0521     0.2629   -68.4868     5.5690     7.6295
 1602.5000    10.2498    96.2660     2.5117     0.0515     0.2653   -68.5578     5.4675     7.5277
 1603.0000    10.2707    96.8645     2.5065     0.0509     0.2678   -68.6287     5.4150     7.6336
 1603.5000    10.2917    96.7507     2.4932     0.0503     0.2705   -68.6997     5.3417     7.3776
 1604.0000    10.3126    96.7952     2.4868     0.0497     0.2745   -68.7706     5.3422     7.4193
 1604.5000    10.3322    97.1369     2.4854     0.0496     0.2794   -68.8416     5.2699     7.5765
 1605.0000    10.3643    97.9327     2.4886     0.0499     0.2828   -68.9125     5.3858     7.7934
 1605.5000    10.3965    98.8597     2.5022     0.0517     0.2851   -68.9835     5.5461     7.9465
 1606.0000    10.4285   100.5419     2.5150     0.0504     0.2857   -69.0544     5.3437     7.8390
 1606.5000    10.4665   101.7686     2.5188     0.0479     0.2828   -69.1254     5.3440     7.7329
 1607.0000    10.4930   103.5924     2.5167     0.0441     0.2786   -69.1964     5.6451     7.7334
 1607.5000    10.5004   104.8022     2.5106     0.0394     0.2780   -69.2672     6.1286     7.8405
 1608.0000    10.5132   105.4659     2.5036     0.0352     0.2787   -69.3382     6.3859     8.7483
 1608.5000    10.5151   105.8032     2.4994     0.0338     0.2817   -69.4096     6.3863     9.3685
 1609.0000    10.5029   105.5571     2.4948     0.0324     0.2828   -69.4790     6.3824     8.9741
 1609.5000    10.4677   105.1899     2.4852     0.0316     0.2825   -69.5527     6.2820     8.2247
 1610.0000    10.3992   104.2878     2.4794     0.0334     0.2797   -69.6139     6.0336     7.5276
 1610.5000    10.3288   103.5519     2.4810     0.0364     0.2758   -69.7037     5.7867     7.6796
 1611.0000    10.2609   102.7121     2.4934     0.0414     0.2736   -69.7793     5.7259     8.3841
 1611.5000    10.2183   102.1839     2.5069     0.0463     0.2709   -69.8592     5.8053     8.2849
 1612.0000    10.1587   101.3314     2.5178     0.0510     0.2688   -69.9372     5.9668     7.6551
 1612.5000    10.1050   100.8232     2.5267     0.0528     0.2733   -70.0156     6.0049     7.6260
 1613.0000    10.0609   100.2353     2.5287     0.0545     0.2750   -70.0942     6.0929     8.0685
 1613.5000    10.0210    99.4299     2.5182     0.0548     0.2756   -70.1725     6.0030     8.2885
 1614.0000     9.9933    98.8724     2.5080     0.0536     0.2685   -70.2510     5.8073     8.0653
 1614.5000     9.9960    98.4937     2.5022     0.0504     0.2643   -70.3294     5.6509     7.8481
 1615.0000     9.9986    97.9303     2.5008     0.0481     0.2602   -70.4078     5.6513     7.8486
 1615.5000    10.0010    97.8157     2.5207     0.0475     0.2590   -70.4863     5.6517     8.1781
 1616.0000    10.0186    97.8635     2.5280     0.0487     0.2590   -70.5647     5.9701     8.6388
 1616.5000    10.0583    98.1027     2.5274     0.0505     0.2604   -70.6431     6.1361     8.4062
 1617.0000    10.0982    98.3608     2.5297     0.0519     0.2657   -70.7216     6.2211     8.1797
