~VERSION INFORMATION
 VERS.                2.0:   CWLS LOG ASCII STANDARD - VERSION 2.0
 WRAP.                 NO:   ONE LINE PER DEPTH STEP
~WELL INFORMATION
#MNEM.UNIT      DATA TYPE    INFORMATION
#----------   ------------   ------------------------------
 STRT.F          212.0000:   START DEPTH
 STOP.F         2806.0000:   STOP DEPTH
 STEP.F            0.5000:   STEP LENGTH
 NULL.          -999.2500:   NO VALUE
 COMP.    FENIX & SCISSON:   COMPANY
 WELL.    FENIX AX #12-21:   WELL
 FLD .        TEAPOT DOME:   FIELD
 LOC .      S21 T39N R78W:   LOCATION
 CNTY.            NATRONA:   COUNTY
 STAT.            WYOMING:   STATE
 CTRY. UNITED STATES OF AMERICA:   COUNTRY
 SRVC.           BIRDWELL:   SERVICE COMPANY
 DATE.        14-AUG-1973:   LOGDATE
 API .     49025106930000:   API NUMBER
~CURVE INFORMATION
#MNEM.UNIT       API CODE    CURVE DESCRIPTION
#----------   ------------   ------------------------------
 DEPT.F                  :   
 SN  .OHMM   05 040 16 00:   SHORT NORMAL 16"
 ILD .OHMM   05 120 46 00:   INDUCTION LOG DEEP RESISTIVITY
 RHOB.G/C3   45 350 01 00:   BULK DENSITY
 CORR.G/C3   45 356 01 00:   DENSITY CORRECTION
 GRD .GAPI   45 310 01 00:   GAMMA RAY FROM DENSITY LOG
 CALD.IN     45 280 60 00:   CALIPER FROM DENSITY LOG
 SPR .MV     05 010 01 00:   SPONTANEOUS POTENTIAL
~PARAMETER INFORMATION
#MNEM.UNIT          VALUE    DESCRIPTION
#----------   ------------   ------------------------------
 EKB .F         4998.0000:   Kelly bushing
 EGL .F         4988.0000:   Ground level
 EDF .F            0.0000:   Drilling floor
 EPD .F         4988.0000:   Permanent datum
 TD  .F         2809.0000:   Total depth
 DATE.        14-AUG-1973:   Date logged
 CLNT.            A2DTECH:   Client Code
 SL  . 1300' FNL & 300' FWL:   Surface Location
 PD  .                 GL:   Permanent Datum
 DD  .F              2800:   Depth driller
 DL  .F              2809:   Depth logger
 BLI .F              2803:   Bottom log interval
 TLI .F               235:   Top log interval
 CS1 .IN            8.625:   Casing size
 BS1 .IN            7.875:   Bit size
 BSD1.F              2800:   Depth drilled with bit1
 DFT .                GEL:   Type fluid in hole
 DFD .                9.7:   Density
 DFV .                 34:   Viscosity
 DFPH.                 12:   pH
 MSS .           FLOWLINE:   Source of sample
 RMS .OHMM            .15:   Rm
 MST .F                57:   Rm Meas. temp.
 RMF .OHMM            .95:   Rmf
 MFST.F                69:   Rmf Meas. temp.
 RMC .OHMM            1.5:   Rmc
 MCST.F                78:   Rmc Meas. temp.
 MFSS.               MEAS:   Source Rmf.
 RMB .OHMM            .87:   Rm. at BHT
 BHT .F               115:   BHT.
 TCS .HRS               3:   Time Circ. stopped
 MRT .F               115:   Maximum recorded temp.
 LUN .               3006:   Logging unit number
 LUL .               CASP:   Logging unit location
 ENGI.             MILLER:   Recorded By
 WITN.           MCGINLEY:   Witnessed by
 UWI .     49025106930000:   Unique Well ID
 DICO. A2D TECHNOLOGIES, INC.:   Digitizing Company
 ORIG.           5" PRINT:   Origin of data
~OTHER INFORMATION
~A   DEPT       SN        ILD       RHOB       CORR         GRD      CALD        SPR   
# ...
  894.5000    10.1410     7.9010     2.5550     0.1400    77.8590     8.9890   -10.5590
  895.0000    10.1660     7.9640     2.5500     0.1260    76.2260     8.9870   -10.5730
  895.5000    10.1920     8.0140     2.5380     0.1120    74.7000     9.0030   -10.5860
  896.0000    10.2180     7.9900     2.5200     0.0990    74.7500     9.0180   -10.5980
  896.5000    10.2440     7.9710     2.5160     0.0970    74.6630     9.0340   -10.6100
  897.0000    10.2700     7.9530     2.5150     0.0930    72.1640     9.0430   -10.6220
  897.5000    10.2960     7.9340     2.5150     0.0970    70.8380     9.0430   -10.6350
  898.0000    10.3210     7.9150     2.5160     0.1010    70.9420     9.0430   -10.6470
  898.5000    10.3470     7.8960     2.5360     0.1050    71.0340     9.0430   -10.6590
  899.0000    10.3660     7.8770     2.5360     0.1090    71.1640     9.0500   -10.6720
  899.5000    10.1700     7.8580     2.5370     0.1130    72.1690     9.0640   -10.6840
  900.0000    10.0180     7.8390     2.5380     0.1180    76.0030     9.0780   -10.6960
  900.5000     9.8660     7.8200     2.5390     0.1210    79.8250     9.0920   -10.7080
  901.0000     9.7130     7.8010     2.5400     0.1230    81.5150     9.1060   -10.7210
  901.5000     9.5610     7.7030     2.5390     0.1250    81.5060     9.1200   -10.7330
  902.0000     9.4530     7.5720     2.5370     0.1260    79.8800     9.1350   -10.7450
  902.5000     9.4450     7.4410     2.5350     0.1260    74.7430     9.1490   -10.7580
  903.0000     9.4370     7.3700     2.5300     0.1250    72.4560     9.1600   -10.7700
  903.5000     9.4290     7.3550     2.5030     0.1250    72.1640     9.1520   -10.7480
  904.0000     9.4210     7.3410     2.5010     0.1290    72.4040     9.1440   -10.7240
  904.5000     9.4130     7.3260     2.5000     0.1370    74.8750     9.1360   -10.6990
  905.0000     9.4050     7.3120     2.5000     0.1450    77.3160     9.1290   -10.6750
  905.5000     9.3980     7.2970     2.5040     0.1560    79.7300     9.1210   -10.6500
  906.0000     9.3900     7.2830     2.5050     0.1620    81.0130     9.1140   -10.6260
  906.5000     9.3820     7.2680     2.5050     0.1660    80.2260     9.1060   -10.6010
  907.0000     9.3740     7.2540     2.5050     0.1700    80.2070     9.1060   -10.5770
  907.5000     9.3660     7.2390     2.5050     0.1740    80.2020     9.1160   -10.5520
  908.0000     9.3580     7.2250     2.5050     0.1750    78.8570     9.1260   -10.5280
  908.5000     9.3500     7.2100     2.5110     0.1770    75.8990     9.1360   -10.5030
  909.0000     9.3420     7.1960     2.5180     0.1780    75.0890     9.1460   -10.4790
  909.5000     9.3340     7.1810     2.5260     0.1790    74.5910     9.1550   -10.4540
  910.0000     9.3260     7.1670     2.5400     0.1790    74.0510     9.1600   -10.4300
  910.5000     9.3180     7.1520     2.5590     0.1750    75.3960     9.1600   -10.4050
  911.0000     9.3100     7.1380     2.5590     0.1700    77.4180     9.1610   -10.3810
  911.5000     9.3030     7.1230     2.5430     0.1660    79.4840     9.1720   -10.3680
  912.0000     9.2950     7.1110     2.5370     0.1670    80.8870     9.2130   -10.3590
  912.5000     9.2870     7.1080     2.5370     0.1720    75.1780     9.2530   -10.3510
  913.0000     9.2780     7.1060     2.5350     0.1710    73.3750     9.2920   -10.3420
  913.5000     9.2680     7.1040     2.5300     0.1690    73.4260     9.3170   -10.3330
  914.0000     9.2590     7.1020     2.5280     0.1680    73.5220     9.3170   -10.3240
  914.5000     9.2490     7.1000     2.5330     0.1660    74.4720     9.3170   -10.3150
  915.0000     9.2400     7.0980     2.5390     0.1660    76.8850     9.3170   -10.3060
  915.5000     9.2300     7.0950     2.5390     0.1660    79.3030     9.3170   -10.2970
  916.0000     9.2210     7.0930     2.5380     0.1660    80.9030     9.3170   -10.2880
  916.5000     9.2110     7.0910     2.5380     0.1650    78.5750     9.3140   -10.2790
  917.0000     9.2020     7.0890     2.5370     0.1650    76.8120     9.3100   -10.2700
  917.5000     9.1920     7.0870     2.5330     0.1650    75.2850     9.3060   -10.2610
  918.0000     9.1830     7.0840     2.5280     0.1650    73.7720     9.3020   -10.2520
  918.5000     9.1730     7.0820     2.5280     0.1650    73.8170     9.2990   -10.2430
  919.0000     9.1640     7.0800     2.5280     0.1640    74.0990     9.3010   -10.2340
  919.5000     9.1540     7.0780     2.5270     0.1620    74.5260     9.3140   -10.2250
  920.0000     9.1450     7.0760     2.5260     0.1590    77.9660     9.3270   -10.2170
  920.5000     9.1350     7.0730     2.5240     0.1560    77.3800     9.3370   -10.2080
  921.0000     9.1260     7.0710     2.5210     0.1520    76.7350     9.3360   -10.1990
  921.5000     9.1160     7.0690     2.5190     0.1490    77.0890     9.3310   -10.1900
  922.0000     9.1070     7.0670     2.5170     0.1450    78.7770     9.3130   -10.1800
  922.5000     9.0970     7.0650     2.5160     0.1430    81.5440     9.3000   -10.1680
  923.0000     9.0880     7.0630     2.5150     0.1460    83.2010     9.3200   -10.1460
  923.5000     9.0780     7.0600     2.5170     0.1500    83.6100     9.3330   -10.1240
  924.0000     9.0690     7.0580     2.5220     0.1540    81.5610     9.3060   -10.1030
  924.5000     9.0590     7.0560     2.5310     0.1510    76.9590     9.2800   -10.0810
  925.0000     9.0500     7.0540     2.5340     0.1500    78.2910     9.2550   -10.0600
  925.5000     9.0400     7.0520     2.5350     0.1470    79.5660     9.2390   -10.0380
  926.0000     9.0310     7.0490     2.5350     0.1460    79.2700     9.2390   -10.0170
  926.5000     9.0310     7.0460     2.5350     0.1450    78.0770     9.2390    -9.9950
  927.0000     9.0310     7.0580     2.5340     0.1440    76.8700     9.2390    -9.9730
  927.5000     9.0310     7.0880     2.5340     0.1440    75.6500     9.2390    -9.9520
  928.0000     9.0310     7.1180     2.5480     0.1430    74.6300     9.2370    -9.9300
  928.5000     9.0310     7.1470     2.5520     0.1340    76.6770     9.2320    -9.9090
  929.0000     9.0310     7.1770     2.5380     0.1200    80.7100     9.2280    -9.8870
  929.5000     9.0310     7.2420     2.5350     0.1120    83.7370     9.2240    -9.8660
  930.0000     9.0310     7.3060     2.5380     0.1080    85.7320     9.2190    -9.8440
  930.5000     9.0310     7.3700     2.5460     0.1040    84.5490     9.2220    -9.8220
  931.0000     9.0310     7.4340     2.5500     0.1000    83.0330     9.2260    -9.8010
  931.5000     9.3280     7.5330     2.5380     0.0970    81.5210     9.2300    -9.8110
  932.0000     9.6180     7.6380     2.5190     0.0960    81.2560     9.2340   -10.0110
  932.5000     9.9000     7.7440     2.5090     0.1010    83.5290     9.2380   -10.2100
  933.0000     9.9290     7.8500     2.5040     0.1060    82.2900     9.2390   -10.4070
  933.5000     9.9580     7.8900     2.5030     0.1110    78.5850     9.2390   -10.5780
  934.0000     9.9860     7.9170     2.5030     0.1200    74.5610     9.2390   -10.5300
  934.5000    10.0150     7.9440     2.5030     0.1290    75.6390     9.2390   -10.4840
  935.0000    10.0430     7.9710     2.5030     0.1380    77.4460     9.2390   -10.4390
  935.5000    10.0720     7.9980     2.5030     0.1470    79.7360     9.2380   -10.3940
  936.0000    10.1000     8.0250     2.5030     0.1630    81.8880     9.2660   -10.3710
  936.5000    10.1290     8.0520     2.5190     0.1780    81.6640     9.2980   -10.3630
  937.0000    10.1570     8.0780     2.5250     0.1890    81.4810     9.3290   -10.3560
  937.5000    10.1850     8.1050     2.5250     0.1960    81.3300     9.3990   -10.3480
  938.0000    10.2140     8.1320     2.5260     0.2040    81.5940     9.4730   -10.3400
  938.5000    10.2420     8.1590     2.5430     0.2100    82.7510     9.5500   -10.3330
  939.0000    10.2710     8.1860     2.5390     0.2130    81.7040     9.5610   -10.3250
  939.5000    10.2990     8.2130     2.5380     0.2170    81.2160     9.5570   -10.3170
