~VERSION INFORMATION
 VERS.                2.0:   CWLS LOG ASCII STANDARD - VERSION 2.0
 WRAP.                 NO:   ONE LINE PER DEPTH STEP
~WELL INFORMATION
#MNEM.UNIT      DATA TYPE    INFORMATION
#----------   ------------   ------------------------------
 STRT.F           14.0000:   START DEPTH
 STOP.F         3030.0000:   STOP DEPTH
 STEP.F            0.5000:   STEP LENGTH
 NULL.          -999.2500:   NO VALUE
 COMP. LAWRENCE ALLISON & ASSOC. WEST:   COMPANY
 WELL. LAWRENCE "X" #37-28:   WELL
 FLD .          N.P.R. #3:   FIELD
 LOC .      S28 T39N R78W:   LOCATION
 CNTY.            NATRONA:   COUNTY
 STAT.            WYOMING:   STATE
 CTRY. UNITED STATES OF AMERICA:   COUNTRY
 SRVC.      DRESSER ATLAS:   SERVICE COMPANY
 DATE.        22-SEP-1986:   LOGDATE
 API .     49025111090000:   API NUMBER
~CURVE INFORMATION
#MNEM.UNIT       API CODE    CURVE DESCRIPTION
#----------   ------------   ------------------------------
 DEPT.F                  :   
 GRR .GAPI   07 310 01 00:   GAMMA RAY FROM RESISTIVITY
 SPR .MV     07 010 01 00:   SPONTANEOUS POTENTIAL
 TENR.LBS    07 635 01 00:   TENSION FROM RESISTIVITY
 RILD.OHMM   07 120 46 00:   DEEP INDUCTION RESISTIVITY
 RILM.OHMM   07 120 44 00:   INDUCTION LOG MEDIUM RESISTIVITY
 RFOC.OHMM   07 220 04 00:   RESISTIVITY FOCUSED LOG RES.
 CNC .DEC    42 890 03 00:   NEUTRON PORISITY SANDSTONE
 RHOB.G/C3   45 350 01 00:   BULK DENSITY
 CORR.G/C3   45 356 01 00:   DENSITY CORRECTION
 TEND.LBS    45 635 01 00:   TENSION FROM DENSITY LOG
 CALD.IN     45 280 60 00:   CALIPER FROM DENSITY LOG
~PARAMETER INFORMATION
#MNEM.UNIT          VALUE    DESCRIPTION
#----------   ------------   ------------------------------
 EKB .F         5124.0000:   Kelly bushing
 EGL .F         5113.0000:   Ground level
 EDF .F         5123.0000:   Drilling floor
 TD  .F         3026.0000:   Total depth
 DATE.        22-SEP-1986:   Date logged
 CLNT.            A2DTECH:   Client Code
 SL  . 1097' FSL & 1722' FWL:   Surface Location
 PD  .                 GL:   Permanent Datum
 EPD .F              5113:   Elevation Permanent Datum
 LMF .                 KB:   Log Measured From
 DMF .                 KB:   Drilling Measured From
 DAPD.F                11:   Feet Above Permanent Datum
 DD  .F              3026:   Depth driller
 DL  .F              3023:   Depth logger
 BLI .F              3020:   Bottom log interval
 CS1 .IN            8.625:   Casing size
 CBD1.      8.625" @ 517':   Casing driller 1
 CBL1.F               518:   Casing logger 1
 BS1 .IN            7.875:   Bit size
 BSD1.F              3026:   Depth drilled with bit1
 DFT .            KCL-GEL:   Type fluid in hole
 DFD .                8.6:   Density
 DFV .                 41:   Viscosity
 DFPH.                9.5:   pH
 DFL .                6.8:   Fluid loss
 MSS .           FLOWLINE:   Source of sample
 RMS .OHMM           0.37:   Rm
 MST .F                58:   Rm Meas. temp.
 RMF .OHMM           0.33:   Rmf
 MFST.F                63:   Rmf Meas. temp.
 RMC .OHMM           0.59:   Rmc
 MCST.F                58:   Rmc Meas. temp.
 MFSS.               MEAS:   Source Rmf.
 MCSS.               CALC:   Source Rmc.
 RMB .OHMM           0.16:   Rm. at BHT
 BHT .F               131:   BHT.
 TCS .HRS               3:   Time Circ. stopped
 MRT .F               131:   Maximum recorded temp.
 LUN .            HL 6426:   Logging unit number
 LUL .                 RS:   Logging unit location
 ENGI.               RALL:   Recorded By
 WITN.             STRONG:   Witnessed by
 ORIG.           5" PRINT:   Origin of data
 UWI .     49025111090000:   Unique Well ID
 DICO. A2D TECHNOLOGIES, INC.:   Digitizing Company
~OTHER INFORMATION
~A   DEPT      GRR        SPR       TENR       RILD       RILM       RFOC        CNC       RHOB       CORR       TEND       CALD   
# ...
 2484.5000    98.2140   -24.8930   -38.1140     6.4290     7.0920     7.9700     0.2350     2.5790     0.0120   -48.6890    10.2430
 2485.0000    93.6020   -24.7940   -41.4910     6.4390     7.0920     8.1490     0.2320     2.5920    -0.0190   -49.6540    10.2430
 2485.5000    97.0010   -24.6940   -44.8680     6.4480     7.0920     8.0730     0.2370     2.5750    -0.0310   -50.6190    10.2440
 2486.0000   102.5090   -24.5970   -48.2450     6.4580     7.0920     7.4500     0.2480     2.5470    -0.0270   -51.5850    10.2440
 2486.5000   104.5880   -24.5750   -51.6210     6.4650     7.0920     7.1580     0.2510     2.5310    -0.0140   -52.5500    10.2440
 2487.0000   104.3130   -24.6350   -54.0200     6.4250     7.0920     7.3610     0.2390     2.5390     0.0050   -53.5150    10.2450
 2487.5000   103.5940   -24.6980   -47.0210     6.3930     7.0600     7.5670     0.2260     2.5500     0.0210   -52.0630    10.2450
 2488.0000   103.6300   -24.7570   -41.5940     6.3620     6.9950     7.5670     0.2270     2.5530     0.0220   -50.2990    10.2460
 2488.5000   104.3570   -24.8210   -36.1670     6.3100     6.9300     7.4820     0.2440     2.5520     0.0220   -48.5350    10.2460
 2489.0000   106.6060   -24.8790   -30.7390     6.1920     6.8650     7.2090     0.2520     2.5490     0.0030   -46.7700    10.2470
 2489.5000   108.8000   -24.9430   -23.8690     6.0740     6.7790     6.9990     0.2540     2.5420     0.0020   -45.0060    10.2470
 2490.0000   111.1560   -25.0010   -27.8540     5.9560     6.6470     6.9130     0.2550     2.5400     0.0100   -44.4840    10.2470
 2490.5000   113.2720   -25.0640   -33.2810     5.8380     6.6570     6.8270     0.2560     2.5370     0.0210   -49.7310    10.2480
 2491.0000   111.3250   -25.1240   -38.7080     5.7570     6.6710     6.7880     0.2550     2.5340     0.0270   -54.9780    10.2480
 2491.5000   110.0920   -25.1100   -44.1350     5.6760     6.6840     6.8330     0.2480     2.5310     0.0190   -60.2250    10.2490
 2492.0000   112.1010   -25.0070   -49.5620     5.5960     6.6980     6.8790     0.2470     2.5310     0.0090   -65.4720    10.2490
 2492.5000   111.4760   -24.8860   -54.0200     5.5150     6.7090     6.9250     0.2550     2.5300     0.0020   -70.7190    10.2490
 2493.0000   109.6780   -24.7940   -47.3870     5.4350     6.5810     6.9620     0.2550     2.5260     0.0050   -75.9660    10.2500
 2493.5000   109.8200   -24.6630   -45.5010     5.3540     6.4180     6.9620     0.2500     2.5210    -0.0130   -81.2130    10.2500
 2494.0000   110.2450   -24.5550   -49.3970     5.2740     6.2880     6.9620     0.2470     2.5160    -0.0280   -93.7270    10.2510
 2494.5000   110.4400   -24.5640   -53.2930     5.1950     6.1740     6.7470     0.2430     2.5110    -0.0210   -93.1310    10.2510
 2495.0000   110.0150   -24.6040   -57.1900     5.0970     6.0320     6.5680     0.2400     2.5130    -0.0050   -92.5360    10.2520
 2495.5000   109.6270   -24.6430   -61.0860     4.9990     5.8940     6.4650     0.2440     2.5140     0.0050   -91.9400    10.2520
 2496.0000   110.4930   -24.6560   -64.9830     4.9430     5.8940     6.0240     0.2500     2.5130     0.0000   -91.3450    10.2520
 2496.5000   110.8540   -24.7180   -68.8790     4.9170     5.9020     5.8940     0.2500     2.5210    -0.0030   -90.7490    10.2550
 2497.0000   109.6140   -24.7200   -72.7750     4.8980     5.9200     6.2190     0.2490     2.5270    -0.0050   -90.1540    10.2580
 2497.5000   108.3120   -24.4780   -74.1210     4.9790     5.9380     6.5390     0.2520     2.5330     0.0010   -89.5580    10.2620
 2498.0000   107.3580   -24.2910   -74.1210     5.0350     6.0040     6.5890     0.2530     2.5280     0.0000   -88.9630    10.2650
 2498.5000   106.6650   -24.1300   -74.1210     5.4340     6.5250     6.5250     0.2370     2.5190    -0.0050   -88.3670    10.2690
 2499.0000   106.3930   -23.9530   -74.1210     5.7850     7.0130     6.6470     0.2250     2.5120    -0.0050   -87.7720    10.2730
 2499.5000   104.6490   -23.7500   -74.1210     6.3550     7.3600     7.1870     0.2200     2.5060    -0.0020   -87.1760    10.2760
 2500.0000   100.6280   -23.1410   -74.1210     6.9990     8.3560     7.8830     0.2240     2.4890     0.0010   -86.5810    10.2800
 2500.5000    95.2210   -22.3890   -74.1210     7.6420     9.1280     9.1380     0.2240     2.4680     0.0020   -85.9850    10.2830
 2501.0000    90.4880   -21.4770   -74.1210     8.0730     9.9000    10.7570     0.2150     2.4540     0.0030   -85.3900    10.2870
 2501.5000    88.5830   -20.5620   -74.1210     9.3890    10.6720    12.7070     0.2040     2.4390     0.0060   -84.7940    10.2900
 2502.0000    87.9590   -20.3640   -74.1210    10.6340    11.4940    13.3090     0.1900     2.4370     0.0160   -84.1990    10.2940
 2502.5000    87.2480   -20.3410   -74.1210    11.9460    12.4010    13.0650     0.1800     2.4440     0.0250   -83.8370    10.2980
 2503.0000    86.4900   -20.1500   -74.1210    12.7170    13.1860    13.6840     0.1730     2.4630     0.0180   -83.8370    10.3010
 2503.5000    86.5060   -20.0790   -74.1210    13.3090    13.0650    17.0880     0.1790     2.4960     0.0080   -83.8370    10.3050
 2504.0000    88.1090   -19.9350   -70.3730    13.1860    12.0630    18.7450     0.1890     2.5260     0.0140   -83.8370    10.3080
 2504.5000    90.5760   -19.6880   -66.7190    12.9050    11.5450    16.8400     0.1980     2.5260     0.0230   -83.8370    10.3120
 2505.0000    92.2550   -19.3370   -64.0700    12.5900    11.2240    14.1640     0.2080     2.4920     0.0190   -83.8370    10.3440
 2505.5000    90.7290   -19.0050   -64.0700    12.3740    11.0600    12.4740     0.2170     2.4620     0.0040   -83.8370    10.3890
 2506.0000    88.8850   -18.8860   -64.0700    12.1300    11.0180    12.4810     0.2260     2.4380    -0.0040   -83.8370    10.4340
 2506.5000    89.5990   -18.8910   -64.0700    11.8860    10.9850    12.7070     0.2250     2.4280    -0.0050   -83.8370    10.4570
 2507.0000    90.2750   -18.8960   -63.5420    11.6410    11.0600    12.4320     0.2110     2.4270    -0.0010   -83.8370    10.4610
 2507.5000    88.7090   -18.8770   -62.0150    11.3970    11.0020    12.1320     0.1980     2.4280     0.0030   -83.8370    10.4660
 2508.0000    85.0080   -19.1380   -60.4880    11.1530    10.9410    12.3590     0.1940     2.4350     0.0070   -83.8370    10.4710
 2508.5000    83.9600   -19.4760   -58.9610    10.9580    10.8800    13.9390     0.2040     2.4500     0.0110   -83.8370    10.4750
 2509.0000    88.0670   -19.4320   -57.4340    10.7160    10.8570    14.8730     0.2130     2.4610     0.0060   -76.6200    10.4800
 2509.5000    92.2240   -19.3060   -55.9070    10.5150    10.7890    14.6000     0.2160     2.4620     0.0000   -68.0600    10.4850
 2510.0000    92.7370   -19.2070   -54.3800    10.3660    10.7240    13.1860     0.2150     2.4550     0.0080   -59.5000    10.4890
 2510.5000    91.2160   -19.1060   -52.8530    10.3920    10.6580    10.8200     0.2130     2.4510     0.0130   -53.8470    10.4940
 2511.0000    89.1950   -19.0700   -51.3260    10.4160    10.5920    10.7730     0.2160     2.4500     0.0020   -55.7320    10.4980
 2511.5000    87.9460   -19.1150   -49.7990    10.4410    10.5910    11.0900     0.2150     2.4490    -0.0080   -57.6170    10.5030
 2512.0000    88.7920   -19.4150   -48.2720    10.4620    10.6520    11.5840     0.2110     2.4510    -0.0180   -59.5010    10.5070
 2512.5000    89.4650   -19.7760   -46.7450    10.4790    10.7130    11.7720     0.2040     2.4650     0.0060   -61.3860    10.5120
 2513.0000    88.6850   -20.0760   -45.2180    10.4940    10.7750    12.0210     0.2010     2.4790     0.0310   -63.2710    10.5170
 2513.5000    86.8660   -20.3230   -43.9700    10.5090    10.8360    12.4160     0.2040     2.4930     0.0440   -65.1560    10.5210
 2514.0000    86.0060   -20.3760   -47.0460    10.5240    10.8980    12.8250     0.2070     2.4970     0.0390   -67.0400    10.5260
 2514.5000    88.8340   -20.4260   -49.6470    10.5390    10.9580    12.4660     0.2090     2.4830     0.0190   -68.9250    10.5300
