~VERSION INFORMATION
 VERS.                2.0:   CWLS LOG ASCII STANDARD - VERSION 2.0
 WRAP.                 NO:   ONE LINE PER DEPTH STEP
~WELL INFORMATION
#MNEM.UNIT      DATA TYPE    INFORMATION
#----------   ------------   ------------------------------
 STRT.F          150.0000:   START DEPTH
 STOP.F         2929.0000:   STOP DEPTH
 STEP.F            0.5000:   STEP LENGTH
 NULL.          -999.2500:   NO VALUE
 COMP.    FENIX & SCISSON:   COMPANY
 WELL.    FENIX AX #12-28:   WELL
 FLD .        TEAPOT DOME:   FIELD
 LOC .      S28 T39N R78W:   LOCATION
 CNTY.            NATRONA:   COUNTY
 STAT.            WYOMING:   STATE
 CTRY. UNITED STATES OF AMERICA:   COUNTRY
 SRVC.           BIRDWELL:   SERVICE COMPANY
 DATE.        06-JUN-1978:   LOGDATE
 API .     49025106420000:   API NUMBER
~CURVE INFORMATION
#MNEM.UNIT       API CODE    CURVE DESCRIPTION
#----------   ------------   ------------------------------
 DEPT.F                  :   
 SPR .MV     05 010 01 00:   SPONTANEOUS POTENTIAL
 SN  .OHMM   05 040 16 00:   SHORT NORMAL 16"
 ILD .OHMM   05 120 46 00:   INDUCTION LOG DEEP RESISTIVITY
 RHOB.G/C3   45 350 01 00:   BULK DENSITY
 CORR.G/C3   45 356 01 00:   DENSITY CORRECTION
 GRD .GAPI   45 310 01 00:   GAMMA RAY FROM DENSITY LOG
 CALD.IN     45 280 60 00:   CALIPER FROM DENSITY LOG
~PARAMETER INFORMATION
#MNEM.UNIT          VALUE    DESCRIPTION
#----------   ------------   ------------------------------
 EKB .F         5000.0000:   Kelly bushing
 EGL .F         4990.0000:   Ground level
 EDF .F            0.0000:   Drilling floor
 EPD .F         5005.0000:   Permanent datum
 TD  .F         2911.0000:   Total depth
 DATE.        06-JUN-1978:   Date logged
 CLNT.            A2DTECH:   Client Code
 SL  . 1250' FNL & 225' FWL:   Surface Location
 PD  .                 GL:   Permanent Datum
 LMF .                 KB:   Log Measured From
 DMF .                 KB:   Drilling Measured From
 DAPD.F                10:   Feet Above Permanent Datum
 DD  .F              2911:   Depth driller
 DL  .F              2912:   Depth logger
 BLI .F              2906:   Bottom log interval
 TLI .F               200:   Top log interval
 CS1 .IN            8.625:   Casing size
 CBD1.      8.625" @ 225':   Casing driller 1
 CBL1.F               225:   Casing logger 1
 BS1 .IN            7.875:   Bit size
 BSD1.F              2911:   Depth drilled with bit1
 DFT .       OIL BASE MUD:   Type fluid in hole
 DFD .                9.2:   Density
 DFV .                 35:   Viscosity
 DFPH.               10.5:   pH
 DFL .                  2:   Fluid loss
 TCS .HRS             3.5:   Time Circ. stopped
 LUN .               2958:   Logging unit number
 LUL .               CASP:   Logging unit location
 ENGI.            POINTER:   Recorded By
 WITN.           MCGINLEY:   Witnessed by
 ORIG.           5" PRINT:   Origin of data
 UWI .     49025106420000:   Unique Well ID
 DICO. A2D TECHNOLOGIES, INC.:   Digitizing Company
~OTHER INFORMATION
~A   DEPT      SPR         SN        ILD       RHOB       CORR         GRD      CALD   
# ...
  605.0000   -35.4820     7.8990     6.6390     2.4970     0.0270    79.3690    10.3720
  605.5000   -35.6450     7.9070     6.6390     2.4980     0.0270    79.9530    10.3720
  606.0000   -36.0960     7.8760     6.6390     2.4920     0.0270    80.9680    10.3720
  606.5000   -36.2760     7.8390     6.6390     2.4920     0.0270    81.8750    10.3720
  607.0000   -35.7750     7.8030     6.6390     2.4930     0.0280    81.6240    10.3720
  607.5000   -35.2960     7.7660     6.6390     2.4950     0.0280    81.3890    10.3720
  608.0000   -34.8420     7.7290     6.6390     2.4950     0.0280    81.1590    10.3720
  608.5000   -35.0970     7.6930     6.6390     2.4940     0.0290    80.9280    10.3720
  609.0000   -35.7770     7.6560     6.6390     2.4930     0.0290    80.6970    10.3720
  609.5000   -36.6950     7.6200     6.6390     2.4920     0.0290    80.5270    10.3720
  610.0000   -37.1650     7.5830     6.6390     2.4880     0.0240    80.9380    10.3720
  610.5000   -36.5030     7.5470     6.6390     2.4830     0.0190    81.6460    10.3720
  611.0000   -35.7070     7.5100     6.6390     2.4780     0.0140    83.9560    10.3720
  611.5000   -35.9160     7.4820     6.6390     2.4720     0.0130    86.2650    10.3720
  612.0000   -36.3330     7.4790     6.6320     2.4760     0.0200    88.3100    10.3720
  612.5000   -36.7860     7.4750     6.6230     2.4830     0.0270    87.2720    10.3720
  613.0000   -37.2310     7.4710     6.6140     2.4900     0.0340    86.1850    10.3720
  613.5000   -37.5050     7.4680     6.6050     2.4970     0.0410    85.1100    10.3720
  614.0000   -36.8710     7.4640     6.5970     2.4980     0.0400    84.0820    10.3720
  614.5000   -36.2520     7.4610     6.5880     2.4940     0.0390    84.2990    10.3720
  615.0000   -35.6210     7.4570     6.5790     2.4890     0.0370    84.9460    10.3720
  615.5000   -35.8960     7.4540     6.5710     2.4850     0.0360    85.5840    10.3720
  616.0000   -36.6200     7.4500     6.5620     2.4830     0.0350    86.2260    10.3750
  616.5000   -37.0950     7.4470     6.5530     2.4880     0.0330    86.9570    10.3980
  617.0000   -36.9160     7.4430     6.5440     2.4910     0.0320    83.7230    10.4220
  617.5000   -36.3570     7.4390     6.5360     2.4870     0.0310    82.3490    10.4460
  618.0000   -35.7910     7.4360     6.5270     2.4830     0.0300    85.1430    10.4690
  618.5000   -35.2490     7.4320     6.5180     2.4780     0.0300    84.2000    10.4930
  619.0000   -35.7510     7.4290     6.5100     2.4830     0.0320    84.4420    10.5170
  619.5000   -36.2250     7.4250     6.5010     2.4890     0.0330    87.8920    10.5400
  620.0000   -36.2140     7.4220     6.4920     2.4950     0.0350    88.0320    10.5640
  620.5000   -36.1950     7.4180     6.4830     2.5020     0.0360    87.3820    10.5880
  621.0000   -35.7340     7.4140     6.4750     2.5000     0.0380    86.7340    10.6110
  621.5000   -35.2780     7.4030     6.4660     2.4970     0.0390    86.0760    10.6350
  622.0000   -35.6860     7.3910     6.4570     2.5020     0.0410    85.1180    10.6590
  622.5000   -36.2180     7.3790     6.4490     2.5070     0.0350    83.0740    10.6820
  623.0000   -36.7530     7.3670     6.4400     2.5030     0.0290    81.0860    10.7060
  623.5000   -36.8020     7.3550     6.4310     2.4960     0.0300    79.8810    10.7300
  624.0000   -36.4410     7.3430     6.4220     2.4890     0.0310    80.3620    10.7540
  624.5000   -36.3110     7.3310     6.4140     2.4820     0.0320    81.1170    10.7700
  625.0000   -36.5960     7.3190     6.4050     2.4770     0.0330    81.8750    10.7790
  625.5000   -36.8780     7.3070     6.3960     2.4800     0.0370    82.6220    10.7870
  626.0000   -37.1690     7.2950     6.3880     2.4880     0.0470    83.0610    10.7960
  626.5000   -36.9220     7.2830     6.3790     2.4950     0.0480    81.9160    10.8040
  627.0000   -36.5940     7.2710     6.3700     2.5010     0.0500    82.3040    10.8130
  627.5000   -36.0700     7.2600     6.3610     2.4910     0.0510    82.6640    10.8210
  628.0000   -35.5450     7.2480     6.3530     2.4810     0.0530    82.4820    10.8300
  628.5000   -35.5130     7.2360     6.3440     2.4790     0.0540    81.6760    10.8380
  629.0000   -35.6410     7.2240     6.3350     2.4780     0.0560    80.8510    10.8470
  629.5000   -35.7750     7.2120     6.3270     2.4740     0.0580    80.9510    10.8550
  630.0000   -35.9050     7.2000     6.3180     2.4720     0.0610    81.2870    10.8640
  630.5000   -35.9660     7.1880     6.3090     2.4710     0.0650    81.6280    10.8720
  631.0000   -35.6890     7.1760     6.3000     2.4670     0.0700    81.9810    10.8810
  631.5000   -35.4230     7.1640     6.2920     2.4680     0.0760    81.6390    10.8820
  632.0000   -35.3050     7.1520     6.2830     2.4680     0.0770    81.0460    10.8770
  632.5000   -35.7240     7.1240     6.2920     2.4690     0.0770    80.4310    10.8710
  633.0000   -36.1220     7.0820     6.3030     2.4680     0.0770    80.6650    10.8660
  633.5000   -36.2900     7.0400     6.3140     2.4660     0.0810    81.9050    10.8600
  634.0000   -35.8020     6.9990     6.3250     2.4640     0.0900    81.7360    10.8550
  634.5000   -35.3150     6.9570     6.3390     2.4660     0.0980    81.3350    10.8490
  635.0000   -35.5780     6.9150     6.2760     2.4680     0.1060    80.9540    10.8440
  635.5000   -36.0440     6.8730     6.1700     2.4700     0.1100    81.1130    10.8380
  636.0000   -36.5160     6.8310     6.1110     2.4720     0.1150    83.1960    10.8330
  636.5000   -36.7080     6.7780     6.0060     2.4730     0.1200    85.1970    10.8270
  637.0000   -36.4760     6.7240     5.9070     2.4720     0.1260    84.4350    10.8220
  637.5000   -36.2600     6.6690     5.8360     2.4700     0.1310    84.0690    10.8160
  638.0000   -34.7780     6.6150     5.8960     2.4690     0.1370    83.7040    10.8090
  638.5000   -35.1490     6.5780     5.9420     2.4690     0.1430    83.3530    10.7910
  639.0000   -35.8180     6.8050     5.9880     2.4740     0.1410    82.9940    11.0620
  639.5000   -36.4870     7.0160     6.0000     2.4790     0.1380    83.1800    11.3120
  640.0000   -36.6700     7.0040     6.0000     2.4840     0.1360    83.6770    10.9440
  640.5000   -36.4010     6.9820     6.0560     2.4890     0.1340    83.8620    10.9520
  641.0000   -35.4420     6.9600     6.2820     2.4940     0.1290    83.0360    10.9600
  641.5000   -35.2660     6.9490     6.2730     2.4990     0.1240    82.2460    10.9670
  642.0000   -35.6600     6.9460     6.2520     2.5040     0.1180    81.4570    10.9740
  642.5000   -36.0680     6.9420     6.2310     2.5020     0.1130    80.6640    10.9820
  643.0000   -36.0910     6.9380     6.2100     2.5010     0.1110    79.8850    10.9890
  643.5000   -35.9100     6.9340     6.1890     2.4990     0.1100    79.5960    10.9960
  644.0000   -35.7250     6.9300     6.1680     2.4950     0.1090    80.9200    11.0030
  644.5000   -35.5460     6.9260     6.1460     2.4900     0.1070    82.1880    11.0100
  645.0000   -35.5460     6.9220     6.1250     2.4840     0.1060    83.4530    11.0170
  645.5000   -36.0370     6.9190     6.1040     2.4790     0.1040    84.7200    11.0100
  646.0000   -36.5060     6.9150     6.0830     2.4600     0.1040    85.9950    10.9400
  646.5000   -36.8100     6.9110     6.0620     2.4460     0.1110    87.2900    10.8700
  647.0000   -36.8220     6.9070     6.0410     2.4440     0.1210    86.0220    10.8010
  647.5000   -36.2620     6.9030     6.0190     2.4420     0.1330    84.4070    10.7320
  648.0000   -35.6400     6.8990     5.9980     2.4400     0.1450    84.4060    10.6890
  648.5000   -35.8980     6.8950     5.9770     2.4380     0.1570    85.0720    10.7040
  649.0000   -36.1820     6.8910     5.9450     2.4370     0.1690    84.1390    10.7180
  649.5000   -36.4620     6.8880     5.9710     2.4410     0.1810    83.3660    10.7320
  650.0000   -36.4470     6.9600     6.0260     2.4510     0.1820    82.7380    10.7460
