~VERSION INFORMATION
 VERS.                2.0:   CWLS LOG ASCII STANDARD - VERSION 2.0
 WRAP.                 NO:   ONE LINE PER DEPTH STEP
~WELL INFORMATION
#MNEM.UNIT      DATA TYPE    INFORMATION
#----------   ------------   ------------------------------
 STRT.F            0.5000:   START DEPTH
 STOP.F         5758.0000:   STOP DEPTH
 STEP.F            0.5000:   STEP LENGTH
 NULL.          -999.2500:   NO VALUE
 COMP.   LAWRENCE ALLISON:   COMPANY
 WELL. LAWRENCE "X" #51-10:   WELL
 FLD .          NPR NO. 3:   FIELD
 LOC .      S10 T38N R78W:   LOCATION
 CNTY.            NATRONA:   COUNTY
 STAT.            WYOMING:   STATE
 CTRY. UNITED STATES OF AMERICA:   COUNTRY
 SRVC.      DRESSER ATLAS:   SERVICE COMPANY
 DATE.        31-JAN-1987:   LOGDATE
 API .     49025111230000:   API NUMBER
~CURVE INFORMATION
#MNEM.UNIT       API CODE    CURVE DESCRIPTION
#----------   ------------   ------------------------------
 DEPT.F                  :   
 GRR .GAPI   07 310 01 00:   GAMMA RAY FROM RESISTIVITY
 TENR.LBS    07 635 01 00:   TENSION FROM RESISTIVITY
 SPR .MV     07 010 01 00:   SPONTANEOUS POTENTIAL
 RD  .OHMM   11 220 10 00:   RESISTIVITY DEEP
 RS  .OHMM   11 220 09 00:   RESISTIVITY SHALLOW
 CNC .DEC    42 890 03 00:   NEUTRON POROSITY
 CALD.IN     45 280 60 00:   CALIPER FROM DENSITY LOG
 DEN .G/C3   45 350 01 00:   BULK DENSITY
 CORR.G/C3   45 356 01 00:   DENSITY CORRECTION
 TEND.LBS    45 635 01 00:   TENSION FORM DENSITY LOG
~PARAMETER INFORMATION
#MNEM.UNIT          VALUE    DESCRIPTION
#----------   ------------   ------------------------------
 EKB .F         5227.0000:   Kelly bushing
 EGL .F         5215.0000:   Ground level
 EDF .F            0.0000:   Drilling floor
 TD  .F         5750.0000:   Total depth
 CLNT.            A2DTECH:   Client Code
 SL  . 2356' FEL & 170' FNL:   Surface Location
 PD  .                 GL:   Permanent Datum
 EPD .F              5215:   Elevation Permanent Datum
 LMF .                 KB:   Log Measured From
 DMF .                 KB:   Drilling Measured From
 DAPD.F                12:   Feet Above Permanent Datum
 DATE.        31-JAN-1987:   Date Logged [DD-MMM-YYYY]
 DD  .F              5747:   Depth driller
 DL  .F              5750:   Depth logger
 BLI .F              5748:   Bottom log interval
 CS1 .IN            9.625:   Casing size
 CBD1.      9.625" @ 511':   Casing driller 1
 CBL1.F               512:   Casing logger 1
 BS1 .IN             8.75:   Bit size
 BSD1.F              5747:   Depth drilled with bit1
 DFT .        KCL POLYMER:   Type fluid in hole
 DFD .                9.3:   Density
 DFV .                 43:   Viscosity
 DFPH.                9.5:   pH
 MSS .           FLOWLINE:   Source of sample
 RMS .OHMM          0.247:   Rm
 MST .F                74:   Rm Meas. temp.
 RMF .OHMM          0.162:   Rmf
 MFST.F                74:   Rmf Meas. temp.
 MFSS.               MEAS:   Source Rmf.
 RMC .OHMM          0.310:   Rmc
 MCST.F                74:   Rmc Meas. temp.
 MCSS.               CALC:   Source Rmc.
 RMB .OHMM          0.109:   Rm. at BHT
 BHT .F               167:   BHT.
 TCS .HRS               5:   Time Circ. stopped
 MRT .F               167:   Maximum recorded temp.
 LUN .            HL-6274:   Logging unit number
 LUL .           GILLETTE:   Logging unit location
 ORIG.        2" 5" PRINT:   Origin of data
 UWI .     49025111230000:   Unique Well ID
 DICO. A2D TECHNOLOGIES, INC.:   Digitizing Company
 ENGI.             RAUTIO:   Recorded By
 WITN.             STRONG:   Witnessed by
 DFL .                7.8:   Fluid loss
~OTHER INFORMATION
~A  DEPTH      GRR       TENR        SPR         RD         RS        CNC       CALD        DEN       CORR       TEND
# ...
 3987.0000   110.5706  -105.0000   -78.0299     4.0622     3.2393     0.3082    10.9101     2.1562     0.1476   -84.8369
 3987.5000    99.5861  -115.0000   -78.0181     4.1479     3.5213     0.2927    10.8916     2.2536     0.0495   -77.0249
 3988.0000    92.6870  -115.0000   -77.8514     4.4485     3.8814     0.2710    10.7417     2.3978    -0.0140   -84.3238
 3988.5000    91.1714  -125.0000   -77.5272     5.0354     4.2895     0.2625    10.7408     2.4665     0.0253   -91.5495
 3989.0000    90.5847  -125.0000   -77.3606     5.3595     4.8153     0.2516    10.7702     2.4845     0.0540   -98.7750
 3989.5000    89.6873  -115.0000   -76.8844     5.7439     5.3448     0.2375    10.6937     2.4875     0.0737   -90.8898
 3990.0000    87.8027  -113.6522   -76.2535     6.2417     5.8101     0.2163    10.6020     2.3913    -0.0072   -83.0779
 3990.5000    79.8543  -111.3826   -76.0752     7.4933     6.1859     0.2027    10.4499     2.1709    -0.0803   -90.5720
 3991.0000    74.3140  -109.1130   -75.7626     9.2598     6.6783     0.2012    10.3734     2.1377    -0.1136   -97.5291
 3991.5000    72.4807  -106.8435   -75.5960    10.9328     8.0006     0.2046    10.2510     2.2116    -0.0803   -82.1251
 3992.0000    74.9981  -106.0889   -75.5842    12.0457     9.9923     0.2121    10.0458     2.3264    -0.0289   -74.3130
 3992.5000    79.0874  -111.8889   -75.4177    11.9642     9.7884     0.2128     9.8864     2.4751     0.0134   -81.6119
 3993.0000    80.0166  -115.0000   -75.4056    10.7802     9.0061     0.2037     9.8855     2.5022     0.0300   -96.3564
 3993.5000    76.3420  -135.0000   -75.3912    10.3502     8.3478     0.2009     9.8846     2.5188     0.0406  -103.5819
 3994.0000    72.0401  -135.0000   -75.2246    10.4234     8.4662     0.2012     9.8686     2.5286     0.0451  -103.2155
 3994.5000    67.7382  -135.0000   -75.0580    10.7171     9.0765     0.2107     9.8375     2.4646    -0.0124  -102.9223
 3995.0000    65.2939  -115.0000   -74.8914    10.4262     9.5966     0.2288     9.8214     2.3238    -0.1482  -102.6291
 3995.5000    68.1208  -115.0000   -74.7245     7.9803     9.9429     0.2527     9.8206     2.1432    -0.0817  -102.3309
 3996.0000    75.2740   -95.0000   -74.7102     5.6753     7.3751     0.2618     9.9881     2.1779     0.1102  -102.0301
 3996.5000    81.8080   -95.0000   -75.0109     5.2241     4.5379     0.2627    10.2119     2.3115     0.1948  -101.6763
 3997.0000    81.5309   -75.0000   -75.1539     5.0821     4.4143     0.2594    10.3018     2.3742     0.0739  -101.3832
 3997.5000    79.6957   -75.0000   -75.2941     5.2982     4.7000     0.2570    10.3917     2.4753     0.0256  -101.0899
 3998.0000    77.8806   -75.0000   -75.7437     6.1048     5.5758     0.2643    10.4513     2.5629     0.0150  -100.7968
 3998.5000    78.2308   -75.0000   -75.8897     6.5668     6.2067     0.2752    10.4809     2.5712     0.0060  -100.5037
 3999.0000    79.1921   -75.0000   -76.1875     6.7518     6.2512     0.2799    10.4647     2.5695    -0.0213   -92.6916
 3999.5000    80.7725   -75.0000   -76.1728     6.7527     6.1235     0.2837    10.4789     2.5658    -0.0227   -92.3985
 4000.0000    83.2817   -62.5996   -76.3158     6.5694     5.9542     0.2807    10.4932     2.5604     0.0015   -84.5864
 4000.5000    85.4895   -70.1669   -76.3011     6.5314     5.7552     0.2752    10.4929     2.5543     0.0272   -74.7127
 4001.0000    85.5219   -77.7361   -76.4470     6.4776     5.6377     0.2680    10.5077     2.5520     0.0589   -69.3971
 4001.5000    85.5611   -62.8304   -76.5153     6.4393     5.5611     0.2568    10.5074     2.5542     0.0861   -69.3233
 4002.0000    83.6663   -55.3874   -76.8767     6.5764     5.6012     0.2462    10.5676     2.5715     0.0937   -69.2481
 4002.5000    80.3776   -47.9621   -77.0217     6.9044     5.7600     0.2417    10.6279     2.5881     0.0514   -69.1602
 4003.0000    79.1657   -48.0973   -77.1633     7.3010     6.0061     0.2402    10.7334     2.5971     0.0076   -76.6243
 4003.5000    79.5196   -63.1321   -76.9920     7.5582     6.1764     0.2430    10.7180     2.6072     0.0204   -76.5332
 4004.0000    78.3166   -63.2031   -76.9783     7.6127     6.3516     0.2531    10.6269     2.6189     0.0409   -68.9415
 4004.5000    76.7402   -48.2816   -76.9623     7.7207     6.3974     0.2560    10.5510     2.6267     0.0364   -68.8687
 4005.0000    74.0619   -48.3526   -77.1072     7.9393     6.5468     0.2484    10.4448     2.6359     0.0243   -61.2770
 4005.5000    71.9301   -63.4183   -77.0908     8.2783     6.7653     0.2475    10.4293     2.6207     0.0017   -61.2030
 4006.0000    71.3375   -78.4974   -77.0774     8.6312     7.1062     0.2621    10.4442     2.5905    -0.0013   -53.5942
 4006.5000    74.4778   -78.5684   -77.0611     8.9992     7.4074     0.2639    10.4742     2.5768     0.0078   -61.0401
 4007.0000    76.3982   -63.6468   -77.2060     9.2540     7.7239     0.2627    10.4890     2.5987     0.0531   -68.5042
 4007.5000    76.7246   -63.7181   -77.1895     9.3946     7.7793     0.2623    10.5038     2.6138     0.1045   -68.4132
 4008.0000    77.3792   -56.2926   -77.1763     9.4535     7.8350     0.2681    10.5035     2.6229     0.1166   -75.8773
 4008.5000    81.1298   -48.8674   -77.0051     9.4560     7.8915     0.2772    10.5032     2.6168     0.0909   -75.7862
 4009.0000    83.9516   -48.9561   -76.9919     8.7657     7.9480     0.3009    10.5502     2.5475     0.1408   -68.1945
 4009.5000    87.1700   -49.0271   -76.9787     7.7803     7.4165     0.3102    10.6387     2.4302     0.2254   -68.1203
 4010.0000    89.9136   -50.1051   -76.9655     6.4255     5.8587     0.2415    10.6838     2.3955     0.3619   -68.0305
 4010.5000    87.7818   -64.1793   -77.1071     5.9978     5.1683     0.2249    10.6381     2.3915     0.3306   -67.9577
 4011.0000    84.4117   -86.7391   -76.9391     5.9576     5.1013     0.2221    10.6227     2.4275     0.2127   -75.4036
 4011.5000    80.7319   -94.3063   -77.0807     6.5218     6.1972     0.2342    10.5619     2.4913     0.0282   -75.3307
 4012.0000    76.6936   -94.3778   -76.9095     8.2509     7.3219     0.2570    10.5011     2.5427    -0.0127   -82.7948
 4012.5000    70.9045   -94.4661   -76.5867     9.7428     8.7109     0.2488    10.4843     2.5548    -0.0189   -97.7444
 4013.0000    73.1071   -87.0231   -76.2606    10.7359     9.4694     0.2422    10.4399     2.5532    -0.0175   -97.6684
 4013.5000    76.5480   -94.6081   -76.5570    11.1165     8.8982     0.2352    10.4396     2.5540    -0.0086  -105.1144
 4014.0000    81.8466  -102.1753   -76.7019    10.3057     7.3790     0.2283    10.4393     2.5570     0.0040  -105.0233
 4014.5000    85.9071  -109.7451   -76.8406     9.6864     6.6508     0.2144    10.4390     2.5609     0.0183   -97.4316
 4015.0000    84.4031   -94.8211   -76.8266     9.2952     6.5604     0.1981    10.4387     2.5751     0.0212   -97.3587
 4015.5000    79.1753   -79.8996   -76.8106     9.1699     6.7467     0.1881    10.4384     2.6007     0.0044   -89.7670
 4016.0000    66.8268   -64.9958   -76.6426     9.7982     7.9160     0.1824    10.4381     2.6181    -0.0003   -82.1754
 4016.5000    58.1935   -64.7898   -76.6294    12.5244    10.9715     0.1892    10.4378     2.6264    -0.0020   -74.5837
 4017.0000    54.5138   -57.6416   -76.6161    15.2039    14.1008     0.2014    10.4375     2.6279    -0.0038   -74.5108
 4017.5000    55.7964   -65.2266   -76.5998    16.9870    14.5889     0.2063    10.4372     2.6241     0.0023   -66.1593
 4018.0000    58.9278   -80.2901   -76.5866    18.0874    12.8787     0.2081    10.4218     2.6225     0.0128   -44.2716
 4018.5000    65.7744   -95.3536   -76.5734    16.8799    12.1855     0.2096    10.4820     2.6233     0.0095   -51.7358
 4019.0000    68.2865  -110.4198   -76.5602    15.6477    11.4499     0.2127    10.5725     2.6203     0.0003   -66.7005
 4019.5000    69.5617  -125.4983   -76.7018    14.8094    10.3203     0.2278    10.6327     2.5908    -0.0210   -81.6470
 4020.0000    72.0814  -125.5693   -76.6853    13.5398     8.9845     0.2254    10.6949     2.5508     0.0151   -89.1111
