~VERSION INFORMATION
 VERS.                2.0:   CWLS LOG ASCII STANDARD - VERSION 2.0
 WRAP.                 NO:   ONE LINE PER DEPTH STEP
~WELL INFORMATION
#MNEM.UNIT      DATA TYPE    INFORMATION
#----------   ------------   ------------------------------
 STRT.F          198.0000:   START DEPTH
 STOP.F         3140.0000:   STOP DEPTH
 STEP.F            0.5000:   STEP LENGTH
 NULL.          -999.2500:   NO VALUE
 COMP.    FENIX & SCISSON:   COMPANY
 WELL. FENIX NPR 3 "AX" #43-34:   WELL
 FLD .                NPR:   FIELD
 LOC .      S34 T39N R78W:   LOCATION
 CNTY.            NATRONA:   COUNTY
 STAT.            WYOMING:   STATE
 CTRY. UNITED STATES OF AMERICA:   COUNTRY
 SRVC.              WELEX:   SERVICE COMPANY
 DATE.        02-JUL-1977:   LOGDATE
 API .     49025103890000:   API NUMBER
~CURVE INFORMATION
#MNEM.UNIT       API CODE    CURVE DESCRIPTION
#----------   ------------   ------------------------------
 DEPT.F                  :   
 CALD.IN     45 280 60 00:   CALIPER FROM DENSITY LOG
 GRD .GAPI   45 310 01 00:   GAMMA RAY FROM DENSITY LOG
 RHOB.G/C3   45 350 01 00:   BULK DENSITY
 CORR.G/C3   45 356 01 00:   DENSITY CORRECTION
 SPR .MV     07 010 01 00:   SPONTANEOUS POTENTIAL
 SFLU.OHMM   07 220 01 00:   SPHERICALLY FOCUSED LOG UNAVERAGED RESISTIVITY
 ILD .OHMM   07 120 46 00:   DEEP INDUCTION RESISTIVITY
 ILM .OHMM   07 120 44 00:   INDUCTION LOG MEDIUM RESISTIVITY
~PARAMETER INFORMATION
#MNEM.UNIT          VALUE    DESCRIPTION
#----------   ------------   ------------------------------
 EKB .F         5118.0000:   Kelly bushing
 EGL .F         5108.0000:   Ground level
 TD  .F         3145.0000:   Total depth
 DATE.        02-JUL-1977:   Date logged
 CLNT.            A2DTECH:   Client Code
 SL  . 1650' FNL & 2310' FWL:   Surface Location
 PD  .                 GL:   Permanent Datum
 EPD .F              5108:   Elevation Permanent Datum
 LMF .                 KB:   Log Measured From
 DMF .                 KB:   Drilling Measured From
 DAPD.F                10:   Feet Above Permanent Datum
 DD  .F              3145:   Depth driller
 DL  .F              3143:   Depth logger
 BLI .F              3141:   Bottom log interval
 TLI .F               200:   Top log interval
 CS1 .IN            8.625:   Casing size
 CBD1.      8.625" @ 203':   Casing driller 1
 CBL1.F               224:   Casing logger 1
 BS1 .IN            7.875:   Bit size
 BSD1.F              3145:   Depth drilled with bit1
 DFT .            KCL/MUD:   Type fluid in hole
 DFD .                  9:   Density
 DFV .                 34:   Viscosity
 DFPH.                7.5:   pH
 DFL .                9.2:   Fluid loss
 MSS .           FLOWLINE:   Source of sample
 RMS .OHMM            .18:   Rm
 MST .F                75:   Rm Meas. temp.
 RMF .OHMM            .16:   Rmf
 MFST.F                75:   Rmf Meas. temp.
 RMC .OHMM            .30:   Rmc
 MCST.F                75:   Rmc Meas. temp.
 MFSS.               FANN:   Source Rmf.
 MCSS.                KIT:   Source Rmc.
 RMB .OHMM            .11:   Rm. at BHT
 BHT .F               118:   BHT.
 TCS .HRS            3.75:   Time Circ. stopped
 MRT .F               118:   Maximum recorded temp.
 LUN .               8766:   Logging unit number
 LUL .             CASPER:   Logging unit location
 ENGI.          T. JOYNER:   Recorded By
 WITN.     W. PETTNG/GILL:   Witnessed by
 ORIG.           5" PRINT:   Origin of data
 UWI .     49025103890000:   Unique Well ID
 DICO. A2D TECHNOLOGIES, INC.:   Digitizing Company
~OTHER INFORMATION
~A   DEPT     CALD         GRD        RHOB     CORR        SPR       SFLU        ILD        ILM   
# ...
  967.5000     9.0528   123.8352     2.5007     0.0567   -44.8199     9.7995     8.3647     7.9156
  968.0000     9.0527   121.8500     2.5007     0.0567   -44.8199     9.7973     8.3673     7.6326
  968.5000     9.0525   119.4631     2.5036     0.0567   -44.8199     9.7951     8.3690     7.4960
  969.0000     9.0523   120.2550     2.5076     0.0567   -44.8199     9.7928     8.3716     7.3611
  969.5000     9.0522   120.6496     2.5096     0.0567   -44.8199     9.7906     8.3725     7.2294
  970.0000     9.0520   119.8521     2.5116     0.0567   -44.8199     9.7884     8.2235     7.2316
  970.5000     9.0518   121.0414     2.5046     0.0527   -44.8199     9.7862     8.2252     7.6427
  971.0000     9.0517   121.4360     2.5046     0.0527   -44.8199     9.7840     8.2269     8.0780
  971.5000     8.9720   122.6254     2.5076     0.0527   -44.8199     9.7818     8.2294     8.3811
  972.0000     8.9719   124.2121     2.5116     0.0527   -44.8199     9.7795     8.2320     8.3845
  972.5000     8.9718   122.2225     2.5136     0.0487   -45.2183     9.7773     8.2337     8.3854
  973.0000     8.9716   121.0276     2.5136     0.0487   -45.2183     9.7751     8.2354     8.2362
  973.5000     8.9714   120.6268     2.5116     0.0487   -45.2183     9.7729     8.2371     7.7964
  974.0000     8.9712   121.8168     2.5076     0.0487   -45.2183     9.7707     8.2396     7.6568
  974.5000     8.9709   121.8140     2.5056     0.0447   -45.2183     9.7685     8.2413     7.3822
  975.0000     8.9708   122.6061     2.4986     0.0407   -45.2183     9.7663     8.2439     7.1174
  975.5000     8.9707   124.1929     2.4957     0.0367   -45.2183     9.7640     8.2456     7.1189
  976.0000     8.9705   124.1902     2.4837     0.0367   -45.2183     9.7618     8.2481     7.1218
  976.5000     8.9703   122.5978     2.4837     0.0327   -45.2183     9.7596     8.2498     7.1232
  977.0000     8.9702   121.8002     2.4837     0.0327   -45.2183     9.7574     8.2532     7.1247
  977.5000     8.9700   122.5923     2.4797     0.0287   -45.2183     9.7552     8.2549     7.2582
  978.0000     8.9698   123.3843     2.4777     0.0287   -45.2183     9.7530     8.2566     7.5329
  978.5000     8.9696   124.9713     2.4757     0.0247   -45.2183     9.7508     7.9604     7.6733
  979.0000     8.9695   124.1737     2.4757     0.0247   -45.6167     9.7479     7.9637     7.6765
  979.5000     8.9693   122.1838     2.4777     0.0287   -45.6167     9.7502     7.9653     7.5391
  980.0000     8.9691   121.3861     2.4897     0.0327   -45.6167     9.7524     7.9670     7.4355
  980.5000     8.9690   122.1782     2.4976     0.0366   -45.6167     9.6873     7.9686     7.4041
  981.0000     8.9688   125.7525     2.5026     0.0446   -45.6167     9.6904     7.9719     7.4064
  981.5000     8.9686   124.5574     2.5086     0.0446   -45.6167     9.6924     7.9741     7.4079
  982.0000     8.9685   123.7598     2.5095     0.0486   -46.0151     9.3454     7.9760     7.4109
  982.5000     8.9683   126.5393     2.5095     0.0486   -46.0151     9.6974     7.9782     7.4124
  983.0000     8.9681   125.7416     2.5075     0.0525   -46.0151     9.7005     7.9785     7.4139
  983.5000     8.9680   124.9440     2.5036     0.0525   -46.0151     9.7025     7.9809     7.4155
  984.0000     8.9678   123.7488     2.4976     0.0445   -46.0151     9.7055     7.9834     7.4177
  984.5000     8.9676   122.5536     2.4896     0.0406   -46.0151     9.7075     7.9850     7.4200
  985.0000     8.9674   122.1534     2.4857     0.0405   -46.0151     9.7105     7.9875     7.4223
  985.5000     8.9673   122.9456     2.4807     0.0405   -46.0151     9.5361     7.9891     7.4238
  986.0000     8.9671   122.1478     2.4817     0.0366   -46.0151     9.5391     7.9908     7.2909
  986.5000     9.0464   121.7476     2.4896     0.0445   -46.0151     9.5411     7.9932     7.0292
  987.0000     9.0463   122.9373     2.5036     0.0485   -46.0151     9.5440     7.9965     6.9034
  987.5000     9.0263   124.1270     2.5095     0.0525   -46.0151     9.7227     7.8525     6.7791
  988.0000     9.0261   124.9193     2.5155     0.0564   -46.0151     9.5490     7.7119     6.7811
  988.5000     9.0259   125.3141     2.5175     0.0564   -46.0151     9.5510     7.7135     7.1669
  989.0000     9.0257   126.5039     2.5195     0.0564   -46.0151     9.5540     7.7151     7.3020
  989.5000     9.0255   125.3086     2.5215     0.0564   -46.0151     9.5559     7.7167     7.3035
  990.0000     9.0254   124.9084     2.5215     0.0564   -46.0151     9.5589     7.7198     7.3058
  990.5000     9.0252   125.3031     2.5234     0.0564   -46.0151     9.5609     7.7214     7.1742
  991.0000     9.0251   124.1078     2.5234     0.0524   -46.0151     9.5639     7.7238     7.1757
  991.5000     9.0249   122.5149     2.5195     0.0484   -46.0151     9.5659     7.7254     7.0464
  992.0000     9.0247   123.3073     2.5135     0.0484   -46.0151     9.5689     7.7270     6.9202
  992.5000     9.0245   124.8947     2.5105     0.0444   -46.0151     9.5708     7.7293     6.4317
  993.0000     9.0244   122.9042     2.5075     0.0444   -46.0151     9.5738     7.7317     6.4337
  993.5000     9.0441   123.2990     2.5135     0.0484   -46.0151     9.5758     7.5925     6.6759
  994.0000     9.0638   124.4870     2.5174     0.0524   -46.0151     9.7561     7.4573     6.9280
  994.5000     9.0637   125.2788     2.5164     0.0563   -46.0151     9.7581     7.4580     7.0176
  995.0000     9.0635   126.0718     2.5234     0.0563   -46.0151     9.5838     7.4603     7.0594
  995.5000     9.0633   125.6709     2.5214     0.0523   -46.0151     9.5858     7.4618     7.0608
  996.0000     9.0631   120.8957     2.5194     0.0483   -46.0151     9.5888     7.6026     7.1947
  996.5000     9.0630   122.8849     2.5194     0.0483   -46.0151     9.5908     7.6041     7.1968
  997.0000     9.0628   124.8700     2.5194     0.0483   -46.0151     9.5937     7.6057     7.1984
  997.5000     9.0627   124.0703     2.5194     0.0483   -46.0151     9.5957     7.7484     7.1998
  998.0000     9.0426   119.6959     2.5115     0.0443   -46.0151     9.7764     7.7516     7.0709
  998.5000     9.0226   121.6811     2.5095     0.0443   -46.0151     9.7784     7.8970     6.8163
  999.0000     9.0025   126.0518     2.5055     0.0403   -46.0151     9.6037     8.0460     6.4532
  999.5000     8.9824   126.8432     2.5035     0.0443   -46.0151     9.6057     8.0476     6.4545
 1000.0000     8.9624   127.0283     2.4985     0.0443   -46.0151     9.6087     8.0493     6.4565
 1000.5000     8.9469   128.1720     2.4954     0.0443   -46.0151     9.6116     8.0522     6.4583
 1001.0000     8.9424   128.4294     2.4925     0.0443   -46.0151     9.6059     8.0481     6.4549
 1001.5000     8.9225   130.4161     2.4895     0.0442   -46.0151     9.4299     7.6153     6.4540
 1002.0000     8.9225   130.4148     2.4875     0.0442   -46.4135     9.4278     7.6131     6.4526
 1002.5000     8.9026   128.8231     2.4855     0.0402   -46.4135     9.2551     7.6125     6.4517
 1003.0000     8.8827   128.0267     2.4905     0.0402   -46.4135     9.4243     7.6103     6.4497
 1003.5000     8.8826   128.0254     2.4954     0.0362   -46.4135     9.2517     7.4705     6.4488
 1004.0000     8.8826   126.8315     2.5004     0.0362   -46.4135     9.2496     7.3334     6.4478
 1004.5000     8.8826   125.2399     2.5093     0.0481   -46.4135     9.2489     7.3323     6.4464
 1005.0000     8.8825   126.0338     2.5133     0.0480   -46.4135     8.7511     7.1966     6.6864
 1005.5000     8.8825   123.2496     2.5163     0.0520   -46.0151     8.7498     7.0758     6.9358
 1006.0000     8.8825   123.2484     2.5162     0.0480   -46.0151     8.7479     7.1939     6.9347
 1006.5000     8.8825   124.0423     2.5152     0.0480   -46.0151     8.5876     7.1925     6.9337
 1007.0000     8.8824   124.8362     2.5122     0.0479   -46.0151     9.2394     7.3247     6.9317
 1007.5000     8.8824   126.0276     2.5062     0.0439   -45.6167     9.4091     7.3236     6.9306
