~VERSION INFORMATION
 VERS.                2.0:   CWLS LOG ASCII STANDARD - VERSION 2.0
 WRAP.                 NO:   ONE LINE PER DEPTH STEP
~WELL INFORMATION
#MNEM.UNIT      DATA TYPE    INFORMATION
#----------   ------------   ------------------------------
 STRT.F           22.0000:   START DEPTH
 STOP.F         4228.5000:   STOP DEPTH
 STEP.F            0.5000:   STEP LENGTH
 NULL.          -999.2500:   NO VALUE
 COMP. LAWRENCE ALLISON & ASSOCIATES:   COMPANY
 WELL. LAWRENCE NPR 3 "X" #25-2:   WELL
 FLD .                NPR:   FIELD
 LOC .       S2 T38N R78W:   LOCATION
 CNTY.            NATRONA:   COUNTY
 STAT.            WYOMING:   STATE
 CTRY. UNITED STATES OF AMERICA:   COUNTRY
 SRVC.      DRESSER ATLAS:   SERVICE COMPANY
 DATE.        22-DEC-1985:   LOGDATE
 API .     49025110700000:   API NUMBER
~CURVE INFORMATION
#MNEM.UNIT       API CODE    CURVE DESCRIPTION
#----------   ------------   ------------------------------
 DEPT.F                  :   
 TENS.LBS    60 635 01 00:   TENSION FROM SONIC
 DT  .US/F   60 520 00 00:   DELTA TIME
 SPHI.DEC    60 890 00 00:   SONIC POROSITY
 TENR.LBS    07 635 01 00:   TENSION FROM RESISTIVITY
 CALR.IN     07 280 01 00:   CALIPER FROM RESISTIVITY
 SPR .MV     07 010 01 00:   SPONTANEOUS POTENTIAL
 GRR .GAPI   07 310 01 00:   GAMMA RAY FROM RESISTIVITY
 SFL .OHMM   07 220 01 00:   SHALLOW FOCUSED LOG RESISTIVITY
 ILD .OHMM   07 120 46 00:   DEEP INDUCTION RESISTIVITY
 ILM .OHMM   07 120 44 00:   INDUCTION LOG MEDIUM RESISTIVITY
~PARAMETER INFORMATION
#MNEM.UNIT          VALUE    DESCRIPTION
#----------   ------------   ------------------------------
 EKB .F         5148.0000:   Kelly bushing
 EGL .F         5136.0000:   Ground level
 EDF .F            0.0000:   Drilling floor
 TD  .F         4228.0000:   Total depth
 DATE.        22-DEC-1985:   Date logged
 CLNT.            A2DTECH:   Client Code
 SL  . 1350' FWL & 1968' FSL:   Surface Location
 PD  .                 GL:   Permanent Datum
 DD  .F              4224:   Depth driller
 DL  .F              4228:   Depth logger
 BLI .F              4225:   Bottom log interval
 CS1 .IN            8.625:   Casing size
 CBD1.      8.625" @ 677':   Casing driller 1
 CBL1.F               677:   Casing logger 1
 BS1 .IN            7.875:   Bit size
 DFT .            KCL/GEL:   Type fluid in hole
 DFD .                9.2:   Density
 DFV .                 45:   Viscosity
 DFPH.                8.5:   pH
 DFL .               11.5:   Fluid loss
 MSS .               TANK:   Source of sample
 RMS .OHMM           .256:   Rm
 MST .F                63:   Rm Meas. temp.
 RMF .OHMM           .192:   Rmf
 MFST.F                64:   Rmf Meas. temp.
 RMC .OHMM           .320:   Rmc
 MCST.F                64:   Rmc Meas. temp.
 MFSS.               MEAS:   Source Rmf.
 RMB .OHMM           .119:   Rm. at BHT
 BHT .F               143:   BHT.
 TCS .HRS             4.5:   Time Circ. stopped
 MRT .F               143:   Maximum recorded temp.
 LUN .               6427:   Logging unit number
 LUL .          WILLISTON:   Logging unit location
 ENGI.             MCHUCH:   Recorded By
 WITN.             STRONG:   Witnessed by
 ORIG.           5" PRINT:   Origin of data
 UWI .     49025110700000:   Unique Well ID
 DICO. A2D TECHNOLOGIES, INC.:   Digitizing Company
 DAPD.                 12:   Feet Above Permanent Datum
 BSD1.               4224:   Depth drilled with bit1
 MCSS.               CALC:   Source Rmc.
 EPD .F              5136:   Elevation Permanent Datum
 LMF .                 KB:   Log Measured From
 DMF .                 KB:   Drilling Measured From
~OTHER INFORMATION
~A   DEPT     TENS         DT       SPHI       TENR       CALR        SPR         GRR       SFL        ILD        ILM   
# ...
 4176.0000    64.6850    85.3220     0.2470    64.0580  -999.2500   -54.6300  -999.2500     3.4740     2.3130     2.6640
 4176.5000    64.6850    84.0510     0.2370    64.0580  -999.2500   -54.8990  -999.2500     3.7600     2.2620     2.6530
 4177.0000    74.7080    83.5470     0.2360    64.0580  -999.2500   -55.1710  -999.2500     3.5740     2.2080     2.5090
 4177.5000    85.3130    83.9160     0.2450    74.3600  -999.2500   -55.4410  -999.2500     3.3680     2.1040     2.3960
 4178.0000    95.9190    85.9340     0.2490    90.7110  -999.2500   -55.7100  -999.2500     3.1370     1.9800     2.2220
 4178.5000   106.5250    88.3870     0.2710   107.0620  -999.2500   -55.9760  -999.2500     2.9080     1.8560     2.0350
 4179.0000   117.1300    91.4380     0.2890   123.8780  -999.2500   -56.1880  -999.2500     2.5690     1.7660     1.8470
 4179.5000   127.7360    94.5770     0.3030   127.6470  -999.2500   -56.0640  -999.2500     2.2590     1.7010     1.8040
 4180.0000   138.3410    97.1430     0.3160   132.5520  -999.2500   -55.9470  -999.2500     2.0270     1.6490     1.8150
 4180.5000   140.5890    97.3060     0.3350   133.8480  -999.2500   -55.8320  -999.2500     2.1460     1.6760     1.8960
 4181.0000   130.7790    96.5490     0.3270   133.8480  -999.2500   -55.7160  -999.2500     2.4420     1.7030     1.9760
 4181.5000   120.9690    94.7590     0.3130   133.8480  -999.2500   -55.6000  -999.2500     2.7390     1.7780     2.0320
 4182.0000   116.3740    92.1190     0.2990   127.1440  -999.2500   -55.4830  -999.2500     3.0350     1.9660     2.2640
 4182.5000   121.2790    90.5730     0.2920   121.0120  -999.2500   -55.3670  -999.2500     3.0830     2.1530     2.4750
 4183.0000   126.1840    90.2880     0.2880   114.8800  -999.2500   -55.2550  -999.2500     3.1070     2.3330     2.6860
 4183.5000   131.0890    89.8590     0.2830   119.8050  -999.2500   -54.8690  -999.2500     3.1290     2.6260     2.8980
 4184.0000   135.9940    89.6000     0.2790   126.8120  -999.2500   -54.3440  -999.2500     3.5430     2.9070     3.2140
 4184.5000   140.8990    87.6630     0.2730   133.8480  -999.2500   -53.9250  -999.2500     4.0450     3.1880     3.5530
 4185.0000   144.6050    86.5030     0.2580   139.9550  -999.2500   -53.6800  -999.2500     4.5470     3.3540     3.7260
 4185.5000   145.9310    84.3480     0.2440   146.0870  -999.2500   -53.4240  -999.2500     5.0180     3.4940     3.7600
 4186.0000   147.2050    82.5800     0.2290   152.2180  -999.2500   -52.9920  -999.2500     4.8980     3.5460     3.7490
 4186.5000   148.4790    82.3940     0.2260   153.7890  -999.2500   -52.5440  -999.2500     4.4840     3.6000     3.7300
 4187.0000   149.7530    83.4590     0.2340   153.7890  -999.2500   -52.1970  -999.2500     4.0690     3.6580     3.7100
 4187.5000   151.0280    85.1920     0.2460   153.7890  -999.2500   -51.9360  -999.2500     3.7600     3.6240     3.6900
 4188.0000   152.3020    86.7230     0.2580   153.7890  -999.2500   -51.6660  -999.2500     3.8070     3.5770     3.6710
 4188.5000   153.5760    87.6020     0.2660   153.7890  -999.2500   -51.3970  -999.2500     3.9010     3.5290     3.6510
 4189.0000   154.8500    87.5280     0.2660   157.6120  -999.2500   -51.1270  -999.2500     3.9950     3.4940     3.6270
 4189.5000   156.1240    87.0960     0.2640   163.3830  -999.2500   -50.8610  -999.2500     4.0890     3.5400     3.6980
 4190.0000   157.3980    86.3640     0.2580   169.1540  -999.2500   -50.6710  -999.2500     4.1830     3.5840     3.8130
 4190.5000   158.6720    85.5610     0.2510   173.2670  -999.2500   -50.8120  -999.2500     4.2780     3.6280     3.9270
 4191.0000   159.9460    84.9460     0.2470   171.0370  -999.2500   -50.9460  -999.2500     4.3220     3.6720     3.9800
 4191.5000   161.2200    84.5780     0.2430   168.8070  -999.2500   -51.0790  -999.2500     4.3340     3.7160     3.9910
 4192.0000   162.4940    84.2100     0.2410   166.5780  -999.2500   -51.2140  -999.2500     4.3450     3.7310     4.0020
 4192.5000   163.7680    83.6060     0.2390   164.3480  -999.2500   -51.2650  -999.2500     4.3540     3.7380     4.0100
 4193.0000   167.7820    83.7240     0.2380   169.9810  -999.2500   -51.3050  -999.2500     4.3300     3.7450     3.9990
 4193.5000   176.7010    83.7730     0.2380   178.4390  -999.2500   -51.3440  -999.2500     4.2930     3.7520     3.9890
 4194.0000   185.6190    83.9380     0.2390   186.8960  -999.2500   -51.3830  -999.2500     4.2190     3.7590     3.9800
 4194.5000   194.5370    84.3460     0.2430   195.3540  -999.2500   -51.4220  -999.2500     4.1220     3.7690     3.9730
 4195.0000   203.4560    84.7550     0.2450   203.8110  -999.2500   -51.4420  -999.2500     4.1990     3.7780     4.0090
 4195.5000   212.3740    84.6820     0.2440   212.2680  -999.2500   -51.4420  -999.2500     4.3130     3.7880     4.0370
 4196.0000   221.2920    84.0880     0.2420   215.4850  -999.2500   -51.4430  -999.2500     4.4280     3.8080     4.0640
 4196.5000   222.3950    82.9430     0.2340   217.7150  -999.2500   -51.3870  -999.2500     4.5180     3.8630     4.0920
 4197.0000   219.0540    82.3050     0.4810   219.9450  -999.2500   -51.3000  -999.2500     4.5180     3.9190     4.1200
 4197.5000   215.7120  -999.2500  -999.2500   222.1740  -999.2500   -51.2630  -999.2500     4.5180     3.9750     4.1480
 4198.0000   212.3710  -999.2500  -999.2500   223.1010  -999.2500   -51.3160  -999.2500     4.5340     4.0130     4.2040
 4198.5000   209.0300  -999.2500  -999.2500   221.8090  -999.2500   -51.3660  -999.2500     4.6260     4.0350     4.2180
 4199.0000   205.6880  -999.2500  -999.2500   220.5160  -999.2500   -51.4170  -999.2500     4.7180     4.0560     4.2320
 4199.5000   202.3470  -999.2500  -999.2500   219.2240  -999.2500   -51.3450  -999.2500     4.8180     4.0780     4.2470
 4200.0000   199.0050  -999.2500  -999.2500   217.9310  -999.2500   -51.1620  -999.2500     4.7120     4.0960     4.2610
 4200.5000   195.6640  -999.2500  -999.2500   216.6390  -999.2500   -50.9800  -999.2500     4.5970     4.1190     4.2760
 4201.0000   194.5550  -999.2500  -999.2500   215.3460  -999.2500   -50.7960  -999.2500     4.4810     4.1430     4.2900
 4201.5000   194.5550  -999.2500  -999.2500   214.0540  -999.2500   -50.6130  -999.2500     4.3950     4.1660     4.3050
 4202.0000   194.5550  -999.2500  -999.2500   212.7610  -999.2500   -50.4290  -999.2500     4.4990     4.1900     4.3400
 4202.5000   194.5550  -999.2500  -999.2500   211.4690  -999.2500   -50.2550  -999.2500     4.7530     4.2220     4.4400
 4203.0000   194.5550  -999.2500  -999.2500   210.1760  -999.2500   -50.1830  -999.2500     4.9530     4.2590     4.5520
 4203.5000   194.5550  -999.2500  -999.2500   208.8840  -999.2500   -50.1150  -999.2500     4.8190     4.2970     4.6440
 4204.0000   194.5550  -999.2500  -999.2500   207.5910  -999.2500   -50.0480  -999.2500     4.7310     4.3340     4.6470
 4204.5000   194.5550  -999.2500  -999.2500   206.2990  -999.2500   -49.9800  -999.2500     4.7310     4.3900     4.6600
 4205.0000   194.5550  -999.2500  -999.2500   205.0060  -999.2500   -49.9130  -999.2500     4.7660     4.3650     4.6730
 4205.5000   194.5550  -999.2500  -999.2500   203.6390  -999.2500   -49.8360  -999.2500     4.8620     4.2820     4.6870
 4206.0000   200.4310  -999.2500  -999.2500   211.9410  -999.2500   -49.7220  -999.2500     4.9590     4.1990     4.5370
 4206.5000   209.7680  -999.2500  -999.2500   223.1720  -999.2500   -49.6070  -999.2500     5.0320     4.1160     4.3950
 4207.0000   219.1050  -999.2500  -999.2500   234.4040  -999.2500   -49.4910  -999.2500     4.7740     4.0320     4.3130
 4207.5000   228.4430  -999.2500  -999.2500   245.6360  -999.2500   -49.3840  -999.2500     4.3100     3.9520     4.2230
 4208.0000   237.7800  -999.2500  -999.2500   256.8670  -999.2500   -49.2800  -999.2500     3.7410     3.8790     4.1270
 4208.5000   247.1170  -999.2500  -999.2500   268.0990  -999.2500   -49.1760  -999.2500     3.8390     3.8040     4.1620
 4209.0000   256.4540  -999.2500  -999.2500   279.3300  -999.2500   -49.0720  -999.2500     4.0490     3.8700     4.2080
