~VERSION INFORMATION
 VERS.                2.0:   CWLS LOG ASCII STANDARD - VERSION 2.0
 WRAP.                 NO:   ONE LINE PER DEPTH STEP
~WELL INFORMATION
#MNEM.UNIT      DATA TYPE    INFORMATION
#----------   ------------   ------------------------------
 STRT.F         2185.0000:   START DEPTH
 STOP.F         5688.0000:   STOP DEPTH
 STEP.F            0.5000:   STEP LENGTH
 NULL.          -999.2500:   NO VALUE
 COMP.       FLUOR DANIEL:   COMPANY
 WELL.   FLUOR "X" #53-10:   WELL
 FLD .           N.P.R #3:   FIELD
 LOC .      S10 T38N R78W:   LOCATION
 CNTY.            NATRONA:   COUNTY
 STAT.            WYOMING:   STATE
 CTRY. UNITED STATES OF AMERICA:   COUNTRY
 SRVC.      WESTERN ATLAS:   SERVICE COMPANY
 DATE.        23-MAR-1997:   LOGDATE
 API .     49025228470000:   API NUMBER
~CURVE INFORMATION
#MNEM.UNIT       API CODE    CURVE DESCRIPTION
#----------   ------------   ------------------------------
 DEPT.F                  :   
 CNC .DEC    42 890 03 00:   NEUTRON POROSITY SANDSTONE
 TEND.LBS    45 635 01 00:   TENSION FORM DENSITY LOG
 GRD .GAPI   45 310 01 00:   GAMMA RAY FROM DENSITY LOG
 CALD.IN     45 280 60 00:   CALIPER FROM DENSITY LOG
 ZDEN.G/C3   45 350 01 00:   BULK DENSITY
 ZCOR.G/C3   45 356 01 00:   DENSITY CORRECTION
 PE  .B/E    45 358 01 00:   PHOTOELECTRIC FACTOR
 R4SL.OHMM   07 000 00 00:   RESISTIVITY DEL 4
 R2SL.OHMM   07 000 00 00:   RESISTIVITY DEL 2
~PARAMETER INFORMATION
#MNEM.UNIT          VALUE    DESCRIPTION
#----------   ------------   ------------------------------
 EKB .F         5182.0000:   Kelly bushing
 EGL .F         5172.0000:   Ground level
 EDF .F         5181.0000:   Drilling floor
 EPD .F         5172.0000:   Permanent datum
 TD  .F         5690.0000:   Total depth
 CLNT.            A2DTECH:   Client Code
 SL  . 1183' FNL & 2118' FEL:   Surface Location
 PD  .                 GL:   Permanent Datum
 LMF .                 KB:   Log Measured From
 DMF .                 KB:   Drilling Measured From
 DAPD.F                10:   Feet Above Permanent Datum
 DATE.        23-MAR-1997:   Date Logged [DD-MMM-YYYY]
 DD  .F              5690:   Depth driller
 DL  .F              5688:   Depth logger
 BLI .F              5648:   Bottom log interval
 TLI .F              2200:   Top log interval
 CS1 .IN            9.625:   Casing size
 CBD1.      9.625" @ 446':   Casing driller 1
 CBL1.F               452:   Casing logger 1
 BS1 .IN             8.75:   Bit size
 BSD1.F              5690:   Depth drilled with bit1
 DFT .           GEL CHEM:   Type fluid in hole
 DFD .                9.8:   Density
 DFV .                 66:   Viscosity
 DFPH.                8.5:   pH
 DFL .                8.4:   Fluid loss
 MSS .              CIRC.:   Source of sample
 RMS .OHMM            1.1:   Rm
 MST .F                73:   Rm Meas. temp.
 RMF .OHMM           0.87:   Rmf
 MFST.F                73:   Rmf Meas. temp.
 MFSS.               CALC:   Source Rmf.
 RMC .OHMM           1.35:   Rmc
 MCST.F                73:   Rmc Meas. temp.
 MCSS.               CALC:   Source Rmc.
 RMB .OHMM           0.46:   Rm. at BHT
 BHT .F               174:   BHT.
 TCS .HRS               5:   Time Circ. stopped
 MRT .F               174:   Maximum recorded temp.
 LUN .            HL 6530:   Logging unit number
 LUL .          CASPER WY:   Logging unit location
 ENGI.           BROWNLOW:   Recorded By
 WITN.              HARDY:   Witnessed by
 ORIG.     2.5", 5" PRINT:   Origin of data
 UWI .     49025228470000:   Unique Well ID
 DICO. A2D TECHNOLOGIES, INC.:   Digitizing Company
~OTHER INFORMATION
~A  DEPTH      CNC       TEND        GRD       CALD       ZDEN       ZCOR         PE       R4SL       R2SL
 2185.0000     0.3393  -999.2500  -999.2500  -999.2500  -999.2500  -999.2500  -999.2500  -999.2500  -999.2500
 2185.5000     0.3480  -999.2500  -999.2500  -999.2500  -999.2500  -999.2500  -999.2500  -999.2500  -999.2500
 2186.0000     0.3487  -999.2500  -999.2500  -999.2500  -999.2500  -999.2500  -999.2500  -999.2500  -999.2500
 2186.5000     0.3442  -999.2500  -999.2500  -999.2500  -999.2500  -999.2500  -999.2500  -999.2500  -999.2500
 2187.0000     0.3385  -999.2500  -999.2500  -999.2500  -999.2500  -999.2500  -999.2500  -999.2500  -999.2500
 2187.5000     0.3316  -999.2500  -999.2500  -999.2500  -999.2500  -999.2500  -999.2500  -999.2500  -999.2500
 2188.0000     0.3226  -999.2500  -999.2500  -999.2500  -999.2500  -999.2500  -999.2500  -999.2500  -999.2500
 2188.5000     0.3178  -999.2500  -999.2500  -999.2500  -999.2500  -999.2500  -999.2500  -999.2500  -999.2500
 2189.0000     0.3176  -999.2500  -999.2500  -999.2500  -999.2500  -999.2500  -999.2500  -999.2500  -999.2500
 2189.5000     0.3188  -999.2500  -999.2500  -999.2500  -999.2500  -999.2500  -999.2500  -999.2500  -999.2500
 2190.0000     0.3194  -999.2500  -999.2500  -999.2500  -999.2500  -999.2500  -999.2500  -999.2500  -999.2500
 2190.5000     0.3233  -999.2500  -999.2500  -999.2500  -999.2500  -999.2500  -999.2500  -999.2500  -999.2500
 2191.0000     0.3285  -999.2500  -999.2500  -999.2500  -999.2500  -999.2500  -999.2500  -999.2500  -999.2500
 2191.5000     0.3309  -999.2500  -999.2500  -999.2500  -999.2500  -999.2500  -999.2500  -999.2500  -999.2500
 2192.0000     0.3261  -999.2500  -999.2500  -999.2500  -999.2500  -999.2500  -999.2500  -999.2500  -999.2500
 2192.5000     0.3141  -999.2500  -999.2500  -999.2500  -999.2500  -999.2500  -999.2500  -999.2500  -999.2500
 2193.0000     0.3075  -999.2500  -999.2500  -999.2500  -999.2500  -999.2500  -999.2500  -999.2500  -999.2500
 2193.5000     0.3054  -999.2500  -999.2500  -999.2500  -999.2500  -999.2500  -999.2500  -999.2500  -999.2500
 2194.0000     0.3073  -999.2500  -999.2500  -999.2500  -999.2500  -999.2500  -999.2500  -999.2500  -999.2500
 2194.5000     0.3118  -999.2500  -999.2500  -999.2500  -999.2500  -999.2500  -999.2500  -999.2500  -999.2500
 2195.0000     0.3124  -999.2500  -999.2500  -999.2500  -999.2500  -999.2500  -999.2500  -999.2500  -999.2500
 2195.5000     0.3085  -999.2500  -999.2500  -999.2500  -999.2500  -999.2500  -999.2500  -999.2500  -999.2500
 2196.0000     0.3118  -999.2500  -999.2500  -999.2500  -999.2500  -999.2500  -999.2500  -999.2500  -999.2500
 2196.5000     0.3143  -999.2500  -999.2500  -999.2500  -999.2500  -999.2500  -999.2500  -999.2500  -999.2500
 2197.0000     0.3152  -999.2500  -999.2500  -999.2500  -999.2500  -999.2500  -999.2500  -999.2500  -999.2500
 2197.5000     0.3191  -999.2500  -999.2500  -999.2500  -999.2500  -999.2500  -999.2500  -999.2500  -999.2500
 2198.0000     0.3444  -999.2500  -999.2500  -999.2500  -999.2500  -999.2500  -999.2500  -999.2500  -999.2500
 2198.5000     0.3516  -999.2500  -999.2500  -999.2500  -999.2500  -999.2500  -999.2500  -999.2500  -999.2500
 2199.0000     0.3462  -999.2500  -999.2500  -999.2500  -999.2500  -999.2500  -999.2500  -999.2500  -999.2500
 2199.5000     0.3330  -999.2500  -999.2500  -999.2500  -999.2500  -999.2500  -999.2500  -999.2500  -999.2500
 2200.0000     0.3237  -999.2500    93.9765     9.5339     2.5045     0.0670     3.5779  -999.2500  -999.2500
 2200.5000     0.3216   -48.0472    90.6915     9.5346     2.5130     0.0685     3.5930  -999.2500  -999.2500
 2201.0000     0.3211   -47.9005    93.4290     9.5354     2.5235     0.0700     3.6081  -999.2500  -999.2500
 2201.5000     0.3193   -47.7537    96.1665     9.5361     2.5307     0.0745     3.6232  -999.2500  -999.2500
 2202.0000     0.3156   -55.0822    98.6028     9.5368     2.5360     0.0760     3.6383  -999.2500  -999.2500
 2202.5000     0.3133   -62.4078    99.5330     9.5376     2.5345     0.0670     3.6535  -999.2500  -999.2500
 2203.0000     0.3139   -54.7833    98.3291     9.5383     2.5225     0.0610     3.6536  -999.2500  -999.2500
 2203.5000     0.3149   -47.1599    95.5298     9.5391     2.5090     0.0625     3.6987  -999.2500  -999.2500
 2204.0000     0.3131   -46.9831    91.4871     9.5398     2.5015     0.0686     3.7138  -999.2500  -999.2500
 2204.5000     0.3089   -46.8362    88.5017     9.5406     2.5060     0.0747     3.8348  -999.2500  -999.2500
 2205.0000     0.3032   -39.2156    86.1187     9.5414     2.5150     0.0805     4.0015  -999.2500  -999.2500
 2205.5000     0.2966   -46.5427    84.3381     9.5421     2.5255     0.0790     4.0735  -999.2500  -999.2500
 2206.0000     0.2967   -53.8698    86.1720     9.5429     2.5323     0.0745     4.0737  -999.2500  -999.2500
 2206.5000     0.2979   -61.2335    88.6082     9.5436     2.5353     0.0640     4.1487  -999.2500  -999.2500
 2207.0000     0.2991   -61.0500    89.5318     9.5444     2.5283     0.0506     4.3734  -999.2500  -999.2500
 2207.5000     0.3003   -60.9033    87.7579     9.5451     2.4907     0.0386     4.5532  -999.2500  -999.2500
 2208.0000     0.3025   -60.7565    87.7846     9.5459     2.4755     0.0326     4.6282  -999.2500  -999.2500
 2208.5000     0.3022   -60.6096    87.8534     9.5466     2.4663     0.0416     4.5834  -999.2500  -999.2500
 2209.0000     0.3004   -45.5152    85.7294     9.5474     2.4873     0.0581     4.4937  -999.2500  -999.2500
 2209.5000     0.3004   -30.4185    83.3464     9.5481     2.5091     0.0745     4.3142  -999.2500  -999.2500
 2210.0000     0.2806   -45.2216    81.8477     9.5489     2.5211     0.0745     4.0000  -999.2500  -999.2500
 2210.5000     0.2773   -60.0225    81.9353     9.5496     2.5151     0.0698     3.8355  -999.2500  -999.2500
 2211.0000     0.2764   -59.8391    83.7342     9.5504     2.4963     0.0596     3.7159  -999.2500  -999.2500
 2211.5000     0.2801   -44.7446    84.3633     9.5511     2.4776     0.0581     3.6846  -999.2500  -999.2500
 2212.0000     0.2896   -29.6501    84.6911     9.5519     2.4716     0.0655     3.6713  -999.2500  -999.2500
 2212.5000     0.2981   -29.5034    85.3201     9.5526     2.4754     0.0685     3.7014  -999.2500  -999.2500
 2213.0000     0.3054   -36.8671    88.0576     9.5534     2.4791     0.0625     3.7165  -999.2500  -999.2500
 2213.5000     0.3096   -44.1941    94.1084     9.5542     2.4791     0.0670     3.7166  -999.2500  -999.2500
 2214.0000     0.3054   -44.0106    98.6531     9.5549     2.4784     0.0700     3.7018  -999.2500  -999.2500
 2214.5000     0.3051   -43.8639   102.5954     9.5556     2.4862     0.0596     3.7020  -999.2500  -999.2500
 2215.0000     0.3009   -43.7171   105.0317     9.5564     2.4941     0.0521     3.7021  -999.2500  -999.2500
 2215.5000     0.3043   -51.0463   103.5523     9.5421     2.4911     0.0551     3.7172  -999.2500  -999.2500
 2216.0000     0.3334   -50.8969   101.4705     9.5278     2.4776     0.0566     3.7323  -999.2500  -999.2500
 2216.5000     0.3430   -58.2244    98.7863     9.5287     2.4626     0.0536     3.7624  -999.2500  -999.2500
 2217.0000     0.3476   -58.0717   101.3090     9.5445     2.4439     0.0461     3.7775  -999.2500  -999.2500
 2217.5000     0.3536   -50.4203   111.2059     9.5452     2.4214     0.0491     3.8226  -999.2500  -999.2500
 2218.0000     0.3554   -42.7996   122.0657     9.5459     2.4034     0.0670     3.8396  -999.2500  -999.2500
 2218.5000     0.3440   -42.6529   127.8152     9.5467     2.4064     0.0790     3.9003  -999.2500  -999.2500
 2219.0000     0.3338   -35.0690   124.8298     9.5474     2.4229     0.0820     3.9578  -999.2500  -999.2500
 2219.5000     0.3110   -42.3960   119.7360     9.5482     2.4387     0.0730     4.0029  -999.2500  -999.2500
 2220.0000     0.3071   -57.1602   114.9433     9.5489     2.4469     0.0431     4.0330  -999.2500  -999.2500
 2220.5000     0.3057   -57.0134   113.1627     9.5496     2.4529     0.0412     4.0630  -999.2500  -999.2500
 2221.0000     0.3018   -49.3928   113.4906     9.5504     2.4537     0.0551     4.0782  -999.2500  -999.2500
