~VERSION INFORMATION
 VERS.                2.0:   CWLS LOG ASCII STANDARD - VERSION 2.0
 WRAP.                 NO:   ONE LINE PER DEPTH STEP
~WELL INFORMATION
#MNEM.UNIT      DATA TYPE    INFORMATION
#----------   ------------   ------------------------------
 STRT.F            0.0000:   START DEPTH
 STOP.F         1077.0000:   STOP DEPTH
 STEP.F            0.5000:   STEP LENGTH
 NULL.          -999.2500:   NO VALUE
 COMP.         JOHN BROWN:   COMPANY
 WELL.       JOHN X #66-2:   WELL
 FLD .                NPR:   FIELD
 LOC .       S2 T38N R78W:   LOCATION
 CNTY.            NATRONA:   COUNTY
 STAT.            WYOMING:   STATE
 CTRY. UNITED STATES OF AMERICA:   COUNTRY
 SRVC.     ATLAS WIRELINE:   SERVICE COMPANY
 DATE.        04-DEC-1991:   LOGDATE
 API .     49025224820000:   API NUMBER
~CURVE INFORMATION
#MNEM.UNIT       API CODE    CURVE DESCRIPTION
#----------   ------------   ------------------------------
 DEPT.F                  :   
 TENR.LBS    07 635 01 00:   TENSION
 RILD.OHMM   07 120 46 00:   INDUCTION LOG DEEP RESISTIVITY
 RILM.OHMM   07 120 44 00:   INDUCTION LOG MEDIUM RESISTIVITY
 GRR .GAPI   07 310 01 00:   GAMMA RAY FROM RESISTIVITY
~PARAMETER INFORMATION
#MNEM.UNIT          VALUE    DESCRIPTION
#----------   ------------   ------------------------------
 EKB .F         5189.0000:   Kelly bushing
 EGL .F         5179.0000:   Ground level
 EDF .F         5188.0000:   Drilling floor
 EPD .F         5179.0000:   Permanent datum
 TD  .F         1072.0000:   Total depth
 DATE.        04-DEC-1991:   Date logged
 CLNT.            A2DTECH:   Client Code
 SL  . 1893' FSL & 1937' FEL:   Surface Location
 PD  .                 GL:   Permanent Datum
 LMF .                 KB:   Log Measured From
 DMF .                 KB:   Drilling Measured From
 DAPD.F                10:   Feet Above Permanent Datum
 DD  .F              1072:   Depth driller
 DL  .F              1073:   Depth logger
 BLI .F              1071:   Bottom log interval
 CS1 .IN            9.625:   Casing size
 CBD1.       9.625" @ 40':   Casing driller 1
 CBL1.F                50:   Casing logger 1
 BS1 .IN            7.875:   Bit size
 BSD1.F              1072:   Depth drilled with bit1
 DFT .                AIR:   Type fluid in hole
 LUN .            HL 6387:   Logging unit number
 LUL .             CASPER:   Logging unit location
 WITN.        GARY STRONG:   Witnessed by
 ORIG.         2.5" PRINT:   Origin of data
 UWI .     49025224820000:   Unique Well ID
 DICO. A2D TECHNOLOGIES, INC.:   Digitizing Company
~OTHER INFORMATION
~A    DEPT    TENR       RILD       RILM         GRR  
# ...
  219.0000   -62.9920     4.8190     4.8190   121.4720
  219.5000   -62.9920     4.9880     4.9670   120.0290
  220.0000   -62.9920     5.1420     5.1780   120.2940
  220.5000   -62.9920     5.2960     5.3890   120.6460
  221.0000   -62.9920     5.4490     5.6000   121.1590
  221.5000   -62.9920     5.6030     5.8110   126.3470
  222.0000   -62.9920     5.6730     5.9900   131.0600
  222.5000   -62.9920     5.7340     6.0060   131.4380
  223.0000   -62.9920     5.7870     6.0270   129.8570
  223.5000   -62.9920     5.8400     6.0490   128.2090
  224.0000   -62.9920     5.8930     6.0700   128.2680
  224.5000   -62.9920     5.9460     6.0920   129.2800
  225.0000   -62.9920     5.9990     6.1130   129.7740
  225.5000   -62.9920     6.0520     6.1350   126.6860
  226.0000   -62.9920     6.1050     6.1560   123.7190
  226.5000   -62.9920     6.1580     6.1770   123.1360
  227.0000   -62.9920     6.2110     6.1990   126.4520
  227.5000   -62.9920     6.2640     6.2110   127.5740
  228.0000   -62.9920     6.3250     6.5170   126.7110
  228.5000   -62.9920     6.3660     6.7010   126.3500
  229.0000   -62.9920     6.4150     6.7530   127.4070
  229.5000   -62.9920     6.4640     6.8040   128.2800
  230.0000   -62.9920     6.5120     6.8560   126.0970
  230.5000   -62.9920     6.5610     6.9070   123.7230
  231.0000   -62.9920     6.6100     6.9590   121.8890
  231.5000   -62.9920     6.6590     7.0100   121.2070
  232.0000   -62.9920     6.7070     7.0620   121.0490
  232.5000   -62.9920     6.7560     7.1130   122.4520
  233.0000   -62.9920     6.8050     7.1650   123.7310
  233.5000   -62.9920     6.8540     7.2170   124.9690
  234.0000   -62.9920     6.9250     7.2680   122.6630
  234.5000   -62.9920     6.8600     7.3120   116.9710
  235.0000   -62.9920     6.7420     7.1690   117.6250
  235.5000   -62.9920     6.6250     7.0440   119.7700
  236.0000   -62.9920     6.5070     6.9200   122.0890
  236.5000   -62.9920     6.3890     6.7950   123.6640
  237.0000   -62.9920     6.2710     6.6710   123.0790
  237.5000   -62.9920     6.1530     6.5470   123.3340
  238.0000   -62.9920     5.9900     6.4220   126.0670
  238.5000   -62.9920     6.0090     6.3250   128.7710
  239.0000   -62.9920     6.0400     6.3250   129.3240
  239.5000   -62.9920     6.0710     6.3250   126.4620
  240.0000   -62.9920     6.1020     6.3250   124.4280
  240.5000   -62.9920     6.1330     6.3250   121.7770
  241.0000   -62.9920     6.1630     6.3250   124.2480
  241.5000   -62.9920     6.1940     6.4240   122.1560
  242.0000   -62.9920     6.3260     6.8020   119.9670
  242.5000   -62.9920     6.5730     7.0660   119.3680
  243.0000   -62.9920     6.8200     7.2760   123.7470
  243.5000   -62.9920     7.0670     7.4850   126.5390
  244.0000   -62.9920     7.3130     7.6950   124.3030
  244.5000   -62.9920     7.5820     8.0060   120.1630
  245.0000   -62.9920     7.6900     7.9790   117.5780
  245.5000   -62.9920     7.8090     7.9270   116.3970
  246.0000   -62.9920     8.0060     7.8750   115.4310
  246.5000   -62.9920     7.9610     7.7130   117.0500
  247.0000   -62.9920     7.8310     7.6930   118.2040
  247.5000   -62.9920     7.7010     7.6720   115.8240
  248.0000   -62.9920     7.5710     7.6520   117.0500
  248.5000   -62.9920     7.4410     7.6310   120.9800
  249.0000   -62.9920     7.3110     7.6110   123.7860
  249.5000   -62.9920     7.1800     7.5900   124.2810
  250.0000   -62.9920     7.1600     7.5820   124.9130
  250.5000   -62.9920     7.1260     7.5820   124.9010
  251.0000   -62.9920     7.0930     7.5820   128.5950
  251.5000   -62.9920     7.0590     7.5820   134.8960
  252.0000   -62.9920     7.0250     7.5820   137.7760
  252.5000   -62.9920     6.9910     7.5820   133.0050
  253.0000   -62.9920     6.9580     7.5820   128.6290
  253.5000   -62.9920     6.9250     7.5810   128.5510
  254.0000   -62.9920     6.9650     7.5820   128.5560
  254.5000   -62.9920     7.0280     7.5820   130.1070
  255.0000   -62.9920     7.1800     7.5820   132.4010
  255.5000   -62.9920     7.1660     7.5330   134.7080
  256.0000   -62.9920     7.1330     7.4750   135.7530
  256.5000   -62.9920     7.0990     7.4170   133.5350
  257.0000   -62.9920     7.0660     7.3580   131.3610
  257.5000   -62.9920     7.0330     7.3000   129.3950
  258.0000   -62.9920     7.0000     7.2420   129.5440
  258.5000   -62.9920     6.9670     7.1840   132.1050
  259.0000   -62.9920     6.9330     7.1260   136.3940
  259.5000   -62.9920     6.9000     7.0680   137.7400
  260.0000   -62.9920     6.8670     7.0090   133.9910
  260.5000   -62.9920     6.8340     6.9510   123.6090
  261.0000   -62.9920     6.8010     6.8930   125.5040
  261.5000   -62.9920     6.7680     6.8350   125.2580
  262.0000   -62.9920     6.7340     6.7770   124.0550
  262.5000   -62.9920     6.6780     6.6780   121.3130
  263.0000   -62.9920     6.6840     6.6940   120.1600
  263.5000   -62.9920     6.7010     6.7480   121.6770
  264.0000   -62.9920     6.7200     6.8010   123.4520
  264.5000   -62.9920     6.7380     6.8550   125.1500
  265.0000   -62.9920     6.7560     6.9080   127.0490
  265.5000   -62.9920     6.7740     6.9620   128.5940
  266.0000   -62.9920     6.7930     7.0150   131.5790
  266.5000   -62.9920     6.8110     7.0690   130.6250
  267.0000   -62.9920     6.8290     7.1220   128.6820
  267.5000   -62.9920     6.8470     7.1760   126.6800
  268.0000   -62.9920     6.8660     7.2290   126.8710
  268.5000   -62.9920     6.8840     7.2830   127.8340
  269.0000   -62.9920     6.9020     7.3360   128.9880
  269.5000   -62.9920     6.9200     7.3900   128.6170
  270.0000   -62.9920     7.1430     7.4460   127.2760
  270.5000   -62.9920     7.4310     7.5590   126.3880
  271.0000   -62.9920     7.7180     7.6770   129.2190
  271.5000   -62.9920     8.0060     7.7950   131.6840
  272.0000   -62.9920     8.3010     7.9140   132.9910
  272.5000   -62.9920     8.2440     8.0320   127.1580
  273.0000   -62.9920     8.1860     8.1520   120.8480
  273.5000   -62.9920     8.1280     8.1460   117.9080
  274.0000   -62.9920     8.0700     8.1340   119.9130
  274.5000   -62.9920     8.0110     8.1230   127.9700
  275.0000   -62.9920     7.9530     8.1120   128.3960
  275.5000   -62.9920     7.8950     8.1010   128.6480
  276.0000   -62.9920     7.8370     8.0900   128.5950
  276.5000   -62.9920     7.7780     8.0790   131.6900
  277.0000   -62.9920     7.7200     8.0680   133.3130
  277.5000   -62.9920     7.6620     8.0560   133.2170
  278.0000   -62.9920     7.6040     8.0450   131.7590
  278.5000   -62.9920     7.5820     8.0340   127.2700
  279.0000   -62.9920     7.5710     8.0230   126.9470
  279.5000   -62.9920     7.5450     8.0120   127.5370
  280.0000   -62.9920     7.5190     7.9720   130.0910
  280.5000   -62.9920     7.4920     7.8970   132.6560
  281.0000   -62.9920     7.4660     7.8210   133.9240
  281.5000   -62.9920     7.4400     7.7450   131.1200
  282.0000   -62.9920     7.4140     7.6700   127.6790
  282.5000   -62.9920     7.3880     7.5940   124.2150
  283.0000   -62.9920     7.3620     7.5180   123.6090
  283.5000   -62.9920     7.3360     7.4420   126.2810
  284.0000   -62.9920     7.3120     7.3670   131.0470
  284.5000   -62.9920     7.2260     7.2600   134.0460
  285.0000   -62.9920     7.1460     7.0710   132.9250
  285.5000   -62.9920     7.0650     6.8810   130.6770
  286.0000   -62.9920     6.9850     6.6920   128.4310
  286.5000   -62.9920     6.9050     6.5580   126.1620
  287.0000   -62.9920     6.8250     6.5580   123.9950
  287.5000   -62.9920     6.8000     6.6780   121.6080
  288.0000   -62.9920     6.8000     6.6780   120.8350
  288.5000   -62.9920     6.7630     6.7260   120.0320
  289.0000   -62.9920     6.7290     6.8000   121.5230
  289.5000   -62.9920     6.6950     6.7620   123.1540
  290.0000   -62.9920     6.6780     6.6410   124.8930
  290.5000   -62.9920     6.4760     6.5200   124.7510
  291.0000   -62.9920     6.2960     6.3980   123.8650
  291.5000   -62.9920     6.1160     6.2770   125.7600
