~VERSION INFORMATION
 VERS.                2.0:   CWLS LOG ASCII STANDARD - VERSION 2.0
 WRAP.                 NO:   ONE LINE PER DEPTH STEP
~WELL INFORMATION
#MNEM.UNIT      DATA TYPE    INFORMATION
#----------   ------------   ------------------------------
 STRT.F          204.0000:   START DEPTH
 STOP.F         3040.0000:   STOP DEPTH
 STEP.F            0.5000:   STEP LENGTH
 NULL.          -999.2500:   NO VALUE
 COMP.    FENIX & SCISSON:   COMPANY
 WELL.   FENIX "A" #47-21:   WELL
 FLD .            N P R 3:   FIELD
 LOC .      S21 T39N R78W:   LOCATION
 CNTY.            NATRONA:   COUNTY
 STAT.            WYOMING:   STATE
 CTRY. UNITED STATES OF AMERICA:   COUNTRY
 SRVC.              WELEX:   SERVICE COMPANY
 DATE.        20-JUN-1977:   LOGDATE
 API .     49025103820000:   API NUMBER
~CURVE INFORMATION
#MNEM.UNIT       API CODE    CURVE DESCRIPTION
#----------   ------------   ------------------------------
 DEPT.F                  :   
 SPR .MV     07 010 01 00:   SPONTANEOUS POTENTIAL
 ILM .OHMM   07 120 44 00:   INDUCTION LOG MEDIUM RESISTIVITY
 ILD .OHMM   07 120 46 00:   DEEP INDUCTION RESISTIVITY
 SGRD.OHMM   07 220 05 00:   SHALLOW GUARD LOG RESISTIVITY
 GRD .GAPI   45 310 01 00:   GAMMA RAY FROM DENSITY LOG
 CALD.IN     45 280 60 00:   CALIPER FROM DENSITY LOG
 RHOB.G/C3   45 350 01 00:   BULK DENSITY
 CORR.G/C3   45 356 01 00:   DENSITY CORRECTION
~PARAMETER INFORMATION
#MNEM.UNIT          VALUE    DESCRIPTION
#----------   ------------   ------------------------------
 EKB .F         5010.0000:   Kelly bushing
 EGL .F         5000.0000:   Ground level
 EDF .F            0.0000:   Drilling floor
 TD  .F         3050.0000:   Total depth
 DATE.        20-JUN-1977:   Date logged
 CLNT.            A2DTECH:   Client Code
 SL  . 990' FSL & 2310' FWL:   Surface Location
 PD  .                 GL:   Permanent Datum
 DD  .F              3050:   Depth driller
 DL  .F              3039:   Depth logger
 BLI .F              3037:   Bottom log interval
 CS1 .IN            8.625:   Casing size
 CBD1.      8.625" @ 210':   Casing driller 1
 CBL1.F               215:   Casing logger 1
 BS1 .IN            7.875:   Bit size
 DFT .                KCL:   Type fluid in hole
 DFD .                9.3:   Density
 DFV .                 35:   Viscosity
 DFPH.                7.5:   pH
 DFL .                7.2:   Fluid loss
 MSS .             MUDPIT:   Source of sample
 RMS .OHMM            .22:   Rm
 MST .F                80:   Rm Meas. temp.
 RMF .OHMM            .19:   Rmf
 MFST.F                80:   Rmf Meas. temp.
 RMC .OHMM            .35:   Rmc
 MCST.F                80:   Rmc Meas. temp.
 MFSS.               MEAS:   Source Rmf.
 RMB .OHMM            .15:   Rm. at BHT
 BHT .F               111:   BHT.
 TCS .HRS               4:   Time Circ. stopped
 MRT .F               111:   Maximum recorded temp.
 LUN .               8766:   Logging unit number
 LUL .             CAPSER:   Logging unit location
 ENGI.          T. JOYNER:   Recorded By
 WITN.         PETTINGILL:   Witnessed by
 ORIG.           5" PRINT:   Origin of data
 UWI .     49025103820000:   Unique Well ID
 DICO. A2D TECHNOLOGIES, INC.:   Digitizing Company
 DAPD.                 10:   Feet Above Permanent Datum
 BSD1.               3050:   Depth drilled with bit1
 MCSS.               MEAS:   Source Rmc.
 EPD .               5000:   Elevation Permanent Datum
 LMF .                 KB:   Log Measured From
 DMF .                 KB:   Drilling Measured From
 TLI .                215:   Top log interval
~OTHER INFORMATION
~A   DEPT      SPR        ILM        ILD       SGRD         GRD        CALD       RHOB      CORR  
# ...
  933.0000   -31.7170    11.5900    10.1100    11.9340    72.8340    14.0790     2.4680     0.0090
  933.5000   -31.8060    11.5240    10.0740    11.8380    73.5490    14.1010     2.4670     0.0090
  934.0000   -31.8940    11.4580    10.0390    11.7410    74.4730    14.1280     2.4660     0.0090
  934.5000   -31.9830    11.3920    10.0050    11.6440    75.3780    14.1300     2.4640     0.0090
  935.0000   -32.0720    11.3260     9.9330    11.5480    76.2830    14.1310     2.4630     0.0090
  935.5000   -32.1600    11.2470     9.8640    11.4510    77.2090    14.1420     2.4600     0.0090
  936.0000   -32.2490    11.1170     9.7950    11.3550    77.5470    14.1510     2.4590     0.0090
  936.5000   -32.3380    10.9870     9.7260    11.2730    76.9350    14.1620     2.4570     0.0090
  937.0000   -32.4270    10.8570     9.6570    11.2340    76.4980    14.1690     2.4550     0.0090
  937.5000   -32.5150    10.7280     9.5880    11.1940    76.0410    14.1680     2.4550     0.0090
  938.0000   -32.6040    10.5980     9.5190    11.1540    76.5840    14.1830     2.4560     0.0090
  938.5000   -32.6930    10.4750     9.4490    11.1130    77.1630    14.2090     2.4570     0.0090
  939.0000   -32.7690    10.4590     9.3800    11.0730    77.7360    14.2340     2.4590     0.0090
  939.5000   -32.7690    10.4440     9.3110    11.0330    78.3710    14.2570     2.4600     0.0090
  940.0000   -32.7690    10.4290     9.2810    10.9920    77.7980    14.2830     2.4620     0.0090
  940.5000   -32.7690    10.4140     9.2600    10.9400    76.7620    14.3090     2.4650     0.0080
  941.0000   -32.7690    10.3990     9.2400    10.8680    76.0480    14.3060     2.4670     0.0080
  941.5000   -32.7690    10.3840     9.2190    10.7950    76.6950    14.2420     2.4700     0.0090
  942.0000   -32.7690    10.3690     9.1990    10.7220    77.1950    14.1900     2.4720     0.0090
  942.5000   -32.7690    10.3540     9.1780    10.6690    77.7990    14.1340     2.4730     0.0090
  943.0000   -32.7690    10.3380     9.1580    10.6880    78.3470    14.0910     2.4730     0.0090
  943.5000   -32.7690    10.3230     9.1370    10.7030    78.8710    14.0910     2.4730     0.0090
  944.0000   -32.7690    10.3080     9.1170    10.7180    79.5780    14.0910     2.4740     0.0100
  944.5000   -32.7690    10.2930     9.0960    10.7330    79.5640    14.0900     2.4760     0.0100
  945.0000   -32.7690    10.2780     9.0760    10.7480    78.4400    14.0920     2.4780     0.0100
  945.5000   -32.7690    10.2630     9.0460    10.7630    77.4250    14.0910     2.4790     0.0100
  946.0000   -32.7690    10.2480     9.0570    10.7810    76.3800    14.0820     2.4810     0.0110
  946.5000   -32.7690    10.2330     9.0790    10.8000    75.3290    14.0500     2.4830     0.0110
  947.0000   -32.7690    10.2180     9.1020    10.8200    74.3140    14.0320     2.4860     0.0110
  947.5000   -32.7690    10.2030     9.1250    10.8390    73.2060    14.0020     2.4880     0.0110
  948.0000   -32.7690    10.1800     9.1480    10.8580    73.0170    13.8900     2.4900     0.0120
  948.5000   -32.7690    10.1270     9.1710    10.8820    73.4760    13.7750     2.4920     0.0120
  949.0000   -32.7690    10.0740     9.1940    10.9220    73.8510    13.6420     2.4930     0.0120
  949.5000   -32.7690    10.0050     9.2170    10.9620    74.2760    13.5670     2.4940     0.0120
  950.0000   -32.7690    10.1460     9.2400    11.0030    74.1610    13.5180     2.4960     0.0130
  950.5000   -32.7690    10.3410     9.2620    11.0430    73.6220    13.4990     2.4970     0.0130
  951.0000   -32.7690    10.5370     9.2970    11.0830    73.0810    13.5000     2.4990     0.0130
  951.5000   -32.7720    10.7320     9.2620    11.1240    73.0260    13.5000     2.4990     0.0130
  952.0000   -32.8400    10.9280     9.1870    11.1640    73.6340    13.5000     2.5000     0.0140
  952.5000   -32.9070    11.1230     9.1130    11.2430    74.1830    13.5000     2.5000     0.0140
  953.0000   -32.9740    11.3190     9.0380    11.3280    74.7440    13.5000     2.5000     0.0140
  953.5000   -33.0400    11.5840     8.9630    11.4090    75.3110    13.4990     2.5010     0.0140
  954.0000   -33.1070    11.5690     8.8880    11.4810    75.8710    13.5010     2.5010     0.0140
  954.5000   -33.1730    11.5400     8.7990    11.1790    76.4350    13.4990     2.5020     0.0140
  955.0000   -33.2400    11.5110     8.8160    10.8830    76.9920    13.4930     2.5020     0.0140
  955.5000   -33.3070    11.4810     8.8360    10.5870    77.5710    13.4070     2.5020     0.0140
  956.0000   -33.3730    11.5940     8.8560    10.2850    78.1060    13.3360     2.5030     0.0130
  956.5000   -33.4400    11.7070     8.8770    10.1840    78.6880    13.2580     2.5030     0.0130
  957.0000   -33.5070    11.8020     8.8970    10.0980    79.2940    13.1840     2.5020     0.0130
  957.5000   -33.5730    11.6940     8.9170    10.2510    81.0720    13.1100     2.5010     0.0130
  958.0000   -33.6400    11.1180     8.9370    10.8200    82.1210    13.0290     2.5000     0.0130
  958.5000   -33.7060    10.5120     8.9580    11.5360    80.8960    12.9840     2.4990     0.0120
  959.0000   -33.7680     9.7340     8.9780    12.0200    79.8410    12.9890     2.4960     0.0120
  959.5000   -33.7980     9.8290     8.9980    11.2930    78.6630    12.9880     2.4930     0.0120
  960.0000   -33.8280     9.9620     9.0180    10.5850    77.5760    12.9890     2.4900     0.0120
  960.5000   -33.8570    10.0960     9.0390    10.1910    76.4200    12.9870     2.4870     0.0120
  961.0000   -33.8870    10.2290     9.0920    10.3000    75.9120    12.9900     2.4840     0.0110
  961.5000   -33.9160    10.3620     9.1620    10.3790    76.4200    12.9970     2.4800     0.0110
  962.0000   -33.9460     9.8230     9.2120    10.2270    77.5740    13.1650     2.4770     0.0110
  962.5000   -33.9760     9.8550     9.1780    10.0050    78.6680    13.3260     2.4740     0.0110
  963.0000   -34.0050     9.9040     9.1510    10.0580    79.8330    13.5270     2.4710     0.0110
  963.5000   -34.0350     9.9520     9.1230    10.1760    80.8980    13.5980     2.4700     0.0100
  964.0000   -34.0640    10.0010     9.0960    10.2930    82.1710    13.6930     2.4710     0.0100
  964.5000   -34.0940    10.0490     9.0680    10.4110    82.0780    13.7340     2.4720     0.0100
  965.0000   -34.1240    10.0980     9.0410    10.5290    81.8610    13.7780     2.4740     0.0100
  965.5000   -34.1530    10.0410     9.0140    10.6470    81.5770    13.7970     2.4750     0.0090
  966.0000   -34.1830     9.9850     8.9860    10.7670    81.4930    13.8150     2.4780     0.0090
  966.5000   -34.2120     9.9290     8.9590    10.8580    81.4980    13.8340     2.4820     0.0090
  967.0000   -34.2420     9.8720     8.9310    10.9510    81.4960    13.8540     2.4830     0.0090
  967.5000   -34.2710     9.8160     8.9040    11.0430    81.4960    13.9050     2.4830     0.0090
  968.0000   -34.3010     9.7600     8.8710    11.1360    81.4970    13.9770     2.4820     0.0080
  968.5000   -34.3310     9.7340     8.8020    11.2730    81.4960    14.0150     2.4820     0.0080
  969.0000   -34.3610     9.7340     8.7330    11.1590    81.4960    14.0160     2.4810     0.0080
  969.5000   -34.3630     9.7340     8.6630    10.9330    81.4960    14.0280     2.4820     0.0080
  970.0000   -34.3630     9.7340     8.5940    10.6250    81.4960    14.0380     2.4830     0.0080
  970.5000   -34.3630     9.6570     8.5250    10.3180    81.4960    14.0460     2.4840     0.0080
  971.0000   -34.3630     9.5710     8.4560    10.0740    81.4960    14.0550     2.4850     0.0080
  971.5000   -34.3630     9.4860     8.3870     9.9900    81.4960    14.0310     2.4850     0.0080
  972.0000   -34.3630     9.4000     8.3180     9.9060    81.4980    13.9800     2.4860     0.0080
  972.5000   -34.3630     9.3140     8.2520     9.8220    81.4890    13.9530     2.4870     0.0080
  973.0000   -34.3630     9.2290     8.2210     9.7380    81.5720    13.8910     2.4880     0.0070
