~VERSION INFORMATION
 VERS.                2.0:   CWLS LOG ASCII STANDARD - VERSION 2.0
 WRAP.                 NO:   ONE LINE PER DEPTH STEP
~WELL INFORMATION
#MNEM.UNIT      DATA TYPE    INFORMATION
#----------   ------------   ------------------------------
 STRT.F           89.5000:   START DEPTH
 STOP.F         1300.5000:   STOP DEPTH
 STEP.F            0.5000:   STEP LENGTH
 NULL.          -999.2500:   NO VALUE
 COMP.            US NAVY:   COMPANY
 WELL. US NPR 3 "S" #62-11:   WELL
 FLD .             TEAPOT:   FIELD
 LOC .      S11 T38N R78W:   LOCATION
 CNTY.            NATRONA:   COUNTY
 STAT.            WYOMING:   STATE
 CTRY. UNITED STATES OF AMERICA:   COUNTRY
 SRVC.       SCHLUMBERGER:   SERVICE COMPANY
 DATE.        20-JUL-1964:   LOGDATE
 API .     49025063660000:   API NUMBER
~CURVE INFORMATION
#MNEM.UNIT       API CODE    CURVE DESCRIPTION
#----------   ------------   ------------------------------
 DEPT.F                  :   
 CALS.IN     60 280 50 00:   CALIPER FROM SONIC LOG
 DT  .US/F   60 520 33 00:   DELTA TIME
 SPR .MV     05 010 01 00:   SPONTANEOUS POTENTIAL FROM RES.
 ASN .OHMM   05 041 16 00:   AMPLIFIED SHORT NORMAL 16"
 ILD .OHMM   05 120 46 00:   INDUCTION LOG DEEP
~PARAMETER INFORMATION
#MNEM.UNIT          VALUE    DESCRIPTION
#----------   ------------   ------------------------------
 EKB .F         5223.0000:   Kelly bushing
 EGL .F         5215.0000:   Ground level
 EDF .F            0.0000:   Drilling floor
 TD  .F         1303.0000:   Total depth
 DATE.        20-JUL-1964:   Date logged
 CLNT.            A2DTECH:   Client Code
 PD  .                 GL:   Permanent Datum
 EPD .F              5215:   Elevation Permanent Datum
 LMF .                 KB:   Log Measured From
 DMF .                 KB:   Drilling Measured From
 DAPD.F                 8:   Feet Above Permanent Datum
 DD  .F              1303:   Depth driller
 DL  .F              1300:   Depth logger
 BLI .F              1299:   Bottom log interval
 TLI .F                94:   Top log interval
 CS1 .IN            12.25:   Casing size
 CBD1.       12.25" @ 10':   Casing driller 1
 BS1 .IN               11:   Bit size
 BSD1.F              1303:   Depth drilled with bit1
 DFT .            GEL/OIL:   Type fluid in hole
 DFD .                9.8:   Density
 DFV .                 60:   Viscosity
 DFL .                 10:   Fluid loss
 MSS .           FLOWLINE:   Source of sample
 RMS .OHMM           3.13:   Rm
 MST .F                86:   Rm Meas. temp.
 RMF .OHMM           1.81:   Rmf
 MFST.F                86:   Rmf Meas. temp.
 RMC .OHMM           3.39:   Rmc
 MCST.F                86:   Rmc Meas. temp.
 MFSS.                 FP:   Source Rmf.
 MCSS.                 FP:   Source Rmc.
 TCS .HRS             2.5:   Time Circ. stopped
 LUN .               4507:   Logging unit number
 LUL .               CSPR:   Logging unit location
 ENGI.             DANNER:   Recorded By
 WITN.         JORGENESEN:   Witnessed by
 ORIG.       2", 5" PRINT:   Origin of data
 UWI .     49025063660000:   Unique Well ID
 DICO. A2D TECHNOLOGIES, INC.:   Digitizing Company
~OTHER INFORMATION
~A   DEPT     CALS         DT        SPR        ASN          ILD 
# ...
  455.5000    11.0980    96.7600   -50.1990    14.6130    13.9590
  456.0000    11.0980    96.2960   -50.4690    14.9360    14.2840
  456.5000    11.0670    96.8320   -51.0880    15.2550    14.6380
  457.0000    11.0350    97.3920   -51.5340    15.5780    14.9730
  457.5000    11.0290    97.4920   -51.9570    15.8960    15.3160
  458.0000    11.0340    97.0370   -53.2700    16.2210    15.6600
  458.5000    11.0430    96.5830   -54.4160    16.5370    15.9990
  459.0000    11.0520    96.3010   -54.5800    16.8640    16.3400
  459.5000    11.0600    96.8950   -54.6370    17.1790    16.6870
  460.0000    11.0690    97.1540   -54.7740    17.5070    17.0180
  460.5000    11.0780    97.3420   -55.2460    17.8200    17.3720
  461.0000    11.0860    97.2920   -55.9270    18.1500    17.7090
  461.5000    11.0920    97.0100   -56.1360    18.3940    17.8140
  462.0000    11.0980    96.3890   -56.1290    18.2930    17.7100
  462.5000    11.1040    95.7390   -55.8080    18.1930    17.5970
  463.0000    11.1100    95.0900   -55.2210    18.1110    17.5100
  463.5000    11.1160    94.4410   -55.1910    18.0070    17.4080
  464.0000    11.1220    93.8940   -55.6810    17.9320    17.2580
  464.5000    11.1240    96.1000   -56.1430    17.8280    17.0490
  465.0000    11.1150    98.0980   -56.3850    17.6090    16.8350
  465.5000    11.1050    99.1770   -56.5590    17.3690    16.6480
  466.0000    11.0960   100.2160   -57.1030    17.1660    16.4170
  466.5000    11.0860   100.9010   -57.7760    16.9470    16.2370
  467.0000    11.0770   100.3960   -57.6620    16.7160    16.2440
  467.5000    11.0680    99.0600   -56.8140    16.6050    16.2640
  468.0000    11.0670    97.7250   -55.8620    16.6230    16.2850
  468.5000    11.0670    96.8460   -55.2990    16.5730    16.3110
  469.0000    11.0670    96.8970   -55.4240    16.5610    16.2930
  469.5000    11.0670    97.3530   -55.6960    16.5450    16.3750
  470.0000    11.0640    98.3450   -55.9510    16.4730    16.1640
  470.5000    11.0540    98.9970   -56.1440    16.2490    15.5200
  471.0000    11.0450    99.2200   -55.6580    15.7240    14.7720
  471.5000    11.0360    99.4420   -54.8840    15.3170    13.6190
  472.0000    11.0270    99.9630   -53.9770    14.9310    12.2230
  472.5000    11.0480   100.5870   -52.4890    12.7480    11.0400
  473.0000    11.0700   101.2100   -50.7770    11.9410     9.8200
  473.5000    11.0950   101.8330   -48.7180    10.9460     8.7580
  474.0000    11.1200   102.4570   -46.2160     9.9700     7.6200
  474.5000    11.1450   103.0800   -44.2780     9.1550     6.5530
  475.0000    11.1710   103.7040   -43.2300     8.1250     6.2850
  475.5000    11.1960   104.0180   -42.5740     7.8950     6.1460
  476.0000    11.2020   104.4080   -42.2220     7.5720     5.8960
  476.5000    11.1980   104.5020   -42.1990     7.1920     5.9290
  477.0000    11.1940   104.0250   -42.3430     7.1450     5.9630
  477.5000    11.1900   103.3030   -42.5130     7.0930     5.9820
  478.0000    11.1860   101.7600   -42.6960     7.1760     6.0200
  478.5000    11.1830   100.3000   -42.8540     7.2520     6.0530
  479.0000    11.1840    99.7480   -42.8700     7.2890     6.0450
  479.5000    11.1860    99.6550   -42.8340     7.3240     6.1210
  480.0000    11.1870    99.9510   -42.8340     7.2420     6.2700
  480.5000    11.1890   100.2480   -42.8160     7.1590     6.2940
  481.0000    11.1910   100.5450   -42.8020     7.0820     6.2480
  481.5000    11.1920   100.7530   -42.7940     6.9980     6.2480
  482.0000    11.1940   100.8620   -42.7780     6.9210     6.2290
  482.5000    11.1950   100.9710   -42.7670     6.9320     6.2080
  483.0000    11.1970   101.0810   -42.7530     6.9920     6.2040
  483.5000    11.1980   101.2870   -42.7380     7.0510     6.2170
  484.0000    11.2000   101.5860   -42.7250     7.1080     6.2510
  484.5000    11.2020   101.8850   -42.7100     7.1700     6.2850
  485.0000    11.2020   102.1850   -42.6950     7.2290     6.3140
  485.5000    11.1990   102.4840   -42.6810     7.2360     6.3470
  486.0000    11.1960   102.7830   -42.6660     7.2280     6.3820
  486.5000    11.1930   103.1860   -42.6520     7.1640     6.3520
  487.0000    11.1900   103.7880   -42.6380     7.0660     6.2530
  487.5000    11.1870   103.6420   -42.6230     6.9830     6.1420
  488.0000    11.1840   103.4960   -42.6090     6.8820     6.0330
  488.5000    11.1820   103.3500   -42.5950     6.8010     5.9380
  489.0000    11.1790   103.2040   -42.5800     6.7710     5.8120
  489.5000    11.1760   103.0570   -42.5660     6.7570     5.7150
  490.0000    11.1730   102.9030   -42.5520     6.7820     5.7840
  490.5000    11.1700   102.9680   -42.5360     6.8050     5.9080
  491.0000    11.1670   103.0540   -42.5250     6.8410     6.0040
  491.5000    11.1640   103.3110   -42.5060     6.9560     6.1150
  492.0000    11.1630   103.7880   -42.4990     7.0710     6.2190
  492.5000    11.1630   104.2090   -42.5550     7.1790     6.3290
  493.0000    11.1630   104.2430   -42.6410     7.2860     6.3940
  493.5000    11.1630   104.2780   -42.6640     7.2850     6.4040
  494.0000    11.1630   104.3350   -42.6110     7.2220     6.4760
  494.5000    11.1640   104.4650   -42.5480     7.2040     6.5920
  495.0000    11.1660   104.5050   -42.4910     7.2240     6.6900
  495.5000    11.1710   104.1250   -42.4310     7.2850     6.7980
  496.0000    11.1770   103.6060   -42.3720     7.3980     6.9040
  496.5000    11.1820   102.8080   -42.3130     7.5440     7.0060
  497.0000    11.1880   101.9420   -42.2550     7.6600     7.1160
  497.5000    11.1930   101.0760   -42.1950     7.7150     7.2160
  498.0000    11.1990   100.2100   -42.1360     7.7530     7.3270
  498.5000    11.2040    99.7090   -42.1100     7.7970     7.4260
  499.0000    11.2100    99.3250   -42.1080     7.8510     7.3950
  499.5000    11.2150    98.9420   -42.1110     7.8810     7.2350
  500.0000    11.2210    98.5580   -42.1390     7.8120     7.0520
  500.5000    11.2210    98.2980   -42.1680     7.7050     6.8630
  501.0000    11.2160    98.4870   -42.1900     7.6160     6.6750
  501.5000    11.2100    98.7410   -42.2200     7.5170     6.4940
  502.0000    11.2040    98.9950   -42.2400     7.4220     6.2970
  502.5000    11.1980    99.2490   -42.2720     7.3280     6.2070
  503.0000    11.1920    99.5020   -42.2900     7.2290     6.3080
  503.5000    11.1860    99.7560   -42.1460     7.1390     6.4540
  504.0000    11.1800   100.0100   -41.8090     7.0480     6.5800
  504.5000    11.1740   100.2640   -41.4820     7.0600     6.7170
  505.0000    11.1680   100.5170   -41.3880     7.2200     6.8250
  505.5000    11.1620   100.6010   -41.4780     7.3820     6.8990
  506.0000    11.1560    99.2790   -41.5300     7.5170     6.9700
  506.5000    11.1500    97.8100   -41.4960     7.6750     7.0470
  507.0000    11.1440    96.5970   -41.4520     7.7090     7.1150
  507.5000    11.1380    96.7030   -41.4160     7.5530     7.1930
  508.0000    11.1320    96.5900   -41.3680     7.5370     7.2660
  508.5000    11.1260    95.8960   -41.3400     7.7910     7.2190
  509.0000    11.1200    98.1980   -41.4040     7.8950     7.0670
  509.5000    11.1140    97.5820   -41.5760     7.7420     6.8930
  510.0000    11.1080    97.2840   -41.7560     7.6250     6.7020
  510.5000    11.1280    98.1660   -41.9140     7.5390     6.5950
  511.0000    11.1400    99.0470   -42.1220     7.4300     6.6170
  511.5000    11.1530    99.9290   -42.2710     7.3250     6.6660
  512.0000    11.1670   100.5010   -42.2370     7.1990     6.7110
  512.5000    11.1810   100.0600   -42.1590     7.1650     6.7630
  513.0000    11.1950    99.4380   -42.1120     7.2530     6.8070
  513.5000    11.2090    98.8160   -42.0510     7.3420     6.8580
  514.0000    11.2210    98.1930   -41.9880     7.4520     6.8950
  514.5000    11.2210    97.6980   -41.9230     7.5580     6.8570
  515.0000    11.2210    98.0200   -41.8600     7.6120     6.7610
  515.5000    11.2210    98.6250   -41.8010     7.6700     6.6680
  516.0000    11.2210    99.2300   -41.7200     7.5640     6.5730
