~VERSION INFORMATION
 VERS.                2.0:   CWLS LOG ASCII STANDARD - VERSION 2.0
 WRAP.                 NO:   ONE LINE PER DEPTH STEP
~WELL INFORMATION
#MNEM.UNIT      DATA TYPE    INFORMATION
#----------   ------------   ------------------------------
 STRT.F          448.5000:   START DEPTH
 STOP.F         4490.5000:   STOP DEPTH
 STEP.F            0.5000:   STEP LENGTH
 NULL.          -999.2500:   NO VALUE
 COMP.  FENIX AND SCISSON:   COMPANY
 WELL. FENIX AND SCISSON NPR 3 #11-10:   WELL
 FLD .              NPR-3:   FIELD
 LOC .      S10 T38N R78W:   LOCATION
 CNTY.            NATRONA:   COUNTY
 STAT.            WYOMING:   STATE
 CTRY. UNITED STATES OF AMERICA:   COUNTRY
 SRVC.              WELEX:   SERVICE COMPANY
 DATE.        22-DEC-1978:   LOGDATE
 API .     49025107450000:   API NUMBER
~CURVE INFORMATION
#MNEM.UNIT       API CODE    CURVE DESCRIPTION
#----------   ------------   ------------------------------
 DEPT.F                  :   
 SPR .MV     07 010 01 00:   SPONTANEOUS POTENTIAL
 ILM .OHMM   07 120 44 00:   INDUCTION LOG MEDIUM
 ILD .OHMM   07 120 46 00:   DEEP RESISTIVITY
 SGRD.OHMM   07 220 01 00:   SHALLOW SHORT GUARD RESISTIVITY
 TENR.LBS    07 635 01 00:   TENSION FROM RESISTIVITY
 NPHI.DEC    42 890 03 00:   NEUTRON POROSITY SANDSTONE
 CALD.IN     45 280 60 00:   CALIPER FROM DENSITY LOG
 GRD .GAPI   45 310 01 00:   GAMMA RAY FROM DENSITY LOG
 RHOB.G/C3   45 350 01 00:   BULK DENSITY
 DRHO.G/C3   45 356 01 00:   DENSITY CORRECTION
 TEND.LBS    45 635 01 00:   TENSION FROM DENSITY
~PARAMETER INFORMATION
#MNEM.UNIT          VALUE    DESCRIPTION
#----------   ------------   ------------------------------
 EKB .F         5275.0000:   Kelly bushing
 EGL .F         5265.0000:   Ground level
 EDF .F            0.0000:   Drilling floor
 EPD .F         5265.0000:   Permanent datum
 TD  .F         4500.0000:   Total depth
 DATE.        22-DEC-1978:   Date logged
 CLNT.            A2DTECH:   Client Code
 SL  . 300' FNL & 500' FWL:   Surface Location
 DD  .F              4500:   Depth driller
 DL  .F              4481:   Depth logger
 BLI .F              4479:   Bottom log interval
 TLI .F               450:   Top log interval
 CS1 .IN            8.625:   Casing size
 CBD1.      8.625" @ 500':   Casing driller 1
 CBL1.F               473:   Casing logger 1
 BS1 .IN            7.875:   Bit size
 BSD1.F              4500:   Depth drilled with bit1
 DFT .               LSND:   Type fluid in hole
 DFD .                8.7:   Density
 DFV .                 49:   Viscosity
 DFPH.               11.0:   pH
 DFL .                7.6:   Fluid loss
 MSS .           FLOWLINE:   Source of sample
 RMS .OHMM            1.1:   Rm
 MST .F                86:   Rm Meas. temp.
 RMF .OHMM           0.73:   Rmf
 MFST.F                86:   Rmf Meas. temp.
 RMC .OHMM           1.68:   Rmc
 MCST.F                86:   Rmc Meas. temp.
 MFSS.               CALC:   Source Rmf.
 MCSS.               CALC:   Source Rmc.
 RMB .OHMM           0.72:   Rm. at BHT
 BHT .F               130:   BHT.
 TCS .HRS             3.5:   Time Circ. stopped
 MRT .F               130:   Maximum recorded temp.
 LUN .               9685:   Logging unit number
 LUL .             CASPER:   Logging unit location
 ENGI.            BENTSEN:   Recorded By
 WITN.           DINSMORE:   Witnessed by
 ORIG.           5" PRINT:   Origin of data
 UWI .     49025107450000:   Unique Well ID
 DICO. A2D TECHNOLOGIES, INC.:   Digitizing Company
~OTHER INFORMATION
~A  DEPTH      SPR        ILM        ILD       SGRD       TENR       NPHI       CALD        GRD       RHOB       DRHO       TEND
# ...
  997.5000   -64.9621     5.5038     5.6543     5.7391   588.2911     0.3591    15.8565   100.8346     2.3577     0.0621   958.1184
  998.0000   -64.7995     5.5092     5.6838     5.7444   588.1441     0.3587    15.8737   101.7004     2.4276     0.0412   958.3585
  998.5000   -64.6370     5.5147     5.7301     5.7496   587.9971     0.3574    15.8826   101.7317     2.4810     0.0324   958.5984
  999.0000   -64.6222     5.5201     5.7769     5.7245   587.8502     0.3561    15.8843   101.7577     2.4886     0.0357   958.8384
  999.5000   -64.6074     5.5255     5.8240     5.7612   587.7032     0.3552    15.8859   101.5231     2.4917     0.0389   959.0785
 1000.0000   -64.5938     5.5282     5.8226     5.7500   587.5682     0.3539    15.9069   101.4289     2.4910     0.0406   959.3380
 1000.5000   -64.6638     5.5292     5.8051     5.7362   588.4138     0.3512    15.9386   101.6691     2.4926     0.0319   959.7773
 1001.0000   -64.7286     5.5316     5.8097     5.7372   589.1964     0.3478    15.9517   101.9117     2.4912     0.0352   960.2555
 1001.5000   -64.7933     5.5366     5.7752     5.7846   589.9788     0.3435    15.9333   102.2083     2.4890     0.0370   960.7337
 1002.0000   -64.8178     5.5578     5.7800     5.8184   590.7614     0.3410    15.9045   102.6498     2.4854     0.0372   961.2119
 1002.5000   -64.8821     5.6031     5.7848     5.8241   591.5438     0.3417    15.8756   102.9070     2.4817     0.0374   961.6900
 1003.0000   -65.0190     5.6293     5.7896     5.8299   592.3264     0.3445    15.8467   103.1043     2.4773     0.0377   962.1682
 1003.5000   -65.0607     5.6556     5.8100     5.8549   593.1089     0.3477    15.8277   103.1980     2.4721     0.0379   962.6464
 1004.0000   -65.1447     5.7018     5.8395     5.9032   593.8914     0.3503    15.8147   103.3078     2.4662     0.0382   963.1245
 1004.5000   -65.2816     5.7234     5.8443     5.9286   594.6739     0.3527    15.8017   103.1848     2.4610     0.0385   963.6027
 1005.0000   -65.3037     5.7287     5.8492     5.9345   595.4564     0.3556    15.7888   103.2116     2.4679     0.0387   964.0808
 1005.5000   -65.4310     5.7339     5.8541     5.9403   596.2389     0.3592    15.7908   103.2384     2.4755     0.0390   964.5590
 1006.0000   -65.4140     5.7691     5.8589     5.9462   597.0214     0.3609    15.7928   103.2653     2.4808     0.0392   965.0372
 1006.5000   -65.5451     5.7844     5.8638     5.9520   597.8039     0.3624    15.7949   103.4003     2.4817     0.0379   965.5153
 1007.0000   -65.5281     5.7905     5.8686     5.9579   598.5864     0.3626    15.7970   103.5425     2.4765     0.0352   965.9935
 1007.5000   -65.5110     5.7556     5.8735     5.9236   599.3689     0.3578    15.7991   103.6913     2.4743     0.0340   966.4717
 1008.0000   -65.4933     5.7607     5.8784     5.9292   600.1514     0.3540    15.8029   103.8197     2.4782     0.0342   966.9498
 1008.5000   -65.4756     5.7260     5.8841     5.9348   600.9340     0.3502    15.8205   103.7107     2.4790     0.0345   967.4280
 1009.0000   -65.4578     5.6915     5.8888     5.8995   601.7164     0.3466    15.8354   103.5071     2.4776     0.0347   967.9061
 1009.5000   -65.4400     5.6558     5.8935     5.9051   602.4990     0.3447    15.8440   102.8547     2.4747     0.0350   968.3843
 1010.0000   -65.4222     5.6232     5.8982     5.9109   603.2814     0.3462    15.8696   101.8033     2.4718     0.0368   968.8625
 1010.5000   -65.4044     5.6288     5.8622     5.9167   604.0640     0.3470    15.8759   100.6779     2.4696     0.0385   969.3406
 1011.0000   -65.3867     5.6339     5.8670     5.9218   604.8464     0.3487    15.8888    99.7228     2.4689     0.0448   969.8188
 1011.5000   -65.3689     5.6473     5.8719     5.8801   605.6290     0.3509    15.8909    99.1822     2.4781     0.0586   970.2970
 1012.0000   -65.3511     5.6933     5.8762     5.8435   604.8193     0.3534    15.8872    99.1162     2.4834     0.0755   970.7751
 1012.5000   -65.3333     5.7282     5.8403     5.8072   602.4095     0.3559    15.8801    99.3704     2.4842     0.0938   970.5292
 1013.0000   -65.3156     5.7203     5.8460     5.7837   600.0000     0.3584    15.8619    99.6200     2.4813     0.1136   968.8156
 1013.5000   -65.3757     5.6844     5.8406     5.7608   597.5903     0.3603    15.8175   100.0931     2.4754     0.1334   966.8665
 1014.0000   -65.4281     5.6487     5.8153     5.6995   595.1806     0.3618    15.7964   100.3427     2.4687     0.1563   966.7682
 1014.5000   -65.4104     5.6133     5.8201     5.6641   592.7711     0.3635    15.8067   100.5922     2.4591     0.1731   968.8094
 1015.0000   -65.3926     5.5589     5.8250     5.6480   590.3615     0.3649    15.8418   100.8418     2.4494     0.1839   970.8505
 1015.5000   -65.3748     5.5049     5.8127     5.6327   587.5298     0.3663    15.8997    99.4488     2.4382     0.1887   972.8916
 1016.0000   -65.3570     5.4704     5.7570     5.6201   585.2186     0.3678    15.9442    97.3861     2.4120     0.1905   974.9327
 1016.5000   -65.3393     5.4596     5.6793     5.6257   582.9072     0.3694    15.9773    95.1986     2.3821     0.1967   976.9738
 1017.0000   -65.3187     5.4395     5.6241     5.6053   580.5957     0.3706    16.0104    93.9016     2.3544     0.2015   979.0149
 1017.5000   -65.3016     5.4054     5.5883     5.5979   578.2845     0.3714    16.0210    93.0067     2.3350     0.2048   981.0560
 1018.0000   -65.4328     5.3994     5.5774     5.6034   575.9036     0.3717    16.0113    92.2049     2.3208     0.1975   983.0971
 1018.5000   -65.4157     5.4053     5.5294     5.6100   573.4938     0.3720    16.0102    91.8300     2.3104     0.1737   985.1382
 1019.0000   -65.3985     5.4101     5.5100     5.6153   571.0844     0.3719    15.9976    91.6107     2.3052     0.1498   987.1793
 1019.5000   -65.3807     5.4149     5.5441     5.6206   568.6746     0.3722    15.9996    91.4070     2.3271     0.1139   989.2204
 1020.0000   -65.3481     5.4196     5.5968     5.6259   566.7273     0.3721    16.0017    91.2034     2.3445     0.0871   991.2615
 1020.5000   -65.1970     5.3870     5.6401     5.6312   582.5672     0.3721    16.0037    91.0775     2.3551     0.0723   993.3026
 1021.0000   -65.1825     5.3546     5.6838     5.6367   591.5662     0.3720    15.9907    91.0197     2.3536     0.0756   995.3437
 1021.5000   -65.3096     5.3595     5.7675     5.6422   589.1565     0.3723    15.9778    90.9076     2.3162     0.0894   997.3848
 1022.0000   -65.3328     5.3675     5.7721     5.6478   586.7470     0.3730    15.9799    90.8361     2.2848     0.1017   999.4259
 1022.5000   -65.4697     5.4113     5.7768     5.6594   584.3372     0.3738    15.9820    90.7377     2.2436     0.1124  1001.4670
 1023.0000   -65.6067     5.4491     5.7816     5.7061   588.7803     0.3745    15.9841    90.6524     2.2279     0.1172  1003.5081
 1023.5000   -65.7436     5.4620     5.7864     5.7435   594.5783     0.3742    15.9885    90.3297     2.2264     0.0738  1005.5492
 1024.0000   -65.8133     5.5066     5.8044     5.7721   592.1686     0.3730    16.0060    90.1475     2.2341     0.0364  1007.5903
 1024.5000   -65.7955     5.5628     5.9108     5.8350   598.5330     0.3710    16.0171    90.1744     2.4173     0.0081  1009.6314
 1025.0000   -65.8580     5.6488     6.0783     5.8408   602.4098     0.3687    15.9888    90.2012     2.5000     0.0249  1011.6725
 1025.5000   -65.9081     5.7361     6.2037     5.8636   599.9999     0.3659    15.9176    90.3676     2.4956     0.0296  1013.7136
 1026.0000   -65.8904     5.8247     6.2991     5.9119   597.5903     0.3613    15.8578    90.6319     2.4874     0.0194  1015.7548
 1026.5000   -65.8726     5.9528     6.3791     5.9397   595.1809     0.3532    15.8136    91.0496     2.4928     0.0135  1017.7958
 1027.0000   -65.8548     6.1541     6.5268     6.0390   592.2974     0.3442    15.8117    91.5373     2.4989     0.0154  1019.8369
 1027.5000   -65.8370     6.3616     6.8212     6.2218   589.9856     0.3371    15.8231    92.0249     2.5057     0.0216  1021.8781
