~VERSION INFORMATION
 VERS.                2.0:   CWLS LOG ASCII STANDARD - VERSION 2.0
 WRAP.                 NO:   ONE LINE PER DEPTH STEP
~WELL INFORMATION
#MNEM.UNIT      DATA TYPE    INFORMATION
#----------   ------------   ------------------------------
 STRT.F           32.0000:   START DEPTH
 STOP.F         5116.0000:   STOP DEPTH
 STEP.F            0.5000:   STEP LENGTH
 NULL.          -999.2500:   NO VALUE
 COMP. LAWRENCE ALLISON AND ASSOCIATES:   COMPANY
 WELL. LAWRENCE "X" #11-26:   WELL
 FLD .       N.P.R. NO. 3:   FIELD
 LOC .      S26 T38N R78W:   LOCATION
 CNTY.            NATRONA:   COUNTY
 STAT.            WYOMING:   STATE
 CTRY. UNITED STATES OF AMERICA:   COUNTRY
 SRVC.      DRESSER ATLAS:   SERVICE COMPANY
 DATE.        03-DEC-1984:   LOGDATE
 API .     49025110120000:   API NUMBER
~CURVE INFORMATION
#MNEM.UNIT       API CODE    CURVE DESCRIPTION
#----------   ------------   ------------------------------
 DEPT.F                  :   
 CALD.IN     45 280 60 00:   CALIPER FROM DENSITY LOG
 TEND.LBS    45 635 01 00:   TENSION FORM DENSITY LOG
 CORR.G/C3   45 356 01 00:   DENSITY CORRECTION
 DEN .G/C3   45 350 01 00:   BULK DENSITY
 NPHI.DEC    42 890 03 00:   NEUTRON POROSITY SANDSTONE
 GRR .GAPI   07 310 01 00:   GAMMA RAY FROM RESISTIVITY
 SPR .MV     07 010 01 00:   SPONTANEOUS POTENTIAL
 CALR.IN     07 280 01 00:   CALIPER FROM RESISTIVITY
 TENR.LBS    07 635 01 00:   TENSION FROM RESISTIVITY
 RILD.OHMM   07 120 46 00:   INDUCTION LOG DEEP RESISTIVITY
 RILM.OHMM   07 120 44 00:   INDUCTION LOG MEDIUM RESISTIVITY
 RFOC.OHMM   07 220 04 00:   RESISTIVITY FOCUSED LOG RES.
 TENS.LBS    60 635 01 00:   TENSION FROM SONIC
 DT  .US/F   60 520 00 00:   DELTA TIME
~PARAMETER INFORMATION
#MNEM.UNIT          VALUE    DESCRIPTION
#----------   ------------   ------------------------------
 EKB .F         5321.0000:   Kelly bushing
 EGL .F         5309.0000:   Ground level
 EDF .F         5320.0000:   Drilling floor
 TD  .F         5104.0000:   Total depth
 CLNT.            A2DTECH:   Client Code
 SL  . 509' FWL & 22' FNL:   Surface Location
 PD  .                 GL:   Permanent Datum
 EPD .F              5309:   Elevation Permanent Datum
 LMF .                 KB:   Log Measured From
 DMF .                 KB:   Drilling Measured From
 DAPD.F                12:   Feet Above Permanent Datum
 DATE.        03-DEC-1984:   Date Logged [DD-MMM-YYYY]
 DD  .F              5100:   Depth driller
 DL  .F              5104:   Depth logger
 BLI .F              5102:   Bottom log interval
 TLI .F              1400:   Top log interval
 CS1 .IN            9.625:   Casing size
 CBD1.     9.625' @ 1657':   Casing driller 1
 CBL1.F              1652:   Casing logger 1
 BS1 .IN            7.875:   Bit size
 DFT .            KCL GEL:   Type fluid in hole
 DFD .                90.:   Density
 DFV .                 41:   Viscosity
 DFPH.                8.9:   pH
 DFL .               12.6:   Fluid loss
 MSS .           FLOWLINE:   Source of sample
 RMS .OHMM           .327:   Rm
 MST .F                84:   Rm Meas. temp.
 RMF .OHMM            .29:   Rmf
 MFST.F                84:   Rmf Meas. temp.
 MFSS.               CALC:   Source Rmf.
 RMC .OHMM            .42:   Rmc
 MCST.F                84:   Rmc Meas. temp.
 MCSS.               CALC:   Source Rmc.
 RMB .OHMM            .23:   Rm. at BHT
 BHT .F               142:   BHT.
 TCS .HRS               4:   Time Circ. stopped
 MRT .F               142:   Maximum recorded temp.
 LUN .               6307:   Logging unit number
 LUL .               CLTE:   Logging unit location
 WITN.             STRONG:   Witnessed by
 ORIG.           5" PRINT:   Origin of data
 UWI .     49025110120000:   Unique Well ID
 DICO. A2D TECHNOLOGIES, INC.:   Digitizing Company
~OTHER INFORMATION
~A  DEPTH     CALD       TEND       CORR        DEN       NPHI        GRR        SPR       CALR       TENR       RILD       RILM       RFOC       TENS         DT
# ...
 5054.5000     7.6362   109.6245     0.1057     2.5147     0.2697  -999.2500   -32.2552  -999.2500   270.7284     3.0930     3.2602     3.8083   279.7455    85.5489
 5055.0000     7.6389   116.1893     0.0895     2.5193     0.2705  -999.2500   -32.2422  -999.2500   263.5075     3.0917     3.2567     3.8620   278.5290    85.3130
 5055.5000     7.6548   115.1876     0.0702     2.5269     0.2705  -999.2500   -31.9281  -999.2500   271.3734     3.0903     3.2374     3.8894   277.0963    84.7773
 5056.0000     7.6573   114.0315     0.0659     2.5413     0.2695  -999.2500   -31.9151  -999.2500   279.1672     3.0891     3.1927     3.8098   283.7200    84.9163
 5056.5000     7.6603   120.8307     0.0842     2.5443     0.2662  -999.2500   -31.6009  -999.2500   279.4539     3.0879     3.1706     3.6553   290.0498    85.7299
 5057.0000     7.6624   119.6318     0.0646     2.5346     0.2652  -999.2500   -31.5847  -999.2500   294.7555     3.0649     3.1268     3.5069   303.8871    86.6934
 5057.5000     7.6653   126.1918     0.0742     2.5212     0.2658  -999.2500   -31.5717  -999.2500   310.0600     3.0217     3.1050     3.3645   324.9381    87.0577
 5058.0000     7.6678   125.2330     0.0713     2.5093     0.2651  -999.2500   -31.5588  -999.2500   325.4302     2.9584     3.1049     3.3186   331.5618    86.5965
 5058.5000     7.6554   124.2742     0.0639     2.5027     0.2597  -999.2500   -31.5467  -999.2500   325.7168     2.9164     3.1048     3.4841   307.5678    85.6037
 5059.0000     7.6728   123.3145     0.0584     2.5118     0.2579  -999.2500   -31.5328  -999.2500   310.9166     2.8475     3.1047     3.7088   283.8676    84.7454
 5059.5000     7.6753   130.1147     0.0541     2.5172     0.2587  -999.2500   -31.5196  -999.2500   311.2751     2.7668     3.1046     3.8668   274.1190    83.7873
 5060.0000     7.6622   136.4345     0.0484     2.5210     0.2620  -999.2500   -31.3530  -999.2500   311.5616     2.6805     3.1045     3.7878   296.5273    84.3010
 5060.5000     7.6498   135.4747     0.0456     2.5220     0.2656  -999.2500   -31.1895  -999.2500   319.4273     2.5704     3.0829     3.5274   317.8721    85.0397
 5061.0000     7.6529   134.5112     0.0504     2.5040     0.2686  -999.2500   -30.8753  -999.2500   327.2214     2.4819     3.0194     3.4384   324.8888    85.1064
 5061.5000     7.6404   141.0759     0.0656     2.4755     0.2696  -999.2500   -30.4105  -999.2500   337.1498     2.3965     2.9164     3.4870   346.8061    84.5680
 5062.0000     7.6430   156.4256     0.0854     2.4688     0.2726  -999.2500   -29.9457  -999.2500   342.8096     2.3140     2.7760     3.7899   336.5666    84.5570
 5062.5000     7.6305   184.0310     0.1051     2.4645     0.2815  -999.2500   -29.1765  -999.2500   343.0959     2.2342     2.6098     3.6867   327.8814    85.9703
 5063.0000     7.6331   190.8302     0.0933     2.4264     0.2860  -999.2500   -28.7117  -999.2500   334.7521     2.2026     2.4861     2.5539   349.2262    88.8829
 5063.5000     7.6357   204.6688     0.1086     2.4077     0.3030  -999.2500   -28.6988  -999.2500   328.6542     2.2446     2.4180     2.2236   355.8511    94.8809
 5064.0000     7.6386   188.6725     0.1596     2.3823     0.3038  -999.2500   -28.6858  -999.2500   329.0123     2.2942     2.4179     2.0464   362.1809    96.1323
 5064.5000     7.6256   180.1949     0.2017     2.4117     0.2970  -999.2500   -29.2756  -999.2500   329.2989     2.3888     2.4529     2.5726   360.7082    95.0691
 5065.0000     7.6287   164.1975     0.1619     2.4651     0.2836  -999.2500   -30.0249  -999.2500   344.6005     2.5329     2.7015     3.3825   367.3330    90.4105
 5065.5000     7.6007   155.7199     0.0450     2.4735     0.2714  -999.2500   -30.7521  -999.2500   344.8948     2.8008     3.2352     4.1801   380.8765    83.9527
 5066.0000     7.5883   154.7611     0.0257     2.4908     0.2590  -999.2500   -31.0436  -999.2500   360.2603     3.0847     3.6652     4.4807   379.6989    80.0437
 5066.5000     7.5914   153.8014     0.0515     2.5075     0.2329  -999.2500   -31.3285  -999.2500   375.5619     3.3276     3.8742     4.7368   371.0137    79.5080
 5067.0000     7.5939   152.8426     0.0562     2.5136     0.2227  -999.2500   -31.6168  -999.2500   375.8485     3.5158     3.9282     4.7047   377.3435    79.8718
 5067.5000     7.5815   159.4026     0.0580     2.5175     0.2206  -999.2500   -31.6038  -999.2500   376.1351     3.6182     3.9829     4.3442   383.6733    80.6105
 5068.0000     7.5840   174.1746     0.0642     2.5199     0.2499  -999.2500   -31.8920  -999.2500   376.4265     3.7426     3.9828     3.9574   390.0032    82.3986
 5068.5000     7.5864   180.0405     0.0705     2.5139     0.2531  -999.2500   -31.8758  -999.2500   376.7799     3.8159     3.9278     3.9305   396.0380    82.3102
 5069.0000     7.5890   178.8415     0.0707     2.5110     0.2456  -999.2500   -31.5617  -999.2500   377.0665     3.8140     3.8735     3.9860   410.1703    81.3612
 5069.5000     7.5915   185.6417     0.0617     2.5134     0.2354  -999.2500   -31.5487  -999.2500   377.3531     3.8390     3.8734     4.1847   393.6826    80.5639
 5070.0000     7.5940   184.5863     0.0405     2.5120     0.2374  -999.2500   -31.2345  -999.2500   377.6394     3.8374     3.9002     4.3329   369.9825    80.4807
 5070.5000     7.5971   183.4839     0.0279     2.4971     0.2478  -999.2500   -30.7628  -999.2500   385.4353     3.8209     3.9327     4.3635   384.1148    80.8418
 5071.0000     7.5991   182.5242     0.0432     2.4957     0.2569  -999.2500   -30.3017  -999.2500   385.7919     3.8075     3.9820     4.3040   397.9521    81.0557
 5071.5000     7.6021   196.8432     0.0599     2.5026     0.2580  -999.2500   -29.9875  -999.2500   393.5861     3.7537     3.9543     4.3047   404.2820    81.1974
 5072.0000     7.6045   203.4022     0.0662     2.5058     0.2555  -999.2500   -29.8240  -999.2500   393.8438     3.7007     3.8997     4.3037   401.7461    81.7084
 5072.5000     7.6067   202.2032     0.0619     2.5036     0.2599  -999.2500   -29.6604  -999.2500   403.6311     3.6629     3.8458     4.0177   416.6666    82.1472
 5073.0000     7.6095   201.2444     0.0531     2.5014     0.2662  -999.2500   -29.6476  -999.2500   409.4606     3.6467     3.8725     3.8279   430.5702    82.2114
 5073.5000     7.6120   200.2857     0.0488     2.4985     0.2599  -999.2500   -29.6340  -999.2500   417.3262     3.6450     3.8456     3.8284   436.8138    81.8229
 5074.0000     7.6145   203.1279     0.0521     2.4957     0.2374  -999.2500   -29.7688  -999.2500   425.1204     3.6437     3.8189     3.8824   428.0781    81.5892
 5074.5000     7.6170   205.8859     0.0553     2.4898     0.2400  -999.2500   -29.9081  -999.2500   432.9145     3.6493     3.8453     4.1111   419.1496    81.7258
 5075.0000     7.6195   204.8875     0.0495     2.4861     0.2421  -999.2500   -30.0473  -999.2500   440.7086     3.6914     3.8719     4.1910   417.9719    81.9397
 5075.5000     7.6220   203.7282     0.0517     2.4817     0.2414  -999.2500   -30.0311  -999.2500   440.9952     3.7447     3.8185     4.0210   409.2867  -999.2500
 5076.0000     7.6245   217.8070     0.0671     2.4833     0.2411  -999.2500   -29.8675  -999.2500   442.2758     3.8181     3.9257     3.9660   430.6316  -999.2500
 5076.5000     7.6270   224.3670     0.0533     2.4917     0.2426  -999.2500   -29.8539  -999.2500   456.6550     3.8778     3.9805     4.1344   459.4839  -999.2500
 5077.0000     7.6146   223.4072     0.0445     2.4978     0.2477  -999.2500   -29.5372  -999.2500   456.9416     3.9222     4.0359     4.2816   473.3213  -999.2500
 5077.5000     7.6021   237.4861     0.0448     2.5017     0.2514  -999.2500   -29.4829  -999.2500   467.3762     3.9479     4.0921     4.3119   457.1286  -999.2500
 5078.0000     7.6052   244.2853     0.0735     2.5086     0.2496  -999.2500   -29.2100  -999.2500   472.5226     4.0014     4.1205     4.2826   440.9359  -999.2500
 5078.5000     7.5922   250.8453     0.0993     2.5154     0.2450  -999.2500   -28.9741  -999.2500   472.8228     3.9997     4.1490     4.1952   447.2657  -999.2500
