~VERSION INFORMATION
 VERS.                2.0:   CWLS LOG ASCII STANDARD - VERSION 2.0
 WRAP.                 NO:   ONE LINE PER DEPTH STEP
~WELL INFORMATION
#MNEM.UNIT      DATA TYPE    INFORMATION
#----------   ------------   ------------------------------
 STRT.F           27.5000:   START DEPTH
 STOP.F         5889.0000:   STOP DEPTH
 STEP.F            0.5000:   STEP LENGTH
 NULL.          -999.2500:   NO VALUE
 COMP.   LAWRENCE ALLISON:   COMPANY
 WELL. LAWRENCE "X" #25-11:   WELL
 FLD .        N.P.R NO. 3:   FIELD
 LOC .      S11 T38N R78W:   LOCATION
 CNTY.            NATRONA:   COUNTY
 STAT.            WYOMING:   STATE
 CTRY. UNITED STATES OF AMERICA:   COUNTRY
 SRVC.      DRESSER ATLAS:   SERVICE COMPANY
 DATE.        09-FEB-1983:   LOGDATE
 API .     49025109170000:   API NUMBER
~CURVE INFORMATION
#MNEM.UNIT       API CODE    CURVE DESCRIPTION
#----------   ------------   ------------------------------
 DEPT.F                  :   
 CN  .DEC    42 890 03 00:   NEUTRON POROSITY
 GRD .GAPI   45 310 01 00:   GAMMA RAY FROM DENSITY LOG
 CORR.G/C3   45 356 01 00:   DENSITY CORRECTION
 DEN .G/C3   45 350 01 00:   BULK DENSITY
 CALD.IN     45 280 60 00:   CALIPER FROM DENSITY LOG
 TEND.LBS    45 635 01 00:   TENSION FORM DENSITY LOG
 GRS .GAPI   60 310 01 00:   GAMMA RAY FROM SONIC LOG
 TENS.LBS    60 635 01 00:   TENSION FROM SONIC
 DT  .US/F   60 520 00 00:   DELTA TIME
 SPR .MV     11 010 01 00:   SPONTANEOUS POTENTIAL FROM RES.
 RD  .OHMM   11 220 10 00:   RESISTIVITY DEEP
 RS  .OHMM   11 220 09 00:   RESISTIVITY SHALLOW
 RMLL.OHMM   11 270 04 00:   MICRO LATEROLOG
 TENR.LBS    11 635 01 00:   TENSION FROM RES.
~PARAMETER INFORMATION
#MNEM.UNIT          VALUE    DESCRIPTION
#----------   ------------   ------------------------------
 EKB .F         5196.0000:   Kelly bushing
 EGL .F         5186.0000:   Ground level
 TD  .F         5883.0000:   Total depth
 CLNT.            A2DTECH:   Client Code
 SL  . 1989' FSL & 1148' FWL:   Surface Location
 PD  .                 GL:   Permanent Datum
 EPD .F              5186:   Elevation Permanent Datum
 LMF .                 KB:   Log Measured From
 DMF .                 KB:   Drilling Measured From
 DAPD.F                10:   Feet Above Permanent Datum
 DATE.        09-FEB-1983:   Date Logged [DD-MMM-YYYY]
 DD  .F              5883:   Depth driller
 DL  .F              5882:   Depth logger
 BLI .F              5871:   Bottom log interval
 TLI .F               700:   Top log interval
 CS1 .IN            9.625:   Casing size
 CBD1.      9.625" @ 701':   Casing driller 1
 CBL1.F               700:   Casing logger 1
 BS1 .IN             8.75:   Bit size
 BSD1.F              5883:   Depth drilled with bit1
 DFT .    HEC/DRISPAC/KCL:   Type fluid in hole
 DFD .                  9:   Density
 DFV .                 35:   Viscosity
 DFPH.                  8:   pH
 DFL .                6.4:   Fluid loss
 MSS .           FLOWLINE:   Source of sample
 RMS .OHMM           0.23:   Rm
 MST .F                50:   Rm Meas. temp.
 RMF .OHMM           0.17:   Rmf
 MFST.F                54:   Rmf Meas. temp.
 MFSS.               MEAS:   Source Rmf.
 BHT .F               176:   BHT.
 TCS .HRS              10:   Time Circ. stopped
 MRT .F               176:   Maximum recorded temp.
 LUN .               6274:   Logging unit number
 LUL .               GLTE:   Logging unit location
 ENGI.          TOLLEFSON:   Recorded By
 WITN.           JENNINGS:   Witnessed by
 ORIG.           5" PRINT:   Origin of data
 UWI .     49025109170000:   Unique Well ID
 DICO. A2D TECHNOLOGIES, INC.:   Digitizing Company
 RMC .OHMM           0.41:   Rmc
 MCST.F                54:   Rmc Meas. temp.
 MCSS.               MEAS:   Source Rmc.
~OTHER INFORMATION
~A  DEPTH       CN        GRD       CORR        DEN       CALD       TEND        GRS       TENS         DT        SPR         RD         RS       RMLL       TENR
# ...
 5172.5000     0.0818    86.8467     0.0377     2.6494     9.2500    -0.9982    66.8046   -54.4853    56.4438   -66.7643    36.0787    36.9255    34.8016   -54.6287
 5173.0000     0.0827    87.7847     0.0392     2.6494     9.2500    -2.1306    68.2891   -54.8601    56.5908   -66.7598    37.5996    38.4780    36.5264   -47.2474
 5173.5000     0.0866    91.1410     0.0587     2.6494     9.2500    -3.2630    74.4865   -55.2348    57.1879   -66.6047    38.1165    39.8467    38.1105   -47.5141
 5174.0000     0.0953    93.2853     0.0647     2.6486     9.2500    -4.3955    78.3274   -48.0196    58.4603   -66.6004    35.2792    37.6463    37.8068   -47.7809
 5174.5000     0.1022    95.4677     0.0376     2.6434     9.2500    -5.5279    80.6956   -48.4258    59.7326   -66.2958    30.7323    34.3825    35.2767   -47.9944
 5175.0000     0.1092    98.7917     0.0361     2.6397     9.2500    -6.6603    83.0638   -41.2732    61.0049   -66.2906    28.8678    31.8406    32.9160   -48.2078
 5175.5000     0.1212   106.8071     0.0496     2.6352     9.2500    -7.7927    86.6102   -41.7417    61.9021   -66.2863    27.3049    27.8044    29.8344   -48.4213
 5176.0000     0.1386   119.5836     0.0556     2.6307     9.2500    -8.9252    91.6294   -42.1164    63.0994   -66.4333    25.4713    23.9302    26.0115   -48.6426
 5176.5000     0.1497   127.6488     0.0270     2.6341     9.2501   -10.0576   102.2450   -42.4287    64.8218   -66.5782    22.7924    21.4052    21.5772   -56.4429
 5177.0000     0.1636   134.2301     0.0225     2.6383     9.2539   -11.1900   117.2789   -42.8037    67.2944   -66.8732    17.7585    18.8826    17.6528   -54.2788
 5177.5000     0.1753   140.1248     0.0135     2.6353     9.2626   -12.3224   116.7016   -50.7373    67.5172   -66.8689    15.2450    15.7308    15.8016   -56.8698
 5178.0000     0.1829   142.5722     0.0119     2.6383     9.2683   -13.4549   113.7679   -51.1120    66.7633   -67.1660    14.2212    13.7074    14.2425   -57.0889
 5178.5000     0.1763   141.9892     0.0211     2.6474     9.2527   -14.5873   107.5941   -51.4868    65.9351   -67.1607    13.2654    13.3260    13.2894   -57.3501
 5179.0000     0.1639   138.0728     0.0360     2.6429     9.2568   -15.5378   102.0094   -59.3578    65.1068   -67.4557    13.1713    13.6949    13.0155   -57.5634
 5179.5000     0.1411   130.0358     0.0314     2.6376     9.2654   -15.5378    97.3084   -67.2288    64.0536   -67.4515    14.1111    14.5773    13.9471   -57.7770
 5180.0000     0.1228   119.4841     0.0254     2.6384     9.2700   -15.5378    94.6692   -67.6035    62.5502   -67.5974    15.2240    16.1605    15.4235   -57.9940
 5180.5000     0.1120   108.9324     0.0209     2.6497     9.2700   -15.5378    89.0845   -67.9786    61.2719   -67.7433    17.0778    17.8015    17.8900   -50.6624
 5181.0000     0.1024    96.6575     0.0329     2.6567     9.2700   -15.5378    78.4925   -60.7634    60.0686   -67.7380    20.6350    20.1611    20.5441   -50.9050
 5181.5000     0.0990    89.1048     0.0494     2.6626     9.2700   -15.5378    74.3806   -53.6419    59.3904   -67.7337    24.3597    23.6399    23.4293   -51.1425
 5182.0000     0.0943    86.0970     0.0464     2.6641     9.2700   -18.5757    73.2142   -46.5204    59.2373   -67.4292    27.2069    27.7157    26.5724   -51.3574
 5182.5000     0.0991    87.3644     0.0509     2.6604     9.2700   -31.5986    76.7606   -39.3989    60.1345   -67.4199    28.7790    29.2847    29.8455   -51.6228
 5183.0000     0.1076    90.9979     0.0646     2.6521     9.2700   -35.4582    80.8961   -32.2774    61.4069   -67.1194    28.3445    30.3050    29.8436   -51.8100
 5183.5000     0.1148    95.8695     0.0734     2.6431     9.2700   -35.4582    82.0861   -32.7462    63.9545   -67.1151    26.9962    30.0816    28.6280   -52.0497
 5184.0000     0.1224   102.5592     0.0704     2.6371     9.2700   -35.4582    83.8652   -33.1210    68.8277   -67.1109    25.0096    28.0484    27.0845   -52.2631
 5184.5000     0.1301   108.9459     0.0659     2.6492     9.2700   -35.4582    94.4808   -33.4957    69.2005   -67.1066    23.4923    25.7952    24.9242   -52.4886
 5185.0000     0.1344   119.0329     0.0629     2.6499     9.2700   -35.4582    98.0272   -33.8705    67.5464   -67.1013    22.0656    23.7229    23.2563   -52.7434
 5185.5000     0.1407   129.3004     0.0598     2.6432     9.2700   -35.4582   100.3954   -34.1830    66.1930   -67.2483    20.8709    20.7824    19.6964   -60.4982
 5186.0000     0.1566   136.9015     0.0568     2.6387     9.2700   -35.4582   106.8873   -34.6203    65.5906   -67.3942    18.1668    16.9837    14.7278   -60.7118
 5186.5000     0.1720   139.3430     0.0553     2.6349     9.2700   -35.4582   108.9610   -34.9951    66.2628   -67.4646    16.7137    16.0590    11.5731   -60.9351
 5187.0000     0.1765   135.7355     0.0448     2.6334     9.2700   -35.4582   109.2673   -35.3073    65.7339   -67.6850    15.4828    15.3969     9.0720   -61.1921
 5187.5000     0.1687   131.2131     0.0263     2.6357     9.2700   -35.8513   106.6281   -35.6820    65.0557   -67.8298    14.9519    14.9685     8.2338   -61.4054
 5188.0000     0.1546   125.0748     0.0402     2.6527     9.2700   -38.5930    94.8579   -36.1193    63.8524   -67.9768    14.6416    16.0351     7.8985   -61.6188
 5188.5000     0.1350   114.7556     0.0673     2.6576     9.2700   -41.3347    88.9787   -43.9903    62.1240   -67.9715    16.4655    17.7864     8.4687   -61.8401
 5189.0000     0.1254   106.4376     0.0655     2.6516     9.2700   -44.0763    87.2232   -44.3655    60.8456   -68.1174    17.9500    19.0560     9.1959   -62.0991
 5189.5000     0.1161   100.0970     0.0560     2.6449     9.2700   -43.8540    84.5840   -52.2365    59.8674   -68.2633    20.5381    20.8459     9.7187   -54.7178
 5190.0000     0.1014    93.1561     0.0492     2.6381     9.2700   -40.7898    78.4102   -45.0213    59.1599   -68.2580    23.5829    24.3871    10.2712   -54.9845
 5190.5000     0.0945    89.2398     0.0430     2.6570     9.2700   -37.7256    71.0582   -45.4897    58.6331   -68.4529    26.5223    27.4881    11.5527   -55.2036
 5191.0000     0.0870    86.8386     0.0371     2.6728     9.2700   -36.9633    68.1245   -45.8644    58.1681   -68.5498    29.2757    30.2794    15.7719   -55.4648
 5191.5000     0.0846    84.1344     0.0491     2.6826     9.2700   -42.7512    66.9581   -46.2392    56.8660   -68.5445    34.4859    33.8203    20.2323   -55.6781
 5192.0000     0.0829    81.4153     0.0657     2.6886     9.2700   -48.5369    66.6724   -46.6143    52.8941   -68.6915    38.7843    37.5416    24.5563   -55.8915
 5192.5000     0.0783    77.8226     0.0777     2.6832     9.2700   -54.3416    66.0980   -54.4853    48.7542   -68.8363    38.7742    38.5480    27.0526   -56.1085
 5193.0000     0.0738    76.0275     0.0792     2.6766     9.2700   -59.2602    63.7534   -54.8601    48.9691   -68.8310    40.1355    39.8909    29.0801   -56.3718
 5193.5000     0.0690    73.6263     0.0731     2.6797     9.2700   -63.9895    57.5797   -62.7311    51.9668   -68.8268    43.5928    42.7384    32.6052   -48.9905
 5194.0000     0.0642    71.8311     0.0506     2.6955     9.2700   -51.3695    56.7048   -70.6021    56.6150   -68.6724    47.6869    46.5318    38.2278   -49.2572
 5194.5000     0.0619    72.4781     0.0370     2.7023     9.2700   -36.2633    63.1997   -70.9772    56.7628   -68.6681    51.8055    54.0577    45.4446   -49.4721
 5195.0000     0.0658    75.8224     0.0418     2.7061     9.2700   -40.6042    65.8624   -71.3519    56.8340   -68.5127    54.7422    56.7230    54.0739   -49.7375
 5195.5000     0.0691    79.4818     0.0625     2.7054     9.2668   -44.9452    66.1688   -71.7267    57.1311   -68.5084    50.7105    57.4961    54.7734   -49.9509
 5196.0000     0.0739    82.8382     0.0761     2.6979     9.2607   -51.2201    67.0642   -72.1014    57.9533   -68.8045    45.6953    50.9551    48.3548   -46.1514
 5196.5000     0.0808    86.1946     0.0791     2.6873     9.2546   -54.0802    67.9597   -64.9799    58.4754   -68.8002    41.7503    40.8733    42.9012   -42.8356
