~VERSION INFORMATION
 VERS.                2.0:   CWLS LOG ASCII STANDARD - VERSION 2.0
 WRAP.                 NO:   ONE LINE PER DEPTH STEP
~WELL INFORMATION
#MNEM.UNIT      DATA TYPE    INFORMATION
#----------   ------------   ------------------------------
 STRT.F          200.0000:   START DEPTH
 STOP.F         3150.0000:   STOP DEPTH
 STEP.F            0.5000:   STEP LENGTH
 NULL.          -999.2500:   NO VALUE
 COMP.  FENIX AND SCISSON:   COMPANY
 WELL.  FENIX "AX" #88-10:   WELL
 FLD .              NPR 3:   FIELD
 LOC .      S10 T38N R78W:   LOCATION
 CNTY.            NATRONA:   COUNTY
 STAT.            WYOMING:   STATE
 CTRY. UNITED STATES OF AMERICA:   COUNTRY
 SRVC.              WELEX:   SERVICE COMPANY
 DATE.        13-JUN-1977:   LOGDATE
 API .     49025103780000:   API NUMBER
~CURVE INFORMATION
#MNEM.UNIT       API CODE    CURVE DESCRIPTION
#----------   ------------   ------------------------------
 DEPT.F                  :   
 CALD.IN     45 280 60 00:   CALIPER FROM DENSITY LOG
 GRD .GAPI   45 310 01 00:   GAMMA RAY FROM DENSITY LOG
 RHOB.G/C3   45 350 01 00:   BULK DENSITY
 CORR.G/C3   45 356 01 00:   DENSITY CORRECTION
 SPR .MV     07 010 01 00:   SPONTANEOUS POTENTIAL
 GURD.OHMM   07 220 05 00:   GUARD LOG RESISTIVITY
 ILD .OHMM   07 120 46 00:   INDUCTION LOG DEEP RESISTIVITY
 ILM .OHMM   07 120 44 00:   INDUCTION LOG MEDIUM RESISTIVITY
~PARAMETER INFORMATION
#MNEM.UNIT          VALUE    DESCRIPTION
#----------   ------------   ------------------------------
 EKB .F         5264.0000:   Kelly bushing
 EGL .F         5254.0000:   Ground level
 EDF .F            0.0000:   Drilling floor
 TD  .F         3160.0000:   Total depth
 DATE.        13-JUN-1977:   Date logged
 CLNT.            A2DTECH:   Client Code
 SL  . 430' FSL & 330' FEL:   Surface Location
 PD  .                 GL:   Permanent Datum
 EPD .F              5254:   Elevation Permanent Datum
 LMF .                 KB:   Log Measured From
 DMF .                 KB:   Drilling Measured From
 DAPD.F                10:   Feet Above Permanent Datum
 DD  .F              3160:   Depth driller
 DL  .F              3151:   Depth logger
 BLI .F              3149:   Bottom log interval
 CS1 .IN            8.625:   Casing size
 CBD1.      8.625" @ 208':   Casing driller 1
 BS1 .IN            7.875:   Bit size
 BSD1.F              3160:   Depth drilled with bit1
 DFT .            KCL MUD:   Type fluid in hole
 DFD .                9.1:   Density
 DFV .                 31:   Viscosity
 DFPH.                7.5:   pH
 DFL .                 20:   Fluid loss
 MSS .           FLOWLINE:   Source of sample
 RMS .OHMM            .90:   Rm
 MST .F                60:   Rm Meas. temp.
 RMF .OHMM            .53:   Rmf
 MFST.F                60:   Rmf Meas. temp.
 RMC .OHMM           1.47:   Rmc
 MCST.F                60:   Rmc Meas. temp.
 MFSS.               MEAS:   Source Rmf.
 MCSS.               MEAS:   Source Rmc.
 RMB .OHMM            .46:   Rm. at BHT
 BHT .F               116:   BHT.
 TCS .HRS               8:   Time Circ. stopped
 MRT .F               116:   Maximum recorded temp.
 LUN .               8611:   Logging unit number
 LUL .             CASPER:   Logging unit location
 ENGI.            C. DOAK:   Recorded By
 WITN.         D. RHOADES:   Witnessed by
 ORIG.           5" PRINT:   Origin of data
 UWI .     49025103780000:   Unique Well ID
 DICO. A2D TECHNOLOGIES, INC.:   Digitizing Company
~OTHER INFORMATION
~A   DEPT       CALD       GRD      RHOB       CORR        SPR       GURD        ILD        ILM   
# ...
 2711.0000    10.6339   109.3109     2.4552     0.0020   -42.9155    10.3322     7.2242     8.2163
 2711.5000    10.6141   112.4792     2.4552     0.0020   -41.9249     9.3409     7.1586     7.9204
 2712.0000    10.7131   112.0832     2.4671     0.0020   -41.3291     8.8412     7.2252     8.2937
 2712.5000    10.6735   105.3505     2.4751     0.0140   -39.9436    10.2406     7.7064     9.0098
 2713.0000    10.6933    99.4099     2.4751     0.0179   -39.1503    11.8614     8.2192     9.3480
 2713.5000    10.6933    93.0733     2.4641     0.0199   -37.7647    13.9932     8.7664    10.1553
 2714.0000    10.6933    93.8653     2.4641     0.0199   -36.7739    16.2076     9.2643    10.8311
 2714.5000    10.6933    90.3010     2.4821     0.0299   -35.7830    16.2091     9.8809    11.6588
 2715.0000    10.6933    90.6970     2.4701     0.0418   -35.1869    16.5108    10.5384    12.6656
 2715.5000    10.6933    90.6970     2.4592     0.0458   -33.8010    16.3618    11.4486    13.2625
 2716.0000    10.6735    89.9050     2.4452     0.0458   -32.8099    16.0651    12.6679    14.2758
 2716.5000    10.6537    87.1327     2.4333     0.0518   -31.2265    16.5154    13.8888    14.5420
 2717.0000    10.5745    85.1525     2.4024     0.0538   -30.0378    16.9779    14.2784    14.8129
 2717.5000    10.5349    81.1921     2.3815     0.0538   -29.0465    16.3672    14.5444    15.5114
 2718.0000    10.4754    76.7712     2.3775     0.0538   -27.4628    16.8262    14.8156    14.6809
 2718.5000    10.4160    71.6871     2.3785     0.0538   -26.0765    16.8268    14.6814    14.6814
 2719.0000    10.3962    69.7069     2.3825     0.0538   -24.6900    16.8280    14.4150    14.0240
 2719.5000    10.3566    69.7069     2.3845     0.0518   -23.5010    16.9860    13.8964    13.6433
 2720.0000    10.2972    70.8950     2.3875     0.0518   -22.1144    15.3561    13.7703    13.0316
 2720.5000    10.1982    72.4792     2.3885     0.0498   -21.9126    15.2172    13.8989    12.4473
 2721.0000    10.0992    73.6673     2.3944     0.0498   -21.9084    15.2188    14.4203    11.8893
 2721.5000    10.0398    74.4594     2.3984     0.0498   -21.9041    15.3600    14.9620    11.4611
 2722.0000    10.0200    74.4594     2.3984     0.0498   -21.8999    16.6846    15.9582    11.3573
 2722.5000    10.0398    73.6673     2.3984     0.0518   -21.8956    16.6862    15.9596    11.7837
 2723.0000    10.0398    72.8752     2.4034     0.0518   -21.8914    16.3839    15.2449    12.2262
 2723.5000    10.1190    72.0832     2.4143     0.0538   -21.8871    15.9407    15.1060    12.6850
 2724.0000    10.2631    72.0832     2.4293     0.0558   -21.8829    15.9422    14.6964    12.6864
 2724.5000    10.3170    73.2713     2.4383     0.0558   -21.8786    16.0909    14.2980    12.2297
 2725.0000    10.3368    74.0634     2.4323     0.0558   -22.0719    17.3180    14.0386    11.6812
 2725.5000    10.3368    74.4594     2.4203     0.0518   -22.0677    15.9465    13.6580    11.3647
 2726.0000    10.3368    72.8752     2.4064     0.0478   -22.0634    14.6837    13.1666    10.9555
 2726.5000    10.3566    72.0832     2.4173     0.0498   -22.0592    14.2862    13.0468    10.7569
 2727.0000    10.3764    71.2911     2.4253     0.0498   -22.0549    14.4190    12.8106    10.6592
 2727.5000    10.3764    71.2911     2.4402     0.0518   -22.0507    14.8231    12.8115    10.5628
 2728.0000    10.3566    70.8950     2.4343     0.0458   -22.0464    14.8242    13.1714    10.5638
 2728.5000    10.3170    70.1030     2.4183     0.0478   -21.2518    14.2911    13.4170    10.5646
 2729.0000    10.3368    70.4990     2.4183     0.0518   -21.2476    13.9048    13.6669    10.8612
 2729.5000    10.3170    70.4990     2.4283     0.0518   -20.8481    14.2943    13.9218    11.3728
 2730.0000    10.3170    70.1030     2.4124     0.0498   -20.8438    16.1067    14.5782    12.5843
 2730.5000    10.1784    70.8950     2.4253     0.0478   -20.8395    32.9551    15.2653    14.9872
 2731.0000    10.1784    70.8950     2.4263     0.0478   -20.8352    25.2572    15.5499    18.3476
 2731.5000    10.2180    71.6871     2.4409     0.0418   -20.0405    22.4183    15.5513    19.7491
 2732.0000    10.2180    72.8752     2.4542     0.0498   -19.8385    18.4903    14.4498    20.6802
 2732.5000    10.1388    72.0832     2.4512     0.0518   -19.8360    13.6606    13.1820    11.0698
 2733.0000    10.0596    72.4792     2.4432     0.0498   -19.6331    13.4134    13.0626    10.0985
 2733.5000    10.0794    73.6673     2.4223     0.0478   -19.4303    13.2921    12.7086     9.7350
 2734.0000    10.0794    73.6673     2.4253     0.0478   -19.2292    13.2933    12.7096     9.9165
 2734.5000    10.0794    74.4594     2.4273     0.0418   -19.0264    13.1731    12.5947    10.3837
 2735.0000    10.0794    73.6673     2.4313     0.0339   -19.0229    13.0539    12.5958     9.8276
 2735.5000    10.0794    73.2713     2.4392     0.0319   -18.6223    13.6681    12.5965     9.9192
 2736.0000    10.0794    72.8752     2.4243     0.0239   -18.6180    14.4432    12.8319    10.0116
 2736.5000    10.0596    72.8752     2.4333     0.0140   -18.6145    13.9238    13.1916    11.2834
 2737.0000    10.0794    72.8752     2.4522     0.0199   -19.5968    15.2636    13.6872    11.8152
 2737.5000    10.0992    72.4792     2.4572     0.0199   -19.5925    19.7372    14.3322    12.6016
 2738.0000    10.1336    73.2713     2.4651     0.0199   -19.5882    38.5728    14.7341    14.3336
 2738.5000    10.1679    75.2515     2.4203     0.0179   -20.1770    29.0245    14.2040    14.7357
 2739.0000    10.2023    78.0238     2.4104     0.0179   -20.9626    13.4286    13.6922    13.4427
 2739.5000    10.3170    78.8158     2.4014     0.0179   -21.3546    12.5940    13.4440    10.6840
 2740.0000    10.3170    80.0040     2.3994     0.0159   -21.7466    12.2531    12.8412    10.1114
 2740.5000    10.2972    80.7960     2.3954     0.0140   -21.5438    12.2540    12.4933     9.9283
 2741.0000    10.2576    80.9592     2.3825     0.0120   -21.5395    12.4821    12.1544     9.9290
 2741.5000    10.2576    81.1223     2.3725     0.0100   -21.5353    12.7142    11.7169     9.9301
 2742.0000    10.2576    81.2855     2.3735     0.0106   -21.5310    13.5596    11.5043     9.9308
 2742.5000    10.2761    81.4486     2.3865     0.0112   -22.3177    13.3285    11.5055     9.7510
 2743.0000    10.2972    81.6117     2.3954     0.0119   -22.3135    12.7309    11.5062     9.3997
 2743.5000    10.2972    81.7749     2.4004     0.0125   -22.7048    12.2722    11.5076     9.2294
 2744.0000    10.2972    81.9380     2.4104     0.0131   -22.8974    12.6168    11.5085     9.3153
 2744.5000    10.2783    82.1011     2.4084     0.0140   -22.4985    13.9605    11.7229     9.4891
 2745.0000    10.2593    82.2643     2.4064     0.0140   -22.4943    13.2126    11.9415     9.6662
 2745.5000    10.2378    82.7762     2.4034     0.0140   -21.4986    13.2135    12.1646     9.7563
 2746.0000    10.2524    82.7762     2.3954     0.0120   -21.4969    13.4602    12.1653    10.1227
 2746.5000    10.2669    81.9842     2.3984     0.0080   -21.4934    14.0781    12.1668    10.4066
 2747.0000    10.2815    82.3802     2.4004     0.0080   -21.4892    14.8764    12.1675     9.9397
 2747.5000    10.2960    82.7762     2.3974     0.0060   -21.6810    16.0112    12.1682     9.9408
 2748.0000    10.3106    83.1723     2.3934     0.0060   -22.0724    13.8258    12.1699    10.9997
 2748.5000    10.3251    83.1723     2.3875     0.0040   -22.8594    14.7445    12.0597    11.7317
 2749.0000    10.3397    83.5683     2.3954     0.0040   -23.2508    14.7459    11.9506    11.7329
 2749.5000    10.3566    83.5683     2.3984     0.0020   -23.2466    13.3312    11.9517    11.4148
 2750.0000    10.2972    83.5683     2.4044     0.0020   -23.2424    12.5026    11.9526    10.3182
 2750.5000    10.2576    82.3802     2.4094     0.0020   -23.6338    12.2765    11.8441    10.1310
 2751.0000    10.2324    82.3802     2.4143     0.0020   -24.0253    12.2777    11.8454    10.1317
