~VERSION INFORMATION
 VERS.                2.0:   CWLS LOG ASCII STANDARD - VERSION 2.0
 WRAP.                 NO:   ONE LINE PER DEPTH STEP
~WELL INFORMATION
#MNEM.UNIT      DATA TYPE    INFORMATION
#----------   ------------   ------------------------------
 STRT.F         3288.0000:   START DEPTH
 STOP.F         4421.0000:   STOP DEPTH
 STEP.F            0.5000:   STEP LENGTH
 NULL.          -999.2500:   NO VALUE
 COMP.       FLUOR DANIEL:   COMPANY
 WELL. FLUOR 22 "X" #2-10:   WELL
 FLD . TEA POT DOME NAVAL PETROLEUM DO:   FIELD
 LOC .      S10 T38N R78W:   LOCATION
 CNTY.            NATRONA:   COUNTY
 STAT.            WYOMING:   STATE
 CTRY. UNITED STATES OF AMERICA:   COUNTRY
 SRVC.        HALLIBURTON:   SERVICE COMPANY
 DATE.        13-DEC-1996:   LOGDATE
 API .     49025228330000:   API NUMBER
~CURVE INFORMATION
#MNEM.UNIT       API CODE    CURVE DESCRIPTION
#----------   ------------   ------------------------------
 DEPT.F                  :   
 NPHI.DEC    42 890 03 00:   NEUTRON POROSITY SANDSTONE
 GRD .GAPI   45 310 01 00:   GAMMA RAY FROM DENSITY LOG
 CALD.IN     45 280 60 00:   CALIPER FROM DENSITY LOG
 PE  .B/E    45 358 01 00:   PHOTOELECTRIC FACTOR
 CORR.G/C3   45 356 01 00:   DENSITY CORRECTION
 TEND.LBS    45 635 01 00:   TENSION FORM DENSITY LOG
 RHOB.G/C3   45 350 01 00:   BULK DENSITY
 TENR.LBS    07 635 01 00:   TENSION FROM RESISTIVITY
 ILD .OHMM   07 120 46 00:   DEEP INDUCTION RESISTIVITY
 ILM .OHMM   07 120 44 00:   INDUCTION LOG MEDIUM RESISTIVITY
 SFL .OHMM   07 220 01 00:   SHALLOW FOCUSED LOG RESISTIVITY
~PARAMETER INFORMATION
#MNEM.UNIT          VALUE    DESCRIPTION
#----------   ------------   ------------------------------
 EKB .F         5268.0000:   Kelly bushing
 EGL .F         5258.0000:   Ground level
 EDF .F         5267.0000:   Drilling floor
 TD  .F         4435.0000:   Total depth
 CLNT.            A2DTECH:   Client Code
 SL  . 569' FNL & 1440' FWL:   Surface Location
 PD  .                 GL:   Permanent Datum
 EPD .F              5258:   Elevation Permanent Datum
 LMF .                 KB:   Log Measured From
 DMF .                 KB:   Drilling Measured From
 DAPD.F                10:   Feet Above Permanent Datum
 DATE.        13-DEC-1996:   Date Logged [DD-MMM-YYYY]
 DD  .F              4435:   Depth driller
 DL  .F              4412:   Depth logger
 BLI .F              4403:   Bottom log interval
 TLI .F              3308:   Top log interval
 CS1 .IN            9.625:   Casing size
 CBD1.     9.625" @ 3307':   Casing driller 1
 CBL1.F              3308:   Casing logger 1
 BS1 .IN              8.5:   Bit size
 BSD1.F              4435:   Depth drilled with bit1
 DFT .           POLY-KCL:   Type fluid in hole
 DFD .                  9:   Density
 DFV .                 50:   Viscosity
 DFPH.                  9:   pH
 DFL .                  7:   Fluid loss
 MSS .           MUD TANK:   Source of sample
 RMS .OHMM           0.47:   Rm
 MST .F                56:   Rm Meas. temp.
 RMF .OHMM           0.36:   Rmf
 MFST.F                61:   Rmf Meas. temp.
 MFSS.               MEAS:   Source Rmf.
 RMC .OHMM           0.48:   Rmc
 MCST.F                68:   Rmc Meas. temp.
 MCSS.               MEAS:   Source Rmc.
 RMB .OHMM           0.20:   Rm. at BHT
 BHT .F               138:   BHT.
 TCS .HRS              20:   Time Circ. stopped
 TLAB.HRS            0108:   Time logger at bottom
 MRT .F               138:   Maximum recorded temp.
 LUN .              52546:   Logging unit number
 LUL .              VERNI:   Logging unit location
 ENGI.        JOHN SAVAGE:   Recorded By
 WITN.          STEBBINGS:   Witnessed by
 ORIG.         2.5" PRINT:   Origin of data
 UWI .     49025228330000:   Unique Well ID
 DICO. A2D TECHNOLOGIES, INC.:   Digitizing Company
~OTHER INFORMATION
~A  DEPT        NPHI       GRD      CALD         PE       CORR       TEND       RHOB       TENR        ILD        ILM        SFL   
# ...
 3532.0000     0.3002   201.0146     9.2465     2.6272     0.0454  2961.9336     2.3905  3036.6074     1.9714     1.9457     2.1067
 3532.5000     0.2778   190.1356     9.2369     2.6579     0.0484  2991.6919     2.4285  3037.5854     1.9556     2.0195     2.0376
 3533.0000     0.2064   178.0481     9.1619     2.6601     0.0591  2960.9915     2.4572  3038.5637     2.2239     2.2847     3.0295
 3533.5000     0.1973   159.9183     9.1390     2.6931     0.0606  2960.5554     2.4938  3039.5588     3.5659     4.6715     4.8325
 3534.0000     0.2088   147.2266     9.2016     2.7196     0.0543  2929.9080     2.5044  3011.1079     5.3444     5.4905     7.2405
 3534.5000     0.2228   145.4109     9.2752     2.7503     0.0495  2899.2449     2.4998  3012.2058     5.3140     5.2624     6.1578
 3535.0000     0.2172   145.2265     9.3051     2.7810     0.0452  2929.0359     2.5051  3002.9470     4.7649     4.5771     5.6005
 3535.5000     0.2026   140.6753     9.3048     2.7814     0.0420  2928.5498     2.5157  2984.8528     4.5374     4.4168     5.6748
 3536.0000     0.1973   129.9740     9.3045     2.8278     0.0404  2897.8853     2.5173  2985.8821     4.7927     4.9340     7.0413
 3536.5000     0.2004   124.1575     9.3344     2.8428     0.0403  2867.3044     2.5173  2987.0757     5.9540     5.9253     9.0981
 3537.0000     0.2040   120.6665     9.3644     2.9037     0.0419  2910.9651     2.5189  2988.0535     6.6113     6.0155     8.6809
 3537.5000     0.2017   120.0654     9.3678     2.9041     0.0456  2926.7371     2.5264  2989.0315     6.6079     6.0117     8.3842
 3538.0000     0.1953   125.4496     9.3940     2.9348     0.0487  2895.9897     2.5359  2990.0098     6.9711     6.2571     8.4209
 3538.5000     0.1872   124.8425     9.4024     2.9352     0.0518  2886.5100     2.5436  2991.0295     7.4542     6.7817     9.2522
 3539.0000     0.1847   123.0269     9.4236     2.9262     0.0548  2895.1663     2.5495  2992.0591     7.9838     8.4131    10.2985
 3539.5000     0.1859   121.2113     9.4096     2.9058     0.0503  2985.3157     2.5507  2993.0879     8.6580     8.9962    10.8222
 3540.0000     0.1877   119.9999     9.3927     2.8459     0.0458  2984.8796     2.5408  2994.1174     8.6342     8.7050    10.6729
 3540.5000     0.1901   120.0037     9.3924     2.7998     0.0412  2863.5974     2.5319  2995.1470     8.4715     8.3308    10.3852
 3541.0000     0.1913   120.6527     9.3921     2.7864     0.0397  2926.2920     2.5303  2996.3669     8.2298     8.0170    10.2426
 3541.5000     0.1895   121.1996     9.3918     2.7869     0.0398  2953.3601     2.5267  2997.3452     8.2309     7.8939    10.2392
 3542.0000     0.1889   119.5407     9.4218     2.7874     0.0383  2945.4167     2.5252  3027.7351     8.3853     7.6288    10.2192
 3542.5000     0.1908   116.5712     9.4232     2.7878     0.0368  2922.2056     2.5283  3028.7134     8.2685     7.6249    10.0951
 3543.0000     0.1921   114.9045     9.3909     2.8184     0.0368  2921.7522     2.5313  3029.7061     8.0441     7.7246    10.1346
 3543.5000     0.1948   114.5408     9.3906     2.8190     0.0368  2921.2991     2.5344  3030.7356     7.7207     7.7206    10.2261
 3544.0000     0.1990   115.4803     9.3903     2.8495     0.0373  2903.9324     2.5359  3002.2354     7.7165     7.7110    10.2220
 3544.5000     0.2016   118.1596     9.3900     2.8547     0.0384  2890.1025     2.5361  3003.3823     7.7124     7.5926    10.2179
 3545.0000     0.2025   121.1778     9.3897     2.8807     0.0384  2889.6665     2.5375  3004.4119     7.7082     7.4760     9.6774
 3545.5000     0.2040   121.1749     9.3894     2.8905     0.0384  2889.2302     2.5398  3005.4409     7.7041     7.3982     9.4165
 3546.0000     0.2074   121.7764     9.3891     2.9118     0.0385  2888.7942     2.5447  3006.6370     7.5450     7.4465     9.4135
 3546.5000     0.2105   121.7733     9.3888     2.9122     0.0400  2888.3579     2.5453  2978.0881     7.1925     7.0960     9.1597
 3547.0000     0.2101   121.7520     9.3885     2.8825     0.0400  2887.9158     2.5405  2979.1812     6.3661     6.3660     8.2564
 3547.5000     0.1908   121.0976     9.3580     2.8830     0.0416  2887.4624     2.5331  2980.1594     6.1933     5.6302     7.0819
 3548.0000     0.1756   119.1217     9.3577     2.8835     0.0431  2887.0090     2.5346  2981.1765     6.1070     6.3172     7.1065
 3548.5000     0.1726   114.9185     9.3574     2.8839     0.0446  2886.5559     2.5437  3011.6177     7.2916     7.4739     7.7489
 3549.0000     0.1756   110.2602     9.3571     2.8843     0.0447  2886.1028     2.5498  3012.6472     8.3517     8.3223     9.5097
 3549.5000     0.1890   106.7439     9.3568     2.8848     0.0432  2885.6497     2.5528  3013.6765     8.5465     8.5460    11.5480
 3550.0000     0.2023   104.5317     9.3565     2.8852     0.0414  2885.1965     2.5498  3014.7061     8.4285     7.4624    11.9717
 3550.5000     0.2254   106.4829     9.3562     2.8834     0.0402  2902.2083     2.5352  3015.9282     7.6437     6.9006    10.0403
 3551.0000     0.2449   112.0780     9.3257     2.8559     0.0397  2914.5015     2.5162  3016.9065     6.0672     6.0148     8.6515
 3551.5000     0.2525   118.1174     9.3254     2.8563     0.0372  2913.9905     2.5069  3017.8845     5.3897     5.4364     6.7823
 3552.0000     0.2507   125.9695     9.3251     2.8475     0.0372  2883.3430     2.5027  3018.8628     4.7710     4.8110     6.2183
 3552.5000     0.2463   127.7795     9.3248     2.8270     0.0357  2882.9070     2.5017  3019.8528     4.5798     4.5077     5.6102
 3553.0000     0.2426   127.7764     9.3546     2.8275     0.0342  2882.4709     2.4995  3020.8823     4.7674     4.6361     5.6083
 3553.5000     0.2425   127.1692     9.3846     2.7977     0.0327  2882.0242     2.4963  2992.3850     4.9190     4.8254     5.7909
 3554.0000     0.2450   127.2428     9.4447     2.7983     0.0297  2885.3745     2.4927  2993.5295     5.0479     5.0223     6.4834
 3554.5000     0.2510   128.4955     9.4746     2.7987     0.0267  2941.5854     2.4897  2994.5591     5.1228     5.0880     6.8477
 3555.0000     0.2598   130.3524     9.4743     2.8294     0.0252  2941.0874     2.4867  2995.5884     5.1244     4.9409     6.9375
 3555.5000     0.2640   132.6461     9.4136     2.8600     0.0253  2940.6343     2.4852  2996.7866     4.6935     4.7527     6.6584
 3556.0000     0.2640   135.5410     9.4133     2.8604     0.0269  2940.1812     2.4868  2997.7646     4.5055     4.3954     6.0234
 3556.5000     0.2640   137.7361     9.4199     2.8911     0.0288  2909.5168     2.4899  2998.7424     4.2669     4.2900     5.3456
 3557.0000     0.2646   139.2326     9.4523     2.9218     0.0332  2878.7642     2.4946  2999.7207     4.2073     4.1433     5.2840
 3557.5000     0.2665   136.8122     9.4846     2.9524     0.0379  2878.3279     2.4995  3000.7354     4.1499     4.0856     5.2517
 3558.0000     0.2677   134.3924     9.5472     2.9529     0.0390  2877.8918     2.5020  3001.7649     4.0926     4.0288     5.1703
 3558.5000     0.2683   133.1810     9.6098     2.9230     0.0368  2877.4558     2.4975  3002.7942     4.0361     3.9727     5.0656
 3559.0000     0.2675   131.9697     9.6230     2.9236     0.0345  2877.0198     2.4930  3003.8237     3.9814     3.9153     5.0630
 3559.5000     0.2642   131.3625     9.6529     2.8938     0.0330  2876.5837     2.4960  2990.2981     3.8204     3.8470     4.7943
 3560.0000     0.2555   131.9638     9.6223     2.8640     0.0345  2876.1331     2.5006  2976.4707     3.7677     3.7076     4.4189
 3560.5000     0.2501   132.6526     9.6220     2.8646     0.0346  2875.6797     2.5021  2977.6443     4.0294     3.8589     4.5519
 3561.0000     0.2504   133.3011     9.6217     2.8952     0.0376  2935.6982     2.5022  2978.6223     4.1381     3.8565     4.9306
 3561.5000     0.2505   134.3720     9.6215     2.9259     0.0407  2995.6851     2.5058  2979.6006     4.2498     3.9068     5.2589
 3562.0000     0.2428   133.5349     9.6250     2.9263     0.0422  2983.6760     2.5151  2980.5881     4.2603     4.0659     5.1851
