~VERSION INFORMATION
 VERS.                2.0:   CWLS LOG ASCII STANDARD - VERSION 2.0
 WRAP.                 NO:   ONE LINE PER DEPTH STEP
~WELL INFORMATION
#MNEM.UNIT      DATA TYPE    INFORMATION
#----------   ------------   ------------------------------
 STRT.F          224.0000:   START DEPTH
 STOP.F         2912.0000:   STOP DEPTH
 STEP.F            0.5000:   STEP LENGTH
 NULL.          -999.2500:   NO VALUE
 COMP.    FENIX & SCISSON:   COMPANY
 WELL. FENIX & SCISSON NPR 34 "A" #3-21:   WELL
 FLD .             NPR #3:   FIELD
 LOC .      S21 T39N R78W:   LOCATION
 CNTY.            NATRONA:   COUNTY
 STAT.            WYOMING:   STATE
 CTRY. UNITED STATES OF AMERICA:   COUNTRY
 SRVC.              WELEX:   SERVICE COMPANY
 DATE.        15-JUL-1977:   LOGDATE
 API .     49025103970000:   API NUMBER
~CURVE INFORMATION
#MNEM.UNIT       API CODE    CURVE DESCRIPTION
#----------   ------------   ------------------------------
 DEPT.F                  :   
 CALD.IN     45 280 60 00:   CALIPER FROM DENSITY LOG
 CORR.G/C3   45 356 01 00:   DENSITY CORRECTION
 RHOB.G/C3   45 350 01 00:   BULK DENSITY
 GRD .GAPI   45 310 01 00:   GAMMA RAY FROM DENSITY LOG
 SPR .MV     07 010 01 00:   SPONTANEOUS POTENTIAL
 ILD .OHMM   07 120 46 00:   DEEP INDUCTION RESISTIVITY
 ILM .OHMM   07 120 44 00:   INDUCTION LOG MEDIUM RESISTIVITY
 SGRD.OHMM   07 220 05 00:   SHALLOW SHORT GUARD RESISTIVITY
~PARAMETER INFORMATION
#MNEM.UNIT          VALUE    DESCRIPTION
#----------   ------------   ------------------------------
 EKB .F         4921.0000:   Kelly bushing
 EGL .F         4911.0000:   Ground level
 TD  .F         2914.0000:   Total depth
 CLNT.            A2DTECH:   Client Code
 SL  . 2310' FNL & 1650' FWL:   Surface Location
 DATE.        15-JUL-1977:   Date Logged [DD-MMM-YYYY]
 DD  .F              2900:   Depth driller
 DL  .F              2914:   Depth logger
 BLI .F              2912:   Bottom log interval
 TLI .F               218:   Top log interval
 CS1 .              8.625:   Casing size
 CBD1.      8.625" @ 230':   Casing driller 1
 CBL1.IN              226:   Casing logger 1
 BS1 .IN            7.875:   Bit size
 BSD1.F              2900:   Depth drilled with bit1
 DFT .                KCL:   Type fluid in hole
 DFD .                8.9:   Density
 DFV .               1.42:   Viscosity
 DFPH.                7.5:   pH
 DFL .               19.6:   Fluid loss
 MSS .            MUD PIT:   Source of sample
 RMS .OHMM           3.75:   Rm
 MST .F                83:   Rm Meas. temp.
 RMF .OHMM           3.40:   Rmf
 MFST.F                83:   Rmf Meas. temp.
 MFSS.           MEASURED:   Source Rmf.
 RMC .OHMM            9.0:   Rmc
 MCST.F                83:   Rmc Meas. temp.
 MCSS.           MEASURED:   Source Rmc.
 RMB .OHMM           2.80:   Rm. at BHT
 BHT .F               111:   BHT.
 TCS .HRS               3:   Time Circ. stopped
 MRT .F               111:   Maximum recorded temp.
 LUN .               8766:   Logging unit number
 LUL .             CASPER:   Logging unit location
 ENGI.          T. JOYNER:   Recorded By
 WITN.     MR. PETTINGILL:   Witnessed by
 ORIG.           5" PRINT:   Origin of data
 UWI .     49025103970000:   Unique Well ID
 DICO. A2D TECHNOLOGIES, INC.:   Digitizing Company
 PD  .                 GL:   Permanent Datum
 EPD .F              4911:   Elevation Permanent Datum
 LMF .                 KB:   Log Measured From
 DMF .                 KB:   Drilling Measured From
 DAPD.F                10:   Feet Above Permanent Datum
~OTHER INFORMATION
~A   DEPT      CALD        CORR       RHOB       GRD       SPR        ILD        ILM       SGRD   
# ...
 1803.5000     8.3367     0.0331     2.4217   152.3625   -60.7908     7.0929     7.2865    10.7011
 1804.0000     8.3240     0.0347     2.4210   153.8782   -60.7760     7.1477     7.3940    10.3422
 1804.5000     8.2965     0.0392     2.4263   152.4220   -60.7612     7.1534     7.4003    10.0628
 1805.0000     8.2844     0.0407     2.4323   152.7489   -60.7463     7.1601     7.4590     9.9995
 1805.5000     8.2866     0.0423     2.4361   156.3447   -60.7313     7.1658     7.4654    10.1503
 1806.0000     8.2888     0.0423     2.4310   158.7519   -60.5672     7.2712     7.4719    10.4418
 1806.5000     8.2911     0.0363     2.4191   152.2437   -60.5523     7.2770     7.4783    10.6539
 1807.0000     8.2933     0.0334     2.4147   157.0282   -60.5380     7.3333     7.4323    10.8073
 1807.5000     8.2955     0.0394     2.4312   160.0297   -60.6724     7.3401     7.4408    10.8118
 1808.0000     8.2977     0.0439     2.4417   160.6538   -60.8032     7.3460     7.4465    10.8162
 1808.5000     8.2845     0.0439     2.4365   157.4146   -60.9414     7.3518     7.3517    10.8206
 1809.0000     8.2873     0.0410     2.4291   156.5528   -61.0758     7.3577     7.3072    10.8251
 1809.5000     8.2895     0.0365     2.4247   159.2571   -61.0573     7.3646     7.3138    10.8295
 1810.0000     8.2918     0.0320     2.4353   159.8811   -61.1918     7.3704     7.3203    10.8340
 1810.5000     8.2940     0.0381     2.4435   156.3447   -61.0278     7.3763     7.2766    10.8259
 1811.0000     8.2962     0.0396     2.4466   159.0490   -61.0130     7.3822     7.2831    10.7346
 1811.5000     8.2986     0.0366     2.4190   160.2675   -60.9982     7.3891     7.2908    10.6415
 1812.0000     8.3007     0.0247     2.4012   160.2972   -60.9834     7.3950     7.2962    10.5733
 1812.5000     8.3029     0.0217     2.4035   159.7325   -60.8194     7.3499     7.3027    10.5056
 1813.0000     8.2902     0.0262     2.4207   157.3848   -60.8046     7.3042     7.2584    10.3665
 1813.5000     8.2925     0.0308     2.4372   157.7117   -60.6863     7.2597     7.1673    10.3001
 1814.0000     8.2947     0.0338     2.4522   159.8217   -60.6656     7.2675     7.1735    10.3051
 1814.5000     8.2970     0.0383     2.4635   160.1486   -60.6449     7.2733     7.1797    10.3101
 1815.0000     8.2992     0.0398     2.4703   159.2868   -60.6242     7.2280     7.1859    10.3161
 1815.5000     8.3014     0.0443     2.4718   159.0193   -60.6035     7.2347     7.1931    10.3210
 1816.0000     8.3036     0.0459     2.4622   160.2377   -60.7319     7.2415     7.1478    10.3260
 1816.5000     8.3211     0.0399     2.4496   161.7533   -60.7112     7.1964     7.1561    10.3309
 1817.0000     8.3233     0.0325     2.4377   162.3774   -60.8447     7.1034     7.0632    10.3359
 1817.5000     8.3252     0.0250     2.4228   162.4071   -60.8188     7.1100     7.0208    10.3408
 1818.0000     8.3274     0.0220     2.4094   162.7340   -60.7981     7.0658     7.0288    10.3458
 1818.5000     8.3354     0.0221     2.4065   163.3581   -60.7774     7.0733     6.9846    10.3507
 1819.0000     8.3470     0.0221     2.4058   163.9822   -60.7567     6.9329     6.9926    10.3557
 1819.5000     8.3492     0.0236     2.4052   164.0119   -60.7343     6.8916     6.9496    10.2881
 1820.0000     8.3516     0.0251     2.4022   164.0416   -60.7154     6.8980     6.8604    10.2943
 1820.5000     8.3538     0.0267     2.3963   163.1798   -60.6945     6.9035     6.8192    10.3705
 1821.0000     8.3561     0.0282     2.3904   162.0208   -60.6637     6.8143     6.7792    10.3755
 1821.5000     8.3583     0.0285     2.3883   161.4562   -60.5037     6.7719     6.6922    10.3805
 1822.0000     8.3605     0.0283     2.3943   164.4576   -60.4829     6.7307     6.6530    10.3854
 1822.5000     8.3627     0.0223     2.3914   166.5676   -60.4620     6.7378     6.6596    10.5349
 1823.0000     8.3495     0.0131     2.3840   164.5171   -60.4370     6.7432     6.6647    10.6129
 1823.5000     8.3374     0.0041     2.3788   165.4383   -60.2673     6.7486     6.6707    10.8402
 1824.0000     8.3397    -0.0031     2.3766   168.7370   -60.0975     6.7549     6.6778    10.9962
 1824.5000     8.3419     0.0078     2.3819   166.9837   -59.9278     6.7602     6.6836    11.1545
 1825.0000     8.3287     0.0153     2.3880   166.4190   -59.7581     6.7656     6.6894    11.3150
 1825.5000     8.3315     0.0182     2.3940   169.1233   -59.7374     6.7710     6.7414    11.5578
 1826.0000     8.3188     0.0210     2.3941   171.2333   -59.7167     6.7764     6.8881    11.6431
 1826.5000     8.3210     0.0225     2.3882   169.7771   -59.6960     6.8297     6.8950    11.5684
 1827.0000     8.3084     0.0226     2.3912   169.5097   -59.8295     6.9782     6.9487    11.4943
 1827.5000     8.3106     0.0243     2.3965   170.7281   -59.8037     6.9838     6.9547    11.3421
 1828.0000     8.2974     0.0271     2.3973   166.8945   -59.7830     7.0378     7.0572    11.4275
 1828.5000     8.3002     0.0289     2.3944   163.0609   -59.7623     7.1918     7.1132    11.6722
 1829.0000     8.2870     0.0334     2.3960   161.3076   -59.7416     7.2976     7.3182    11.8402
 1829.5000     8.2898     0.0364     2.3975   162.5260   -59.7209     7.4050     7.4775    11.7630
 1830.0000     8.2766     0.0407     2.3999   161.3670   -59.8544     7.5660     7.7462    11.6876
 1830.5000     8.2639     0.0424     2.4029   159.9108   -59.8286     7.6255     7.8076    11.6128
 1831.0000     8.2667     0.0453     2.4067   161.7236   -59.9621     7.6316     7.7584    11.4590
 1831.5000     8.2689     0.0453     2.4083   161.1590   -59.9362     7.4286     7.5562    11.3072
 1832.0000     8.2712     0.0408     2.4068   159.7028   -59.9155     7.2821     7.4070    11.0058
 1832.5000     8.2734     0.0315     2.4024   158.5438   -59.8948     7.1899     7.2129    10.7112
 1833.0000     8.2756     0.0242     2.3920   158.2764   -59.8741     7.0951     7.1686    10.4244
 1833.5000     8.2778     0.0230     2.3861   156.8202   -60.0030     7.1026     7.1275    10.1453
 1834.0000     8.2801     0.0215     2.3862   155.9584   -59.9818     7.1575     7.0837    11.0269
 1834.5000     8.2820     0.0217     2.3893   157.1768   -59.9611     7.2628     7.0908    13.3850
 1835.0000     8.2991     0.0231     2.3916   159.5840   -59.9404     7.4732     7.3975    14.3487
 1835.5000     8.3014     0.0261     2.3924   161.9911   -59.9195     7.6357     7.6633    15.0664
 1836.0000     8.2886     0.0261     2.3932   165.8841   -59.8987     7.9102     7.8842    15.3891
 1836.5000     8.2910     0.0246     2.3910   167.9940   -59.8778     8.1945     8.1675    15.3965
 1837.0000     8.2933     0.0232     2.3859   169.2125   -59.7079     8.6083     8.4623    15.4038
 1837.5000     8.2804     0.0216     2.3762   170.4309   -59.6870     8.9795     8.5871    14.9914
 1838.0000     8.2827     0.0156     2.3599   171.0550   -59.6620     9.3668     8.7739    14.6911
 1838.5000     8.2700     0.0096     2.3487   169.0045   -59.6413     9.6368     8.7815    14.5970
 1839.0000     8.2722     0.0038     2.3450   167.8455   -59.6206     9.7799     8.8511    14.6042
 1839.5000     8.2568     0.0009     2.3481   165.4978   -59.6000     9.8555     8.7954    14.8310
 1840.0000     8.2320     0.0100     2.3609   162.8529   -59.5793     9.7942     8.8055    15.6648
 1840.5000     8.2348     0.0175     2.3692   158.1278   -59.7076     9.8033     8.8131    16.0003
 1841.0000     8.2216     0.0235     2.3715   153.1055   -59.8411     9.8124     8.6390    16.0079
 1841.5000     8.2244     0.0294     2.3715   149.5691   -59.9695     9.8883     8.5871    15.9035
 1842.0000     8.2266     0.0295     2.3716   145.4383   -60.0978     9.9647     8.4187    15.9130
 1842.5000     8.2288     0.0249     2.3702   142.4963   -60.0719     9.9727     8.4284    16.0309
 1843.0000     8.2162     0.0175     2.3658   141.6345   -60.2054    10.0498     8.6118    16.4877
 1843.5000     8.2184     0.0115     2.3621   141.6642   -60.3286    10.2697     8.8613    17.3124
