~VERSION INFORMATION
 VERS.                2.0:   CWLS LOG ASCII STANDARD - VERSION 2.0
 WRAP.                 NO:   ONE LINE PER DEPTH STEP
~WELL INFORMATION
#MNEM.UNIT      DATA TYPE    INFORMATION
#----------   ------------   ------------------------------
 STRT.F          174.0000:   START DEPTH
 STOP.F         3492.0000:   STOP DEPTH
 STEP.F            0.5000:   STEP LENGTH
 NULL.          -999.2500:   NO VALUE
 COMP.    FENIX & SCISSON:   COMPANY
 WELL.   FENIX "AX" #18-3:   WELL
 FLD .        TEAPOT DOME:   FIELD
 LOC .       S3 T38N R78W:   LOCATION
 CNTY.            NATRONA:   COUNTY
 STAT.            WYOMING:   STATE
 CTRY. UNITED STATES OF AMERICA:   COUNTRY
 SRVC.       SCHLUMBERGER:   SERVICE COMPANY
 DATE.        09-FEB-1981:   LOGDATE
 API .     49025108630000:   API NUMBER
~CURVE INFORMATION
#MNEM.UNIT       API CODE    CURVE DESCRIPTION
#----------   ------------   ------------------------------
 DEPT.F                  :   
 CALD.IN     45 280 60 00:   CALIPER FROM DENSITY LOG
 GRD .GAPI   45 310 01 00:   GAMMA RAY FROM DENSITY LOG
 RHOB.G/C3   45 350 01 00:   BULK DENSITY
 DRHO.G/C3   45 356 01 00:   DENSITY CORRECTION
 TENR.LBS    07 635 01 00:   TENSION FROM RESISTIVITY
 SPR .MV     07 010 01 00:   SPONTANEOUS POTENTIAL
 ILM .OHMM   07 120 44 00:   INDUCTION LOG MEDIUM RESISTIVITY
 ILD .OHMM   07 120 46 00:   INDUCTION LOG DEEP RESISTIVITY
 SFLU.OHMM   07 220 01 00:   SPHERICALLY FOCUSED LOG UNAVERAGED RESISTIVITY
~PARAMETER INFORMATION
#MNEM.UNIT          VALUE    DESCRIPTION
#----------   ------------   ------------------------------
 EKB .F         5267.0000:   Kelly bushing
 EGL .F         5257.0000:   Ground level
 EDF .F            0.0000:   Drilling floor
 TD  .F         3472.0000:   Total depth
 DATE.        09-FEB-1981:   Date logged
 CLNT.            A2DTECH:   Client Code
 SL  . 669' FSL & 42' FWL:   Surface Location
 PD  .                 GL:   Permanent Datum
 DD  .F              3401:   Depth driller
 DL  .F              3472:   Depth logger
 BLI .F              3466:   Bottom log interval
 CS1 .IN            8.625:   Casing size
 CBD1.      8.625" @ 200':   Casing driller 1
 CBL1.F               196:   Casing logger 1
 BS1 .IN            7.875:   Bit size
 DFT .            KCL/GEL:   Type fluid in hole
 DFD .                  9:   Density
 DFV .                 60:   Viscosity
 DFPH.                8.5:   pH
 DFL .                 10:   Fluid loss
 MSS .            MUD/PIT:   Source of sample
 RMS .OHMM           1.88:   Rm
 MST .F                75:   Rm Meas. temp.
 RMF .OHMM           1.12:   Rmf
 MFST.F                75:   Rmf Meas. temp.
 MFSS.               MEAS:   Source Rmf.
 RMB .OHMM           1.21:   Rm. at BHT
 BHT .F               120:   BHT.
 TCS .HRS            1800:   Time Circ. stopped
 MRT .F               120:   Maximum recorded temp.
 LUN .               8043:   Logging unit number
 LUL .               CSPR:   Logging unit location
 ENGI.            CONNETT:   Recorded By
 WITN.              SCOTT:   Witnessed by
 ORIG.           5" PRINT:   Origin of data
 UWI .     49025108630000:   Unique Well ID
 DICO. A2D TECHNOLOGIES, INC.:   Digitizing Company
 DAPD.F                10:   Feet Above Permanent Datum
 BSD1.F              3401:   Depth drilled with bit1
 EPD .F              5257:   Elevation Permanent Datum
 LMF .                 KB:   Log Measured From
 DMF .                 KB:   Drilling Measured From
 TLI .F               196:   Top log interval
 TLAB.               0000:   Time logger at bottom
~OTHER INFORMATION
~A   DEPT     CALD         GRD      RHOB       DRHO       TENR        SPR        ILM        ILD       SFLU   
# ...
 2364.0000     8.8870   121.2170     2.5180     0.0670   914.2030   -41.3220    11.6040    11.2310    15.1670
 2364.5000     8.8870   124.3250     2.5320     0.0780   914.4250   -41.0880    11.7160    11.3250    15.2070
 2365.0000     8.8870   127.4370     2.5240     0.0690   914.6470   -41.0170    11.8250    11.4190    15.2600
 2365.5000     8.8870   130.4080     2.5060     0.0590   914.8690   -40.9310    11.7790    11.5020    15.3080
 2366.0000     8.8870   131.1600     2.4850     0.0500   915.0920   -40.8490    11.7150    11.3990    14.7770
 2366.5000     8.8870   131.8250     2.4760     0.0490   915.3140   -40.7670    11.6510    11.2860    14.0320
 2367.0000     8.8870   132.4990     2.4850     0.0540   915.5360   -40.6940    11.5870    11.1730    13.2860
 2367.5000     8.8870   133.1750     2.4970     0.0590   915.7580   -40.6930    11.5220    11.0610    13.2080
 2368.0000     8.8870   133.8510     2.5020     0.0580   915.9800   -40.6930    11.4580    10.9480    13.7670
 2368.5000     8.8880   134.5350     2.4950     0.0540   916.2020   -40.6940    11.3660    10.8350    14.2800
 2369.0000     8.8880   135.2070     2.4970     0.0550   916.4240   -40.6940    11.2740    10.7220    14.7920
 2369.5000     8.8880   133.6350     2.5100     0.0660   916.6470   -40.8350    11.1890    10.5560    15.1670
 2370.0000     8.8880   131.6870     2.5230     0.0780   916.8690   -41.1390    10.9510    10.3640    14.7340
 2370.5000     8.8880   129.8340     2.5350     0.0880   917.0910   -41.4410    10.5940    10.1710    14.0380
 2371.0000     8.8880   128.5750     2.5320     0.0830   917.3130   -41.6310    10.1100     9.9790    12.7670
 2371.5000     8.8880   127.3350     2.5230     0.0770   917.5350   -41.8020    10.1590     9.8340    11.4970
 2372.0000     8.8880   124.4480     2.5140     0.0720   917.7570   -41.9730    10.2710     9.9110    10.7840
 2372.5000     8.8880   119.6220     2.5050     0.0690   917.9790   -42.1520    10.3830     9.9850    11.5020
 2373.0000     8.8880   114.5300     2.5060     0.0670   918.2010   -42.4400    10.4940    10.0590    12.3630
 2373.5000     8.8880   109.4360     2.5120     0.0660   918.4240   -42.3580    10.6060    10.1330    13.2080
 2374.0000     8.8880   105.8740     2.5170     0.0630   918.6460   -42.0600    10.7180    10.2070    13.7340
 2374.5000     8.8890   103.9050     2.5230     0.0680   918.8680   -41.8500    10.8320    10.2810    14.2500
 2375.0000     8.8890   103.3790     2.5220     0.0660   919.0900   -41.6850    11.0670    10.3550    14.4480
 2375.5000     8.8890   106.4830     2.5130     0.0570   919.3120   -41.5190    11.3970    10.4290    14.5690
 2376.0000     8.8890   114.0740     2.5060     0.0540   919.5340   -41.3550    11.3600    10.5870    14.6940
 2376.5000     8.8890   123.0750     2.5110     0.0580   919.7560   -41.1900    11.2670    10.4690    14.1620
 2377.0000     8.8890   131.5040     2.5160     0.0730   919.9780   -41.0280    11.1740    10.3200    13.7370
 2377.5000     8.8890   136.4560     2.5170     0.0780   920.2010   -40.8900    11.0810    10.1710    13.3110
 2378.0000     8.8890   137.8080     2.5130     0.0770   920.4230   -40.9200    10.9840    10.0170    12.8860
 2378.5000     8.8890   136.9000     2.5090     0.0710   920.6450   -40.9460    10.9660    10.0170    12.6130
 2379.0000     8.8890   134.7030     2.5070     0.0640   920.8670   -40.9710    10.9460    10.0840    13.0810
 2379.5000     8.8890   131.3320     2.5050     0.0580   921.0890   -40.9960    10.9270    10.1530    13.4850
 2380.0000     8.8890   127.9310     2.5090     0.0580   921.3110   -41.0220    10.9080    10.2230    13.9600
 2380.5000     8.8900   124.5380     2.5210     0.0750   921.5330   -41.0470    10.8890    10.2980    13.9100
 2381.0000     8.8900   125.0380     2.5320     0.0890   921.7550   -41.0720    10.7330    10.1150    13.8570
 2381.5000     8.8900   126.2850     2.5380     0.0930   921.9780   -41.0940    10.5280     9.9190    13.7700
 2382.0000     8.8900   125.8860     2.5390     0.0910   922.2000   -41.1260    10.3230     9.7230    13.2650
 2382.5000     8.8900   122.0270     2.5300     0.0790   922.4220   -41.1590    10.1180     9.5270    12.7600
 2383.0000     8.8900   117.7680     2.5160     0.0670   922.6440   -41.1920    10.0170     9.3910    12.2550
 2383.5000     8.8900   119.8700     2.4990     0.0550   922.8660   -41.2240    10.1720     9.5660    11.7500
 2384.0000     8.8900   125.7190     2.4820     0.0500   923.0880   -41.2570    10.2900     9.5660    11.2450
 2384.5000     8.8900   134.1550     2.4800     0.0560   923.3100   -41.2870    10.4090     9.6540    10.7840
 2385.0000     8.8900   134.1160     2.4890     0.0610   923.5330   -41.2870    10.5270     9.7440    11.4170
 2385.5000     8.8900   129.9620     2.4980     0.0670   923.7550   -41.2870    10.6460     9.9180    12.9510
 2386.0000     8.8910   126.4290     2.5070     0.0730   923.9770   -41.2870    10.7730    10.1170    15.3080
 2386.5000     8.8910   124.7980     2.5150     0.0780   924.1990   -41.2870    10.9050    10.3160    15.1630
 2387.0000     8.8910   124.4440     2.5130     0.0720   924.4210   -41.2870    11.0370    10.5150    14.8510
 2387.5000     8.8910   122.4000     2.5090     0.0590   924.6430   -41.2860    11.1890    10.7680    14.4840
 2388.0000     8.8910   119.1710     2.5040     0.0470   924.8650   -41.1830    11.1250    10.7160    13.9590
 2388.5000     8.8910   115.8610     2.4990     0.0400   925.0870   -40.9480    10.9820    10.6110    13.5620
 2389.0000     8.8910   116.6070     2.4910     0.0420   925.3100   -40.7130    10.8400    10.5060    13.4940
 2389.5000     8.8910   119.2970     2.4850     0.0460   925.5320   -40.4800    10.6970    10.4010    13.2400
 2390.0000     8.8910   122.0740     2.4970     0.0600   925.7540   -40.2940    10.5870    10.2980    11.9580
 2390.5000     8.8910   124.8450     2.5120     0.0730   925.9760   -40.3800    10.6320    10.4050    12.0600
 2391.0000     8.8910   127.6410     2.5160     0.0760   926.1980   -40.4630    10.6770    10.4190    12.2620
 2391.5000     8.8910   128.1310     2.5140     0.0760   926.4200   -40.5450    10.7220    10.4330    12.6150
 2392.0000     8.8920   125.9120     2.5100     0.0670   926.6420   -40.6270    10.7660    10.4470    13.7560
 2392.5000     8.8920   121.6730     2.5070     0.0530   926.8640   -40.7090    10.8110    10.4610    14.3510
 2393.0000     8.8920   117.4520     2.5090     0.0510   927.0870   -40.7910    10.8560    10.4750    14.3510
 2393.5000     8.8920   117.0780     2.5290     0.0660   927.3090   -40.8740    10.8830    10.4890    14.3510
 2394.0000     8.8920   117.3660     2.5500     0.0820   927.5310   -40.8910    10.7730    10.4090    13.7890
 2394.5000     8.8920   116.9610     2.5720     0.1020   927.7530   -40.8910    10.6790    10.2690    13.2140
 2395.0000     8.8920   115.9490     2.5770     0.0980   927.9750   -40.8910    10.5850    10.1280    12.6390
 2395.5000     8.8920   114.9420     2.5750     0.0960   928.1970   -40.8750    10.4910     9.9880    12.2690
 2396.0000     8.8920   114.0840     2.5770     0.0950   928.4190   -40.8280    10.3980     9.8480    12.2690
 2396.5000     8.8920   113.3690     2.5850     0.1030   928.6420   -40.7810    10.3040     9.7080    12.2690
 2397.0000     8.8920   113.8790     2.5880     0.1010   928.8640   -40.7340    10.2100     9.5680    12.0220
 2397.5000     8.8920   114.8600     2.5770     0.0940   929.0860   -40.6760    10.1100     9.4270    11.6890
 2398.0000     8.8930   115.2270     2.5720     0.0890   929.3080   -40.5480    10.1490     9.3050    11.4090
 2398.5000     8.8930   113.6600     2.5750     0.1010   929.5300   -40.4190    10.2030     9.2190    11.5050
 2399.0000     8.8930   112.8010     2.5770     0.0960   929.7520   -40.2910    10.2580     9.2190    11.6090
 2399.5000     8.8930   114.3110     2.5670     0.0880   929.9740   -40.1650    10.3120     9.1350    11.3600
 2400.0000     8.8930   117.4660     2.5570     0.0790   930.1960   -40.1040    10.3930     9.0510    11.0800
