~VERSION INFORMATION
 VERS.                2.0:   CWLS LOG ASCII STANDARD - VERSION 2.0
 WRAP.                 NO:   ONE LINE PER DEPTH STEP
~WELL INFORMATION
#MNEM.UNIT      DATA TYPE    INFORMATION
#----------   ------------   ------------------------------
 STRT.F          470.0000:   START DEPTH
 STOP.F         3791.5000:   STOP DEPTH
 STEP.F            0.5000:   STEP LENGTH
 NULL.          -999.2500:   NO VALUE
 COMP.    FENIX & SCISSON:   COMPANY
 WELL.   FENIX MDX #44-10:   WELL
 FLD .                NPR:   FIELD
 LOC .      S10 T38N R78W:   LOCATION
 CNTY.            NATRONA:   COUNTY
 STAT.            WYOMING:   STATE
 CTRY. UNITED STATES OF AMERICA:   COUNTRY
 SRVC.       SCHLUMBERGER:   SERVICE COMPANY
 DATE.        25-OCT-1977:   LOGDATE
 API .     49025104310000:   API NUMBER
~CURVE INFORMATION
#MNEM.UNIT       API CODE    CURVE DESCRIPTION
#----------   ------------   ------------------------------
 DEPT.F                  :   
 DT  .US/F   60 520 00 00:   DELTA TIME
 SPR .MV     11 010 01 00:   SPONTANEOUS POTENTIAL FROM RES.
 LLS .OHMM   11 220 09 00:   LATEROLOG LOG SHALLOW
 LLD .OHMM   11 220 10 00:   LATEROLOG LOG DEEP
 MSFL.OHMM   11 270 04 00:   MICRO SPHERICALLY FOCUSED
 NPOR.DEC    42 890 03 00:   ALPHA PROCESSED NEUTRON POROSITY
 RHOB.G/C3   45 350 01 00:   BULK DENSITY
 CORR.G/C3   45 356 01 00:   DENSITY CORRECTION
 GRD .GAPI   45 310 01 00:   GAMMA RAY FROM DENSITY LOG
 CALD.IN     45 280 60 00:   CALIPER FROM DENSITY LOG
~PARAMETER INFORMATION
#MNEM.UNIT          VALUE    DESCRIPTION
#----------   ------------   ------------------------------
 EKB .F         5239.0000:   Kelly bushing
 EGL .F         5229.0000:   Ground level
 EDF .F            0.0000:   Drilling floor
 EPD .F           10.0000:   Permanent datum
 TD  .F         3802.0000:   Total depth
 DATE.        25-OCT-1977:   Date logged
 CLNT.            A2DTECH:   Client Code
 SL  . 2640' FNL & 2640' FEL:   Surface Location
 PD  .                 GL:   Permanent Datum
 DD  .F              3802:   Depth driller
 DL  .F              3791:   Depth logger
 BLI .F              3789:   Bottom log interval
 TLI .F               505:   Top log interval
 CS1 .IN            8.625:   Casing size
 CBD1.       8.625 @ 505':   Casing driller 1
 CBL1.F               505:   Casing logger 1
 BS1 .IN            7.875:   Bit size
 DFT .            KCL MUD:   Type fluid in hole
 DFD .                9.1:   Density
 DFV .                 45:   Viscosity
 DFPH.               10.5:   pH
 DFL .                  8:   Fluid loss
 MSS .             MUDPIT:   Source of sample
 RMS .OHMM           .209:   Rm
 MST .F                72:   Rm Meas. temp.
 RMF .OHMM           .179:   Rmf
 MFST.F                72:   Rmf Meas. temp.
 RMC .OHMM           .314:   Rmc
 MCST.F                72:   Rmc Meas. temp.
 MFSS.               MEAS:   Source Rmf.
 RMB .OHMM           .122:   Rm. at BHT
 BHT .F               123:   BHT.
 TCS .HRS            1400:   Time Circ. stopped
 MRT .F               123:   Maximum recorded temp.
 LUN .               5642:   Logging unit number
 LUL .               CSPR:   Logging unit location
 ENGI.             SAYLER:   Recorded By
 WITN.         PETTINGILL:   Witnessed by
 ORIG.           5" PRINT:   Origin of data
 UWI .     49025104310000:   Unique Well ID
 DICO. A2D TECHNOLOGIES, INC.:   Digitizing Company
 DAPD.                 10:   Feet Above Permanent Datum
 BSD1.               3802:   Depth drilled with bit1
 MCSS.               CALC:   Source Rmc.
~OTHER INFORMATION
~A   DEPT        DT       SPR        LLS        LLD       MSFL       NPOR       RHOB       CORR        GRD       CALD   
# ...
 1140.0000    93.4680   -37.3990    10.0720     9.3410    12.7950     0.3500     2.4960     0.0010    92.9110    11.5780
 1140.5000    93.5500   -37.3790    10.0290     9.2770    12.1590     0.3610     2.5000     0.0030    95.3320    11.5810
 1141.0000    94.7500   -37.3590     9.9870     9.2140    11.5100     0.3610     2.4960     0.0180    95.4540    11.5830
 1141.5000    95.0500   -37.3400     9.9450     9.1500    11.2470     0.3540     2.4930     0.0030    95.4380    11.5860
 1142.0000    94.7390   -37.3200     9.9030     9.1000    11.3320     0.3450     2.5020     0.0120    95.4260    11.5890
 1142.5000    94.8970   -37.3000     9.8860     9.1320    11.7500     0.3380     2.5130    -0.0020    95.4920    11.5930
 1143.0000    95.7800   -37.2810     9.8860     9.2890    12.1070     0.3330     2.5090    -0.0020    96.8130    11.5960
 1143.5000    96.4500   -37.2610     9.8860     9.4410    12.1070     0.3280     2.5040     0.0010    98.1080    11.6000
 1144.0000    95.7710   -37.2420     9.6020     9.0900    11.4140     0.3260     2.5020     0.0160    99.3960    11.6030
 1144.5000    95.1090   -37.2220     9.2690     8.6900    11.1440     0.3250     2.5030     0.0110   100.6840    11.6000
 1145.0000    94.8600   -37.2020     9.3550     8.7710    11.3970     0.3260     2.5110     0.0130   101.9470    11.5870
 1145.5000    95.0300   -37.1830     9.2890     8.8840    11.7770     0.3280     2.5120     0.0310   102.5730    11.5740
 1146.0000    96.2500   -37.1630     9.2260     9.0620    11.7770     0.3250     2.5040     0.0170   100.3070    11.5610
 1146.5000    96.6420   -37.1430     9.1630     9.2390    11.4760     0.3040     2.4960    -0.0020    98.0800    11.5490
 1147.0000    96.6500   -37.1260     9.1000     9.4170    11.3450     0.3030     2.4970     0.0030    95.9160    11.5350
 1147.5000    95.7860   -37.1130     9.0370     9.5940    11.2150     0.3070     2.4980    -0.0060    96.2410    11.5220
 1148.0000    95.5720   -37.1000     8.9970     9.6520    11.0840     0.3080     2.4920    -0.0040    96.6890    11.5080
 1148.5000    95.9920   -37.0880     8.9680     9.7060    11.0420     0.3050     2.4860     0.0040    97.1300    11.4950
 1149.0000    96.4500   -37.0750     8.9400     9.6920    11.2750     0.3020     2.4910     0.0030    97.4130    11.4900
 1149.5000    96.6010   -37.0620     8.9110     9.6710    11.4330     0.3020     2.4910    -0.0190    96.4610    11.5020
 1150.0000    96.4500   -37.0500     8.8820     9.6500    11.5900     0.3080     2.4860     0.0120    95.4240    11.5150
 1150.5000    96.0900   -37.0370     8.8540     9.6300    11.6690     0.3060     2.4850    -0.0040    94.3910    11.5270
 1151.0000    95.6500   -37.0240     8.8250     9.6090    11.5830     0.3050     2.4890     0.0030    92.8980    11.5390
 1151.5000    95.2500   -37.0120     8.7960     9.5880    11.4880     0.3050     2.4890    -0.0040    93.3890    11.5510
 1152.0000    94.8500   -36.9990     8.7710     9.5680    11.3930     0.3210     2.4860    -0.0030    94.9450    11.5610
 1152.5000    94.8640   -36.9860     8.8400     9.5470    11.2990     0.3190     2.4960     0.0160    96.5380    11.5710
 1153.0000    95.0910   -36.9740     8.9030     9.5170    11.2040     0.3170     2.5080     0.0180    98.1300    11.5800
 1153.5000    95.1250   -36.9610     8.9660     9.4130    11.1090     0.3200     2.5070     0.0080    99.7160    11.6050
 1154.0000    94.7500   -36.9490     9.0280     9.3090    11.0140     0.3230     2.4980     0.0000   100.9460    11.6050
 1154.5000    95.3000   -36.9360     9.0910     9.2050    10.9190     0.3260     2.4900     0.0070   101.7390    11.6050
 1155.0000    95.8500   -36.9230     9.1840     9.1010    10.8240     0.3280     2.4820     0.0040   102.5400    11.6050
 1155.5000    95.6590   -36.9110     9.1670     8.9970    10.6940     0.3230     2.4800    -0.0040   102.8710    11.5990
 1156.0000    95.3860   -36.8980     9.1350     8.8930    10.3120     0.3200     2.4920     0.0030   100.0260    11.5920
 1156.5000    95.2330   -36.8850     9.1000     8.7890     9.9780     0.3420     2.5000     0.0100    97.1620    11.5860
 1157.0000    95.1780   -36.8730     9.2040     8.6840    10.0700     0.3380     2.4980     0.0000    95.4070    11.5980
 1157.5000    95.2130   -36.8600     9.3160     8.5320    10.3820     0.3300     2.4870    -0.0070    93.9980    11.6100
 1158.0000    95.8500   -36.8480     9.4290     8.5940    10.7630     0.3280     2.4730     0.0030    92.5030    11.6220
 1158.5000    96.3370   -36.8350     9.5410     8.7100    11.0420     0.3270     2.4770    -0.0030    93.1400    11.6600
 1159.0000    95.9620   -36.8220     9.6540     8.8270    11.1440     0.3200     2.4850     0.0080    94.2070    11.7040
 1159.5000    96.2000   -36.8100     9.7960     8.9440    11.2470     0.3070     2.4810    -0.0050    95.2920    11.7480
 1160.0000    95.6110   -36.7970     9.7510     9.0600    11.1220     0.3000     2.4860     0.0090    96.3750    11.7850
 1160.5000    94.4500   -36.7840     9.6900     9.1840    11.0420     0.2960     2.4960    -0.0020    97.4540    11.7830
 1161.0000    94.4500   -36.7720     9.6290     9.1840    11.0790     0.2870     2.5050     0.0010    98.5400    11.7560
 1161.5000    94.1000   -36.7590     9.5680     9.1580    11.3410     0.2840     2.5000     0.0080    99.0060    11.7280
 1162.0000    93.6500   -36.7460     9.5290     9.1100    11.6030     0.2980     2.4970    -0.0010    99.1460    11.7000
 1162.5000    94.9500   -36.7330     9.6080     9.0620    11.6690     0.3190     2.4990     0.0060    99.5300    11.6720
 1163.0000    95.1500   -36.7590     9.6680     9.0140    11.4710     0.3200     2.4940    -0.0030    99.4370    11.6440
 1163.5000    94.8500   -36.7880     9.7060     8.9660    11.2620     0.3170     2.5100     0.0020    98.1660    11.6150
 1164.0000    94.4560   -36.8170     9.3980     8.9180    11.0530     0.3160     2.5180     0.0060    96.9010    11.5860
 1164.5000    94.0190   -36.8460     9.1710     8.8710    10.8450     0.3080     2.5130    -0.0010    97.4650    11.5850
 1165.0000    93.5810   -36.8750     8.9430     8.8230    10.6360     0.3290     2.5090     0.0050    98.5820    11.5850
 1165.5000    93.7680   -36.9040     8.7160     8.7750    10.4480     0.3270     2.5130     0.0150    99.7460    11.5850
 1166.0000    94.2230   -36.9340     8.4890     8.7270    10.3520     0.3210     2.5130     0.0090    99.4260    11.5840
 1166.5000    94.3670   -36.9630     8.2970     8.6790    10.3950     0.3140     2.5100    -0.0030    98.6800    11.5720
 1167.0000    94.4820   -36.9920     8.2850     8.6310    10.4720     0.3090     2.5160    -0.0050    97.9620    11.5590
 1167.5000    95.2550   -37.0210     8.2720     8.6100    10.5480     0.3090     2.5230     0.0040    97.8840    11.5470
 1168.0000    96.0500   -37.0500     8.2600     8.6230    10.6420     0.3280     2.5190    -0.0030    99.7740    11.5420
 1168.5000    95.8290   -37.0790     8.2470     8.6340    10.4460     0.3310     2.5170     0.0100   101.6610    11.5380
 1169.0000    95.4500   -37.1080     8.2350     8.6450    10.1630     0.3280     2.5150     0.0190   102.1300    11.5340
 1169.5000    95.0500   -37.1370     8.2220     8.6560    10.2860     0.3290     2.5080     0.0010   101.5590    11.5300
 1170.0000    95.0550   -37.1670     8.2100     8.6660    10.3520     0.3320     2.5020     0.0090   100.6530    11.5280
 1170.5000    95.4640   -37.1960     8.1970     8.6770    10.1310     0.3330     2.5010    -0.0020    99.5900    11.5020
 1171.0000    95.6800   -37.2250     8.1850     8.6880     9.9780     0.3300     2.4880    -0.0010    98.5200    11.4790
 1171.5000    95.4470   -37.2540     8.1730     8.6990     9.9690     0.3260     2.4780    -0.0100    97.4610    11.4410
 1172.0000    95.2130   -37.2830     8.1600     8.7090     9.9480     0.3160     2.4800    -0.0020    96.9400    11.4070
 1172.5000    95.2670   -37.3120     8.1480     8.7200     9.9260     0.3090     2.5000     0.0040    98.5240    11.4070
 1173.0000    95.9890   -37.3390     8.1480     8.7310     9.9040     0.3090     2.5010     0.0100   100.0600    11.4070
