~VERSION INFORMATION
 VERS.                2.0:   CWLS LOG ASCII STANDARD - VERSION 2.0
 WRAP.                 NO:   ONE LINE PER DEPTH STEP
~WELL INFORMATION
#MNEM.UNIT      DATA TYPE    INFORMATION
#----------   ------------   ------------------------------
 STRT.F           36.0000:   START DEPTH
 STOP.F         4960.0000:   STOP DEPTH
 STEP.F            0.5000:   STEP LENGTH
 NULL.          -999.2500:   NO VALUE
 COMP.   TESORO PETROLEUM:   COMPANY
 WELL. TESORO NPR 3 "DX" #55-23:   WELL
 FLD .        TEAPOT DOME:   FIELD
 LOC .      S23 T38N R78W:   LOCATION
 CNTY.            NATRONA:   COUNTY
 STAT.            WYOMING:   STATE
 CTRY. UNITED STATES OF AMERICA:   COUNTRY
 SRVC.           BIRDWELL:   SERVICE COMPANY
 DATE.        17-AUG-1975:   LOGDATE
 API .     49025102510000:   API NUMBER
~CURVE INFORMATION
#MNEM.UNIT       API CODE    CURVE DESCRIPTION
#----------   ------------   ------------------------------
 DEPT.F                  :   
 TEND.LBS    45 635 01 00:   TENSION FROM DENSITY LOG
 CALD.IN     45 280 60 00:   CALIPER FROM DENSITY LOG
 CORR.G/C3   45 356 01 00:   DENSITY CORRECTION
 GRD .GAPI   45 310 01 00:   GAMMA RAY FROM DENSITY LOG
 RHOB.G/C3   45 350 01 00:   BULK DENSITY
 SPR .MV     07 010 01 00:   SPONTANEOUS POTENTIAL
 ILM .OHMM   07 120 44 00:   INDUCTION LOG MEDIUM RESISTIVITY
 ILD .OHMM   07 120 46 00:   DEEP INDUCTION RESISTIVITY
 SFL .OHMM   07 220 01 00:   SHALLOW FOCUSED LOG RESISTIVITY
~PARAMETER INFORMATION
#MNEM.UNIT          VALUE    DESCRIPTION
#----------   ------------   ------------------------------
 EKB .F         5371.0000:   Kelly bushing
 EGL .F         5360.0000:   Ground level
 EDF .F            0.0000:   Drilling floor
 TD  .F         4955.0000:   Total depth
 DATE.        17-AUG-1975:   Date logged
 CLNT.            A2DTECH:   Client Code
 SL  . 1980' FSL & 2030' FEL:   Surface Location
 PD  .                 GL:   Permanent Datum
 DD  .F              4955:   Depth driller
 DL  .F              4945:   Depth logger
 BLI .F              4943:   Bottom log interval
 CS1 .IN            8.625:   Casing size
 CBD1.     8.625" @ 1450':   Casing driller 1
 CBL1.F              1457:   Casing logger 1
 BS1 .IN            7.875:   Bit size
 DFT .            KCL/GEL:   Type fluid in hole
 DFD .                9.5:   Density
 DFV .                 53:   Viscosity
 DFPH.                8.5:   pH
 DFL .                7.4:   Fluid loss
 MSS .           FLOWLINE:   Source of sample
 RMS .OHMM            1.2:   Rm
 MST .F                72:   Rm Meas. temp.
 RMF .OHMM            .94:   Rmf
 MFST.F                74:   Rmf Meas. temp.
 MFSS.               MEAS:   Source Rmf.
 RMB .OHMM            .71:   Rm. at BHT
 BHT .F               121:   BHT.
 TCS .HRS               4:   Time Circ. stopped
 MRT .F               121:   Maximum recorded temp.
 LUN .               6078:   Logging unit number
 LUL .              GLTTE:   Logging unit location
 ENGI.      NORDEN/SUTTON:   Recorded By
 WITN.          UNDERWOOD:   Witnessed by
 ORIG.           5" PRINT:   Origin of data
 UWI .     49025102510000:   Unique Well ID
 DICO. A2D TECHNOLOGIES, INC.:   Digitizing Company
 DAPD.F                11:   Feet Above Permanent Datum
 BSD1.F              5360:   Depth drilled with bit1
 EPD .F              5360:   Elevation Permanent Datum
 LMF .                 KB:   Log Measured From
 DMF .                 KB:   Drilling Measured From
 TLI .F              1457:   Top log interval
~OTHER INFORMATION
~A   DEPT     TEND       CALD       CORR        GRD       RHOB        SPR        ILM        ILD          SFL 
# ...
 4416.0000  2354.0049     9.4200     0.1070    79.7300     2.2410   -23.8300     1.7620     1.8410     2.5810
 4416.5000  2367.3220     9.3790     0.0880    78.0030     2.2330   -23.8830     2.2380     2.0550     2.8200
 4417.0000  2403.3550     9.3370     0.0690    76.1690     2.2510   -23.9360     2.7390     2.2880     3.2270
 4417.5000  2439.3879     9.2950     0.0550    68.9120     2.3290   -23.9950     3.2170     2.5220     5.1710
 4418.0000  2443.3989     9.2670     0.0480    58.3410     2.4390   -23.8370     3.5920     3.0850     8.1170
 4418.5000  2389.3501     9.2490     0.0100    47.0890     2.5050   -23.6090     3.9670     3.7360     7.7430
 4419.0000  2335.3000     9.2320     0.0010    42.8680     2.4920   -23.3800     4.1850     4.1890     6.8350
 4419.5000  2283.1509     9.2140    -0.0010    44.4450     2.4830   -23.1520     4.2820     4.3780     5.9270
 4420.0000  2365.3479     9.1980    -0.0010    46.2110     2.4850   -23.0130     4.3760     4.5680     4.7610
 4420.5000  2424.1479     9.1970     0.0000    47.7640     2.4910   -23.0520     4.4710     4.7130     4.8320
 4421.0000  2429.2520     9.1970     0.0010    48.6250     2.4950   -23.0890     4.5650     4.8360     4.9840
 4421.5000  2434.3569     9.1970     0.0020    49.5270     2.4940   -23.1270     4.6650     4.9590     5.1270
 4422.0000  2439.4619     9.1970     0.0030    48.6530     2.4930   -23.1640     4.7800     5.0820     5.3210
 4422.5000  2436.3579     9.1970     0.0060    47.2670     2.4940   -23.1920     4.8940     5.2050     5.5150
 4423.0000  2419.3420     9.1970     0.0080    46.7790     2.5010   -23.4670     5.0090     5.3270     5.7290
 4423.5000  2402.3259     9.1970     0.0110    46.8940     2.5070   -23.7710     5.1230     5.4500     6.0310
 4424.0000  2385.3110     9.1810     0.0120    46.5500     2.5110   -24.0790     5.2380     5.5730     6.1590
 4424.5000  2395.9519     9.1640     0.0120    46.2600     2.5060   -24.3840     5.3520     5.6960     5.9920
 4425.0000  2411.2661     9.1480     0.0110    46.9370     2.5020   -24.6170     5.4670     5.7900     6.1360
 4425.5000  2426.5801     9.1320     0.0100    47.6750     2.5040   -24.6540     5.5820     5.8760     6.3800
 4426.0000  2442.6721     9.1160     0.0150    48.9700     2.5080   -24.6940     5.6960     5.9620     6.5690
 4426.5000  2427.3711     9.1000     0.0210    50.2230     2.5140   -24.7350     5.8110     6.0480     6.5380
 4427.0000  2411.2500     9.0830     0.0270    49.5300     2.5210   -24.7750     5.8870     6.1340     6.5090
 4427.5000  2395.1299     9.0670     0.0340    48.6560     2.5170   -24.8150     5.9560     6.2190     6.8150
 4428.0000  2385.7129     9.0510     0.0290    47.5030     2.4990   -24.8550     6.0250     6.3050     6.9420
 4428.5000  2397.7241     9.0350     0.0230    46.3500     2.4850   -24.8960     6.0940     6.3910     6.9420
 4429.0000  2409.7351     9.0190     0.0180    45.4240     2.4780   -24.9360     6.1630     6.4770     6.8720
 4429.5000  2422.7319     9.0020     0.0150    45.1530     2.4700   -24.9750     6.2320     6.5690     6.8080
 4430.0000  2403.9880     8.9830     0.0180    44.8820     2.4650   -24.9690     6.3010     6.6300     6.7530
 4430.5000  2382.8511     8.9630     0.0230    44.6370     2.4640   -24.8160     6.3680     6.6910     6.8060
 4431.0000  2388.1809     8.9420     0.0290    43.0650     2.4600   -24.6640     6.4490     6.6830     6.8780
 4431.5000  2397.4619     8.9220     0.0350    41.6060     2.4480   -24.5140     6.3440     6.6670     7.3130
 4432.0000  2395.5471     8.9020     0.0410    41.6130     2.4470   -24.3990     6.2080     6.6510     7.7620
 4432.5000  2378.5310     8.8920     0.0460    42.7620     2.4460   -24.4530     6.0710     6.6320     8.1170
 4433.0000  2361.5149     8.8850     0.0420    43.8950     2.4480   -24.5270     5.9920     6.6890     7.2280
 4433.5000  2342.9709     8.8770     0.0370    44.9330     2.4540   -24.6020     5.9920     6.7850     6.4910
 4434.0000  2389.4319     8.8700     0.0420    44.2180     2.4630   -24.6770     6.1260     6.8810     5.9370
 4434.5000  2385.0569     8.8630     0.0370    42.4700     2.4700   -24.7500     6.4290     6.9770     6.3590
 4435.0000  2361.0349     8.8550     0.0300    41.3690     2.4740   -24.7670     6.7310     7.0740     7.0020
 4435.5000  2337.0120     8.8480     0.0240    40.7570     2.4730   -24.6470     7.0330     7.1700     7.6450
 4436.0000  2335.2229     8.8400     0.0170    40.6650     2.4710   -24.5310     7.3350     7.2660     8.2880
 4436.5000  2362.9109     8.8330     0.0170    40.5990     2.4690   -24.4160     7.5410     7.3620     9.2330
 4437.0000  2343.9800     8.8250     0.0180    40.7170     2.4700   -24.3010     7.5410     7.4580     8.6900
 4437.5000  2325.9629     8.8190     0.0230    41.4800     2.4750   -24.1870     7.4320     7.5540     7.6110
 4438.0000  2307.9470     8.8230     0.0290    42.2290     2.4810   -24.0710     7.2840     7.6500     7.8220
 4438.5000  2324.3979     8.8270     0.0350    42.9740     2.4870   -23.9420     7.1360     7.7460     8.0440
 4439.0000  2338.3350     8.8300     0.0420    43.7180     2.4890   -23.6350     6.9880     7.8240     8.5000
 4439.5000  2325.5730     8.8340     0.0480    44.4860     2.4920   -23.3320     6.7530     7.6970     8.1650
 4440.0000  2364.2410     8.8380     0.0450    45.2290     2.4840   -23.0320     6.8130     7.5910     7.7430
 4440.5000  2397.9260     8.8360     0.0370    44.3670     2.4810   -22.8020     6.9590     7.4840     7.3360
 4441.0000  2377.5071     8.8330     0.0410    43.2480     2.4860   -22.7850     7.1040     7.4000     7.6370
 4441.5000  2357.0891     8.8300     0.0490    42.1090     2.4890   -22.7630     7.2600     7.3850     7.9970
 4442.0000  2336.6699     8.8260     0.0560    41.0840     2.4870   -22.7400     7.1980     7.3710     8.6670
 4442.5000  2323.9031     8.8230     0.0640    41.8920     2.4740   -22.7180     7.1150     7.3560     9.5800
 4443.0000  2330.2839     8.8200     0.0710    43.1730     2.4440   -22.6950     7.0330     7.3410     8.9600
 4443.5000  2336.6650     8.8170     0.0780    44.4620     2.4340   -22.6730     6.9500     7.3260     7.6110
 4444.0000  2342.9709     8.8140     0.0850    45.7620     2.4400   -22.6500     6.8800     7.3110     7.4720
 4444.5000  2331.6050     8.8110     0.0820    46.2280     2.4300   -22.6280     6.8930     7.2960     7.6110
 4445.0000  2317.6831     8.8070     0.0760    44.3940     2.4330   -22.6310     6.9060     7.2810     7.2690
 4445.5000  2303.7610     8.8040     0.0710    44.9360     2.4370   -22.7640     6.9190     7.2690     8.0210
 4446.0000  2289.8401     8.8010     0.0730    45.1500     2.4620   -22.8960     6.9320     7.4240     8.3800
 4446.5000  2290.1189     8.8010     0.0770    44.3770     2.4750   -23.0270     6.9420     7.5570     7.9890
 4447.0000  2311.6130     8.8070     0.0800    43.1490     2.4730   -23.1600     7.1230     7.6890     7.6810
 4447.5000  2333.1060     8.8140     0.0840    41.9470     2.4770   -23.2210     7.3030     7.8220     8.4940
 4448.0000  2354.5991     8.8210     0.0870    40.7460     2.4820   -23.2550     7.4040     7.9460    10.0310
 4448.5000  2357.2280     8.8270     0.0900    40.7940     2.4860   -23.2880     7.2140     8.0600     9.6810
 4449.0000  2331.7051     8.8340     0.0890    42.0910     2.4900   -23.3210     7.0710     8.1740     8.9050
 4449.5000  2306.1809     8.8380     0.0860    43.4160     2.4960   -23.3540     7.2100     8.2880     7.9690
 4450.0000  2283.1509     8.8340     0.0720    44.7720     2.5010   -23.3870     7.4990     8.4020     8.1450
 4450.5000  2308.5740     8.8290     0.0550    45.2630     2.4920   -23.4200     7.7880     8.5160     8.4220
 4451.0000  2336.7671     8.8250     0.0520    45.0310     2.4910   -23.4530     8.0780     8.6300     8.9820
 4451.5000  2364.9609     8.8210     0.0520    44.6650     2.4930   -23.4860     8.3670     8.7440    10.8460
 4452.0000  2382.8511     8.8170     0.0540    44.7380     2.4920   -23.5190     8.5000     8.9820    12.1690
