~VERSION INFORMATION
 VERS.                2.0:   CWLS LOG ASCII STANDARD - VERSION 2.0
 WRAP.                 NO:   ONE LINE PER DEPTH STEP
~WELL INFORMATION
#MNEM.UNIT      DATA TYPE    INFORMATION
#----------   ------------   ------------------------------
 STRT.F          180.0000:   START DEPTH
 STOP.F         3044.0000:   STOP DEPTH
 STEP.F            0.5000:   STEP LENGTH
 NULL.          -999.2500:   NO VALUE
 COMP.    FENIX & SCISSON:   COMPANY
 WELL.   FENIX "A" #55-29:   WELL
 FLD .           N P R #3:   FIELD
 LOC .      S29 T39N R78W:   LOCATION
 CNTY.            NATRONA:   COUNTY
 STAT.            WYOMING:   STATE
 CTRY. UNITED STATES OF AMERICA:   COUNTRY
 SRVC.              WELEX:   SERVICE COMPANY
 DATE.        21-JUL-1977:   LOGDATE
 API .     49025104020000:   API NUMBER
~CURVE INFORMATION
#MNEM.UNIT       API CODE    CURVE DESCRIPTION
#----------   ------------   ------------------------------
 DEPT.F                  :   
 CALD.IN     45 280 60 00:   CALIPER FROM DENSITY LOG
 RHOB.G/C3   45 350 01 00:   BULK DENSITY
 CORR.G/C3   45 356 01 00:   DENSITY CORRECTION
 GRD .GAPI   45 310 01 00:   GAMMA RAY FROM DENSITY LOG
 SPR .MV     07 010 01 00:   SPONTANEOUS POTENTIAL
 ILD .OHMM   07 120 46 00:   DEEP INDUCTION RESISTIVITY
 ILM .OHMM   07 120 44 00:   INDUCTION LOG MEDIUM RESISTIVITY
 SGRD.OHMM   07 220 05 00:   SHALLOW SHORT GUARD RESISTIVITY
~PARAMETER INFORMATION
#MNEM.UNIT          VALUE    DESCRIPTION
#----------   ------------   ------------------------------
 EKB .F         4995.0000:   Kelly bushing
 EGL .F         4985.0000:   Ground level
 EDF .F            0.0000:   Drilling floor
 EPD .F         4985.0000:   Permanent datum
 TD  .F         3045.0000:   Total depth
 DATE.        21-JUL-1977:   Date logged
 CLNT.            A2DTECH:   Client Code
 SL  . 2310' FSL & 2310' FEL:   Surface Location
 PD  .                 GL:   Permanent Datum
 DD  .F              3045:   Depth driller
 DL  .F              3045:   Depth logger
 BLI .F              3043:   Bottom log interval
 CS1 .IN            8.625:   Casing size
 CBD1.      8.625" @ 230':   Casing driller 1
 CBL1.F               216:   Casing logger 1
 BS1 .IN            7.875:   Bit size
 DFT .            KCL-MUD:   Type fluid in hole
 DFD .                8.8:   Density
 DFV .                 45:   Viscosity
 DFPH.                7.5:   pH
 DFL .                8.4:   Fluid loss
 MSS .           FLOWLINE:   Source of sample
 RMS .OHMM            .45:   Rm
 MST .F                86:   Rm Meas. temp.
 RMF .OHMM            .33:   Rmf
 MFST.F                86:   Rmf Meas. temp.
 RMC .OHMM            .72:   Rmc
 MCST.F                86:   Rmc Meas. temp.
 MFSS.               MEAS:   Source Rmf.
 RMB .OHMM            .30:   Rm. at BHT
 BHT .F               127:   BHT.
 TCS .HRS             2.5:   Time Circ. stopped
 MRT .F               127:   Maximum recorded temp.
 LUN .               8611:   Logging unit number
 LUL .             CASPER:   Logging unit location
 ENGI.            C. DOAK:   Recorded By
 WITN.      W. PETTINGILL:   Witnessed by
 ORIG.           5" PRINT:   Origin of data
 UWI .     49025104020000:   Unique Well ID
 DICO. A2D TECHNOLOGIES, INC.:   Digitizing Company
 DAPD.                 10:   Feet Above Permanent Datum
 BSD1.               3045:   Depth drilled with bit1
 MCSS.               MEAS:   Source Rmc.
 LMF .                 KB:   Log Measured From
 DMF .                 KB:   Drilling Measured From
 TLI .                200:   Top log interval
~OTHER INFORMATION
~A   DEPT       CALD     RHOB       CORR         GRD       SPR        ILD        ILM       SGRD   
# ...
  423.0000     8.9490     2.4610     0.0870    98.8980   -53.7570     7.9600     8.8460    12.1770
  423.5000     8.9600     2.4610     0.0910    96.5870   -53.9130     7.9000     8.7930    12.0190
  424.0000     8.9710     2.4610     0.0950    94.5500   -54.0700     7.8410     8.7400    11.8620
  424.5000     8.9820     2.4600     0.0870    94.1220   -54.2260     7.7820     8.6860    11.7990
  425.0000     8.9940     2.4590     0.0860    94.5200   -54.3820     7.5810     8.4960    11.7350
  425.5000     8.9900     2.4580     0.0930    95.7480   -54.5390     7.3810     8.2590    11.6720
  426.0000     8.9850     2.4570     0.0980    96.2860   -54.6950     7.1810     8.0220    11.6470
  426.5000     8.9800     2.4560     0.0950    95.0900   -54.8520     6.9810     7.7920    11.7810
  427.0000     8.9750     2.4540     0.0950    94.1450   -55.0080     6.7800     7.4530    11.8620
  427.5000     8.9740     2.4520     0.0960    93.1720   -55.1470     6.5800     7.1150    10.8640
  428.0000     8.9740     2.4420     0.0970    91.5250   -55.1490     6.4190     6.9080     6.9480
  428.5000     8.9740     2.4300     0.0970    90.9470   -55.1520     6.5030     7.6690     7.7910
  429.0000     8.9740     2.4220     0.0930    93.7610   -54.9740     6.6100     8.4510    10.8730
  429.5000     8.9740     2.4030     0.0880    96.1010   -54.7280     6.7160     8.1850    11.8620
  430.0000     8.9740     2.3810     0.0820    95.1170   -54.4810     6.9100     8.0720    11.9970
  430.5000     8.9740     2.3790     0.0760    93.4580   -54.2330     7.2450     8.4280    12.1930
  431.0000     8.9740     2.3930     0.0690    93.3840   -53.9830     7.5800     8.8850    12.6830
  431.5000     8.9690     2.4160     0.0670    94.3980   -53.7450     7.9150     9.2620    13.3380
  432.0000     8.9620     2.4300     0.0690    96.0240   -53.9820     8.2510     9.8760    13.6100
  432.5000     8.9550     2.4380     0.0730    94.4330   -54.0220     8.5710     9.0940    13.6480
  433.0000     8.9470     2.4450     0.0770    95.8500   -54.0690     8.8210     9.1080    13.6870
  433.5000     8.9400     2.4490     0.0810    96.5180   -54.1130     8.9290     9.1490    13.7260
  434.0000     8.9350     2.4520     0.0850    95.0510   -54.1570     8.9290     9.1890    13.8740
  434.5000     8.9420     2.4650     0.0880    93.2650   -54.2010     8.9290     9.2290    13.9720
  435.0000     8.9500     2.4770     0.0870    91.4730   -54.2440     8.9290     9.2690    13.7360
  435.5000     8.9580     2.4840     0.0840    89.8350   -54.2880     8.9290     9.3090    13.9900
  436.0000     8.9660     2.4790     0.0820    88.5000   -54.3320     8.9290     9.3490    14.3800
  436.5000     8.9740     2.4750     0.0790    88.2700   -54.3750     8.9290     9.3890    14.1100
  437.0000     8.9740     2.4760     0.0790    91.0610   -54.4190     8.9290     9.4290    13.7360
  437.5000     8.9740     2.4780     0.0790    94.2940   -54.4630     8.9290     9.4690    13.7170
  438.0000     8.9740     2.4770     0.0790    95.1080   -54.5070     8.9290     9.5090    13.5930
  438.5000     8.9730     2.4570     0.0790    89.5560   -54.5530     8.9290     9.5490    13.4690
  439.0000     8.9520     2.4550     0.0790    88.9040   -54.6020     8.9290     9.5890    13.3760
  439.5000     8.9310     2.4550     0.0790    89.6230   -54.6530     8.9280     9.6080    13.5670
  440.0000     8.9110     2.4570     0.0790    89.6040   -54.7040     8.9630     9.5250    13.7440
  440.5000     8.8900     2.4510     0.0790    87.9950   -54.7640     9.0240     9.4530    13.8620
  441.0000     8.8700     2.4460     0.0790    86.8410   -55.0270     9.0850     9.3810    13.8250
  441.5000     8.8530     2.4400     0.0790    88.2100   -55.2810     9.1470     9.3330    13.5580
  442.0000     8.8440     2.4370     0.0790    89.5340   -55.5330     9.2080     9.2240    13.4860
  442.5000     8.8360     2.4360     0.0790    90.8250   -55.7850     9.2570     9.1160    13.6100
  443.0000     8.8270     2.4360     0.0840    94.1270   -56.0360     9.2190     9.0070    13.0030
  443.5000     8.8180     2.4350     0.0880    93.3680   -56.2880     9.1770     8.8990    12.4620
  444.0000     8.8100     2.4420     0.0930    92.8060   -56.5400     8.9580     8.7020    11.9030
  444.5000     8.8010     2.4490     0.0970    96.8180   -56.7910     8.7210     8.4270    11.3430
  445.0000     8.7930     2.4440     0.1030    97.0220   -57.0430     8.2190     8.1520    10.7840
  445.5000     8.7860     2.4330     0.1100    93.5850   -57.2950     7.6400     7.8530    10.4180
  446.0000     8.7790     2.4220     0.1160    90.6020   -57.5540     6.8160     7.2290    10.1280
  446.5000     8.7720     2.4150     0.1220    90.6020   -57.8850     5.9550     6.5320     9.8380
  447.0000     8.7650     2.4080     0.1300    93.7670   -57.9230     5.3760     5.8290     9.3480
  447.5000     8.7570     2.3990     0.1380    96.9740   -57.7680     4.7980     5.1060     8.6070
  448.0000     8.7700     2.3820     0.1470    97.6770   -57.4630     4.2200     4.3410     7.3730
  448.5000     8.7860     2.3630     0.1560    96.4120   -57.1590     3.6410     3.5750     6.0160
  449.0000     8.8090     2.3190     0.1600    94.9720   -56.8540     3.0630     3.2400     4.7140
  449.5000     8.8540     2.2770     0.1600    93.5180   -56.5520     2.5440     3.1120     3.4740
  450.0000     8.8980     2.2110     0.1570    92.5810   -56.3320     2.5440     3.1700     3.2280
  450.5000     8.9430     2.1360     0.1150    91.3260   -56.3370     3.2100     3.5120     3.6040
  451.0000     8.9990     2.0590     0.0780    90.1070   -56.3900     3.6360     4.8870     6.9340
  451.5000     9.0930     1.9820     0.0570    87.2470   -56.4480     3.8900     7.2980    11.4350
  452.0000     9.1830     1.9070     0.0380    86.6440   -56.5060     4.2380     5.6460    11.4350
  452.5000     9.2580     1.9090     0.0230    90.7220   -56.4490     4.9170     6.0710    10.6270
  453.0000     9.3770     2.0450     0.0260    89.9970   -56.2910     5.7120     6.7670    10.6270
  453.5000     9.4960     2.1730     0.0530    89.8400   -56.1320     6.4560     7.4620    11.2280
  454.0000     9.5950     2.4500     0.0750    90.7500   -55.9730     7.1820     8.1580    11.3010
  454.5000     9.3700     2.4590     0.0720    93.5430   -55.8130     7.6820     9.0110    11.4350
  455.0000     8.9050     2.4600     0.0670    94.8220   -55.6540     7.9240     8.9950    11.6740
  455.5000     8.7940     2.4580     0.0610    96.1560   -55.4940     8.0860     8.9740    11.9710
  456.0000     8.7970     2.4530     0.0550    96.4480   -55.3350     8.1200     8.9540    11.8420
  456.5000     8.7980     2.4470     0.0540    93.8130   -55.1760     8.1540     8.9330    11.6790
  457.0000     8.8410     2.4410     0.0570    95.2770   -55.0160     8.1890     8.9120    11.6160
  457.5000     8.8850     2.4360     0.0590    97.2060   -54.9680     8.2230     8.8920    11.5780
  458.0000     8.9280     2.4310     0.0600    96.3600   -54.9950     8.2570     8.8710    11.5400
  458.5000     8.9590     2.4290     0.0610    94.9070   -55.0230     8.2970     8.8470    11.6190
  459.0000     8.9720     2.4310     0.0620    93.4540   -55.0510     8.2460     8.8920    11.8000
  459.5000     8.9840     2.4390     0.0630    93.0580   -55.0790     8.1840     8.9460    11.9710
  460.0000     8.9960     2.4480     0.0670    95.6300   -55.1070     8.1230     9.0000    11.8890
  460.5000     9.0090     2.4580     0.0720    94.4110   -55.1340     8.0610     9.0540    11.8620
  461.0000     9.0210     2.4680     0.0760    89.1740   -55.1620     7.9990     9.0940    12.4180
  461.5000     9.0330     2.4770     0.0810    87.6030   -55.1900     7.9380     8.9980    12.2640
  462.0000     9.0250     2.4830     0.0810    85.7850   -55.2180     7.8760     8.9230    11.9710
  462.5000     9.0170     2.4820     0.0810    87.7700   -55.2460     7.8150     8.8480    11.9710
  463.0000     9.0080     2.4820     0.0820    91.1650   -55.2740     7.7530     8.7660    12.0920
