~VERSION INFORMATION
 VERS.                2.0:   CWLS LOG ASCII STANDARD - VERSION 2.0
 WRAP.                 NO:   ONE LINE PER DEPTH STEP
~WELL INFORMATION
#MNEM.UNIT      DATA TYPE    INFORMATION
#----------   ------------   ------------------------------
 STRT.F          261.0000:   START DEPTH
 STOP.F         2875.0000:   STOP DEPTH
 STEP.F            0.5000:   STEP LENGTH
 NULL.          -999.2500:   NO VALUE
 COMP.   LAWRENCE ALLISON:   COMPANY
 WELL. LAWRENCE ALLISON "X" #85-20:   WELL
 FLD .          N.P.R. #3:   FIELD
 LOC .      S20 T39N R78W:   LOCATION
 CNTY.            NATRONA:   COUNTY
 STAT.            WYOMING:   STATE
 CTRY. UNITED STATES OF AMERICA:   COUNTRY
 SRVC.      DRESSER ATLAS:   SERVICE COMPANY
 DATE.        23-JUL-1986:   LOGDATE
 API .     49025111030000:   API NUMBER
~CURVE INFORMATION
#MNEM.UNIT       API CODE    CURVE DESCRIPTION
#----------   ------------   ------------------------------
 DEPT.F                  :   
 CORR.G/C3   45 356 01 00:   DENSITY CORRECTION
 RHOB.G/C3   45 350 01 00:   BULK DENSITY
 CNC .DEC    42 890 03 00:   NEUTRON POROSITY SANDSTONE
 GRR .GAPI   07 310 01 00:   GAMMA RAY FROM RESISTIVITY
 CALR.IN     07 280 01 00:   CALIPER FROM RESISTIVITY
 SPR .MV     07 010 01 00:   SPONTANEOUS POTENTIAL
 TENR.LBS    07 635 01 00:   TENSION FROM RESISTIVITY
 RILD.OHMM   07 120 46 00:   DEEP INDUCTION RESISTIVITY
 RILM.OHMM   07 120 44 00:   INDUCTION LOG MEDIUM RESISTIVITY
 RFOC.OHMM   07 220 04 00:   RESISTIVITY FOCUSED LOG RES.
~PARAMETER INFORMATION
#MNEM.UNIT          VALUE    DESCRIPTION
#----------   ------------   ------------------------------
 EKB .F         5007.0000:   Kelly bushing
 EGL .F         4995.0000:   Ground level
 EDF .F            0.0000:   Drilling floor
 EPD .F         4995.0000:   Permanent datum
 TD  .F         2874.0000:   Total depth
 CLNT.            A2DTECH:   Client Code
 SL  . 307' FEL & 2237' FSL:   Surface Location
 DATE.        23-JUL-1986:   Date Logged [DD-MMM-YYYY]
 DD  .F              2870:   Depth driller
 DL  .F              2874:   Depth logger
 BLI .F              2872:   Bottom log interval
 TLI .F              2205:   Top log interval
 CS1 .              8.625:   Casing size
 CBD1.      8.625" @ 261':   Casing driller 1
 CBL1.IN              261:   Casing logger 1
 BS1 .IN            7.875:   Bit size
 BSD1.F              2870:   Depth drilled with bit1
 DFT .            KCL-GEL:   Type fluid in hole
 DFD .                9.0:   Density
 DFV .                 37:   Viscosity
 MSS .           MUD TANK:   Source of sample
 RMS .OHMM          0.257:   Rm
 MST .F                89:   Rm Meas. temp.
 RMF .OHMM           0.19:   Rmf
 MFST.F                89:   Rmf Meas. temp.
 MFSS.               CALC:   Source Rmf.
 RMC .OHMM           0.32:   Rmc
 MCST.F                89:   Rmc Meas. temp.
 MCSS.               CALC:   Source Rmc.
 RMB .OHMM           0.20:   Rm. at BHT
 BHT .F               116:   BHT.
 TCS .HRS               4:   Time Circ. stopped
 MRT .F               116:   Maximum recorded temp.
 LUN .            HL 6264:   Logging unit number
 LUL .           GILLETTE:   Logging unit location
 ENGI.      P.M. FAHLSING:   Recorded By
 WITN.           JENNINGS:   Witnessed by
 ORIG.         2.5" PRINT:   Origin of data
 UWI .     49025111030000:   Unique Well ID
 DICO. A2D TECHNOLOGIES, INC.:   Digitizing Company
~OTHER INFORMATION
~A   DEPT     CORR       RHOB        CNC         GRR        CALR      SPR        TENR       RILD      RILM         RFOC 
# ...
 1433.5000  -999.2500  -999.2500  -999.2500   117.2470    10.1938   -90.5897  -101.4837     6.0325     5.6860     7.0192
 1434.0000  -999.2500  -999.2500  -999.2500   121.6504    10.1935   -90.3000  -101.0385     6.0772     5.7189     7.0164
 1434.5000  -999.2500  -999.2500  -999.2500   118.1481    10.1635   -90.0102  -100.5935     6.1120     5.7602     7.0579
 1435.0000  -999.2500  -999.2500  -999.2500   111.3057    10.1632   -89.9559  -114.9852     6.1943     5.8374     7.1072
 1435.5000  -999.2500  -999.2500  -999.2500   107.8075    10.1629   -91.1960  -114.5401     6.1926     5.9155     7.1043
 1436.0000  -999.2500  -999.2500  -999.2500   104.9099    10.1626   -91.7886  -114.0949     6.1909     5.9135     7.1014
 1436.5000  -999.2500  -999.2500  -999.2500   103.2077    10.1623   -91.7930  -113.6498     6.1892     5.9114     7.0985
 1437.0000  -999.2500  -999.2500  -999.2500   102.6053    10.1620   -91.5029  -113.2048     6.1875     5.9094     7.0956
 1437.5000  -999.2500  -999.2500  -999.2500   103.2888    10.1617   -91.2136  -112.7597     6.1859     5.9074     7.0926
 1438.0000  -999.2500  -999.2500  -999.2500   105.1673    10.1614   -91.2180  -112.3145     6.1842     5.9054     7.0897
 1438.5000  -999.2500  -999.2500  -999.2500   107.5398    10.1611   -90.9280  -111.8694     6.1825     5.8234     7.0868
 1439.0000  -999.2500  -999.2500  -999.2500   109.3195    10.1608   -90.6383  -111.4244     6.1311     5.7425     7.0839
 1439.5000  -999.2500  -999.2500  -999.2500   111.5775    10.1902   -90.3485  -110.9793     6.0954     5.6271     7.0810
 1440.0000  -999.2500  -999.2500  -999.2500   113.4721    10.1899   -90.3532  -110.5341     6.0934     5.5085     7.0781
 1440.5000  -999.2500  -999.2500  -999.2500   115.2513    10.1896   -90.3576  -110.0890     6.0917     5.4320     7.0752
 1441.0000  -999.2500  -999.2500  -999.2500   116.3107    10.1893   -90.0676  -107.7893     6.0901     5.4301     7.0723
 1441.5000  -999.2500  -999.2500  -999.2500   116.7695    10.1890   -90.0723  -103.6350     6.0884     5.4283     7.0694
 1442.0000  -999.2500  -999.2500  -999.2500   116.7597    10.1887   -90.0767   -99.4807     6.0867     5.4264     7.0665
 1442.5000  -999.2500  -999.2500  -999.2500   116.6124    10.1884   -90.0811   -95.3264     6.0851     5.4991     7.0636
 1443.0000  -999.2500  -999.2500  -999.2500   116.1483    10.1881   -89.7914   -91.1721     6.0834     5.5332     7.0607
 1443.5000  -999.2500  -999.2500  -999.2500   114.5137    10.1878   -89.7958   -87.0178     6.0818     5.5708     7.0578
 1444.0000  -999.2500  -999.2500  -999.2500   110.6311    10.1579   -89.8002   -82.8635     6.1639     5.6454     7.0549
 1444.5000  -999.2500  -999.2500  -999.2500   104.2284    10.1576   -89.8046   -78.7092     6.2466     5.7210     7.0520
 1445.0000  -999.2500  -999.2500  -999.2500   101.8706    10.1573   -89.8090   -74.5549     6.3307     5.7571     7.0485
 1445.5000  -999.2500  -999.2500  -999.2500   105.4766    10.1570   -89.8134   -70.4006     6.3290     5.7957     7.0456
 1446.0000  -999.2500  -999.2500  -999.2500   111.7512    10.1270   -90.1119   -66.2463     6.4142     5.8325     7.0427
 1446.5000  -999.2500  -999.2500  -999.2500   116.5963    10.1267   -90.4104   -62.0920     6.4124     5.8713     7.1369
 1447.0000  -999.2500  -999.2500  -999.2500   114.7870    10.1264   -91.0030   -57.9377     6.4991     5.8693     7.1339
 1447.5000  -999.2500  -999.2500  -999.2500   110.3711    10.1261   -91.5957   -53.7834     6.4970     5.9479     7.2293
 1448.0000  -999.2500  -999.2500  -999.2500   108.9390    10.1258   -91.8942   -49.6291     6.5848     5.9459     7.2263
 1448.5000  -999.2500  -999.2500  -999.2500   112.6401    10.1255   -91.6045   -45.4748     6.7648     5.9438     7.3234
 1449.0000  -999.2500  -999.2500  -999.2500   115.8282    10.1252   -91.3147   -43.1751     6.8559     5.9418     7.4208
 1449.5000  -999.2500  -999.2500  -999.2500   118.3946    10.1249   -91.0250   -27.8932     6.8540     5.9398     7.5200
 1450.0000  -999.2500  -999.2500  -999.2500   121.1674    10.1246   -90.4412   -27.4480     6.9466     5.9378     7.6210
 1450.5000  -999.2500  -999.2500  -999.2500   123.1380    10.1243   -90.1515   -56.6765     6.9444     5.9766     7.7228
 1451.0000  -999.2500  -999.2500  -999.2500   118.1498    10.1240   -89.8617   -71.0683     6.9425     6.0152     7.7191
 1451.5000  -999.2500  -999.2500  -999.2500   113.7973    10.1237   -89.8661   -70.6232     6.9406     6.0132     7.6111
 1452.0000  -999.2500  -999.2500  -999.2500   111.6201    10.1234   -89.8706   -85.0148     6.8447     6.0111     7.5046
 1452.5000  -999.2500  -999.2500  -999.2500   111.2331    10.1231   -89.8652   -84.5697     6.8428     6.0510     7.3996
 1453.0000  -999.2500  -999.2500  -999.2500   113.2245    10.1228   -89.5852   -84.1246     6.8409     6.0895     7.3965
 1453.5000  -999.2500  -999.2500  -999.2500   114.6321    10.1226   -89.5897   -83.6796     6.8391     6.0875     7.4954
 1454.0000  -999.2500  -999.2500  -999.2500   116.1819    10.1223   -89.5941   -83.2345     6.8372     6.1690     7.5956
 1454.5000  -999.2500  -999.2500  -999.2500   118.1908    10.1220   -89.5985   -82.7893     6.8353     6.1669     7.6971
 1455.0000  -999.2500  -999.2500  -999.2500   120.0908    10.1217   -89.6029   -82.7627     6.8335     6.2938     7.6939
 1455.5000  -999.2500  -999.2500  -999.2500   119.0039    10.1214   -89.6290   -83.1548     6.8316     6.3783     7.6908
 1456.0000  -999.2500  -999.2500  -999.2500   115.5294    10.1211   -89.9294   -83.5469     6.8298     6.4639     7.6876
 1456.5000  -999.2500  -999.2500  -999.2500   112.0979    10.1208   -90.2299   -83.9390     6.8279     6.5039     7.6845
 1457.0000  -999.2500  -999.2500  -999.2500   111.1513    10.1205   -90.7971   -84.3311     6.8260     6.5017     7.6813
 1457.5000  -999.2500  -999.2500  -999.2500   113.1010    10.1202   -91.0956   -84.7232     6.9182     6.4995     7.7840
 1458.0000  -999.2500  -999.2500  -999.2500   115.5490    10.1199   -91.1314   -85.1152     7.0114     6.4973     7.8880
 1458.5000  -999.2500  -999.2500  -999.2500   114.7488    10.0899   -91.3986   -85.5073     7.1054     6.4071     7.9938
 1459.0000  -999.2500  -999.2500  -999.2500   111.4954    10.0896   -91.4030   -85.8994     7.1035     6.4049     8.1006
 1459.5000  -999.2500  -999.2500  -999.2500   108.7329    10.0893   -91.4074   -86.2915     7.0053     6.4027     7.9869
 1460.0000  -999.2500  -999.2500  -999.2500   110.1879    10.0593   -91.4118   -86.6836     7.0034     6.3138     7.7681
 1460.5000  -999.2500  -999.2500  -999.2500   110.8398    10.0294   -91.1217   -87.0756     6.9066     6.2659     7.5553
 1461.0000  -999.2500  -999.2500  -999.2500   106.9735    10.0291   -91.0833   -87.4677     6.8112     6.1787     7.3483
 1461.5000  -999.2500  -999.2500  -999.2500   105.1208     9.9991   -90.8364   -87.8598     6.7170     6.0928     7.3452
 1462.0000  -999.2500  -999.2500  -999.2500   108.3800     9.9988   -90.5467   -88.2519     6.6242     6.0080     7.2424
 1462.5000  -999.2500  -999.2500  -999.2500   109.5697    10.0282   -90.5515   -88.6440     6.5326     5.8441     7.2395
 1463.0000  -999.2500  -999.2500  -999.2500   108.6706    10.0279   -90.2614   -89.0360     6.4424     5.7628     7.1382
 1463.5000  -999.2500  -999.2500  -999.2500   109.2712    10.0276   -90.2662   -89.4281     6.2672     5.7250     7.0383
 1464.0000  -999.2500  -999.2500  -999.2500   111.0505    10.0570   -89.9761   -89.8202     6.1806     5.6806     6.9398
 1464.5000  -999.2500  -999.2500  -999.2500   112.2048    10.0567   -89.6863   -90.2123     6.0952     5.6435     6.9369
 1465.0000  -999.2500  -999.2500  -999.2500   109.7428    10.1157   -89.6323   -90.6044     6.0109     5.5995     6.9341
 1465.5000  -999.2500  -999.2500  -999.2500   105.5640    10.1154   -89.4010   -90.9965     6.0093     5.5632     6.9312
 1466.0000  -999.2500  -999.2500  -999.2500   103.5450    10.1448   -89.4686   -91.3885     6.0077     5.5613     6.9284
 1466.5000  -999.2500  -999.2500  -999.2500   108.2049    10.1445   -90.0632   -91.7806     6.0060     5.5594     6.9256
