~VERSION INFORMATION
 VERS.                2.0:   CWLS LOG ASCII STANDARD - VERSION 2.0
 WRAP.                 NO:   ONE LINE PER DEPTH STEP
~WELL INFORMATION
#MNEM.UNIT      DATA TYPE    INFORMATION
#----------   ------------   ------------------------------
 STRT.F            0.0000:   START DEPTH
 STOP.F         4022.0000:   STOP DEPTH
 STEP.F            0.5000:   STEP LENGTH
 NULL.          -999.2500:   NO VALUE
 COMP. LAWRENCE - ALLISON:   COMPANY
 WELL. LAWRENCE NPR 3 "MX" #58-10:   WELL
 FLD .                MPR:   FIELD
 LOC .      S10 T38N R78W:   LOCATION
 CNTY.            NATRONA:   COUNTY
 STAT.            WYOMING:   STATE
 CTRY. UNITED STATES OF AMERICA:   COUNTRY
 SRVC.      DRESSER ATLAS:   SERVICE COMPANY
 DATE.        12-FEB-1984:   LOGDATE
 API .     49025109610000:   API NUMBER
~CURVE INFORMATION
#MNEM.UNIT       API CODE    CURVE DESCRIPTION
#----------   ------------   ------------------------------
 DEPT.F                  :   
 GRR .GAPI   07 310 01 00:   GAMMA RAY FROM RESISTIVITY
 SPR .MV     07 010 01 00:   SPONTANEOUS POTENTIAL
 TENR.LBS    07 635 01 00:   TENSION FROM RESISTIVITY
 ILD .OHMM   07 120 46 00:   DEEP INDUCTION RESISTIVITY
 ILM .OHMM   07 120 44 00:   INDUCTION LOG MEDIUM RESISTIVITY
 SFL .OHMM   07 220 01 00:   SHALLOW FOCUSED LOG RESISTIVITY
 DT  .US/F   60 520 00 00:   DELTA TIME
 TENS.LBS    60 635 01 00:   TENSION FROM SONIC LOG
 CNC .DEC    42 890 03 00:   NEUTRON PORISITY SANDSTONE
 CALD.IN     45 280 60 00:   CALIPER FROM DENSITY LOG
 RHOB.G/C3   45 350 01 00:   BULK DENSITY
 CORR.G/C3   45 356 01 00:   DENSITY CORRECTION
 TEND.LBS    45 635 01 00:   TENSION FROM DENSITY LOG
~PARAMETER INFORMATION
#MNEM.UNIT          VALUE    DESCRIPTION
#----------   ------------   ------------------------------
 EKB .F         5218.0000:   Kelly bushing
 EGL .F         5208.0000:   Ground level
 EDF .F         5217.0000:   Drilling floor
 TD  .F         4014.0000:   Total depth
 DATE.        12-FEB-1984:   Date logged
 CLNT.            A2DTECH:   Client Code
 SL  . 500' FSL & 2150' FEL:   Surface Location
 PD  .                 GL:   Permanent Datum
 EPD .F              5208:   Elevation Permanent Datum
 LMF .                 KB:   Log Measured From
 DMF .                 KB:   Drilling Measured From
 DD  .F              4014:   Depth driller
 DL  .F              4011:   Depth logger
 BLI .F              4009:   Bottom log interval
 CS1 .IN            8.625:   Casing size
 CBD1.      8.625" @ 526':   Casing driller 1
 CBL1.F               525:   Casing logger 1
 BS1 .IN            7.875:   Bit size
 DFT .            GEL/KCL:   Type fluid in hole
 DFD .                8.9:   Density
 DFV .                 48:   Viscosity
 DFPH.                  8:   pH
 DFL .                1.3:   Fluid loss
 MSS .           MUD/TANK:   Source of sample
 RMS .OHMM           .556:   Rm
 MST .F                61:   Rm Meas. temp.
 RMF .OHMM           .423:   Rmf
 MFST.F                61:   Rmf Meas. temp.
 RMC .OHMM           .662:   Rmc
 MCST.F                61:   Rmc Meas. temp.
 MFSS.           MUD/TANK:   Source Rmf.
 RMB .OHMM            .80:   Rm. at BHT
 BHT .F               119:   BHT.
 TCS .HRS               5:   Time Circ. stopped
 MRT .F               119:   Maximum recorded temp.
 LUN .               6302:   Logging unit number
 ENGI.              GETTY:   Recorded By
 ORIG.           5" PRINT:   Origin of data
 UWI .     49025109610000:   Unique Well ID
 DICO. A2D TECHNOLOGIES, INC.:   Digitizing Company
 TLI .F                 0:   Top log interval
~OTHER INFORMATION
~A    DEPT      GRR       SPR       TENR        ILD        ILM        SFL         DT       TENS        CNC       CALD       RHOB       CORR       TEND   
# ...
 2600.0000    73.5310     5.3990  -125.3740    26.7090    23.3770    19.4570    78.5310  -133.0480     0.1760     8.5630     2.3740     0.0400   -91.7070
 2600.5000    71.2090     5.0280  -109.5070    27.0950    24.4880    20.7900    78.0260  -126.7350     0.1760     8.5660     2.3840     0.0540   -92.1650
 2601.0000    68.9030     4.7200  -105.4340    27.3870    25.2450    22.0040    77.3940  -119.2150     0.1740     8.5700     2.3870     0.0530   -92.6230
 2601.5000    68.8950     4.5340  -105.4340    28.1380    26.0020    22.3300    76.7630  -125.0500     0.1660     8.5730     2.3890     0.0440   -93.0810
 2602.0000    70.8590     4.3790  -105.4340    30.5130    30.7940    21.7750    76.2610  -132.2650     0.1630     8.5760     2.3890     0.0340   -93.5390
 2602.5000    70.7090     4.1640  -106.1170    30.3990    30.5130    22.3360    75.8400  -139.4800     0.1600     8.5800     2.3890     0.0330   -93.9970
 2603.0000    69.0240     3.6650  -107.9890    29.7920    29.0240    24.7050    75.1530  -146.6940     0.1570     8.5570     2.3880     0.0340   -94.4550
 2603.5000    67.2810     2.8760  -109.8610    27.8360    27.4020    31.6540    73.5360  -153.9090     0.1530     8.5290     2.3970     0.0350   -94.9130
 2604.0000    65.4760     2.3310  -111.7330    27.5810    26.7930    31.0640    72.1190  -158.9490     0.1530     8.5000     2.4140     0.0280   -95.3710
 2604.5000    64.7480     2.5200  -113.6050    27.5810    23.0200    26.7700    71.6900  -156.7540     0.1660     8.4710     2.4310    -0.0040   -94.2430
 2605.0000    65.8080     2.6950  -115.4040    27.5810    22.4430    21.8310    72.0930  -154.5580     0.1690     8.4600     2.4250     0.0210   -92.7140
 2605.5000    66.4940     2.8620  -114.4310    27.2340    22.0790    19.0780    75.0640  -152.3620     0.1720     8.4600     2.3990     0.0350   -91.1860
 2606.0000    65.3220     2.8670  -113.4950    25.8470    21.7150    18.9790    77.0350  -150.1660     0.1790     8.4600     2.3550     0.0160   -89.6570
 2606.5000    64.1770     2.8660  -112.5590    24.8540    21.3510    18.8250    78.1460  -147.9700     0.1810     8.4600     2.3490    -0.0110   -88.1280
 2607.0000    63.6590     2.8660  -111.6230    24.0530    20.9850    18.6070    78.9340  -145.7750     0.1800     8.4600     2.3500    -0.0110   -86.5990
 2607.5000    63.6980     2.8650  -110.6860    23.7620    20.6200    18.4440    78.8870  -143.5790     0.1800     8.4600     2.3520    -0.0020   -85.0710
 2608.0000    65.4580     2.7560  -109.7500    23.6620    20.3710    18.7570    78.7860  -141.3830     0.1800     8.4600     2.3540     0.0090   -83.5420
 2608.5000    68.2100     2.6830  -108.8140    23.5950    21.1330    19.0670    78.5310  -139.3360     0.1790     8.4600     2.3620     0.0410   -82.0130
 2609.0000    69.8030     2.7490  -107.8780    24.7000    21.9390    19.3770    78.4230  -139.3360     0.1800     8.4600     2.3720     0.0600   -80.4840
 2609.5000    70.0850     2.8120  -106.9420    25.7090    22.7980    19.7190    78.3300  -139.3360     0.1800     8.4600     2.3830     0.0680   -78.9560
 2610.0000    68.4060     2.8710  -106.0060    27.6370    24.1440    20.2280    78.2390  -139.3360     0.1790     8.4600     2.3910     0.0650   -77.4270
 2610.5000    66.7410     2.9090  -105.8800    29.5660    25.8640    20.7360    78.1550  -139.3360     0.1790     8.4600     2.4000     0.0610   -75.8980
 2611.0000    65.6500     2.9480  -107.0290    30.2340    27.3290    21.9990    77.9840  -139.3360     0.1760     8.4670     2.4090     0.0570   -77.8550
 2611.5000    65.9730     2.9860  -108.1780    29.7580    26.3350    24.1420    77.1080  -139.3360     0.1710     8.4760     2.4140     0.0520   -80.9440
 2612.0000    68.4240     3.0250  -109.3270    28.9830    25.2150    28.8770    76.0200  -139.3360     0.1580     8.4850     2.4260     0.0440   -84.0330
 2612.5000    70.2930     3.0630  -110.4750    28.2070    24.4480    28.3510    75.1110  -139.3360     0.1550     8.4940     2.4370     0.0370   -87.1210
 2613.0000    70.6710     3.0630  -111.6240    27.6730    23.5090    23.3140    75.1110  -139.3360     0.1560     8.5030     2.4410     0.0360   -90.2100
 2613.5000    70.1290     3.0620  -112.7730    27.1820    22.3670    20.8620    75.3120  -134.7690     0.1620     8.5120     2.4360     0.0400   -93.2990
 2614.0000    69.5540     2.8960  -113.9220    26.3070    21.3280    19.5730    76.6540  -129.7180     0.1700     8.5200     2.4270     0.0460   -96.3870
 2614.5000    69.3290     2.5030  -115.0710    24.4830    20.6660    18.6680    77.7260  -124.6680     0.1790     8.5150     2.4190     0.0530   -99.4760
 2615.0000    69.3450     2.1120  -115.4040    22.6210    20.1070    18.3510    79.5370  -119.2150     0.1850     8.5100     2.4050     0.0500  -102.5650
 2615.5000    68.2350     1.7200  -115.4040    21.5260    19.4570    18.2600    79.6920  -122.9810     0.1820     8.5060     2.3900     0.0450  -105.4340
 2616.0000    65.9360     1.3310  -115.4040    21.1330    19.4920    18.4410    79.7380  -130.1950     0.1780     8.5010     2.3850     0.0430  -103.7180
 2616.5000    64.8900     1.2320  -116.5730    21.0130    19.5400    18.6140    79.7380  -137.4100     0.1800     8.4960     2.3900     0.0520  -102.1170
 2617.0000    67.3940     1.1730  -117.8060    20.8860    19.5880    18.7870    79.7380  -144.6250     0.1810     8.4920     2.3980     0.0620  -100.5150
 2617.5000    70.8450     1.1140  -119.0390    20.7600    19.6360    18.9280    79.7380  -151.8400     0.1810     8.4870     2.4060     0.0610   -98.9140
 2618.0000    70.6630     0.9640  -120.2720    20.6330    19.2000    18.5280    79.5650  -159.4570     0.1800     8.4820     2.4150     0.0520   -97.3120
 2618.5000    69.5410     0.7320  -121.5050    20.5070    18.7590    18.1910    79.1350  -159.4570     0.1800     8.4780     2.4140     0.0430   -95.7100
 2619.0000    69.7090     0.5020  -122.7380    20.3800    18.2450    17.8540    79.3920  -153.0180     0.1800     8.4730     2.4040     0.0350   -94.1090
 2619.5000    69.6430     0.4920  -123.9710    20.1850    18.4250    17.5180    79.6170  -147.4070     0.1780     8.4680     2.3960     0.0360   -92.5070
 2620.0000    69.8020     0.4960  -125.2040    20.3950    18.6400    17.2670    79.8410  -141.7950     0.1770     8.4640     2.3990     0.0530   -90.9060
 2620.5000    73.3230     0.4970  -125.3740    20.8590    19.1820    17.6950    79.8690  -136.1840     0.1770     8.4580     2.4080     0.0730   -89.3040
 2621.0000    75.5280     0.8700  -125.3740    21.3230    20.0970    18.6910    79.7380  -130.5720     0.1780     8.4500     2.4190     0.0960   -87.7030
 2621.5000    75.6110     1.4780  -125.3740    21.7870    21.0100    19.6860    78.4350  -124.9610     0.1790     8.4420     2.4330     0.0970   -86.1010
 2622.0000    70.9460     2.0720  -125.3740    22.8140    21.9210    20.3710    77.0880  -119.2150     0.1790     8.4340     2.4430     0.0790   -85.4940
 2622.5000    68.2850     2.4820  -125.3740    24.3670    22.5930    20.1640    76.3180  -119.2150     0.1770     8.4260     2.4360     0.0610   -85.4940
 2623.0000    67.7730     3.0740  -125.3740    25.6660    22.7250    19.8780    76.3180  -119.2150     0.1670     8.4180     2.4240     0.0440   -85.4940
 2623.5000    69.0770     3.6770  -125.3740    26.3430    22.4460    19.6360    76.3180  -119.2150     0.1630     8.4090     2.4130     0.0350   -85.4940
 2624.0000    69.4500     4.0720  -125.3740    26.1770    22.1840    19.9040    76.9840  -119.2150     0.1590     8.4010     2.4090     0.0280   -85.4940
 2624.5000    68.2370     4.2550  -125.3740    26.0030    21.6080    20.1850    77.5450  -119.2150     0.1550     8.3930     2.4060     0.0340   -85.4940
 2625.0000    67.1410     4.0190  -125.3740    25.7330    20.9400    19.6510    78.1060  -119.2150     0.1550     8.3850     2.4020     0.0420   -85.4940
 2625.5000    67.1650     3.6830  -125.3740    25.0700    20.7480    18.9740    78.3300  -119.2150     0.1600     8.3920     2.3950     0.0460   -85.4940
