~VERSION INFORMATION
 VERS.                2.0:   CWLS LOG ASCII STANDARD - VERSION 2.0
 WRAP.                 NO:   ONE LINE PER DEPTH STEP
~WELL INFORMATION
#MNEM.UNIT      DATA TYPE    INFORMATION
#----------   ------------   ------------------------------
 STRT.F          218.0000:   START DEPTH
 STOP.F         2860.0000:   STOP DEPTH
 STEP.F            0.5000:   STEP LENGTH
 NULL.          -999.2500:   NO VALUE
 COMP.    FENIX & SCISSON:   COMPANY
 WELL.  FENIX "AX" #76-20:   WELL
 FLD . TEAPOT DOME NPR -3:   FIELD
 LOC .      S20 T39N R78W:   LOCATION
 CNTY.            NATRONA:   COUNTY
 STAT.            WYOMING:   STATE
 CTRY. UNITED STATES OF AMERICA:   COUNTRY
 SRVC.           BIRDWELL:   SERVICE COMPANY
 DATE.        21-AUG-1978:   LOGDATE
 API .     49025106920000:   API NUMBER
~CURVE INFORMATION
#MNEM.UNIT       API CODE    CURVE DESCRIPTION
#----------   ------------   ------------------------------
 DEPT.F                  :   
 SPR .MV     05 010 01 00:   SPONTANEOUS POTENTIAL FROM RES.
 ILD .OHMM   05 120 46 00:   INDUCTION LOG DEEP
 SN  .OHMM   05 040 16 00:   SHORT NORMAL 16"
 RHOB.G/C3   45 350 01 00:   BULK DENSITY
 CALD.IN     45 280 60 00:   CALIPER FROM DENSITY LOG
 DCOR.G/C3   45 356 01 00:   DENSITY CORRECTION
 GRD .GAPI   45 310 01 00:   GAMMA RAY FROM DENSITY LOG
~PARAMETER INFORMATION
#MNEM.UNIT          VALUE    DESCRIPTION
#----------   ------------   ------------------------------
 EKB .F         5062.0000:   Kelly bushing
 EGL .F         5052.0000:   Ground level
 EDF .F            0.0000:   Drilling floor
 EPD .F            0.0000:   Permanent datum
 TD  .F         2854.0000:   Total depth
 DATE.        21-AUG-1978:   Date logged
 CLNT.            A2DTECH:   Client Code
 SL  . 1500' FNL & 1200' FEL:   Surface Location
 PD  .                 GL:   Permanent Datum
 DD  .F              2850:   Depth driller
 DL  .F              2854:   Depth logger
 BLI .F              2848:   Bottom log interval
 CS1 .IN            8.625:   Casing size
 CBD1.      8.625" @ 200':   Casing driller 1
 CBL1.F               235:   Casing logger 1
 BS1 .IN            7.875:   Bit size
 DFT .                KCL:   Type fluid in hole
 DFD .                9.2:   Density
 DFV .                 30:   Viscosity
 DFL .                8.4:   Fluid loss
 MSS .           FLOWLINE:   Source of sample
 RMS .OHMM            1.2:   Rm
 MST .F                86:   Rm Meas. temp.
 RMF .OHMM            0.8:   Rmf
 MFST.F                68:   Rmf Meas. temp.
 RMC .OHMM            1.6:   Rmc
 MCST.F                70:   Rmc Meas. temp.
 MFSS.              PRESS:   Source Rmf.
 BHT .F               102:   BHT.
 TCS .HRS               3:   Time Circ. stopped
 MRT .F               102:   Maximum recorded temp.
 LUN .               2968:   Logging unit number
 LUL .             CASPER:   Logging unit location
 ENGI.           REYNOLDS:   Recorded By
 ORIG.           5" PRINT:   Origin of data
 UWI .     49025106920000:   Unique Well ID
 DICO. A2D TECHNOLOGIES, INC.:   Digitizing Company
 DAPD.                 12:   Feet Above Permanent Datum
 BSD1.               2850:   Depth drilled with bit1
 MCSS.               MEAS:   Source Rmc.
 TLI .                230:   Top log interval
~OTHER INFORMATION
~A   DEPT      SPR        ILD         SN       RHOB       CALD       DCOR          GRD 
# ...
 1583.0000   -75.6030     4.1310     5.0860     2.4960     8.1320     0.0240   125.4880
 1583.5000   -75.5820     4.0510     4.9680     2.4890     8.1270     0.0340   126.6930
 1584.0000   -75.5560     3.9660     5.0900     2.4820     8.1220     0.0420   124.5190
 1584.5000   -75.5290     4.5360     5.2230     2.4700     8.1160     0.1190   116.9340
 1585.0000   -75.5030     5.0140     5.3050     2.4620     8.1120     0.1210   109.6460
 1585.5000   -75.4770     5.0030     5.3010     2.4640     8.1070     0.0610   102.4390
 1586.0000   -75.4500     4.9920     5.2790     2.5360     8.1830     0.0250    97.7810
 1586.5000   -75.4240     4.9800     5.2550     2.4650     8.3390     0.0330   100.5260
 1587.0000   -75.3970     4.9680     5.2550     2.4770     8.2650     0.0410   107.0260
 1587.5000   -75.3710     4.9410     5.3050     2.4960     8.1870     0.0490   113.4750
 1588.0000   -75.3450     4.9210     5.8930     2.4870     8.1230     0.0570   119.9450
 1588.5000   -75.3180     4.9430     6.0490     2.4560     8.2130     0.0390   124.8330
 1589.0000   -75.2920     4.9610     6.0490     2.4620     8.3060     0.0230   121.3060
 1589.5000   -75.2660     4.9780     6.0490     2.4750     8.4010     0.0320   119.7340
 1590.0000   -75.2390     4.9950     6.0490     2.4600     8.3450     0.0380   130.2810
 1590.5000   -75.2130     5.0130     6.0490     2.4890     8.1870     0.0330   131.1140
 1591.0000   -75.1870     5.0300     6.0490     2.5130     8.1450     0.0270   133.1020
 1591.5000   -75.1600     5.0470     6.0490     2.5150     8.1430     0.0210   140.4780
 1592.0000   -75.1340     5.0620     6.0480     2.5150     8.1460     0.0150   144.9390
 1592.5000   -75.1080     5.0620     6.0490     2.5040     8.1510     0.0150   146.3020
 1593.0000   -75.0810     4.7840     5.8850     2.4930     8.1560     0.0150   146.9470
 1593.5000   -75.0550     4.4880     5.6820     2.4870     8.1610     0.0210   151.5130
 1594.0000   -75.0280     4.1930     5.4790     2.4890     8.1660     0.0270   154.9020
 1594.5000   -75.0010     3.8970     5.2760     2.4850     8.1710     0.0310   149.8490
 1595.0000   -75.0000     3.6640     5.0740     2.4730     8.1750     0.0320   145.3090
 1595.5000   -75.0000     3.6060     4.8410     2.4870     8.1800     0.0310   140.7590
 1596.0000   -75.0000     3.5480     4.5190     2.4970     8.1850     0.0300   136.0910
 1596.5000   -75.0000     3.4890     4.1960     2.5000     8.1900     0.0280   133.4390
 1597.0000   -75.0000     3.4780     3.8730     2.4960     8.1950     0.0270   127.2710
 1597.5000   -75.0000     3.2970     3.5440     2.5010     8.2000     0.0260   120.6620
 1598.0000   -75.0000     3.1080     3.5440     2.5050     8.2100     0.0300   118.6640
 1598.5000   -75.0000     3.1970     3.5580     2.4610     8.2470     0.0960   120.3980
 1599.0000   -75.0000     3.3730     3.6510     2.4240     8.2830     0.1080   121.9070
 1599.5000   -75.0000     3.5440     3.7490     2.4010     8.3210     0.0870   121.9140
 1600.0000   -75.0000     3.4820     3.7490     2.4430     8.6280     0.0730   120.8020
 1600.5000   -75.0000     3.3940     3.5540     2.4760     8.3640     0.0820   116.0490
 1601.0000   -75.0000     3.3060     3.2570     2.4950     8.2640     0.0960   107.8740
 1601.5000   -75.0000     3.2190     3.6790     2.4490     8.3480     0.1270   104.4900
 1602.0000   -75.0000     3.1670     3.9290     2.4640     8.3360     0.1510   101.8720
 1602.5000   -75.0100     3.7850     3.9660     2.5050     8.3130     0.0610    98.5950
 1603.0000   -75.0380     3.8520     3.9660     2.4890     8.7240     0.0640    96.3860
 1603.5000   -75.0660     4.0040     4.3030     2.4250     8.8970     0.0910   102.6850
 1604.0000   -75.0940     4.2170     4.8750     2.4450     8.1580     0.0770   106.2920
 1604.5000   -75.1220     4.4650     4.9210     2.4770     8.4480     0.0440   103.4630
 1605.0000   -75.1500     4.6520     4.9210     2.4790     8.9070     0.0380   100.7490
 1605.5000   -75.1790     4.5370     4.9210     2.4850     8.7300     0.0410   100.9140
 1606.0000   -75.2680     4.3970     5.0880     2.5040     8.1880     0.0500   108.6280
 1606.5000   -75.6690     4.8150     5.5080     2.4840     8.2050     0.0920   107.8460
 1607.0000   -76.0720     5.2370     5.9280     2.4590     8.2730     0.1250   109.2930
 1607.5000   -76.4880     5.6650     6.3470     2.4420     8.3630     0.0980   110.9060
 1608.0000   -76.5520     5.9930     6.7670     2.4590     8.6440     0.0710   109.4470
 1608.5000   -76.4500     5.9660     7.1610     2.4820     9.3690     0.0510   106.6560
 1609.0000   -76.3450     5.9370     7.0950     2.4640     7.9920     0.0420   102.4090
 1609.5000   -76.2390     5.8610     6.9570     2.5370     8.4850     0.0330   105.0130
 1610.0000   -76.1330     5.6800     6.9320     2.5230     8.8060     0.0250   111.6030
 1610.5000   -76.0270     5.4990     6.9070     2.5170     8.1910     0.0290   115.8660
 1611.0000   -75.9210     5.3050     6.8820     2.5310     8.1810     0.0320   113.7580
 1611.5000   -75.8150     5.2550     6.8570     2.5320     8.1740     0.0270   111.5800
 1612.0000   -75.7080     5.2550     6.8330     2.5320     8.1690     0.0260   111.3340
 1612.5000   -75.6050     5.2650     6.6050     2.5310     8.1640     0.0410   112.4500
 1613.0000   -75.6040     5.2770     6.3990     2.5300     8.1590     0.0430   116.3130
 1613.5000   -75.6850     5.2880     6.4110     2.5290     8.1530     0.0440   120.7500
 1614.0000   -75.7700     5.3000     6.4220     2.5320     8.1480     0.0480   123.6460
 1614.5000   -75.8550     5.3050     6.4330     2.5320     8.1430     0.0600   127.0330
 1615.0000   -75.9390     5.2690     6.4450     2.5170     8.1640     0.0560   131.2890
 1615.5000   -76.0240     5.1590     6.4590     2.5080     8.1960     0.0450   133.4620
 1616.0000   -76.1090     5.0490     6.3860     2.5140     8.2290     0.0340   135.4400
 1616.5000   -76.1940     4.9390     6.2780     2.5060     8.2620     0.0250   137.2720
 1617.0000   -76.2780     4.8290     6.1710     2.5060     8.1770     0.0240   141.8280
 1617.5000   -76.3630     4.6520     6.0630     2.5110     8.1240     0.0230   144.3720
 1618.0000   -76.4050     4.7660     5.9560     2.5100     8.1260     0.0250   140.3590
 1618.5000   -76.4050     4.9230     5.8480     2.4930     8.1300     0.0350   129.9920
 1619.0000   -76.4340     5.0620     5.7410     2.4970     8.1350     0.0460   119.3520
 1619.5000   -76.4770     5.0620     5.6650     2.4980     8.1390     0.0580   117.0230
 1620.0000   -76.5210     5.0620     5.7620     2.4910     8.1460     0.0550   120.5040
 1620.5000   -76.5640     5.2890     5.9060     2.5090     8.2230     0.0430   123.9710
 1621.0000   -76.6070     5.5650     5.9930     2.5130     8.2820     0.0350   127.4360
 1621.5000   -76.6510     5.8400     6.7160     2.5050     8.1580     0.0400   130.8760
 1622.0000   -76.6940     6.1160     7.6180     2.4730     8.0280     0.0700   130.9690
 1622.5000   -76.7380     6.3920     8.3990     2.4390     7.9630     0.1090   129.5280
 1623.0000   -76.7810     6.5820     8.3330     2.4040     7.9870     0.0430   127.0270
 1623.5000   -76.8240     6.2820     8.2060     2.3990     8.0470     0.0230   126.7950
 1624.0000   -76.8680     6.0120     8.0790     2.4250     8.6740     0.0220   131.6310
 1624.5000   -76.9110     5.7420     7.9510     2.4530     9.6600     0.0200   145.6750
 1625.0000   -76.9540     5.4710     7.8240     2.5240     7.9530     0.0190   146.5200
 1625.5000   -76.9980     5.3050     7.6290     2.5020     7.9640     0.0180   149.8900
 1626.0000   -77.0410     5.4180     7.1240     2.4920     7.9700     0.0160   158.4600
 1626.5000   -77.0850     5.4540     6.6190     2.4960     7.9740     0.0150   166.9490
 1627.0000   -77.1280     5.4890     6.1640     2.4970     7.9790     0.0130   171.8870
 1627.5000   -77.1610     5.5250     6.1640     2.4880     7.9850     0.0330   173.0170
 1628.0000   -77.0520     5.5590     6.3220     2.4790     7.9900     0.0570   182.1410
