~VERSION INFORMATION
 VERS.                2.0:   CWLS LOG ASCII STANDARD - VERSION 2.0
 WRAP.                 NO:   ONE LINE PER DEPTH STEP
~WELL INFORMATION
#MNEM.UNIT      DATA TYPE    INFORMATION
#----------   ------------   ------------------------------
 STRT.F          602.0000:   START DEPTH
 STOP.F         5553.0000:   STOP DEPTH
 STEP.F            0.5000:   STEP LENGTH
 NULL.          -999.2500:   NO VALUE
 COMP.         U. S. NAVY:   COMPANY
 WELL. U. S. 1-TP-33 NPR #3-33:   WELL
 FLD . TEAPOT NAVAL RESERVE:   FIELD
 LOC .      S33 T39N R78W:   LOCATION
 CNTY.            NATRONA:   COUNTY
 STAT.            WYOMING:   STATE
 CTRY. UNITED STATES OF AMERICA:   COUNTRY
 SRVC.       SCHLUMBERGER:   SERVICE COMPANY
 DATE.        24-JUN-1952:   LOGDATE
 API .     49025065260000:   API NUMBER
~CURVE INFORMATION
#MNEM.UNIT       API CODE    CURVE DESCRIPTION
#----------   ------------   ------------------------------
 DEPT.F                  :   
 SPR .MV     01 010 01 00:   SPONTANEOUS POTENTIAL FROM RES.
 ASN .OHMM   01 041 16 00:   AMPLIFIED SHORT NORMAL 16"
 LAT .OHMM   01 070 08 00:   LATERAL 8'
 LN  .OHMM   01 060 64 00:   LONG NORMAL 64"
~PARAMETER INFORMATION
#MNEM.UNIT          VALUE    DESCRIPTION
#----------   ------------   ------------------------------
 EKB .F         5160.0000:   Kelly bushing
 EGL .F         5147.0000:   Ground level
 TD  .F         5553.0000:   Total depth
 CLNT.            A2DTECH:   Client Code
 DATE.        24-JUN-1952:   Date Logged [DD-MMM-YYYY]
 DD  .F              5549:   Depth driller
 DL  .F              5553:   Depth logger
 BLI .F              5553:   Bottom log interval
 TLI .F               602:   Top log interval
 CBL1.F               602:   Casing logger 1
 BSD1.F              5549:   Depth drilled with bit1
 DFT .           GYP BASE:   Type fluid in hole
 DFD .                9.8:   Density
 DFV .                 44:   Viscosity
 MSS .           FLOWLINE:   Source of sample
 RMS .OHMM            1.4:   Rm
 MST .F                60:   Rm Meas. temp.
 RMB .OHMM           0.48:   Rm. at BHT
 BHT .F               175:   BHT.
 TCS .HRS             1.5:   Time Circ. stopped
 MRT .F               175:   Maximum recorded temp.
 LUN .                563:   Logging unit number
 ENGI.             SANDER:   Recorded By
 WITN.            GRIBBIN:   Witnessed by
 ORIG.      1" 2.5" PRINT:   Origin of data
 UWI .     49025065260000:   Unique Well ID
 DICO. A2D TECHNOLOGIES, INC.:   Digitizing Company
~OTHER INFORMATION
~A  DEPTH      SPR        ASN        LAT         LN
# ...
 1259.0000   -62.5141     7.8049    10.0798    10.5477
 1259.5000   -62.5126     7.7420    10.3105    10.6782
 1260.0000   -62.5112     7.6963    10.4741    10.6792
 1260.5000   -62.5097     7.6277    10.4752    10.6803
 1261.0000   -62.6142     7.5934    10.4763    10.6814
 1261.5000   -62.8430     7.5706    10.4774    10.6824
 1262.0000   -63.0805     7.5421    10.5402    10.6837
 1262.5000   -63.0791     7.4964    10.6561    10.5853
 1263.0000   -63.0776     7.4507    10.7680    10.4711
 1263.5000   -63.0762     7.4222    10.7690    10.3569
 1264.0000   -63.0748     7.3994    10.7701    10.2542
 1264.5000   -63.0733     7.3824    10.7712    10.2556
 1265.0000   -63.0719     7.3825    10.8046    10.1590
 1265.5000   -63.0704     7.4056    10.9205    10.1131
 1266.0000   -63.0690     7.4115    11.0364    10.0752
 1266.5000   -63.0676     7.4116    11.1523     9.9610
 1267.0000   -63.0661     7.4060    11.2682     9.8275
 1267.5000   -62.8406     7.3832    11.3524     9.7327
 1268.0000   -62.7757     7.3605    11.3534     9.6185
 1268.5000   -62.6648     7.3377    11.3545     9.5415
 1269.0000   -62.4853     7.2920    11.4444     9.5347
 1269.5000   -62.4838     7.2176    11.5604     9.3994
 1270.0000   -62.4824     7.1261    11.5828     9.3064
 1270.5000   -62.4810     7.0345    11.3566     9.1922
 1271.0000   -62.4796     6.9430    11.2428     9.1134
 1271.5000   -62.4781     6.8170    10.9526     9.1145
 1272.0000   -62.4767     6.6395    10.7280     9.1156
 1272.5000   -62.4752     6.4105    10.5837     9.1167
 1273.0000   -62.4738     6.2043    10.3568     9.0549
 1273.5000   -62.5843     6.0497    10.2431     8.9743
 1274.0000   -62.8131     5.8894    10.0417     8.9754
 1274.5000   -63.0446     5.7234     9.8719     8.9765
 1275.0000   -63.2707     5.6089     9.7582     8.8873
 1275.5000   -63.4996     5.4715     9.6433     8.7731
 1276.0000   -63.6153     5.3513     9.4148     8.6590
 1276.5000   -63.6139     5.2712     9.2732     8.5473
 1277.0000   -63.6124     5.2255     9.1595     8.5484
 1277.5000   -63.6110     5.1798     9.0164     8.4610
 1278.0000   -63.6096     5.1341     8.7883     8.4061
 1278.5000   -63.6081     5.0884     8.6746     8.3772
 1279.0000   -63.6067     5.0542     8.5608     8.2630
 1279.5000   -63.6053     5.0256     8.5047     8.1488
 1280.0000   -63.6038     4.9799     8.5057     8.0347
 1280.5000   -63.6024     4.9801     8.5068     7.9780
 1281.0000   -63.6010     4.9974     8.6226     7.9790
 1281.5000   -63.5995     5.0205     8.7385     7.9801
 1282.0000   -63.5981     5.0436     8.8544     7.8670
 1282.5000   -63.5966     5.0666     8.9703     7.8378
 1283.0000   -63.5952     5.0897     9.0869     7.8389
 1283.5000   -63.5938     5.0956     9.0880     7.8136
 1284.0000   -63.5923     5.0728     9.1743     7.6966
 1284.5000   -63.5909     5.0213     9.2338     7.6976
 1285.0000   -63.5895     4.9527     9.2349     7.6156
 1285.5000   -63.5880     4.9070     9.2360     7.5553
 1286.0000   -63.5866     4.8785     9.2371     7.5318
 1286.5000   -63.5851     4.8672     9.1535     7.4130
 1287.0000   -63.5837     4.8673     9.0955     7.4140
 1287.5000   -63.5823     4.8675     9.0428     7.4151
 1288.0000   -63.5808     4.8676     8.8104     7.4162
 1288.5000   -63.6985     4.8850     8.5856     7.4400
 1289.0000   -63.8655     4.9080     8.5251     7.5629
 1289.5000   -63.8595     4.9311     8.5262     7.6727
 1290.0000   -63.6278     4.9542     8.5010     7.7095
 1290.5000   -63.5736     5.0001     8.3847     7.7106
 1291.0000   -63.5722     5.0461     8.3858     7.7327
 1291.5000   -63.5077     5.0921     8.3869     7.8574
 1292.0000   -63.2761     5.1438     8.3879     7.8584
 1292.5000   -63.0443     5.2128     8.3890     7.8595
 1293.0000   -62.6338     5.2817     8.3901     7.8605
 1293.5000   -62.4149     5.3334     8.5029     7.8616
 1294.0000   -62.2850     5.3908     8.5359     7.8628
 1294.5000   -61.8369     5.4597     8.5370     7.8638
 1295.0000   -61.8355     5.5287     8.5632     7.8649
 1295.5000   -61.8340     5.6205     8.6829     7.8660
 1296.0000   -61.8326     5.6951     8.6839     7.8671
 1296.5000   -61.8312     5.7640     8.6850     7.8682
 1297.0000   -61.8297     5.8330     8.6327     7.8692
 1297.5000   -61.8283     5.9019     8.5435     7.8703
 1298.0000   -61.8268     5.9479     8.5446     7.8714
 1298.5000   -61.8254     5.9766     8.5456     7.8725
 1299.0000   -61.7573     5.9883     8.5467     7.8737
 1299.5000   -61.5350     5.9884     8.5478     7.8746
 1300.0000   -61.5335     5.9885     8.5489     7.8757
 1300.5000   -61.3497     6.0575     8.5500     7.8768
 1301.0000   -61.2431     6.1264     8.5510     7.8779
 1301.5000   -61.2417     6.1609     8.5521     7.8791
 1302.0000   -61.2297     6.1553     8.5532     7.9798
 1302.5000   -60.9980     6.1325     8.5542     8.0257
 1303.0000   -60.9498     6.1327     8.5554     8.0267
 1303.5000   -60.8221     6.1844     8.5564     8.0278
 1304.0000   -60.6594     6.2762     8.5575     8.0291
 1304.5000   -60.6580     6.3738     8.5585     8.0300
 1305.0000   -60.6563     6.4198     8.5596     8.0311
 1305.5000   -60.6551     6.4199     8.5608     8.0322
 1306.0000   -60.9087     6.4029     8.5618     8.0332
 1306.5000   -61.2273     6.3801     8.5629     8.0345
 1307.0000   -61.2259     6.3573     8.5639     8.0354
 1307.5000   -61.2242     6.3345     8.5429     8.0365
 1308.0000   -61.2230     6.3347     8.4225     8.0376
 1308.5000   -61.2216     6.3520     8.4235     8.0387
 1309.0000   -61.2201     6.3636     8.3453     8.0399
 1309.5000   -61.2187     6.3638     8.2820     8.0408
 1310.0000   -61.2170     6.3639     8.2615     7.9769
 1310.5000   -60.8415     6.3411     8.1405     7.8985
 1311.0000   -60.5094     6.3011     8.1415     7.8996
 1311.5000   -60.2777     6.2669     8.1426     7.9009
 1312.0000   -60.0613     6.2441     8.1437     7.9017
 1312.5000   -60.0596     6.2213     8.1238     7.9028
 1313.0000   -60.0585     6.2215     8.0022     7.8699
 1313.5000   -60.0570     6.2216     8.0032     7.7604
 1314.0000   -60.0556     6.2218     8.0043     7.7616
 1314.5000   -60.0542     6.2277     8.0054     7.6720
 1315.0000   -60.0525     6.2507     7.9861     7.6192
 1315.5000   -60.0513     6.2967     7.8639     7.6203
 1316.0000   -60.0498     6.3255     7.7586     7.6214
 1316.5000   -60.0484     6.3600     7.7223     7.6225
 1317.0000   -60.0470     6.4003     7.7234     7.6236
 1317.5000   -60.0453     6.4234     7.7245     7.5650
 1318.0000   -60.0441     6.3777     7.7257     7.4812
 1318.5000   -60.0426     6.2976     7.7267     7.4823
 1319.0000   -60.0412     6.2404     7.7277     7.4834
 1319.5000   -60.0398     6.2234     7.7288     7.4845
 1320.0000   -60.0381     6.2235     7.7299     7.4855
 1320.5000   -60.0369     6.2466     7.7311     7.4866
 1321.0000   -60.0355     6.2524     7.7320     7.4877
 1321.5000   -60.0340     6.2411     7.7331     7.4888
 1322.0000   -60.0326     6.2126     7.7342     7.4899
 1322.5000   -60.0309     6.1669     7.7353     7.4910
 1323.0000   -60.0297     6.1441     7.7364     7.4921
 1323.5000   -60.1641     6.1213     7.7374     7.4932
 1324.0000   -60.3144     6.1100     7.7385     7.4942
 1324.5000   -60.3129     6.0987     7.7396     7.4953
 1325.0000   -60.3113     6.0530     7.7227     7.4964
 1325.5000   -60.3101     6.0302     7.5982     7.4975
 1326.0000   -60.3086     6.0246     7.5991     7.4986
 1326.5000   -60.3072     6.0248     7.6002     7.4996
 1327.0000   -60.3057     6.0307     7.6013     7.5007
 1327.5000   -60.3041     6.0537     7.6024     7.5018
 1328.0000   -60.3029     6.0768     7.6036     7.5029
 1328.5000   -60.1632     6.0999     7.5012     7.5040
 1329.0000   -60.0125     6.1344     7.4619     7.5051
 1329.5000   -60.0110     6.1746     7.4630     7.5061
 1330.0000   -60.0094     6.1977     7.4641     7.5072
 1330.5000   -60.0081     6.2208     7.4653     7.5083
 1331.0000   -60.0067     6.2438     7.4662     7.5095
 1331.5000   -60.0053     6.2554     7.4673     7.5105
