~VERSION INFORMATION
 VERS.                2.0:   CWLS LOG ASCII STANDARD - VERSION 2.0
 WRAP.                 NO:   ONE LINE PER DEPTH STEP
~WELL INFORMATION
#MNEM.UNIT      DATA TYPE    INFORMATION
#----------   ------------   ------------------------------
 STRT.F            0.0000:   START DEPTH
 STOP.F         4030.0000:   STOP DEPTH
 STEP.F            0.5000:   STEP LENGTH
 NULL.          -999.2500:   NO VALUE
 COMP.  FENIX AND SCISSON:   COMPANY
 WELL.  FENIX "LX" #33-10:   WELL
 FLD . TEAPOT DOME (NPR #3):   FIELD
 LOC .      S10 T38N R78W:   LOCATION
 CNTY.            NATRONA:   COUNTY
 STAT.            WYOMING:   STATE
 CTRY. UNITED STATES OF AMERICA:   COUNTRY
 SRVC.       SCHLUMBERGER:   SERVICE COMPANY
 DATE.        03-APR-1978:   LOGDATE
 API .     49025105980000:   API NUMBER
~CURVE INFORMATION
#MNEM.UNIT       API CODE    CURVE DESCRIPTION
#----------   ------------   ------------------------------
 DEPT.F                  :   
 SPR .MV     07 010 01 00:   SPONTANEOUS POTENTIAL
 ILD .OHMM   07 120 46 00:   DEEP INDUCTION RESISTIVITY
 SFL .OHMM   07 220 01 00:   SHALLOW FOCUSED LOG RESISTIVITY
 ILM .OHMM   07 120 44 00:   INDUCTION LOG MEDIUM RESISTIVITY
 NPHI.DEC    42 890 03 00:   NEUTRON POROSITY SANDSTONE
 GRD .GAPI   45 310 01 00:   GAMMA RAY FROM DENSITY LOG
 CALD.IN     45 280 60 00:   CALIPER FROM DENSITY LOG
 RHOB.G/C3   45 350 01 00:   BULK DENSITY
 CORR.G/C3   45 356 01 00:   DENSITY CORRECTION
~PARAMETER INFORMATION
#MNEM.UNIT          VALUE    DESCRIPTION
#----------   ------------   ------------------------------
 EKB .F         5232.0000:   Kelly bushing
 EGL .F         5222.0000:   Ground level
 EDF .F            0.0000:   Drilling floor
 EPD .F         5222.0000:   Permanent datum
 TD  .F         4040.0000:   Total depth
 DATE.        03-APR-1978:   Date logged
 CLNT.            A2DTECH:   Client Code
 SL  . 1700' FNL & 1700' FWL:   Surface Location
 PD  .                 GL:   Permanent Datum
 DD  .F              4040:   Depth driller
 DL  .F              4031:   Depth logger
 BLI .F              4025:   Bottom log interval
 CS1 .IN            8.625:   Casing size
 CBD1.      8.625" @ 503':   Casing driller 1
 CBL1.F               504:   Casing logger 1
 BS1 .IN            7.875:   Bit size
 DFT .           CHEM GEL:   Type fluid in hole
 DFD .                9.5:   Density
 DFV .                 43:   Viscosity
 DFPH.               11.5:   pH
 DFL .                4.4:   Fluid loss
 MSS .            MUD PIT:   Source of sample
 RMS .OHMM           1.16:   Rm
 MST .F                80:   Rm Meas. temp.
 RMF .OHMM           0.93:   Rmf
 MFST.F                80:   Rmf Meas. temp.
 RMC .OHMM           1.74:   Rmc
 MCST.F                80:   Rmc Meas. temp.
 MFSS.               MEAS:   Source Rmf.
 RMB .OHMM          0.742:   Rm. at BHT
 BHT .F               125:   BHT.
 TCS .HRS            0800:   Time Circ. stopped
 MRT .F               125:   Maximum recorded temp.
 LUN .               7660:   Logging unit number
 LUL .                GLT:   Logging unit location
 ENGI.            TOEPPER:   Recorded By
 WITN.           MCGINLEY:   Witnessed by
 ORIG.         2.5" PRINT:   Origin of data
 UWI .     49025105980000:   Unique Well ID
 DICO. A2D TECHNOLOGIES, INC.:   Digitizing Company
 DAPD.                 10:   Feet Above Permanent Datum
 BSD1.               4040:   Depth drilled with bit1
 MCSS.               CALC:   Source Rmc.
 LMF .                 KB:   Log Measured From
 DMF .                 KB:   Drilling Measured From
 TLI .                504:   Top log interval
 TLAB.               1000:   Time logger at bottom
~OTHER INFORMATION
~A    DEPT     SPR        ILD        SFL        ILM       NPHI         GRD      CALD       RHOB       CORR   
# ...
  730.0000   -36.0050     7.4450     6.8890     7.1760     0.3070    88.9090    11.3370     2.4020    -0.1070
  730.5000   -36.2340     7.3970     6.8330     7.1240     0.3040    91.4950    11.3370     2.3670    -0.1510
  731.0000   -36.4740     7.3480     6.7770     7.0710     0.3020    94.2000    11.3370     2.3400    -0.1590
  731.5000   -36.4490     7.2760     6.7600     7.0140     0.2990    95.4700    11.3370     2.3540    -0.1560
  732.0000   -36.4780     7.3010     6.7820     7.0540     0.2970    94.3770    11.3370     2.3720    -0.1700
  732.5000   -36.7130     7.3500     6.8270     7.0990     0.2920    93.5470    11.3370     2.3220    -0.2060
  733.0000   -37.1770     7.4000     6.8720     7.1450     0.2930    92.6730    11.3370     2.2780    -0.2330
  733.5000   -37.1760     7.4500     6.9170     7.1900     0.2950    92.4470    11.3370     2.2340    -0.2800
  734.0000   -36.8360     7.4990     6.9620     7.2350     0.2970    92.4370    11.3370     2.1880    -0.3110
  734.5000   -36.7040     7.5490     7.0070     7.2800     0.3060    92.8050    11.3370     2.2190    -0.2740
  735.0000   -36.4350     7.5990     7.0510     7.3260     0.3030    93.6840    11.3370     2.2790    -0.2450
  735.5000   -36.4590     7.6480     7.0960     7.3710     0.2880    94.5640    11.3380     2.3160    -0.2130
  736.0000   -36.4050     7.6980     7.1410     7.4160     0.2900    94.6820    11.3310     2.1910    -0.3140
  736.5000   -36.0930     7.7470     7.1860     7.4610     0.2950    94.0430    11.3160     2.2050    -0.3080
  737.0000   -35.7490     7.7970     7.2310     7.5070     0.3000    93.7470    11.3020     2.2050    -0.3100
  737.5000   -35.6490     7.8470     7.2760     7.5520     0.3000    93.4440    11.2880     2.2110    -0.3040
  738.0000   -35.6490     7.8960     7.3210     7.5970     0.3000    93.1640    11.2740     2.2630    -0.2870
  738.5000   -35.6800     7.9770     7.3650     7.6420     0.2910    92.9100    11.2590     2.2560    -0.3000
  739.0000   -35.4140     7.9620     7.4110     7.6890     0.2820    92.4830    11.2580     2.2100    -0.3080
  739.5000   -34.8670     7.9220     7.3730     7.6690     0.2790    93.4430    11.2580     2.2200    -0.2680
  740.0000   -34.8630     7.8820     7.3340     7.6480     0.2800    95.5850    11.2580     2.2780    -0.2770
  740.5000   -34.8760     7.8430     7.2950     7.6280     0.2830    97.5220    11.2580     2.2400    -0.2990
  741.0000   -34.8150     7.8030     7.2560     7.6080     0.2870    99.6180    11.2580     2.1990    -0.3080
  741.5000   -35.1670     7.7630     7.2170     7.5870     0.2910    98.0290    11.2580     2.2070    -0.3070
  742.0000   -34.9650     7.7240     7.1780     7.5670     0.2950    96.3850    11.2580     2.2380    -0.2940
  742.5000   -34.8510     7.6890     7.1440     7.5490     0.3080    98.3140    11.2580     2.2880    -0.1970
  743.0000   -34.9430     7.8710     7.1780     7.7220     0.3110   100.0930    11.2580     2.3490    -0.1540
  743.5000   -35.1990     7.9260     7.2870     7.7500     0.3080   101.8940    11.2580     2.3150    -0.1960
  744.0000   -35.6450     7.9810     7.3950     7.7780     0.3020   103.7930    11.2580     2.2600    -0.2410
  744.5000   -35.7230     8.0360     7.5040     7.8090     0.2920   104.0170    11.2580     2.2840    -0.2130
  745.0000   -36.1040     8.0910     7.6130     7.8410     0.2950   102.4180    11.2580     2.2390    -0.2480
  745.5000   -36.0380     8.1460     7.7220     7.8740     0.3010   100.9670    11.2580     2.1920    -0.2870
  746.0000   -36.0550     8.2010     7.8300     7.9060     0.3000    99.7250    11.2580     2.3800    -0.1490
  746.5000   -36.0680     8.2560     7.9770     7.9390     0.2980   100.4440    11.2630     2.3750    -0.1290
  747.0000   -36.0450     8.2800     7.9570     7.9770     0.2910   101.1930    11.2700     2.4200    -0.0990
  747.5000   -36.0070     8.2960     7.9260     7.9910     0.2850   101.9790    11.2770     2.4690    -0.0750
  748.0000   -35.5680     8.3130     7.8940     8.0070     0.2810   102.5900    11.2840     2.4650    -0.0580
  748.5000   -35.9620     8.3290     7.8630     8.0240     0.2790   100.9380    11.2910     2.4530    -0.0450
  749.0000   -35.6670     8.3460     7.8320     8.0410     0.2780    99.7950    11.2980     2.4680    -0.0320
  749.5000   -35.7520     8.3620     7.8010     8.0570     0.2760    98.4720    11.3050     2.4860    -0.0480
  750.0000   -35.7810     8.3790     7.7700     8.0740     0.2730    97.0970    11.3120     2.4220    -0.1730
  750.5000   -35.8600     8.3950     7.7390     8.0910     0.2780    96.6360    11.3190     2.3430    -0.1600
  751.0000   -35.9130     8.4120     7.7080     8.1070     0.2830    97.4550    11.3260     2.3780    -0.1160
  751.5000   -35.9770     8.4290     7.6770     8.1250     0.2870    98.1490    11.3330     2.4470    -0.0730
  752.0000   -36.0460     8.3210     7.6460     8.0690     0.2910    98.8640    11.3400     2.3940    -0.1340
  752.5000   -36.0190     8.2050     7.6150     7.9650     0.2950    99.5900    11.3470     2.3250    -0.1910
  753.0000   -36.4020     8.0890     7.5840     7.8600     0.2980   100.3090    11.3540     2.2530    -0.2480
  753.5000   -36.3240     7.9740     7.5490     7.7550     0.3030   101.0280    11.3620     2.2010    -0.2970
  754.0000   -36.3560     7.8580     7.4330     7.6510     0.3110   101.7310    11.3680     2.2070    -0.2900
  754.5000   -36.5290     7.7430     7.2980     7.5460     0.3130   102.5130    11.3750     2.2190    -0.2850
  755.0000   -36.9040     7.6270     7.1630     7.4410     0.3090   102.5140    11.3750     2.2320    -0.2990
  755.5000   -36.9030     7.5110     7.0280     7.3370     0.3070   101.8880    11.3710     2.2070    -0.3080
  756.0000   -37.2960     7.3960     6.8930     7.2320     0.3150   101.3270    11.3680     2.1920    -0.3090
  756.5000   -37.2470     7.2800     6.7580     7.1270     0.3230   100.7650    11.3650     2.2050    -0.2980
  757.0000   -37.2400     7.1650     6.6230     7.0230     0.3320   100.2230    11.3620     2.1900    -0.3010
  757.5000   -37.2200     7.0490     6.4880     6.9180     0.3420    99.5780    11.3590     2.2130    -0.2700
  758.0000   -36.8390     7.0080     6.3530     6.8620     0.3420   100.3060    11.3560     2.3090    -0.1910
  758.5000   -36.7910     6.9870     6.2810     6.7790     0.3340   101.7650    11.3520     2.4150    -0.0670
  759.0000   -36.4070     6.9660     6.2810     6.6950     0.3260   103.1980    11.3490     2.3930    -0.1020
  759.5000   -36.4730     6.9450     6.2810     6.6120     0.3190   103.4360    11.3460     2.3630    -0.1610
  760.0000   -36.4500     6.9240     6.2810     6.5280     0.3150   102.9080    11.3430     2.3320    -0.1120
  760.5000   -36.4450     6.9030     6.2810     6.4450     0.3150   102.4190    11.3400     2.3880    -0.1250
  761.0000   -36.3180     6.8860     6.2810     6.3620     0.3120   101.9500    11.3370     2.3670    -0.1790
  761.5000   -36.1780     6.7470     6.2810     6.2780     0.3080   101.3630    11.3370     2.2970    -0.2300
  762.0000   -36.0590     6.6280     6.1920     6.1950     0.3060   101.7330    11.3370     2.2360    -0.2780
  762.5000   -36.0570     6.5090     6.0250     6.1110     0.3190   103.0430    11.3370     2.1910    -0.3070
  763.0000   -36.0540     6.3890     5.8570     6.0280     0.3280   104.2370    11.3370     2.1850    -0.3050
  763.5000   -36.0560     6.2700     5.6890     5.9450     0.3310   105.4440    11.3370     2.1840    -0.3040
  764.0000   -36.0550     6.1510     5.5220     5.8610     0.3340   106.7060    11.3370     2.1970    -0.3060
  764.5000   -36.0560     6.0310     5.3230     5.7780     0.3380   107.5340    11.3370     2.2440    -0.2360
  765.0000   -36.0580     5.9120     5.3040     5.6940     0.3420   107.4930    11.3370     2.3370    -0.1550
  765.5000   -36.0990     5.7930     5.2570     5.6110     0.3470   106.9730    11.3380     2.4220    -0.0810
  766.0000   -36.1400     5.6740     5.2100     5.5280     0.3510   106.4610    11.3360     2.3290    -0.1710
