~VERSION INFORMATION
 VERS.                2.0:   CWLS LOG ASCII STANDARD - VERSION 2.0
 WRAP.                 NO:   ONE LINE PER DEPTH STEP
~WELL INFORMATION
#MNEM.UNIT      DATA TYPE    INFORMATION
#----------   ------------   ------------------------------
 STRT.F            0.0000:   START DEPTH
 STOP.F         3205.0000:   STOP DEPTH
 STEP.F            0.5000:   STEP LENGTH
 NULL.          -999.2500:   NO VALUE
 COMP. LAWRENCE-ALLISON AND ASSOCIATES:   COMPANY
 WELL. LAWRENCE "X" #64-28:   WELL
 FLD .          N.P.R. #3:   FIELD
 LOC .      S28 T39N R78W:   LOCATION
 CNTY.            NATRONA:   COUNTY
 STAT.            WYOMING:   STATE
 CTRY. UNITED STATES OF AMERICA:   COUNTRY
 SRVC.      DRESSER ATLAS:   SERVICE COMPANY
 DATE.        25-MAY-1986:   LOGDATE
 API .     49025110730000:   API NUMBER
~CURVE INFORMATION
#MNEM.UNIT       API CODE    CURVE DESCRIPTION
#----------   ------------   ------------------------------
 DEPT.F                  :   
 GRR .GAPI   07 310 01 00:   GAMMA RAY FROM RESISTIVITY
 SPR .MV     07 010 01 00:   SPONTANEOUS POTENTIAL
 RILD.OHMM   07 120 46 00:   DEEP INDUCTION RESISTIVITY
 RILM.OHMM   07 120 44 00:   INDUCTION LOG MEDIUM RESISTIVITY
 RSFL.OHMM   07 221 01 00:   AMPPLIFIED SHALLOW FOCUSED LOG RESISTIVITY
 TENR.LBS    07 635 01 00:   TENSION FROM RESISTIVITY
 CNC .DEC    42 890 03 00:   NEUTRON POROSITY SANDSTONE
 CALD.IN     45 280 60 00:   CALIPER FROM DENSITY LOG
 DEN .G/C3   45 350 01 00:   BULK DENSITY
 CORR.G/C3   45 356 01 00:   DENSITY CORRECTION
 TEND.LBS    45 635 01 00:   TENSION FROM DENSITY LOG
~PARAMETER INFORMATION
#MNEM.UNIT          VALUE    DESCRIPTION
#----------   ------------   ------------------------------
 EKB .F         5070.0000:   Kelly bushing
 EGL .F         5058.0000:   Ground level
 TD  .F         3205.0000:   Total depth
 DATE.        25-MAY-1986:   Date logged
 CLNT.            A2DTECH:   Client Code
 SL  . 2248' FNL & 1636' FEL:   Surface Location
 PD  .                 GL:   Permanent Datum
 EPD .F              5058:   Elevation Permanent Datum
 LMF .                 KB:   Log Measured From
 DMF .                 KB:   Drilling Measured From
 DAPD.F                12:   Feet Above Permanent Datum
 DD  .F              3205:   Depth driller
 DL  .F              3203:   Depth logger
 BLI .F              3201:   Bottom log interval
 CS1 .IN            8.625:   Casing size
 CBD1.      8.625" @ 476':   Casing driller 1
 CBL1.F               478:   Casing logger 1
 BS1 .IN            7.875:   Bit size
 BSD1.F              3205:   Depth drilled with bit1
 DFT .        POLYMER-KCL:   Type fluid in hole
 DFD .                  9:   Density
 DFV .                 37:   Viscosity
 DFPH.                8.5:   pH
 DFL .                 10:   Fluid loss
 MSS .           FLOWLINE:   Source of sample
 RMS .OHMM           0.31:   Rm
 MST .F                69:   Rm Meas. temp.
 RMF .OHMM           0.25:   Rmf
 MFST.F                69:   Rmf Meas. temp.
 RMC .OHMM           0.39:   Rmc
 MCST.F                69:   Rmc Meas. temp.
 MFSS.               MEAS:   Source Rmf.
 MCSS.               CALC:   Source Rmc.
 RMB .OHMM           0.19:   Rm. at BHT
 BHT .F               115:   BHT.
 TCS .HRS               4:   Time Circ. stopped
 MRT .F               115:   Maximum recorded temp.
 LUN .            HL-6274:   Logging unit number
 LUL .           GILLETTE:   Logging unit location
 ENGI.             RAUTIO:   Recorded By
 WITN.             STRONG:   Witnessed by
 ORIG.           5" PRINT:   Origin of data
 UWI .     49025110730000:   Unique Well ID
 DICO. A2D TECHNOLOGIES, INC.:   Digitizing Company
~OTHER INFORMATION
~A    DEPT     GRR        SPR       RILD       RILM       RSFL       TENR        CNC       CALD        DEN       CORR       TEND   
# ...
 1372.5000    94.9290   -53.4110     5.5990     5.8080     6.3680   -15.4690  -999.2500  -999.2500  -999.2500  -999.2500  -999.2500
 1373.0000    92.4860   -53.3580     5.5990     5.8660     6.4480   -18.4130  -999.2500  -999.2500  -999.2500  -999.2500  -999.2500
 1373.5000    92.0750   -53.3210     5.6800     5.9230     6.4710   -21.5760  -999.2500  -999.2500  -999.2500  -999.2500  -999.2500
 1374.0000    94.3400   -53.2930     5.7870     5.9800     6.4440   -25.4490  -999.2500  -999.2500  -999.2500  -999.2500  -999.2500
 1374.5000    97.8960   -53.2360     5.9170     6.0270     6.5000   -22.2690  -999.2500  -999.2500  -999.2500  -999.2500  -999.2500
 1375.0000   100.2430   -53.2200     5.9300     6.0490     6.7290   -18.1660  -999.2500  -999.2500  -999.2500  -999.2500  -999.2500
 1375.5000    99.7420   -53.3800     5.9460     6.0670     6.7430   -14.0640  -999.2500  -999.2500  -999.2500  -999.2500  -999.2500
 1376.0000    96.6700   -53.5960     5.9620     6.0860     6.7590    -9.9610  -999.2500  -999.2500  -999.2500  -999.2500  -999.2500
 1376.5000    94.1370   -53.8040     5.9710     6.1040     6.7760    -5.8590  -999.2500  -999.2500  -999.2500  -999.2500  -999.2500
 1377.0000    95.6630   -53.9840     5.9850     6.1230     6.7920    -1.7560  -999.2500  -999.2500  -999.2500  -999.2500  -999.2500
 1377.5000    98.9400   -54.2280     5.9960     6.1410     6.7100     2.3470  -999.2500  -999.2500  -999.2500  -999.2500  -999.2500
 1378.0000    98.2370   -54.3830     6.0060     6.1600     6.6320     2.1540  -999.2500  -999.2500  -999.2500  -999.2500  -999.2500
 1378.5000    93.1330   -54.1760     6.0170     6.1790     6.5460    -2.7430  -999.2500  -999.2500  -999.2500  -999.2500  -999.2500
 1379.0000    90.1180   -53.8890     6.0270     6.1950     6.6820    -7.6400  -999.2500  -999.2500  -999.2500  -999.2500  -999.2500
 1379.5000    92.1180   -53.6450     6.0000     6.1750     6.8330   -12.5360  -999.2500  -999.2500  -999.2500  -999.2500  -999.2500
 1380.0000    92.9920   -53.4050     5.9760     6.1520     6.9830   -17.4330  -999.2500  -999.2500  -999.2500  -999.2500  -999.2500
 1380.5000    90.8830   -53.1150     5.9530     6.1300     7.1110   -22.3300  -999.2500  -999.2500  -999.2500  -999.2500  -999.2500
 1381.0000    89.4630   -52.8320     5.9290     6.1070     7.0030   -23.1540  -999.2500  -999.2500  -999.2500  -999.2500  -999.2500
 1381.5000    89.6570   -52.8890     5.9050     6.0850     6.9100   -16.8290  -999.2500  -999.2500  -999.2500  -999.2500  -999.2500
 1382.0000    89.9930   -53.0920     5.8820     6.0620     6.8160   -10.5040  -999.2500  -999.2500  -999.2500  -999.2500  -999.2500
 1382.5000    88.6580   -53.2150     5.8630     6.0400     6.7220    -5.4890  -999.2500  -999.2500  -999.2500  -999.2500  -999.2500
 1383.0000    89.4030   -53.3890     5.8840     6.0380     6.6680   -13.6330  -999.2500  -999.2500  -999.2500  -999.2500  -999.2500
 1383.5000    92.5650   -53.5420     5.9060     6.0660     6.7270   -20.3790  -999.2500  -999.2500  -999.2500  -999.2500  -999.2500
 1384.0000    93.0810   -53.5500     5.9270     6.0930     6.7750   -25.4490  -999.2500  -999.2500  -999.2500  -999.2500  -999.2500
 1384.5000    91.6240   -53.4640     5.9480     6.1210     6.8440   -31.7660  -999.2500  -999.2500  -999.2500  -999.2500  -999.2500
 1385.0000    88.4750   -53.3700     5.9690     6.1480     6.9240   -35.4290  -999.2500  -999.2500  -999.2500  -999.2500  -999.2500
 1385.5000    87.7480   -53.2690     5.9910     6.1760     6.9810   -26.6240  -999.2500  -999.2500  -999.2500  -999.2500  -999.2500
 1386.0000    93.2090   -53.1960     6.0120     6.1950     6.9300   -19.7240  -999.2500  -999.2500  -999.2500  -999.2500  -999.2500
 1386.5000    97.5690   -53.0760     6.0510     6.2400     6.8820   -12.8240  -999.2500  -999.2500  -999.2500  -999.2500  -999.2500
 1387.0000    96.0000   -53.0200     6.1270     6.2750     6.8350    -5.4890  -999.2500  -999.2500  -999.2500  -999.2500  -999.2500
 1387.5000    91.2180   -53.1050     6.2030     6.3090     6.7880    -9.1360  -999.2500  -999.2500  -999.2500  -999.2500  -999.2500
 1388.0000    90.4600   -52.9770     6.2520     6.3440     6.7290   -13.0280  -999.2500  -999.2500  -999.2500  -999.2500  -999.2500
 1388.5000    92.6860   -52.8160     6.2520     6.3790     6.8130   -16.9200  -999.2500  -999.2500  -999.2500  -999.2500  -999.2500
 1389.0000    92.4150   -52.9370     6.2520     6.4130     6.9210   -20.8120  -999.2500  -999.2500  -999.2500  -999.2500  -999.2500
 1389.5000    95.4030   -53.1820     6.2520     6.3970     7.0300   -25.4490  -999.2500  -999.2500  -999.2500  -999.2500  -999.2500
 1390.0000    97.9940   -53.3840     6.2140     6.3460     7.1380   -23.5740  -999.2500  -999.2500  -999.2500  -999.2500  -999.2500
 1390.5000    93.9170   -53.3740     6.1660     6.2950     7.2430   -20.5070  -999.2500  -999.2500  -999.2500  -999.2500  -999.2500
 1391.0000    89.1690   -53.2770     6.1180     6.2450     6.9960   -17.4410  -999.2500  -999.2500  -999.2500  -999.2500  -999.2500
 1391.5000    85.5640   -53.2290     6.0700     6.1940     6.7000   -14.3740  -999.2500  -999.2500  -999.2500  -999.2500  -999.2500
 1392.0000    84.8520   -53.1590     6.0220     6.1430     6.4270   -11.3080  -999.2500  -999.2500  -999.2500  -999.2500  -999.2500
 1392.5000    88.5540   -53.0880     5.9750     6.0920     6.4270    -8.2410  -999.2500  -999.2500  -999.2500  -999.2500  -999.2500
 1393.0000    93.8120   -53.0330     5.9270     6.0420     6.4860    -5.4890  -999.2500  -999.2500  -999.2500  -999.2500  -999.2500
 1393.5000    98.4340   -53.0560     5.8790     5.9910     6.5620   -18.3630  -999.2500  -999.2500  -999.2500  -999.2500  -999.2500
 1394.0000    99.4350   -53.1470     5.8310     5.9400     6.6300   -30.0400  -999.2500  -999.2500  -999.2500  -999.2500  -999.2500
 1394.5000    97.5540   -53.2220     5.8010     5.9090     6.6990   -33.4830  -999.2500  -999.2500  -999.2500  -999.2500  -999.2500
 1395.0000    96.1860   -53.3060     5.7860     5.8950     6.6730   -29.8690  -999.2500  -999.2500  -999.2500  -999.2500  -999.2500
 1395.5000    95.9690   -53.3890     5.7710     5.8810     6.5720   -26.2550  -999.2500  -999.2500  -999.2500  -999.2500  -999.2500
 1396.0000    96.8100   -53.4650     5.7560     5.8670     6.4710   -22.6400  -999.2500  -999.2500  -999.2500  -999.2500  -999.2500
 1396.5000    97.6140   -53.5550     5.7410     5.8530     6.3700   -19.0260  -999.2500  -999.2500  -999.2500  -999.2500  -999.2500
 1397.0000    96.7870   -53.6240     5.7260     5.8390     6.3440   -15.4690  -999.2500  -999.2500  -999.2500  -999.2500  -999.2500
 1397.5000    94.3920   -53.7220     5.7120     5.8250     6.4280   -16.7240  -999.2500  -999.2500  -999.2500  -999.2500  -999.2500
 1398.0000    91.2540   -53.7970     5.7260     5.8090     6.5120   -18.2560  -999.2500  -999.2500  -999.2500  -999.2500  -999.2500
 1398.5000    90.6430   -53.6710     5.7790     5.8730     6.6070   -19.7890  -999.2500  -999.2500  -999.2500  -999.2500  -999.2500
 1399.0000    94.1310   -53.4690     5.8320     5.9480     6.5420   -21.3220  -999.2500  -999.2500  -999.2500  -999.2500  -999.2500
 1399.5000    96.4720   -53.3190     5.8850     6.0230     6.4660   -22.8540  -999.2500  -999.2500  -999.2500  -999.2500  -999.2500
 1400.0000    95.0270   -53.1150     5.9380     6.0980     6.3100   -24.3870  -999.2500  -999.2500  -999.2500  -999.2500  -999.2500
 1400.5000    93.6890   -53.0190     5.9910     6.1950     6.5850   -25.4490  -999.2500  -999.2500  -999.2500  -999.2500  -999.2500
 1401.0000    94.4220   -53.1510     6.0150     6.1530     6.7360   -22.2830  -999.2500  -999.2500  -999.2500  -999.2500  -999.2500
 1401.5000    94.6620   -53.2880     5.9780     6.0940     6.7590   -18.8070  -999.2500  -999.2500  -999.2500  -999.2500  -999.2500
 1402.0000    94.3980   -53.3950     5.9410     6.0350     6.7810   -15.3310  -999.2500  -999.2500  -999.2500  -999.2500  -999.2500
 1402.5000    95.9020   -53.5180     5.8820     5.9760     6.7210   -11.8560  -999.2500  -999.2500  -999.2500  -999.2500  -999.2500
