~VERSION INFORMATION
 VERS.                2.0:   CWLS LOG ASCII STANDARD - VERSION 2.0
 WRAP.                 NO:   ONE LINE PER DEPTH STEP
~WELL INFORMATION
#MNEM.UNIT      DATA TYPE    INFORMATION
#----------   ------------   ------------------------------
 STRT.F           95.0000:   START DEPTH
 STOP.F          866.5000:   STOP DEPTH
 STEP.F            0.5000:   STEP LENGTH
 NULL.          -999.2500:   NO VALUE
 COMP.          U.S. NAVY:   COMPANY
 WELL. U.S NAVY RES 3 TEAPOT DOM "SX" #41-2:   WELL
 FLD .        TEAPOT DOME:   FIELD
 LOC .       S2 T38N R78W:   LOCATION
 CNTY.            NATRONA:   COUNTY
 STAT.            WYOMING:   STATE
 CTRY. UNITED STATES OF AMERICA:   COUNTRY
 SRVC.       SCHLUMBERGER:   SERVICE COMPANY
 DATE.        20-JUL-1953:   LOGDATE
 API .     49025064770000:   API NUMBER
~CURVE INFORMATION
#MNEM.UNIT       API CODE    CURVE DESCRIPTION
#----------   ------------   ------------------------------
 DEPT.F                  :   
 SPR .MV     05 010 01 00:   SPONTANEOUS POTENTIAL FROM RES.
 ASN .OHMM   05 041 16 00:   AMPLIFIED SHORT NORMAL 16"
 ILD .OHMM   05 120 46 00:   INDUCTION LOG DEEP
 GR  .GAPI   30 310 01 00:   GAMMA RAY
~PARAMETER INFORMATION
#MNEM.UNIT          VALUE    DESCRIPTION
#----------   ------------   ------------------------------
 EKB .F         5140.0000:   Kelly bushing
 EGL .F         5135.0000:   Ground level
 TD  .F          862.0000:   Total depth
 DATE.        20-JUL-1953:   Date logged
 CLNT.            A2DTECH:   Client Code
 DD  .F               862:   Depth driller
 DL  .F               855:   Depth logger
 BLI .F               654:   Bottom log interval
 TLI .F                50:   Top log interval
 CS1 .IN            8.625:   Casing size
 CBD1.       8.625" @ 10':   Casing driller 1
 BS1 .IN             6.75:   Bit size
 BSD1.F               862:   Depth drilled with bit1
 DFT .            GEL-OIL:   Type fluid in hole
 DFD .                9.4:   Density
 DFV .                 50:   Viscosity
 DFPH.                8.0:   pH
 DFL .                3.1:   Fluid loss
 RMS .OHMM           1.83:   Rm
 MST .F                96:   Rm Meas. temp.
 RMF .OHMM           1.56:   Rmf
 MFST.F                96:   Rmf Meas. temp.
 TCS .HRS               1:   Time Circ. stopped
 LUN .               4507:   Logging unit number
 LUL .               CSPR:   Logging unit location
 ENGI.            WINKLER:   Recorded By
 WITN.          JORGENSON:   Witnessed by
 ORIG.           5" PRINT:   Origin of data
 UWI .     49025064770000:   Unique Well ID
 DICO. A2D TECHNOLOGIES, INC.:   Digitizing Company
 MSS .           FLOWLINE:   Source of sample
~OTHER INFORMATION
~A  DEPTH      SPR        ASN        ILD         GR
# ...
  533.0000   -62.2500     9.6354     8.7326  -999.2500
  533.5000   -62.2533     9.5910     8.5812  -999.2500
  534.0000   -62.2561     9.5169     8.5044  -999.2500
  534.5000   -62.1107     9.4866     8.3526  -999.2500
  535.0000   -62.1136     9.4432     8.2758  -999.2500
  535.5000   -62.1164     9.4287     8.2736  -999.2500
  536.0000   -62.1190     9.4443     8.2714  -999.2500
  536.5000   -62.2710     9.4750     8.2694  -999.2500
  537.0000   -62.2743     9.4755     8.2667  -999.2500
  537.5000   -62.4260     9.4910     8.2898  -999.2500
  538.0000   -62.4289     9.4617     8.3374  -999.2500
  538.5000   -62.4318     9.4324     8.3348  -999.2500
  539.0000   -62.4351     9.4031     8.3327  -999.2500
  539.5000   -62.4375     9.3737     8.3305  -999.2500
  540.0000   -62.4409     9.3592     8.3280  -999.2500
  540.5000   -62.4437     9.3300     8.2515  -999.2500
  541.0000   -62.4466     9.3155     8.2490  -999.2500
  541.5000   -62.4500     9.2862     8.2634  -999.2500
  542.0000   -62.6012     9.2869     8.3194  -999.2500
  542.5000   -62.6045     9.3324     8.3921  -999.2500
  543.0000   -62.6074     9.4827     8.3892  -999.2500
  543.5000   -62.6103     9.6779     8.4836  -999.2500
  544.0000   -62.6136     9.8282     8.6153  -999.2500
  544.5000   -62.6165    10.0384     8.7558  -999.2500
  545.0000   -62.6194    10.1887     8.8284  -999.2500
  545.5000   -62.6222    10.2791     8.9750  -999.2500
  546.0000   -62.6251    10.3096     9.0116  -999.2500
  546.5000   -62.6285    10.2503     9.0455  -999.2500
  547.0000   -62.7801    10.2059     9.0433  -999.2500
  547.5000   -62.9318    10.2067     9.0409  -999.2500
  548.0000   -63.0835    10.2222     9.0384  -999.2500
  548.5000   -63.2357    10.2228     8.9616  -999.2500
  549.0000   -63.3873    10.1485     8.9594  -999.2500
  549.5000   -63.3902     9.9546     8.8080  -999.2500
  550.0000   -63.5421     9.8204     8.5819  -999.2500
  550.5000   -63.6905     9.7563     8.5081    84.9546
  551.0000   -63.6905     9.7377     8.4342    85.1094
  551.5000   -63.6905     9.7041     8.3603    88.0958
  552.0000   -63.6905     9.6550     8.2120    91.8283
  552.5000   -63.6905     9.5615     8.2128    94.8147
  553.0000   -63.8393     9.3633     8.0642    98.3972
  553.5000   -64.1369     9.1800     7.9157    96.9127
  554.0000   -64.2857     9.0118     7.7673    92.1495
  554.5000   -64.2857     8.8429     7.6934    93.3465
  555.0000   -64.2857     8.7494     7.6940    90.9678
  555.5000   -64.1369     8.7159     7.6948    96.4877
  556.0000   -64.1369     8.7422     7.6956    90.0871
  556.5000   -63.9881     8.7835     7.6964    93.5206
  557.0000   -63.8393     8.8840     7.6970    95.4637
  557.5000   -63.6905     9.0002     7.6978    94.1292
  558.0000   -63.6905     9.1163     7.7732    89.0679
  558.5000   -63.6905     9.2325     7.7739    84.4537
  559.0000   -63.6905     9.3486     7.9240    81.1808
  559.5000   -63.6905     9.4192     7.9994    80.1424
  560.0000   -63.6905     9.4468     8.0747    80.8952
  560.5000   -63.6905     9.4276     8.2246    81.9442
  561.0000   -63.9881     9.4539     8.3001    83.1423
  561.5000   -64.1369     9.5395     8.3754    87.0229
  562.0000   -64.2857     9.6257     8.3762    87.9219
  562.5000   -64.1369     9.6820     8.3769    91.8044
  563.0000   -64.1369     9.6933     8.3776    95.6849
  563.5000   -64.1369     9.7047     8.3784    97.6281
  564.0000   -64.1369     9.7004     8.3791   100.9126
  564.5000   -64.1369     9.6819     8.3799   100.4713
  565.0000   -64.2857     9.6632     8.3807    98.8387
  565.5000   -64.2857     9.6291     8.3814    95.8638
  566.0000   -64.7321     9.5656     8.3822    94.6773
  566.5000   -65.3274     9.4865     8.3829    94.0860
  567.0000   -65.9226     9.4380     8.3837    94.2418
  567.5000   -66.2202     9.4044     8.3096    97.3782
  568.0000   -66.3690     9.4008     8.2357    99.1704
  568.5000   -66.2202     9.4124     8.2115    96.6446
  569.0000   -65.9226     9.3930     8.1626    95.6945
  569.5000   -65.6250     9.3744     8.1634    94.4207
  570.0000   -65.4762     9.3558     8.2388    89.8074
  570.5000   -65.3274     9.4121     8.2397    89.9622
  571.0000   -65.3274     9.5731     8.3896    90.7132
  571.5000   -65.1786     9.8090     8.6142    91.7621
  572.0000   -64.8810    10.0037     8.9135    95.9398
  572.5000   -64.4345    10.2043     9.2128    92.8179
  573.0000   -64.2857    10.4049     9.4875    88.5017
  573.5000   -64.2857    10.6023     9.8113    77.6282
  574.0000   -64.2857    10.8227    10.0500    77.0369
  574.5000   -64.5833    10.8961    10.1859    83.0049
  575.0000   -64.7321    11.0638    10.3359    84.6500
  575.5000   -65.1786    11.2615    10.4113    87.1903
  576.0000   -65.3274    11.4070    10.4910    87.4941
  576.5000   -65.3274    11.6273    10.7113    85.7115
  577.0000   -65.3274    11.7734    11.0105    83.6299
  577.5000   -65.3274    11.9302    11.2854    84.8279
  578.0000   -65.3274    12.1404    11.6837    80.2147
  578.5000   -65.3274    12.3619    11.9830    80.9666
  579.0000   -65.3274    12.5823    12.1329    81.1214
  579.5000   -65.3274    12.6541    12.2083    82.6175
  580.0000   -65.3274    12.7247    12.2090    79.1955
  580.5000   -65.3274    12.7960    12.2098    72.1959
  581.0000   -65.3274    12.8672    12.1359    73.9919
  581.5000   -65.3274    12.8624    12.0619    72.0603
  582.0000   -65.1786    12.7839    11.9134    71.6180
  582.5000   -65.1786    12.7058    11.6902    75.3505
  583.0000   -65.1786    12.5524    11.5418    76.9966
  583.5000   -65.0298    12.4736    11.2442    79.2379
  584.0000   -65.0298    12.3946    11.0956    79.8388
  584.5000   -64.8810    12.2413    11.0118    75.6717
  585.0000   -64.8810    12.1628    10.9477    80.4474
  585.5000   -64.7321    12.0843    10.9485    79.7090
  586.0000   -64.7321    12.0801    10.9493    72.8593
  586.5000   -64.7321    12.0765    10.9501    69.8845
  587.0000   -64.5833    11.9985    10.9508    71.9767
  587.5000   -64.5833    11.9195    10.9516    75.5583
  588.0000   -64.5833    11.9159    10.9522    74.6698
  588.5000   -64.5833    11.8368    10.9530    76.9111
  589.0000   -64.5833    11.8338    10.9539    74.2362
  589.5000   -64.5833    11.7548    10.9545    71.8575
  590.0000   -64.5833    11.6014    10.9553    73.8007
  590.5000   -64.5833    11.5230    10.8813    73.5074
  591.0000   -64.4345    11.3690    10.7078    77.9861
  591.5000   -64.4345    11.2157    10.5097    81.1215
  592.0000   -64.2857    11.0624    10.3602    81.2753
  592.5000   -63.9881    10.9091    10.2125    78.8976
  593.0000   -63.8393    10.8306    10.1388    77.5611
  593.5000   -63.5417    10.7515    10.0649    79.5062
  594.0000   -63.5417    10.6731     9.9912    81.5965
  594.5000   -63.5417    10.5946     9.9918    78.9207
  595.0000   -63.5417    10.5161     9.8988    80.2687
  595.5000   -63.8393    10.4133     9.8440    80.8696
  596.0000   -64.2857    10.2837     9.7701    78.7899
  596.5000   -64.4345    10.2053     9.7709    79.2438
  597.0000   -64.4345    10.1171     9.7718    77.6102
  597.5000   -64.2857    10.0483     9.6978    72.9960
  598.0000   -64.2857     9.9699     9.6240    68.8289
  598.5000   -64.1369     9.9656     9.6246    68.8356
  599.0000   -63.8393     9.8872     9.5507    67.6482
  599.5000   -63.6905     9.8836     9.4770    69.7414
  600.0000   -63.6905     9.8051     9.1791    70.3583
  600.5000   -63.0968     9.9666     9.1791    70.4603
  601.0000   -62.8004    10.1803     9.1791    70.8020
  601.5000   -62.6530    10.3734     9.2537    71.1069
  602.0000   -62.6550    10.2532     9.2537    69.7705
  602.5000   -62.6564    10.1032     9.3284    73.3541
  603.0000   -62.6578    10.2077     9.3284    77.8309
  603.5000   -62.8081    10.3721     9.3284    82.6057
  604.0000   -63.2562    10.3269     9.3284    84.2509
  604.5000   -63.5553    10.2517     9.2537    79.6368
  605.0000   -64.0031    10.2365     9.1045    79.0465
  605.5000   -64.1890    10.2062     8.9552    78.6053
