~VERSION INFORMATION
 VERS.                2.0:   CWLS LOG ASCII STANDARD - VERSION 2.0
 WRAP.                 NO:   ONE LINE PER DEPTH STEP
~WELL INFORMATION
#MNEM.UNIT      DATA TYPE    INFORMATION
#----------   ------------   ------------------------------
 STRT.F            0.0000:   START DEPTH
 STOP.F         3083.0000:   STOP DEPTH
 STEP.F            0.5000:   STEP LENGTH
 NULL.          -999.2500:   NO VALUE
 COMP. LAWRENCE & ALLISON & ASSOCIATES:   COMPANY
 WELL. LAWRENCE 71 "AX" #3-29:   WELL
 FLD .              N P R:   FIELD
 LOC .      S29 T38N R78W:   LOCATION
 CNTY.            NATRONA:   COUNTY
 STAT.            WYOMING:   STATE
 CTRY. UNITED STATES OF AMERICA:   COUNTRY
 SRVC.      DRESSER ATLAS:   SERVICE COMPANY
 DATE.        12-MAR-1985:   LOGDATE
 API .     49025110160000:   API NUMBER
~CURVE INFORMATION
#MNEM.UNIT       API CODE    CURVE DESCRIPTION
#----------   ------------   ------------------------------
 DEPT.F                  :   
 GRR .GAPI   07 310 01 00:   GAMMA RAY FROM RESISTIVITY
 SPR .MV     07 010 01 00:   SPONTANEOUS POTENTIAL
 TENR.LBS    07 635 01 00:   TENSION FROM RESISTIVITY
 RFOC.OHMM   07 220 04 00:   RESISTIVITY FOCUSED LOG RES.
 RILD.OHMM   07 120 46 00:   DEEP INDUCTION RESISTIVITY
 RILM.OHMM   07 120 44 00:   INDUCTION LOG MEDIUM RESISTIVITY
 TEND.LBS    45 635 01 00:   TENSION FROM DENSITY LOG
 DEN .G/C3   45 350 01 00:   BULK DENSITY
 CORR.G/C3   45 356 01 00:   DENSITY CORRECTION
 CNC .DEC    42 890 01 00:   NEUTRON PORISITY LIMESTONE
 CALD.IN     45 280 60 00:   CALIPER FROM DENSITY LOG
~PARAMETER INFORMATION
#MNEM.UNIT          VALUE    DESCRIPTION
#----------   ------------   ------------------------------
 EKB .F         4983.0000:   Kelly bushing
 EGL .F         4971.0000:   Ground level
 TD  .F         3082.0000:   Total depth
 DATE.        12-MAR-1985:   Date logged
 CLNT.            A2DTECH:   Client Code
 SL  . 568' FNL AND 829' FEL:   Surface Location
 PD  .                 GL:   Permanent Datum
 EPD .F              4971:   Elevation Permanent Datum
 LMF .                 KB:   Log Measured From
 DMF .                 KB:   Drilling Measured From
 DD  .F              3080:   Depth driller
 DL  .F              3082:   Depth logger
 BLI .F              3080:   Bottom log interval
 TLI .F              2100:   Top log interval
 CS1 .IN            8.625:   Casing size
 CBD1.      8.625" @ 311':   Casing driller 1
 BS1 .IN            7.875:   Bit size
 DFT .            KCL GEL:   Type fluid in hole
 DFD .                9.1:   Density
 DFV .                 38:   Viscosity
 DFPH.                  8:   pH
 DFL .               10.4:   Fluid loss
 MSS .           FLOWLINE:   Source of sample
 RMS .OHMM            .47:   Rm
 MST .F                60:   Rm Meas. temp.
 RMF .OHMM            .35:   Rmf
 MFST.F                61:   Rmf Meas. temp.
 RMC .OHMM            .53:   Rmc
 MCST.F                61:   Rmc Meas. temp.
 MFSS.               CLAC:   Source Rmf.
 RMB .OHMM           .209:   Rm. at BHT
 BHT .F               134:   BHT.
 TCS .HRS               3:   Time Circ. stopped
 MRT .F               134:   Maximum recorded temp.
 LUN .               6234:   Logging unit number
 LUL .               CLTE:   Logging unit location
 ENGI.      MACK/ EDWARDS:   Recorded By
 WITN.             STRONG:   Witnessed by
 PWI .                  -:   Primary Well Identifier
 ORIG.           5" PRINT:   Origin of data
 UWI .     49025110160000:   Unique Well ID
 DICO. A2D TECHNOLOGIES, INC.:   Digitizing Company
 DAPD.F                12:   Feet Above Permanent Datum
 BSD1.F              3080:   Depth drilled with bit1
 MCSS.               CALC:   Source Rmc.
~OTHER INFORMATION
~A    DEPT      GRR       SPR       TENR       RFOC       RILD       RILM       TEND        DEN       CORR        CNC       CALD   
# ...
 3050.0000  -999.2500   -47.1230   410.8180     7.5040     6.2530     6.7310   400.4470  -999.2500  -999.2500     0.2200  -999.2500
 3050.5000  -999.2500   -46.9290   395.8200     7.4690     6.4970     7.1040   401.0560  -999.2500  -999.2500     0.2400  -999.2500
 3051.0000  -999.2500   -46.7350   392.5220     7.4360     6.7670     7.4770   401.7320  -999.2500  -999.2500     0.2530  -999.2500
 3051.5000  -999.2500   -46.5450   400.0460     7.9850     7.0370     7.8500   402.4090  -999.2500  -999.2500  -999.2500  -999.2500
 3052.0000  -999.2500   -46.3550   407.5690     8.7000     7.3080     8.2230   403.0850  -999.2500  -999.2500  -999.2500  -999.2500
 3052.5000  -999.2500   -46.1640   415.0920     9.6420     7.5780     8.5960   403.7610  -999.2500  -999.2500  -999.2500  -999.2500
 3053.0000  -999.2500   -45.9740   417.3290    10.3590     7.8540     8.9230   404.4370  -999.2500  -999.2500  -999.2500  -999.2500
 3053.5000  -999.2500   -45.7840   415.5990    10.9060     7.9990     8.8830   405.1140  -999.2500  -999.2500  -999.2500  -999.2500
 3054.0000  -999.2500   -45.5940   413.8690    10.7590     7.9990     8.8420   405.7900  -999.2500  -999.2500  -999.2500  -999.2500
 3054.5000  -999.2500   -45.4000   412.1400    10.3910     7.9990     8.6890   406.4660  -999.2500  -999.2500  -999.2500  -999.2500
 3055.0000  -999.2500   -45.4330   410.4100    10.1360     7.8940     8.3510   407.1430  -999.2500  -999.2500  -999.2500  -999.2500
 3055.5000  -999.2500   -45.5670   408.6810     9.9050     7.6480     8.0130   407.8190  -999.2500  -999.2500  -999.2500  -999.2500
 3056.0000  -999.2500   -45.7030   411.9550     9.6870     7.4030     7.6750   408.4950  -999.2500  -999.2500  -999.2500  -999.2500
 3056.5000  -999.2500   -45.8400   416.1350     9.1390     7.0940     7.3370   409.1710  -999.2500  -999.2500  -999.2500  -999.2500
 3057.0000  -999.2500   -45.9760   420.3140     8.6210     6.7740     6.9990   409.8480  -999.2500  -999.2500  -999.2500  -999.2500
 3057.5000  -999.2500   -46.1120   424.4940     8.1030     6.4850     6.6610   412.0690  -999.2500  -999.2500  -999.2500  -999.2500
 3058.0000  -999.2500   -46.2490   428.6740     7.5730     6.0450     6.2990   419.8740  -999.2500  -999.2500  -999.2500  -999.2500
 3058.5000  -999.2500   -46.3850   432.8530     7.7390     5.6430     5.8850   427.6790  -999.2500  -999.2500  -999.2500  -999.2500
 3059.0000  -999.2500   -46.5210   437.0330     8.1460     5.2420     5.4710   435.4840  -999.2500  -999.2500  -999.2500  -999.2500
 3059.5000  -999.2500   -46.6570   446.9590     8.0450     4.8400     5.0560   443.2890  -999.2500  -999.2500  -999.2500  -999.2500
 3060.0000  -999.2500   -46.8100   458.9010     7.4980     4.4390     4.6420   451.0940  -999.2500  -999.2500  -999.2500  -999.2500
 3060.5000  -999.2500   -46.9920   470.8430     6.3050     4.0990     4.2500   458.8990  -999.2500  -999.2500  -999.2500  -999.2500
 3061.0000  -999.2500   -47.1730   482.7850     5.1110     3.8630     3.8920   466.7040  -999.2500  -999.2500  -999.2500  -999.2500
 3061.5000  -999.2500   -47.3550   491.5150     4.5030     3.6270     3.7430   474.5100  -999.2500  -999.2500  -999.2500  -999.2500
 3062.0000  -999.2500   -47.5260   498.0570     4.4620     3.3940     3.6000   482.3150  -999.2500  -999.2500  -999.2500  -999.2500
 3062.5000  -999.2500   -47.5300   504.5990     4.5690     3.3270     3.5170   490.1200  -999.2500  -999.2500  -999.2500  -999.2500
 3063.0000  -999.2500   -47.5040   511.1410     4.6570     3.2130     3.5080   497.9250  -999.2500  -999.2500  -999.2500  -999.2500
 3063.5000  -999.2500   -47.4780   517.3270     4.7450     3.2420     3.5000   505.7300  -999.2500  -999.2500  -999.2500  -999.2500
 3064.0000  -999.2500   -47.4520   523.9380     4.8320     3.3050     3.4880   513.5350  -999.2500  -999.2500  -999.2500  -999.2500
 3064.5000  -999.2500   -47.4270   530.2080     4.8440     3.3630     3.5530   521.3400  -999.2500  -999.2500  -999.2500  -999.2500
 3065.0000  -999.2500   -47.4020   536.4770     4.5550     3.6020     3.9280   529.1450  -999.2500  -999.2500  -999.2500  -999.2500
 3065.5000  -999.2500   -47.3770   542.7470     4.2630     3.8230     4.2750   536.9500  -999.2500  -999.2500  -999.2500  -999.2500
 3066.0000  -999.2500   -47.3480   549.0160     4.5850     4.0440     4.6230   544.7550  -999.2500  -999.2500  -999.2500  -999.2500
 3066.5000  -999.2500   -47.2090   555.2860     5.0600     4.4250     4.9700   552.5600  -999.2500  -999.2500  -999.2500  -999.2500
 3067.0000  -999.2500   -46.7000   568.3150     5.7600     4.9780     5.3170   560.3660  -999.2500  -999.2500  -999.2500  -999.2500
 3067.5000  -999.2500   -46.2030   583.7480     7.5210     5.7030     6.3930   568.1710  -999.2500  -999.2500  -999.2500  -999.2500
 3068.0000  -999.2500   -45.7090   598.4450     9.2830     6.4670     7.7110   575.9760  -999.2500  -999.2500  -999.2500  -999.2500
 3068.5000  -999.2500   -45.3150   609.5910    11.0440     7.2310     8.7020   581.2470  -999.2500  -999.2500  -999.2500  -999.2500
 3069.0000  -999.2500   -45.1910   616.9460    12.5050     7.9950     9.1640   584.7380  -999.2500  -999.2500  -999.2500  -999.2500
 3069.5000  -999.2500   -45.1590   618.4890    11.9590     8.2960     9.3160   588.2300  -999.2500  -999.2500  -999.2500  -999.2500
 3070.0000  -999.2500   -45.1580   620.0320    11.2460     8.4840     9.3930   591.7210  -999.2500  -999.2500  -999.2500  -999.2500
 3070.5000  -999.2500  -999.2500   621.5760    10.5330     8.6720     9.4690   595.2130  -999.2500  -999.2500  -999.2500  -999.2500
 3071.0000  -999.2500  -999.2500   623.1190     9.8650     8.9230     9.5120   598.7040  -999.2500  -999.2500  -999.2500  -999.2500
 3071.5000  -999.2500  -999.2500   624.6620    10.0320     8.7160     9.1220   602.1960  -999.2500  -999.2500  -999.2500  -999.2500
 3072.0000  -999.2500  -999.2500   626.2060    10.2850     8.4000     8.8100   605.6870  -999.2500  -999.2500  -999.2500  -999.2500
 3072.5000  -999.2500  -999.2500   627.7490    10.5150     7.9260     8.5260   608.9870  -999.2500  -999.2500  -999.2500  -999.2500
 3073.0000  -999.2500  -999.2500   629.2920    10.0640     7.9400     8.4950   617.0520  -999.2500  -999.2500  -999.2500  -999.2500
 3073.5000  -999.2500  -999.2500   630.8350     9.3530     7.9680     8.4670   624.6980  -999.2500  -999.2500  -999.2500  -999.2500
 3074.0000  -999.2500  -999.2500   632.3790     8.5030     7.9990     8.3720   632.3430  -999.2500  -999.2500  -999.2500  -999.2500
 3074.5000  -999.2500  -999.2500   633.9220     7.6540     8.0080     7.9160   639.9890  -999.2500  -999.2500  -999.2500  -999.2500
 3075.0000  -999.2500  -999.2500   635.4650     7.0400     8.0180     7.2090   647.6350  -999.2500  -999.2500  -999.2500  -999.2500
 3075.5000  -999.2500  -999.2500   641.7930     6.9500     8.0280     6.9760   655.2800  -999.2500  -999.2500  -999.2500  -999.2500
 3076.0000  -999.2500  -999.2500   651.8240     6.8240     8.0380     6.9760   662.9260  -999.2500  -999.2500  -999.2500  -999.2500
 3076.5000  -999.2500  -999.2500   661.8550     6.3380     8.0480     6.9760   670.5720  -999.2500  -999.2500  -999.2500  -999.2500
 3077.0000  -999.2500  -999.2500   671.8860     5.8510     8.0580     6.9760   678.2170  -999.2500  -999.2500  -999.2500  -999.2500
 3077.5000  -999.2500  -999.2500   681.9180     5.3650     8.0710     6.9760   685.8630  -999.2500  -999.2500  -999.2500  -999.2500
 3078.0000  -999.2500  -999.2500   697.7690     4.8780     8.0420     6.9760   693.5090  -999.2500  -999.2500  -999.2500  -999.2500
 3078.5000  -999.2500  -999.2500   717.0600     4.7560     7.9940     6.9760   701.1540  -999.2500  -999.2500  -999.2500  -999.2500
 3079.0000  -999.2500  -999.2500   735.1490     4.9310     7.9460     6.9760   708.8000  -999.2500  -999.2500  -999.2500  -999.2500
 3079.5000  -999.2500  -999.2500   741.2710     5.1360     7.8980     6.9760   716.4460  -999.2500  -999.2500  -999.2500  -999.2500
 3080.0000  -999.2500  -999.2500   674.3960     5.3410     7.8540  -999.2500   661.2340  -999.2500  -999.2500  -999.2500  -999.2500
