~VERSION INFORMATION
 VERS.                2.0:   CWLS LOG ASCII STANDARD - VERSION 2.0
 WRAP.                 NO:   ONE LINE PER DEPTH STEP
~WELL INFORMATION
#MNEM.UNIT      DATA TYPE    INFORMATION
#----------   ------------   ------------------------------
 STRT.F           16.0000:   START DEPTH
 STOP.F         2860.0000:   STOP DEPTH
 STEP.F            0.5000:   STEP LENGTH
 NULL.          -999.2500:   NO VALUE
 COMP.    FENIX & SCISSON:   COMPANY
 WELL. FENIX NPR 3 "AX" #22-21:   WELL
 FLD .  TEAPOT DOME - NPR:   FIELD
 LOC .      S21 T39N R78W:   LOCATION
 CNTY.            NATRONA:   COUNTY
 STAT.            WYOMING:   STATE
 CTRY. UNITED STATES OF AMERICA:   COUNTRY
 SRVC.      DRESSER ATLAS:   SERVICE COMPANY
 DATE.        07-AUG-1978:   LOGDATE
 API .     49025106790000:   API NUMBER
~CURVE INFORMATION
#MNEM.UNIT       API CODE    CURVE DESCRIPTION
#----------   ------------   ------------------------------
 DEPT.F                  :   
 CALD.IN     45 280 60 00:   CALIPER FROM DENSITY LOG
 GRD .GAPI   45 310 01 00:   GAMMA RAY FROM DENSITY LOG
 CORR.G/C3   45 356 01 00:   DENSITY CORRECTION
 RHOB.G/C3   45 350 01 00:   BULK DENSITY
 SPR .MV     05 010 01 00:   SPONTANEOUS POTENTIAL
 ILD .OHMM   05 120 46 00:   DEEP INDUCTION RESISTIVITY
 SN  .OHMM   05 040 00 00:   SHORT NORMAL
~PARAMETER INFORMATION
#MNEM.UNIT          VALUE    DESCRIPTION
#----------   ------------   ------------------------------
 EKB .F         4989.0000:   Kelly bushing
 EGL .F         4979.0000:   Ground level
 EDF .F            0.0000:   Drilling floor
 TD  .F         2847.0000:   Total depth
 DATE.        07-AUG-1978:   Date logged
 CLNT.            A2DTECH:   Client Code
 SL  . 880' FNL & 660' FWL:   Surface Location
 PD  .                 GL:   Permanent Datum
 DD  .F              2845:   Depth driller
 DL  .F              2847:   Depth logger
 BLI .F              2841:   Bottom log interval
 CS1 .IN            8.625:   Casing size
 CBD1.      8.625" @ 240':   Casing driller 1
 CBL1.F               240:   Casing logger 1
 BS1 .IN            7.875:   Bit size
 DFT .                KCL:   Type fluid in hole
 DFD .                9.2:   Density
 DFV .                 31:   Viscosity
 DFPH.               10.5:   pH
 MSS .           FLOWLINE:   Source of sample
 RMS .OHMM           1.25:   Rm
 MST .F                74:   Rm Meas. temp.
 RMF .OHMM            1.8:   Rmf
 MFST.F                76:   Rmf Meas. temp.
 RMC .OHMM              3:   Rmc
 MCST.F                78:   Rmc Meas. temp.
 MFSS.               MEAS:   Source Rmf.
 TCS .HRS               4:   Time Circ. stopped
 LUN .               3006:   Logging unit number
 LUL .               CASP:   Logging unit location
 ENGI.             MILLER:   Recorded By
 WITN.           MCGINLEY:   Witnessed by
 ORIG.           5" PRINT:   Origin of data
 UWI .     49025106790000:   Unique Well ID
 DICO. A2D TECHNOLOGIES, INC.:   Digitizing Company
 DAPD.                 10:   Feet Above Permanent Datum
 BSD1.F              2845:   Depth drilled with bit1
 EPD .F              4970:   Elevation Permanent Datum
 LMF .                 KB:   Log Measured From
 DMF .                 KB:   Drilling Measured From
 TLI .                240:   Top log interval
~OTHER INFORMATION
~A   DEPT     CALD         GRD      CORR       RHOB        SPR        ILD         SN   
# ...
 1290.0000     8.6620    96.9260     0.0470     2.5410    -8.0290     7.3860    10.6210
 1290.5000     8.6330    98.3120     0.0440     2.5380    -8.0140     7.3560    10.5670
 1291.0000     8.6440    99.2990     0.0440     2.5340    -7.9980     7.3250    10.5140
 1291.5000     8.6550    99.1800     0.0470     2.5270    -7.9820     7.2950    10.4540
 1292.0000     8.6680    98.0840     0.0520     2.5200    -7.9660     7.2640    10.4320
 1292.5000     8.6710    96.4080     0.0580     2.5160    -7.9500     7.2480    10.4060
 1293.0000     8.6710    95.3770     0.0610     2.5170    -7.9340     7.2400    10.3800
 1293.5000     8.6710    94.2910     0.0620     2.5170    -7.9180     7.2320    10.3540
 1294.0000     8.6710    92.2700     0.0640     2.5170    -7.9020     7.2240    10.3280
 1294.5000     8.6710    90.2740     0.0650     2.5220    -7.8860     7.2160    10.3020
 1295.0000     8.6710    88.1440     0.0670     2.5330    -7.8700     7.2080    10.2770
 1295.5000     8.6710    86.9190     0.0680     2.5410    -7.8540     7.2000    10.2300
 1296.0000     8.6710    87.9800     0.0650     2.5330    -7.8380     7.1920    10.1650
 1296.5000     8.6710    91.1610     0.0670     2.5230    -7.8220     7.1840    10.1000
 1297.0000     8.6710    94.6300     0.0720     2.5130    -7.8060     7.1760    10.0360
 1297.5000     8.6710    96.6140     0.0760     2.5140    -7.7900     7.1680     9.9730
 1298.0000     8.6710    95.6300     0.0740     2.5160    -7.7740     7.1600     9.9000
 1298.5000     8.6710    94.3310     0.0730     2.5190    -7.7590     7.1510     9.9590
 1299.0000     8.6700    92.6140     0.0720     2.5210    -7.7420     7.1430    10.0310
 1299.5000     8.6710    91.7940     0.0710     2.5230    -7.7270     7.1350    10.1030
 1300.0000     8.6700    87.2810     0.0690     2.5130    -7.7090     7.1240    10.1750
 1300.5000     8.6690    90.0700     0.0680     2.5070    -7.7080     7.1360    10.2470
 1301.0000     8.6500    93.4340     0.0650     2.5040    -7.7070     7.1750    10.3200
 1301.5000     8.6290    96.4930     0.0680     2.5040    -7.7080     7.2150    10.3920
 1302.0000     8.6080    97.9760     0.0710     2.5020    -7.7070     7.2540    10.4540
 1302.5000     8.5880    98.9040     0.0670     2.5050    -7.7070     7.3970    10.4410
 1303.0000     8.5650    98.2310     0.0640     2.5120    -7.7080     7.3720    10.4320
 1303.5000     8.5540    97.8090     0.0640     2.5190    -7.6960     7.3480    10.4220
 1304.0000     8.5660    98.2550     0.0640     2.5260    -7.6550     7.3300    10.4110
 1304.5000     8.5770    98.8770     0.0640     2.5330    -7.6150     7.3120    10.4010
 1305.0000     8.5860   100.0150     0.0640     2.5390    -7.5740     7.2930    10.3910
 1305.5000     8.6070   100.7850     0.0580     2.5470    -7.5340     7.2730    10.3800
 1306.0000     8.6370   100.3730     0.0510     2.5440    -7.4930     7.2540    10.3700
 1306.5000     8.6650    97.8160     0.0410     2.5400    -7.4530     7.2540    10.3590
 1307.0000     8.6930    95.1950     0.0370     2.5350    -7.4120     7.2320    10.3490
 1307.5000     8.7200    93.0880     0.0310     2.5320    -7.3730     7.2050    10.3390
 1308.0000     8.7480    93.6410     0.0290     2.5320    -7.3270     7.1790    10.3290
 1308.5000     8.7500    94.1330     0.0300     2.5330    -7.3410     7.1520    10.3190
 1309.0000     8.7500    94.7520     0.0300     2.5340    -7.4070     7.1220    10.3070
 1309.5000     8.7500    94.4890     0.0310     2.5340    -7.4660     7.2920    10.2990
 1310.0000     8.7510    92.4870     0.0320     2.5350    -7.5270     7.4780    10.2860
 1310.5000     8.7700    90.2740     0.0320     2.5350    -7.5890     7.6640    10.2790
 1311.0000     8.7930    90.7730     0.0350     2.5330    -7.6470     7.8040    10.2640
 1311.5000     8.8160    92.3820     0.0400     2.5300    -7.7080     7.7870    10.4990
 1312.0000     8.8390    99.5800     0.0440     2.5320    -7.6690     7.7680    10.8520
 1312.5000     8.8620   100.2390     0.0590     2.5330    -7.5980     7.7490    10.8350
 1313.0000     8.8850   100.6610     0.0630     2.5350    -7.5310     7.7290    10.8490
 1313.5000     8.9070    99.2200     0.0600     2.5350    -7.4650     7.7100    10.8430
 1314.0000     8.9090    97.8390     0.0570     2.5330    -7.3970     7.6910    10.8430
 1314.5000     8.9080    96.2640     0.0610     2.5370    -7.3300     7.6710    10.8430
 1315.0000     8.9040    95.3060     0.0630     2.5490    -7.2630     7.6620    10.8430
 1315.5000     8.8380    95.2800     0.0570     2.5550    -7.1960     7.6620    10.8430
 1316.0000     8.7820    98.0860     0.0510     2.5480    -7.1310     7.6630    10.8430
 1316.5000     8.7150   100.5160     0.0480     2.5390    -7.0600     7.6620    10.8430
 1317.0000     8.7110   102.3880     0.0470     2.5370    -6.9980     7.6620    10.8430
 1317.5000     8.7100    99.2230     0.0460     2.5430    -6.9270     7.6620    10.8430
 1318.0000     8.7110   100.0810     0.0450     2.5470    -7.0070     7.6620    10.8430
 1318.5000     8.7100   100.5460     0.0440     2.5530    -7.1170     7.6620    10.8430
 1319.0000     8.7100   100.9910     0.0430     2.5510    -7.2240     7.6620    10.8430
 1319.5000     8.7100    99.9940     0.0430     2.5490    -7.3120     7.6630    10.8430
 1320.0000     8.7100    98.2720     0.0420     2.5460    -7.3230     7.6620    10.8430
 1320.5000     8.7110    96.6440     0.0410     2.5440    -7.5490     7.6630    10.8430
 1321.0000     8.7100    94.9150     0.0400     2.5430    -7.7830     7.6640    10.8430
 1321.5000     8.7090    94.0910     0.0390     2.5400    -8.0330     7.6930    10.8430
 1322.0000     8.6870    94.2260     0.0380     2.5380    -8.1070     7.7270    10.8430
 1322.5000     8.6660    94.6350     0.0370     2.5360    -8.1020     7.7600    10.8430
 1323.0000     8.6450    96.2020     0.0370     2.5350    -8.1020     7.7930    10.8440
 1323.5000     8.6250    97.5390     0.0370     2.5330    -8.1030     7.8270    10.8410
 1324.0000     8.6020    99.2310     0.0390     2.5320    -8.1020     7.8600    10.8650
 1324.5000     8.5880    99.4700     0.0400     2.5310    -8.1020     7.8930    10.9060
 1325.0000     8.5820    99.4500     0.0410     2.5300    -8.1020     7.9260    10.9430
 1325.5000     8.5750    97.6520     0.0420     2.5250    -8.1030     7.9460    10.9800
 1326.0000     8.5670    96.8560     0.0430     2.5170    -8.1000     7.8480    11.0200
 1326.5000     8.5610    96.9800     0.0440     2.5160    -8.1060     7.7490    11.0440
 1327.0000     8.5540    97.7770     0.0450     2.5250    -8.0970     7.6630    11.0110
 1327.5000     8.5750    97.8020     0.0470     2.5280    -8.0920     7.6630    10.9790
 1328.0000     8.6090    96.4750     0.0480     2.5240    -7.7060     7.6630    10.9460
 1328.5000     8.6390    95.3220     0.0490     2.5300    -7.3240     7.6620    10.9130
 1329.0000     8.6720    94.2390     0.0500     2.5290    -6.9380     7.6630    10.8810
 1329.5000     8.6360    95.0630     0.0510     2.5310    -7.2850     7.6630    10.8430
 1330.0000     8.5720    96.8790     0.0520     2.5430    -6.9520     7.6630    10.8090
 1330.5000     8.5480    98.6940     0.0530     2.5430    -7.2260     7.6270    10.7690
 1331.0000     8.5440   100.4680     0.0550     2.5440    -7.4720     7.5700    10.7280
 1331.5000     8.5370   101.4920     0.0560     2.5430    -7.7060     7.5240    10.6880
 1332.0000     8.5310   102.4650     0.0570     2.5430    -7.6520     7.5270    10.6470
 1332.5000     8.5240   103.4970     0.0580     2.5430    -7.6210     7.5310    10.5320
 1333.0000     8.5180   104.0590     0.0590     2.5430    -7.5770     7.5340    10.4150
 1333.5000     8.5120   102.4570     0.0600     2.5400    -7.5370     7.5380    10.2890
 1334.0000     8.5200    99.9250     0.0530     2.5450    -7.4970     7.5420    10.3420
 1334.5000     8.5320    97.4530     0.0490     2.5500    -7.4560     7.5460    10.4480
 1335.0000     8.5430    95.8320     0.0480     2.5500    -7.4160     7.5500    10.5540
