~VERSION INFORMATION
 VERS.                2.0:   CWLS LOG ASCII STANDARD - VERSION 2.0
 WRAP.                 NO:   ONE LINE PER DEPTH STEP
~WELL INFORMATION
#MNEM.UNIT      DATA TYPE    INFORMATION
#----------   ------------   ------------------------------
 STRT.F          448.5000:   START DEPTH
 STOP.F         4490.5000:   STOP DEPTH
 STEP.F            0.5000:   STEP LENGTH
 NULL.          -999.2500:   NO VALUE
 COMP.  FENIX AND SCISSON:   COMPANY
 WELL. FENIX AND SCISSON NPR 3 #11-10:   WELL
 FLD .              NPR-3:   FIELD
 LOC .      S10 T38N R78W:   LOCATION
 CNTY.            NATRONA:   COUNTY
 STAT.            WYOMING:   STATE
 CTRY. UNITED STATES OF AMERICA:   COUNTRY
 SRVC.              WELEX:   SERVICE COMPANY
 DATE.        22-DEC-1978:   LOGDATE
 API .     49025107450000:   API NUMBER
~CURVE INFORMATION
#MNEM.UNIT       API CODE    CURVE DESCRIPTION
#----------   ------------   ------------------------------
 DEPT.F                  :   
 SPR .MV     07 010 01 00:   SPONTANEOUS POTENTIAL
 ILM .OHMM   07 120 44 00:   INDUCTION LOG MEDIUM
 ILD .OHMM   07 120 46 00:   DEEP RESISTIVITY
 SGRD.OHMM   07 220 01 00:   SHALLOW SHORT GUARD RESISTIVITY
 TENR.LBS    07 635 01 00:   TENSION FROM RESISTIVITY
 NPHI.DEC    42 890 03 00:   NEUTRON POROSITY SANDSTONE
 CALD.IN     45 280 60 00:   CALIPER FROM DENSITY LOG
 GRD .GAPI   45 310 01 00:   GAMMA RAY FROM DENSITY LOG
 RHOB.G/C3   45 350 01 00:   BULK DENSITY
 DRHO.G/C3   45 356 01 00:   DENSITY CORRECTION
 TEND.LBS    45 635 01 00:   TENSION FROM DENSITY
~PARAMETER INFORMATION
#MNEM.UNIT          VALUE    DESCRIPTION
#----------   ------------   ------------------------------
 EKB .F         5275.0000:   Kelly bushing
 EGL .F         5265.0000:   Ground level
 EDF .F            0.0000:   Drilling floor
 EPD .F         5265.0000:   Permanent datum
 TD  .F         4500.0000:   Total depth
 DATE.        22-DEC-1978:   Date logged
 CLNT.            A2DTECH:   Client Code
 SL  . 300' FNL & 500' FWL:   Surface Location
 DD  .F              4500:   Depth driller
 DL  .F              4481:   Depth logger
 BLI .F              4479:   Bottom log interval
 TLI .F               450:   Top log interval
 CS1 .IN            8.625:   Casing size
 CBD1.      8.625" @ 500':   Casing driller 1
 CBL1.F               473:   Casing logger 1
 BS1 .IN            7.875:   Bit size
 BSD1.F              4500:   Depth drilled with bit1
 DFT .               LSND:   Type fluid in hole
 DFD .                8.7:   Density
 DFV .                 49:   Viscosity
 DFPH.               11.0:   pH
 DFL .                7.6:   Fluid loss
 MSS .           FLOWLINE:   Source of sample
 RMS .OHMM            1.1:   Rm
 MST .F                86:   Rm Meas. temp.
 RMF .OHMM           0.73:   Rmf
 MFST.F                86:   Rmf Meas. temp.
 RMC .OHMM           1.68:   Rmc
 MCST.F                86:   Rmc Meas. temp.
 MFSS.               CALC:   Source Rmf.
 MCSS.               CALC:   Source Rmc.
 RMB .OHMM           0.72:   Rm. at BHT
 BHT .F               130:   BHT.
 TCS .HRS             3.5:   Time Circ. stopped
 MRT .F               130:   Maximum recorded temp.
 LUN .               9685:   Logging unit number
 LUL .             CASPER:   Logging unit location
 ENGI.            BENTSEN:   Recorded By
 WITN.           DINSMORE:   Witnessed by
 ORIG.           5" PRINT:   Origin of data
 UWI .     49025107450000:   Unique Well ID
 DICO. A2D TECHNOLOGIES, INC.:   Digitizing Company
~OTHER INFORMATION
~A  DEPTH      SPR        ILM        ILD       SGRD       TENR       NPHI       CALD        GRD       RHOB       DRHO       TEND
# ...
  753.5000   -63.7374     8.0313     9.9439     8.3174   518.9779     0.3334  -999.2500    78.8104     2.4333     0.0796   920.8224
  754.0000   -63.7215     8.0396     9.7175     8.3256   519.4828     0.3371  -999.2500    78.7630     2.4222     0.0858   917.4210
  754.5000   -63.7052     8.0479     9.5102     8.2678   519.9878     0.3412  -999.2500    78.8584     2.4141     0.0935   914.0196
  755.0000   -63.6889     8.0563     9.3269     8.2187   520.4927     0.3450  -999.2500    79.1177     2.4082     0.0952   910.6182
  755.5000   -63.6726     8.0086     9.1353     8.1546   520.9976     0.3471  -999.2500    79.3705     2.4016     0.0924   907.2168
  756.0000   -63.6585     7.9327     9.0156     8.0316   521.5025     0.3479  -999.2500    79.8469     2.3994     0.0820   903.8154
  756.5000   -63.7909     7.8538     8.8641     7.8707   522.0074     0.3479  -999.2500    80.3494     2.4033     0.0702   900.4139
  757.0000   -63.7719     7.7506     8.7202     7.7130   522.5123     0.3477  -999.2500    80.8796     2.4155     0.0613   897.0126
  757.5000   -63.7556     7.6488     8.6059     7.5795   523.0173     0.3476  -999.2500    81.5844     2.4396     0.0569   893.6111
  758.0000   -63.7393     7.5484     8.4931     7.5034   523.5222     0.3479  -999.2500    82.3234     2.4578     0.0571   890.2098
  758.5000   -63.7678     7.4848     8.4201     7.4348   524.0271     0.3491  -999.2500    82.9792     2.4722     0.0603   886.8083
  759.0000   -63.8548     7.4025     8.3691     7.3635   524.5320     0.3507  -999.2500    83.8771     2.4760     0.0665   883.4069
  759.5000   -63.8930     7.3815     8.3184     7.2929   525.0369     0.3522  -999.2500    84.6248     2.4769     0.0697   880.0056
  760.0000   -64.0296     7.3892     8.2679     7.2545   525.5418     0.3539  -999.2500    85.3726     2.4763     0.0714   876.6041
  760.5000   -64.1022     7.3983     8.2178     7.2034   524.8494     0.3557  -999.2500    86.1203     2.4772     0.0716   873.2028
  761.0000   -64.0859     7.4571     8.2138     7.1407   522.5905     0.3575  -999.2500    86.7183     2.4818     0.0717   869.8013
  761.5000   -64.0696     7.5164     8.1107     7.1310   520.3314     0.3593  -999.2500    87.2273     2.4842     0.0719   866.3999
  762.0000   -64.0533     7.5240     8.1189     7.1740   518.0723     0.3607  -999.2500    87.8283     2.4821     0.0721   862.9985
  762.5000   -64.0370     7.5315     8.1271     7.2341   515.8132     0.3616  -999.2500    88.3047     2.4702     0.0723   859.5971
  763.0000   -64.0207     7.4878     8.0792     7.2947   513.5542     0.3625  -999.2500    88.5575     2.4493     0.0725   855.8307
  763.5000   -64.0044     7.4431     8.0874     7.3171   511.2951     0.3632  -999.2500    88.8159     2.4239     0.0727   856.3563
  764.0000   -63.9881     7.2933     8.0397     7.3256   509.0362     0.3638  -999.2500    89.3249     2.4068     0.0728   856.9449
  764.5000   -63.9719     7.1494     8.0479     7.2333   506.7772     0.3643  -999.2500    89.8338     2.3994     0.0745   857.5336
  765.0000   -63.9556     7.0511     8.0560     7.1917   504.5181     0.3643  -999.2500    90.2459     2.3867     0.0777   858.1223
  765.5000   -63.9393     6.9092     7.9829     7.1011   502.2591     0.3639  -999.2500    90.1498     2.3846     0.0870   858.7110
  766.0000   -63.9230     6.7700     7.8640     7.0603   500.0000     0.3629  -999.2500    89.5455     2.3817     0.0977   859.2997
  766.5000   -63.9039     6.6420     7.6904     6.9713   512.3530     0.3620  -999.2500    88.8100     2.3706     0.1054   859.8884
  767.0000   -63.8881     6.5548     7.5156     6.8815   510.1580     0.3607  -999.2500    88.2541     2.3482     0.1071   860.4771
  767.5000   -63.8723     6.4797     7.3991     6.7920   507.9631     0.3597  -999.2500    87.6937     2.3243     0.1073   861.0657
  768.0000   -63.8565     6.4281     7.2504     6.7037   505.7680     0.3584  -999.2500    87.1073     2.3147     0.0969   861.6544
  768.5000   -63.8394     6.3571     7.1247     6.6165   503.5729     0.3578  -999.2500    86.4222     2.3058     0.0835   862.2430
  769.0000   -63.8249     6.3185     7.0313     6.5372   516.4384     0.3578  -999.2500    85.9076     2.3044     0.0656   862.8317
  769.5000   -63.8089     6.2642     6.9391     6.4984   514.2432     0.3579  -999.2500    85.6145     2.3143     0.0598   863.4204
  770.0000   -63.7778     6.1651     6.8247     6.4598   512.0482     0.3588  -999.2500    85.1967     2.3407     0.0569   864.0091
  770.5000   -63.4800     6.0409     6.6875     6.4215   539.9738     0.3597  -999.2500    85.2260     2.3941     0.0556   864.5978
  771.0000   -63.4637     5.9193     6.5530     6.3959   537.6507     0.3607  -999.2500    85.0317     2.4491     0.0573   865.1865
  771.5000   -63.4256     5.8197     6.4212     6.3758   535.3916     0.3613  -999.2500    85.0641     2.4702     0.0575   865.7751
  772.0000   -63.2858     5.7432     6.2656     6.2631   533.1325     0.3617  -999.2500    85.1341     2.4771     0.0547   866.3638
  772.5000   -63.4148     5.7333     6.0961     6.0319   530.8734     0.3617  -999.2500    85.4583     2.4795     0.0533   866.9525
  773.0000   -63.4711     5.7803     5.9311     5.6724   528.6144     0.3611  -999.2500    85.9672     2.4781     0.0505   867.5412
  773.5000   -63.7196     5.8778     5.7706     5.2721   526.3553     0.3596  -999.2500    86.4762     2.4774     0.0461   868.1299
  774.0000   -63.8563     6.0382     5.6714     4.9106   524.0963     0.3569  -999.2500    86.9851     2.4776     0.0433   868.7185
  774.5000   -63.9422     6.2488     5.7773     5.2343   521.8375     0.3538  -999.2500    87.3789     2.4815     0.0435   869.3072
  775.0000   -63.9259     6.4822     5.9831     6.0867   519.5784     0.3506  -999.2500    87.3882     2.4884     0.0437   869.8959
  775.5000   -63.9096     6.7591     6.3323     6.6034   522.1514     0.3483  -999.2500    86.5980     2.4960     0.0469   870.4846
  776.0000   -63.9585     6.9863     6.6072     6.8041   530.1205     0.3471  -999.2500    84.9523     2.4999     0.0516   871.0732
  776.5000   -64.0252     7.2364     6.8940     6.9411   527.8614     0.3459  -999.2500    82.7007     2.5000     0.0548   871.6619
  777.0000   -64.0837     7.4469     7.0945     7.1000   531.7520     0.3454  -999.2500    82.5064     2.4979     0.0580   872.2506
  777.5000   -64.1407     7.5582     7.4025     7.2269   544.9933     0.3458  -999.2500    83.8770     2.4943     0.0582   872.8393
  778.0000   -64.1245     7.6711     7.6177     7.3397   558.2326     0.3463  -999.2500    85.4736     2.4899     0.0568   873.4280
  778.5000   -64.1081     7.6789     7.8937     7.4542   564.0060     0.3478  -999.2500    86.6751     2.4855     0.0540   874.0167
  779.0000   -64.0919     7.6866     8.1855     7.5406   561.7470     0.3506  -999.2500    87.6036     2.4781     0.0526   874.4928
  779.5000   -64.0756     7.6943     8.4243     7.6017   559.4879     0.3523  -999.2500    88.0682     2.4767     0.0528   874.2334
  780.0000   -64.0593     7.6483     8.5589     7.6105   566.0145     0.3534  -999.2500    88.3383     2.4792     0.0561   874.0156
  780.5000   -64.0430     7.6040     8.7458     7.6193   579.2554     0.3528  -999.2500    88.5335     2.4823     0.0622   873.7978
  781.0000   -64.0267     7.6122     8.8716     7.6281   582.8312     0.3506  -999.2500    88.3845     2.4869     0.0715   873.5800
  781.5000   -64.0072     7.6259     8.9337     7.6369   580.5723     0.3476  -999.2500    87.9381     2.4908     0.0822   873.3622
  782.0000   -63.9914     7.6884     8.9429     7.6458   578.3133     0.3451  -999.2500    87.3711     2.4939     0.0944   873.1445
  782.5000   -63.9778     7.7423     8.9381     7.6549   576.0542     0.3423  -999.2500    86.6859     2.4873     0.1021   872.9267
  783.0000   -63.9598     7.7612     8.8998     7.6640   573.7952     0.3407  -999.2500    85.8495     2.4694     0.0978   872.7089
  783.5000   -63.9440     7.7996     8.9090     7.6732   571.5361     0.3391  -999.2500    84.9254     2.4575     0.0844   872.4911
