~VERSION INFORMATION
 VERS.                2.0:   CWLS LOG ASCII STANDARD - VERSION 2.0
 WRAP.                 NO:   ONE LINE PER DEPTH STEP
~WELL INFORMATION
#MNEM.UNIT      DATA TYPE    INFORMATION
#----------   ------------   ------------------------------
 STRT.F           40.0000:   START DEPTH
 STOP.F         3326.0000:   STOP DEPTH
 STEP.F            0.5000:   STEP LENGTH
 NULL.          -999.2500:   NO VALUE
 COMP.    FENIX & SCISSON:   COMPANY
 WELL.  FENIX "AX" #53-15:   WELL
 FLD .              NPR-3:   FIELD
 LOC .      S15 T38N R78W:   LOCATION
 CNTY.            NATRONA:   COUNTY
 STAT.            WYOMING:   STATE
 CTRY. UNITED STATES OF AMERICA:   COUNTRY
 SRVC.              WELEX:   SERVICE COMPANY
 DATE.        02-MAR-1977:   LOGDATE
 API .     49025102640000:   API NUMBER
~CURVE INFORMATION
#MNEM.UNIT       API CODE    CURVE DESCRIPTION
#----------   ------------   ------------------------------
 DEPT.F                  :   
 CALD.IN     42 280 60 00:   CALIPER
 TEND.LBS    42 635 01 00:   TENSION FROM NEUTRON POROSITY LOG
 GRD .GAPI   42 310 30 00:   GAMMA RAY
 NPHI.DEC    42 890 03 00:   NEUTRON POROSITY SANDSTONE
 DPHI.DEC    45 890 12 00:   DENSITY POROSITY SANDSTONE
 SPR .MV     07 010 01 00:   SPONTANEOUS POTENTIAL
 ILD .OHMM   07 120 46 00:   DEEP INDUCTION RESISTIVITY
 ILM .OHMM   07 120 44 00:   INDUCTION LOG MEDIUM RESISTIVITY
 SGRD.OHMM   07 220 05 00:   SHALLOW SHORT GUARD RESISTIVITY
~PARAMETER INFORMATION
#MNEM.UNIT          VALUE    DESCRIPTION
#----------   ------------   ------------------------------
 EKB .F            0.0000:   Kelly bushing
 EGL .F         5251.0000:   Ground level
 EDF .F            0.0000:   Drilling floor
 TD  .F          750.0000:   Total depth
 DATE.        02-MAR-1977:   Date logged
 CLNT.            A2DTECH:   Client Code
 SL  . 1650' FNL & 2360' FEL:   Surface Location
 PD  .                 GL:   Permanent Datum
 EPD .F              5253:   Elevation Permanent Datum
 LMF .                 GL:   Log Measured From
 DMF .                 GL:   Drilling Measured From
 DD  .F               750:   Depth driller
 DL  .F               747:   Depth logger
 BLI .F               745:   Bottom log interval
 CS1 .IN            8.625:   Casing size
 CBD1.       8.625" @ 40':   Casing driller 1
 CBL1.F                44:   Casing logger 1
 BS1 .IN            7.875:   Bit size
 BSD1.F               750:   Depth drilled with bit1
 DFT .           CHEM-GEL:   Type fluid in hole
 MSS .           FLOWLINE:   Source of sample
 RMS .OHMM          0.425:   Rm
 MST .F                56:   Rm Meas. temp.
 RMF .OHMM          0.466:   Rmf
 MFST.F                56:   Rmf Meas. temp.
 RMC .OHMM          0.712:   Rmc
 MCST.F                56:   Rmc Meas. temp.
 MFSS.               MEAS:   Source Rmf.
 MCSS.               MEAS:   Source Rmc.
 RMB .OHMM          0.350:   Rm. at BHT
 BHT .F                68:   BHT.
 TCS .HRS               2:   Time Circ. stopped
 MRT .F                68:   Maximum recorded temp.
 LUN .               8611:   Logging unit number
 LUL .            GILLETH:   Logging unit location
 ENGI.          D. LAWSON:   Recorded By
 WITN.           S. BURKL:   Witnessed by
 ORIG.           5" PRINT:   Origin of data
 UWI .     49025102640000:   Unique Well ID
 DICO. A2D TECHNOLOGIES, INC.:   Digitizing Company
~OTHER INFORMATION
~A   DEPT     CALD       TEND         GRD        NPHI     DPHI        SPR        ILD        ILM       SGRD   
# ...
 1974.5000     8.1100   274.7250   129.2900     0.3250     0.0820  -999.2500  -999.2500  -999.2500  -999.2500
 1975.0000     8.1040   274.7250   126.7410     0.3290     0.0760  -999.2500  -999.2500  -999.2500  -999.2500
 1975.5000     8.0980   274.7250   132.6680     0.3350     0.0690  -999.2500  -999.2500  -999.2500  -999.2500
 1976.0000     8.0910   274.7250   135.2260     0.3370     0.0710  -999.2500  -999.2500  -999.2500  -999.2500
 1976.5000     8.0850   274.7250   135.1370     0.3370     0.0720  -999.2500  -999.2500  -999.2500  -999.2500
 1977.0000     8.0780   274.7250   134.2750     0.3350     0.0730  -999.2500  -999.2500  -999.2500  -999.2500
 1977.5000     8.0720   274.7250   134.9160     0.3310     0.0760  -999.2500  -999.2500  -999.2500  -999.2500
 1978.0000     8.0660   274.7250   138.3970     0.3260     0.0760  -999.2500  -999.2500  -999.2500  -999.2500
 1978.5000     8.0590   274.7250   139.3230     0.3240     0.0720  -999.2500  -999.2500  -999.2500  -999.2500
 1979.0000     8.0530   274.7250   137.6470     0.3230     0.0710  -999.2500  -999.2500  -999.2500  -999.2500
 1979.5000     8.0510   270.8410   130.9600     0.3230     0.0750  -999.2500  -999.2500  -999.2500  -999.2500
 1980.0000     8.0530   266.8130   134.1560     0.3250     0.0790  -999.2500  -999.2500  -999.2500  -999.2500
 1980.5000     8.0550   262.7850   134.7750     0.3270     0.0790  -999.2500  -999.2500  -999.2500  -999.2500
 1981.0000     8.0570   258.7570   129.9830     0.3250     0.0760  -999.2500  -999.2500  -999.2500  -999.2500
 1981.5000     8.0600   254.7450   131.9920     0.3270     0.0780  -999.2500  -999.2500  -999.2500  -999.2500
 1982.0000     8.0620   260.1530   129.7080     0.3290     0.0720  -999.2500  -999.2500  -999.2500  -999.2500
 1982.5000     8.0640   266.8660   126.7280     0.3280     0.0770  -999.2500  -999.2500  -999.2500  -999.2500
 1983.0000     8.0660   273.5800   125.6880     0.3250     0.0820  -999.2500  -999.2500  -999.2500  -999.2500
 1983.5000     8.0680   274.7250   128.4470     0.3210     0.0780  -999.2500  -999.2500  -999.2500  -999.2500
 1984.0000     8.0700   274.7250   131.3230     0.3190     0.0740  -999.2500  -999.2500  -999.2500  -999.2500
 1984.5000     8.0660   274.7250   130.8860     0.3150     0.0750  -999.2500  -999.2500  -999.2500  -999.2500
 1985.0000     8.0630   274.7250   124.8340     0.3100     0.0760  -999.2500  -999.2500  -999.2500  -999.2500
 1985.5000     8.0590   274.7250   124.6020     0.3090     0.0780  -999.2500  -999.2500  -999.2500  -999.2500
 1986.0000     8.0560   274.7250   128.3390     0.3110     0.0760  -999.2500  -999.2500  -999.2500  -999.2500
 1986.5000     8.0520   274.7250   128.0340     0.3120     0.0860  -999.2500  -999.2500  -999.2500  -999.2500
 1987.0000     8.0500   274.7250   126.1810     0.3140     0.0900  -999.2500  -999.2500  -999.2500  -999.2500
 1987.5000     8.0520   274.7250   125.9460     0.3180     0.0900  -999.2500  -999.2500  -999.2500  -999.2500
 1988.0000     8.0540   274.7250   131.0320     0.3200     0.0880  -999.2500  -999.2500  -999.2500  -999.2500
 1988.5000     8.0560   274.7250   128.9710     0.3190     0.0860  -999.2500  -999.2500  -999.2500  -999.2500
 1989.0000     8.0590   274.7250   133.1090     0.3200     0.0840  -999.2500  -999.2500  -999.2500  -999.2500
 1989.5000     8.0610   274.7250   141.0940     0.3230     0.0840  -999.2500  -999.2500  -999.2500  -999.2500
 1990.0000     8.0630   272.3780   134.2900     0.3250     0.0790  -999.2500  -999.2500  -999.2500  -999.2500
 1990.5000     8.0650   269.8600   133.6170     0.3270     0.0730  -999.2500  -999.2500  -999.2500  -999.2500
 1991.0000     8.0670   267.3430   133.9090     0.3320     0.0680  -999.2500  -999.2500  -999.2500  -999.2500
 1991.5000     8.0690   264.8250   134.1470     0.3390     0.0720  -999.2500  -999.2500  -999.2500  -999.2500
 1992.0000     8.0710   262.3080   131.8230     0.3460     0.0730  -999.2500  -999.2500  -999.2500  -999.2500
 1992.5000     8.0730   259.7900   127.2000     0.3500     0.0790  -999.2500  -999.2500  -999.2500  -999.2500
 1993.0000     8.0750   257.2730   134.5780     0.3450     0.0900  -999.2500  -999.2500  -999.2500  -999.2500
 1993.5000     8.0770   254.7450   133.9980     0.3450     0.0920  -999.2500  -999.2500  -999.2500  -999.2500
 1994.0000     8.0800   271.4620   131.0840     0.3460     0.0900  -999.2500  -999.2500  -999.2500  -999.2500
 1994.5000     8.0820   273.3530   131.3140     0.3450     0.0830  -999.2500  -999.2500  -999.2500  -999.2500
 1995.0000     8.0840   269.9970   132.2970     0.3410     0.0770  -999.2500  -999.2500  -999.2500  -999.2500
 1995.5000     8.0860   266.6400   132.0140     0.3370     0.0710  -999.2500  -999.2500  -999.2500  -999.2500
 1996.0000     8.0880   263.2830   131.9310     0.3350     0.0660  -999.2500  -999.2500  -999.2500  -999.2500
 1996.5000     8.0900   259.9270   129.4420     0.3370     0.0690  -999.2500  -999.2500  -999.2500  -999.2500
 1997.0000     8.0920   256.5700   127.4480     0.3340     0.0710  -999.2500  -999.2500  -999.2500  -999.2500
 1997.5000     8.0940   266.2340   130.2580     0.3310     0.0760  -999.2500  -999.2500  -999.2500  -999.2500
 1998.0000     8.0960   291.4090   132.5330     0.3300     0.0790  -999.2500  -999.2500  -999.2500  -999.2500
 1998.5000     8.0980   282.2040   139.2060     0.3300     0.0750  -999.2500  -999.2500  -999.2500  -999.2500
 1999.0000     8.1010   275.5280   142.6320     0.3290     0.0760  -999.2500  -999.2500  -999.2500  -999.2500
 1999.5000     8.1030   277.2010   139.9730     0.3330     0.0840  -999.2500  -999.2500  -999.2500  -999.2500
 2000.0000     8.1050   278.8730   139.4170     0.3350     0.0870  -999.2500  -999.2500  -999.2500  -999.2500
 2000.5000     8.1070   280.5460   142.3360     0.3320     0.0920  -999.2500  -999.2500  -999.2500  -999.2500
 2001.0000     8.1090   282.2180   141.4010     0.3290     0.0920  -999.2500  -999.2500  -999.2500  -999.2500
 2001.5000     8.1090   283.8910   144.5000     0.3240     0.0870  -999.2500  -999.2500  -999.2500  -999.2500
 2002.0000     8.1070   283.6160   147.5510     0.3180     0.0840  -999.2500  -999.2500  -999.2500  -999.2500
 2002.5000     8.1060   280.0410   152.2920     0.3170     0.0870  -999.2500  -999.2500  -999.2500  -999.2500
 2003.0000     8.1040   276.4660   150.2990     0.3170     0.0890  -999.2500  -999.2500  -999.2500  -999.2500
 2003.5000     8.1020   272.8910   148.0160     0.3180     0.0920  -999.2500  -999.2500  -999.2500  -999.2500
 2004.0000     8.1010   269.3160   142.4720     0.3240     0.0980  -999.2500  -999.2500  -999.2500  -999.2500
 2004.5000     8.0990   265.7410   140.6170     0.3300     0.1000  -999.2500  -999.2500  -999.2500  -999.2500
 2005.0000     8.0970   279.1210   140.5130     0.3270     0.0950  -999.2500  -999.2500  -999.2500  -999.2500
 2005.5000     8.0960   284.7150   138.8760     0.3220     0.0910  -999.2500  -999.2500  -999.2500  -999.2500
 2006.0000     8.0940   284.7150   144.1920     0.3190     0.0900  -999.2500  -999.2500  -999.2500  -999.2500
 2006.5000     8.0920   284.7150   151.1560     0.3270     0.0980  -999.2500  -999.2500  -999.2500  -999.2500
 2007.0000     8.0910   284.7150   142.8580     0.3350     0.0970  -999.2500  -999.2500  -999.2500  -999.2500
 2007.5000     8.0890   294.7050   140.4940     0.3360     0.1020  -999.2500  -999.2500  -999.2500  -999.2500
 2008.0000     8.0870   291.9670   134.7040     0.3330     0.1040  -999.2500  -999.2500  -999.2500  -999.2500
 2008.5000     8.0860   289.0230   131.1780     0.3280     0.1010  -999.2500  -999.2500  -999.2500  -999.2500
 2009.0000     8.0840   286.0790   130.2640     0.3190     0.0920  -999.2500  -999.2500  -999.2500  -999.2500
 2009.5000     8.0820   275.0320   135.7820     0.3130     0.0890  -999.2500  -999.2500  -999.2500  -999.2500
 2010.0000     8.0800   275.9420   136.3440     0.3170     0.0820  -999.2500  -999.2500  -999.2500  -999.2500
 2010.5000     8.0790   276.8520   131.7960     0.3220     0.0810  -999.2500  -999.2500  -999.2500  -999.2500
