~VERSION INFORMATION
 VERS.                2.0:   CWLS LOG ASCII STANDARD - VERSION 2.0
 WRAP.                 NO:   ONE LINE PER DEPTH STEP
~WELL INFORMATION
#MNEM.UNIT      DATA TYPE    INFORMATION
#----------   ------------   ------------------------------
 STRT.F         2496.0000:   START DEPTH
 STOP.F         4120.0000:   STOP DEPTH
 STEP.F            0.5000:   STEP LENGTH
 NULL.          -999.2500:   NO VALUE
 COMP. LAWRENCE ALLISON AND ASSOCIATES:   COMPANY
 WELL. LAWRENCE "X" #85-10:   WELL
 FLD .              N P R:   FIELD
 LOC .      S10 T38N R78W:   LOCATION
 CNTY.            NATRONA:   COUNTY
 STAT.            WYOMING:   STATE
 CTRY. UNITED STATES OF AMERICA:   COUNTRY
 SRVC.      DRESSER ATLAS:   SERVICE COMPANY
 DATE.        20-JAN-1984:   LOGDATE
 API .     49025109580000:   API NUMBER
~CURVE INFORMATION
#MNEM.UNIT       API CODE    CURVE DESCRIPTION
#----------   ------------   ------------------------------
 DEPT.F                  :   
 SPR .MV     07 010 01 00:   SPONTANEOUS POTENTIAL
 TENR.LBS    07 635 01 00:   TENSION FROM RESISTIVITY
 ILD .OHMM   07 120 46 00:   DEEP INDUCTION RESISTIVITY
 ILM .OHMM   07 120 44 00:   INDUCTION LOG MEDIUM RESISTIVITY
 RFOC.OHMM   07 220 04 00:   RESISTIVITY FOCUSED LOG RES.
 GRD .GAPI   45 310 01 00:   GAMMA RAY FROM DENSITY LOG
 CALD.IN     45 280 60 00:   CALIPER FROM DENSITY LOG
 TEND.LBS    45 635 01 00:   TENSION FROM DENSITY LOG
 RHOB.G/C3   45 350 01 00:   BULK DENSITY
 CORR.G/C3   45 356 01 00:   DENSITY CORRECTION
 CN  .DEC    42 890 03 00:   NEUTRON POROSITY SANDSTONE
~PARAMETER INFORMATION
#MNEM.UNIT          VALUE    DESCRIPTION
#----------   ------------   ------------------------------
 EKB .F         5231.0000:   Kelly bushing
 EGL .F         5221.0000:   Ground level
 EDF .F            0.0000:   Drilling floor
 TD  .F         4115.0000:   Total depth
 DATE.        20-JAN-1984:   Date logged
 CLNT.            A2DTECH:   Client Code
 SL  . 2159' FSL & 292' FEL:   Surface Location
 PD  .                 GL:   Permanent Datum
 EPD .F              5221:   Elevation Permanent Datum
 LMF .                 KB:   Log Measured From
 DMF .                 KB:   Drilling Measured From
 DD  .F              4115:   Depth driller
 DL  .F              4111:   Depth logger
 BLI .F              4109:   Bottom log interval
 TLI .F              2496:   Top log interval
 CS1 .IN            8.625:   Casing size
 CBD1.       8.625 @ 537':   Casing driller 1
 BS1 .IN            7.875:   Bit size
 DFT .            GEL KCL:   Type fluid in hole
 DFD .                8.8:   Density
 DFV .                 40:   Viscosity
 DFPH.                  9:   pH
 DFL .                9.8:   Fluid loss
 MSS .           FLOWLINE:   Source of sample
 RMS .OHMM           0.61:   Rm
 MST .F                77:   Rm Meas. temp.
 RMF .OHMM           0.51:   Rmf
 MFST.F                69:   Rmf Meas. temp.
 RMC .OHMM           0.76:   Rmc
 MCST.F                77:   Rmc Meas. temp.
 MFSS.               MEAS:   Source Rmf.
 RMB .OHMM           0.38:   Rm. at BHT
 BHT .F               122:   BHT.
 TCS .HRS               4:   Time Circ. stopped
 MRT .F               122:   Maximum recorded temp.
 LUN .               6307:   Logging unit number
 LUL .               GLTE:   Logging unit location
 ENGI.            DEYOUNG:   Recorded By
 WITN.           R. SCOTT:   Witnessed by
 ORIG.           5" PRINT:   Origin of data
 UWI .     49025109580000:   Unique Well ID
 DICO. A2D TECHNOLOGIES, INC.:   Digitizing Company
 DAPD.                 10:   Feet Above Permanent Datum
 MCSS.               CALC:   Source Rmc.
~OTHER INFORMATION
~A  DEPT       SPR       TENR        ILD        ILM       RFOC        GRD       CALD       TEND       RHOB       CORR         CN   
# ...
 2923.0000   -54.6980   -24.1220     2.6450     2.7700     3.4100   152.7150     8.6760   -18.8220     2.4880     0.0260     0.3150
 2923.5000   -53.7690   -24.2410     2.7400     2.9790     2.4610   155.3930     8.7680   -18.5190     2.3420    -0.0050     0.3110
 2924.0000   -52.8380   -24.3600     2.8150     3.4210     1.9680   152.4630     8.6220   -18.2160     2.1870     0.0750     0.3010
 2924.5000   -52.0570   -24.4790     2.8900     3.8630     3.0240   140.5410     8.4230   -17.9130     2.0300     0.2200     0.2870
 2925.0000   -52.9880   -24.5980     3.0930     4.3050     4.1970   122.3730     8.2430   -17.7110     2.0880     0.1760     0.2720
 2925.5000   -53.9110   -24.7180     3.4260     4.6300     5.3710   107.6600     8.1890   -17.9150     2.2570     0.0790     0.2450
 2926.0000   -54.8240   -24.8370     3.8410     4.9050     6.5440    98.1420     8.1780   -18.1190     2.4400     0.0470     0.1990
 2926.5000   -55.7370   -24.9560     4.4370     5.1790     7.2390    96.5980     8.1770   -18.3230     2.5700     0.0670     0.1950
 2927.0000   -56.6560   -25.0750     5.0320     5.4540     6.9940    96.1660     8.1760   -18.5260     2.5920     0.0720     0.1910
 2927.5000   -57.5790   -25.1940     5.6280     5.7290     6.7800    99.2290     8.1750   -18.7300     2.5930     0.0760     0.1880
 2928.0000   -57.6680   -25.3140     6.0740     6.0180     6.5650   102.5120     8.1740   -18.9340     2.5950     0.0810     0.1910
 2928.5000   -57.7130   -25.4330     6.0000     5.9180     6.3510   102.7050     8.1730   -19.1380     2.5960     0.0860     0.1950
 2929.0000   -57.7620   -25.5520     5.8650     5.8130     6.1370   102.8100     8.1710   -19.3420     2.5920     0.0920     0.1930
 2929.5000   -57.8120   -25.6710     5.7300     5.6890     5.9230   103.6190     8.1700   -19.5460     2.5870     0.1020     0.1900
 2930.0000   -57.8620   -25.7900     5.5950     5.5320     5.7270   104.9630     8.1690   -19.7490     2.5800     0.1000     0.1880
 2930.5000   -57.9120   -25.9090     5.4600     5.3750     5.6160   107.1810     8.1680   -19.9530     2.5730     0.0960     0.2000
 2931.0000   -57.9610   -26.0290     5.3250     5.2190     5.5050   109.3990     8.1670   -20.1570     2.5660     0.0710     0.2130
 2931.5000   -58.0110   -26.1480     5.1900     5.0620     5.3940   109.7800     8.1660   -20.3610     2.5620     0.0420     0.2200
 2932.0000   -58.0610   -26.2670     5.0550     4.9050     5.2830   110.1020     8.1650   -20.5650     2.5620     0.0340     0.2190
 2932.5000   -58.1110   -26.3860     4.7530     4.7490     5.1720   111.3050     8.1640   -20.7690     2.5660     0.0550     0.2170
 2933.0000   -58.1610   -26.5050     4.3740     4.4650     5.0610   114.1270     8.1630   -20.9720     2.5660     0.0530     0.2220
 2933.5000   -58.2110   -26.6240     4.0080     4.1030     4.9500   118.9190     8.1620   -21.1760     2.5610     0.0560     0.2260
 2934.0000   -58.2610   -26.7440     3.4840     3.7420     4.8380   124.2440     8.1610   -21.3800     2.5560     0.0670     0.2440
 2934.5000   -58.3100   -26.8630     2.9780     3.3810     4.7330   130.8170     8.1600   -21.5840     2.5510     0.0870     0.2600
 2935.0000   -58.3620   -26.9820     2.5020     3.0190     4.4090   137.4900     8.1590   -21.7880     2.5410     0.0980     0.2710
 2935.5000   -58.4080   -27.1010     2.3860     2.6580     4.1210   148.1890     8.1580   -21.9910     2.5220     0.0800     0.2830
 2936.0000   -57.8680   -27.2200     2.2500     2.3240     3.3970   158.5620     8.1560   -22.1950     2.4900     0.0630     0.3190
 2936.5000   -57.2380   -27.3400     2.0800     2.5410     2.7190   175.8220     8.1550   -22.3990     2.4540     0.0400     0.3130
 2937.0000   -56.6050   -27.4590     2.1930     2.8130     1.9500   192.7900     8.1540   -22.6030     2.4190     0.0650     0.2990
 2937.5000   -55.9740   -27.5780     2.4240     3.1580     2.3490   193.6520     8.1530   -22.8070     2.3820     0.1170     0.2840
 2938.0000   -55.4930   -27.6970     2.6540     3.5030     3.6290   170.1610     8.1520   -23.0110     2.3630     0.1550     0.2670
 2938.5000   -56.1520   -27.8160     2.8850     3.8480     4.9090   144.4700     8.1510   -23.2140     2.4260     0.1320     0.2370
 2939.0000   -56.8300   -27.9350     3.1160     4.1930     6.1890   127.8010     8.1500   -23.4180     2.5070     0.0860     0.2120
 2939.5000   -57.5080   -28.0550     3.5170     4.5610     6.5400   114.5200     8.1490   -23.6220     2.5470     0.0520     0.2120
 2940.0000   -58.1900   -28.1740     4.2640     4.8210     6.4060   113.9590     8.1480   -23.8260     2.5600     0.0580     0.2160
 2940.5000   -58.2670   -28.2930     5.0100     5.2200     6.1550   116.9560     8.1470   -24.0300     2.5580     0.0640     0.2200
 2941.0000   -58.3130   -28.4120     5.8000     5.6440     5.9040   118.9280     8.1460   -24.2340     2.5560     0.0700     0.2240
 2941.5000   -58.3610   -28.5310     5.7440     5.7650     5.6940   119.1410     8.1450   -24.4370     2.5550     0.0640     0.2270
 2942.0000   -58.4110   -28.6500     5.7310     5.7900     5.7390   119.3860     8.1440   -24.6410     2.5540     0.0530     0.2290
 2942.5000   -58.4600   -28.7700     5.7180     5.8150     5.7860   119.6300     8.1430   -24.8450     2.5490     0.0420     0.2240
 2943.0000   -58.5090   -28.8890     5.7040     5.8400     5.8320   120.6700     8.1420   -25.0490     2.5400     0.0310     0.2170
 2943.5000   -58.5580   -29.0080     5.6940     5.8650     5.8790   122.3290     8.1400   -25.2530     2.5380     0.0240     0.2140
 2944.0000   -58.6080   -29.1270     5.7470     5.8900     5.9260   123.9910     8.1390   -25.4570     2.5450     0.0280     0.2160
 2944.5000   -58.6570   -29.2460     5.8000     5.9150     5.9730   125.6590     8.1390   -25.6600     2.5510     0.0350     0.2210
 2945.0000   -58.7060   -29.3660     5.8530     5.9400     6.0190   127.3200     8.1390   -25.6230     2.5550     0.0500     0.2260
 2945.5000   -58.7550   -29.4850     5.9060     5.9650     6.0660   128.9740     8.1390   -25.5220     2.5510     0.0690     0.2310
 2946.0000   -58.8050   -29.6040     5.9600     5.9890     6.2690   130.1200     8.1400   -25.4210     2.5460     0.0610     0.2340
 2946.5000   -58.8540   -29.7230     6.0130     6.0180     6.5040   130.5070     8.1400   -25.3200     2.5440     0.0530     0.2260
 2947.0000   -58.9030   -29.8420     6.0720     6.0070     6.7390   130.8420     8.1410   -25.2190     2.5540     0.0440     0.2240
 2947.5000   -58.9520   -29.7600     6.0570     5.9950     6.9740   130.1700     8.1410   -25.1180     2.5630     0.0690     0.2230
 2948.0000   -59.0020   -29.6420     6.0370     5.9820     7.2390   129.0430     8.1420   -25.0170     2.5730     0.0770     0.2220
 2948.5000   -59.0510   -29.5250     6.0180     5.9690     6.9530   125.4650     8.1420   -24.9160     2.5790     0.0750     0.2200
 2949.0000   -59.1000   -29.4080     5.9620     5.9360     6.5260   127.1520     8.1420   -24.8150     2.5810     0.0710     0.2190
 2949.5000   -59.1490   -29.2910     5.9090     5.8790     6.1000   130.6410     8.1430   -24.7130     2.5820     0.0680     0.2240
 2950.0000   -59.1990   -29.1740     5.8560     5.8230     5.8000   134.1370     8.1430   -24.6120     2.5840     0.0650     0.2310
 2950.5000   -59.2480   -29.0560     5.8030     5.7660     5.6180   136.4960     8.1440   -24.5110     2.5850     0.0620     0.2370
 2951.0000   -59.2970   -28.9390     5.7470     5.6940     5.3370   132.9270     8.1440   -24.4100     2.5840     0.0670     0.2430
 2951.5000   -59.3450   -28.8220     5.8150     5.7490     5.4460   130.8110     8.1440   -24.3090     2.5810     0.0880     0.2420
 2952.0000   -59.3940   -28.7050     5.8890     5.8770     5.6550   130.0520     8.1450   -24.2080     2.5790     0.0990     0.2420
 2952.5000   -59.2250   -28.5870     6.0700     6.1070     5.8630   128.6400     8.1450   -24.1070     2.5790     0.0950     0.2440
 2953.0000   -58.8650   -28.4700     6.2880     6.3370     6.0710   126.5520     8.1460   -24.0060     2.5830     0.0920     0.2370
