~VERSION INFORMATION
 VERS.                2.0:   CWLS LOG ASCII STANDARD - VERSION 2.0
 WRAP.                 NO:   ONE LINE PER DEPTH STEP
~WELL INFORMATION
#MNEM.UNIT      DATA TYPE    INFORMATION
#----------   ------------   ------------------------------
 STRT.F          196.0000:   START DEPTH
 STOP.F         3430.0000:   STOP DEPTH
 STEP.F            0.5000:   STEP LENGTH
 NULL.          -999.2500:   NO VALUE
 COMP.    FENIX $ SCISSON:   COMPANY
 WELL.   FENIX "A" #23-10:   WELL
 FLD .              N P R:   FIELD
 LOC .      S10 T38N R78W:   LOCATION
 CNTY.            NATRONA:   COUNTY
 STAT.            WYOMING:   STATE
 CTRY. UNITED STATES OF AMERICA:   COUNTRY
 SRVC.              WELEX:   SERVICE COMPANY
 DATE.        23-JUL-1977:   LOGDATE
 API .     49025103990000:   API NUMBER
~CURVE INFORMATION
#MNEM.UNIT       API CODE    CURVE DESCRIPTION
#----------   ------------   ------------------------------
 DEPT.F                  :   
 SPR .MV     07 010 01 00:   SPONTANEOUS POTENTIAL
 GURD.OHMM   07 220 05 00:   GUARD LOG RESISTIVITY
 FORX.OHMM   07 220 00 00:   FORMATION FACTOR
 NPHI.DEC    42 890 03 00:   NEUTRON POROSITY SANDSTONE
 CALD.IN     45 280 60 00:   CALIPER FROM DENSITY LOG
 CORR.G/C3   45 356 01 00:   DENSITY CORRECTION
 GRD .GAPI   45 310 01 00:   GAMMA RAY FROM DENSITY LOG
 RHOB.G/C3   45 350 01 00:   BULK DENSITY
~PARAMETER INFORMATION
#MNEM.UNIT          VALUE    DESCRIPTION
#----------   ------------   ------------------------------
 EKB .F         5251.0000:   Kelly bushing
 EGL .F         5241.0000:   Ground level
 EDF .F            0.0000:   Drilling floor
 EPD .F         5241.0000:   Permanent datum
 TD  .F         3430.0000:   Total depth
 DATE.        23-JUL-1977:   Date logged
 CLNT.            A2DTECH:   Client Code
 SL  . 1650' FNL & 990' FWL:   Surface Location
 PD  .                 GL:   Permanent Datum
 DD  .F              3430:   Depth driller
 DL  .F              3430:   Depth logger
 BLI .F              3428:   Bottom log interval
 CS1 .IN            8.625:   Casing size
 CBD1.      8.625" @ 220':   Casing driller 1
 BS1 .IN            7.875:   Bit size
 DFT .            KCL MUD:   Type fluid in hole
 DFD .                8.9:   Density
 DFV .                 33:   Viscosity
 DFPH.                  8:   pH
 DFL .                  8:   Fluid loss
 MSS .           FLOWLINE:   Source of sample
 RMS .OHMM            .49:   Rm
 MST .F                94:   Rm Meas. temp.
 RMF .OHMM            .46:   Rmf
 MFST.F                90:   Rmf Meas. temp.
 RMC .OHMM            .40:   Rmc
 MCST.F                90:   Rmc Meas. temp.
 MFSS.               FANN:   Source Rmf.
 RMB .OHMM            .15:   Rm. at BHT
 BHT .F               122:   BHT.
 TCS .HRS               6:   Time Circ. stopped
 MRT .F               122:   Maximum recorded temp.
 LUN .               8611:   Logging unit number
 LUL .             CASPER:   Logging unit location
 ENGI.            C. DOAK:   Recorded By
 WITN.      B. HARRINGTON:   Witnessed by
 ORIG.           5" PRINT:   Origin of data
 UWI .     49025103990000:   Unique Well ID
 DICO. A2D TECHNOLOGIES, INC.:   Digitizing Company
 DAPD.                 10:   Feet Above Permanent Datum
 BSD1.               3430:   Depth drilled with bit1
 MCSS.                KIT:   Source Rmc.
 TLI .                200:   Top log interval
~OTHER INFORMATION
~A   DEPT      SPR         GURD     FORX       NPHI       CALD       CORR        GRD       RHOB   
# ...
 1694.5000   -84.0820    10.1130    16.1150     0.3090    10.0670     0.0280   107.6330     2.4890
 1695.0000   -84.1310     9.8100    15.2250     0.3130    10.0710     0.0260   109.1940     2.4820
 1695.5000   -84.1800    10.1160    13.4080     0.3170    10.0750     0.0280   110.7550     2.4860
 1696.0000   -84.2160    10.2710    14.9720     0.3200    10.0780     0.0300   110.3310     2.4930
 1696.5000   -84.1920     9.8300    13.5200     0.3200    10.0820     0.0330   109.4050     2.5010
 1697.0000   -84.1640     9.4810    12.6890     0.3180    10.0860     0.0350   108.4700     2.5070
 1697.5000   -84.1370     9.2820    14.1690     0.3170    10.0900     0.0360   107.5370     2.5190
 1698.0000   -84.1100     9.1540    13.1590     0.3180    10.0930     0.0370   106.6020     2.5040
 1698.5000   -84.0830     9.1080    13.9950     0.3200    10.0970     0.0310   105.6330     2.4840
 1699.0000   -84.0560     9.0940    14.9720     0.3230    10.1010     0.0270   105.4130     2.4770
 1699.5000   -84.0280     9.0810    13.6570     0.3230    10.1040     0.0290   106.0320     2.4830
 1700.0000   -84.0010     9.0670    12.2310     0.3230    10.1080     0.0300   106.6440     2.4870
 1700.5000   -83.9740     9.0540    12.9620     0.3220    10.1120     0.0320   107.2520     2.4810
 1701.0000   -83.9470     9.0400    13.9110     0.3180    10.1150     0.0330   107.8580     2.4930
 1701.5000   -83.9190     9.0310    12.9480     0.3140    10.1190     0.0350   108.4630     2.4890
 1702.0000   -83.8920     9.0610    12.2310     0.3110    10.1230     0.0320   109.0690     2.4820
 1702.5000   -83.8650     9.0960    13.0440     0.3100    10.1260     0.0270   109.6750     2.4720
 1703.0000   -83.8380     9.1140    10.8530     0.3120    10.1300     0.0270   110.2860     2.4780
 1703.5000   -83.8230     8.7860    11.8580     0.3150    10.1340     0.0290   110.8790     2.4900
 1704.0000   -83.8080     8.5460    13.4080     0.3180    10.1380     0.0310   110.2310     2.5020
 1704.5000   -83.7930     8.7790    12.5730     0.3230    10.1410     0.0300   109.4200     2.5080
 1705.0000   -83.7790     9.1140    12.5240     0.3300    10.1450     0.0280   108.6060     2.5000
 1705.5000   -83.7640     9.0360    11.3640     0.3370    10.1490     0.0260   108.7900     2.4940
 1706.0000   -83.7500     8.8660    11.6420     0.3390    10.1520     0.0240   110.0800     2.4880
 1706.5000   -83.7350     8.7050    12.3800     0.3410    10.1560     0.0220   111.3730     2.4870
 1707.0000   -83.7200     8.8820    13.1640     0.3430    10.1600     0.0220   112.4600     2.4860
 1707.5000   -83.7060     9.0520    13.6570     0.3430    10.1630     0.0220   110.6960     2.4850
 1708.0000   -83.6910     9.2640    12.1190     0.3370    10.1670     0.0230   108.9260     2.4910
 1708.5000   -83.6770     9.1770    12.9190     0.3310    10.1730     0.0230   107.1760     2.4970
 1709.0000   -83.6620     8.9480    13.6570     0.3290    10.1800     0.0210   105.4300     2.4950
 1709.5000   -83.6480     9.9920    13.5110     0.3280    10.1870     0.0190   103.7220     2.4830
 1710.0000   -83.6330     9.8570    13.4080     0.3260    10.1930     0.0200   104.1430     2.4750
 1710.5000   -83.6180     9.5430    13.4080     0.3240    10.2000     0.0230   105.2470     2.4800
 1711.0000   -83.6040     9.7450    13.4080     0.3210    10.2070     0.0270   106.3690     2.4880
 1711.5000   -83.5890     9.9920    12.2310     0.3180    10.2140     0.0300   107.4920     2.4990
 1712.0000   -83.5750     9.4680    12.1190     0.3150    10.2210     0.0270   108.6140     2.4920
 1712.5000   -83.5600     8.9480    11.5750     0.3160    10.2280     0.0210   109.7320     2.4760
 1713.0000   -83.5460     8.8670    12.0070     0.3200    10.2350     0.0150   110.8630     2.4700
 1713.5000   -83.5310     8.7850    12.4580     0.3270    10.2420     0.0130   112.0510     2.4700
 1714.0000   -83.5160     8.9620    12.5730     0.3330    10.2480     0.0170   110.2130     2.4760
 1714.5000   -83.5020     9.1860    12.8480     0.3310    10.2550     0.0200   107.9510     2.4860
 1715.0000   -83.4870     9.4550    14.1690     0.3240    10.2620     0.0240   105.8620     2.4960
 1715.5000   -83.4730     9.3900    13.5440     0.3180    10.2670     0.0230   106.8940     2.5050
 1716.0000   -83.4580     9.2770    12.4580     0.3140    10.2620     0.0220   108.0050     2.5010
 1716.5000   -83.4440     9.1630    13.2140     0.3160    10.2560     0.0220   109.1010     2.4960
 1717.0000   -83.4300     9.0310    12.8060     0.3190    10.2510     0.0210   110.1740     2.4850
 1717.5000   -83.4470     9.2250    15.1100     0.3210    10.2450     0.0200   110.3510     2.4790
 1718.0000   -83.4680     9.6310    13.2420     0.3220    10.2400     0.0190   109.3990     2.4790
 1718.5000   -83.4880     9.6070    14.0390     0.3200    10.2350     0.0230   108.4570     2.4940
 1719.0000   -83.5090     9.5400    13.7020     0.3190    10.2290     0.0260   107.5160     2.5110
 1719.5000   -83.5290     9.4550    13.4080     0.3130    10.2240     0.0240   106.5730     2.5010
 1720.0000   -83.5500     9.8490    16.4670     0.3000    10.2180     0.0180   105.6330     2.4880
 1720.5000   -83.5700    10.3780    21.0370     0.2970    10.2130     0.0130   104.6940     2.4790
 1721.0000   -83.5910    10.9080    15.1100     0.2840    10.2080     0.0120   103.7310     2.4820
 1721.5000   -83.6120    11.4950    15.1100     0.2790    10.2020     0.0180   104.3670     2.4890
 1722.0000   -83.6320    10.8760    13.5320     0.2750    10.1970     0.0230   105.9300     2.4950
 1722.5000   -83.6530    10.2580    14.0390     0.2830    10.1910     0.0210   107.5000     2.4900
 1723.0000   -83.6730    10.0440    13.5320     0.2890    10.1880     0.0180   109.0760     2.4840
 1723.5000   -83.6940     9.9920    14.8880     0.2930    10.1880     0.0160   110.7720     2.4830
 1724.0000   -83.7140    10.3330    17.5040     0.2980    10.1880     0.0150   109.8210     2.4900
 1724.5000   -83.7350    10.6390    14.5650     0.3020    10.1880     0.0250   107.9820     2.4950
 1725.0000   -83.7550    10.8530    15.8210     0.3060    10.1880     0.0240   106.1140     2.4890
 1725.5000   -83.7760    10.4020    15.8210     0.3100    10.1880     0.0240   105.3880     2.4870
 1726.0000   -83.7970    10.3660    19.9080     0.3120    10.1880     0.0290   105.3800     2.5000
 1726.5000   -83.8180    11.3640    14.6990     0.3130    10.1880     0.0350   105.3770     2.5200
 1727.0000   -83.8230    11.1580    16.4140     0.3130    10.1880     0.0400   105.3780     2.5130
 1727.5000   -83.8240    10.8530    15.4320     0.3120    10.1880     0.0410   105.3780     2.4920
 1728.0000   -83.8240    11.0550    14.3000     0.3110    10.1880     0.0400   105.3770     2.4740
 1728.5000   -83.8240    10.7540    14.9720     0.3090    10.1880     0.0400   105.3730     2.4790
 1729.0000   -83.8240    10.8370    15.0920     0.3080    10.1880     0.0390   105.3860     2.4830
 1729.5000   -83.8240    10.9540    15.1100     0.3080    10.1880     0.0380   105.8590     2.4870
 1730.0000   -83.8240    10.8140    13.7830     0.3100    10.1840     0.0380   108.4940     2.4910
 1730.5000   -83.8240    10.6660    15.2680     0.3110    10.1710     0.0370   108.0960     2.4850
 1731.0000   -83.8240    10.2710    18.8400     0.3130    10.1590     0.0360   107.4590     2.4790
 1731.5000   -83.8240    10.6590    14.6990     0.3120    10.1470     0.0360   106.8420     2.4810
 1732.0000   -83.8240    11.4050    14.3270     0.3110    10.1350     0.0350   106.4600     2.4850
 1732.5000   -83.8240    11.0600    12.4580     0.3110    10.1230     0.0340   107.3840     2.4830
 1733.0000   -83.8240    10.4250    14.6990     0.3120    10.1110     0.0330   108.2680     2.4830
 1733.5000   -83.8250     9.8100    13.9890     0.3130    10.0990     0.0330   109.1710     2.4920
 1734.0000   -83.8330     9.9790    16.7180     0.3100    10.0870     0.0320   108.8650     2.4920
 1734.5000   -83.8410    10.1430    15.6480     0.3050    10.0750     0.0310   108.5650     2.4910
