~VERSION INFORMATION
 VERS.                2.0:   CWLS LOG ASCII STANDARD - VERSION 2.0
 WRAP.                 NO:   ONE LINE PER DEPTH STEP
~WELL INFORMATION
#MNEM.UNIT      DATA TYPE    INFORMATION
#----------   ------------   ------------------------------
 STRT.F          240.0000:   START DEPTH
 STOP.F         2876.0000:   STOP DEPTH
 STEP.F            0.5000:   STEP LENGTH
 NULL.          -999.2500:   NO VALUE
 COMP.    FENIX & SCISSON:   COMPANY
 WELL. FENIX & SCISSON "A" #23-21:   WELL
 FLD .               NPR3:   FIELD
 LOC .      S21 T39N R78W:   LOCATION
 CNTY.            NATRONA:   COUNTY
 STAT.            WYOMING:   STATE
 CTRY. UNITED STATES OF AMERICA:   COUNTRY
 SRVC.              WELEX:   SERVICE COMPANY
 DATE.        05-MAR-1977:   LOGDATE
 API .     49025103030000:   API NUMBER
~CURVE INFORMATION
#MNEM.UNIT       API CODE    CURVE DESCRIPTION
#----------   ------------   ------------------------------
 DEPT.F                  :   
 GRD .GAPI   45 310 01 00:   GAMMA RAY FROM DENSITY LOG
 CALD.IN     45 280 60 00:   CALIPER FROM DENSITY LOG
 CORR.G/C3   45 356 01 00:   DENSITY CORRECTION
 RHOB.G/C3   45 350 01 00:   BULK DENSITY
 SPR .MV     07 010 01 00:   SPONTANEOUS POTENTIAL
 ILD .OHMM   07 120 46 00:   DEEP INDUCTION RESISTIVITY
 ILM .OHMM   07 120 44 00:   INDUCTION LOG MEDIUM RESISTIVITY
 SGRD.OHMM   07 220 05 00:   SHALLOW SHORT GUARD RESISTIVITY
~PARAMETER INFORMATION
#MNEM.UNIT          VALUE    DESCRIPTION
#----------   ------------   ------------------------------
 EKB .F         4986.0000:   Kelly bushing
 EGL .F         4976.0000:   Ground level
 TD  .F         2885.0000:   Total depth
 CLNT.            A2DTECH:   Client Code
 SL  . 990' FWL & 1650' FNL:   Surface Location
 DATE.        05-MAR-1977:   Date Logged [DD-MMM-YYYY]
 DD  .F              2885:   Depth driller
 DL  .F              2882:   Depth logger
 BLI .F              2876:   Bottom log interval
 TLI .F               238:   Top log interval
 CS1 .IN            8.625:   Casing size
 CBD1.      8.625" @ 251':   Casing driller 1
 CBL1.IN              251:   Casing logger 1
 BS1 .IN            7.875:   Bit size
 BSD1.F              2885:   Depth drilled with bit1
 DFT .                KCL:   Type fluid in hole
 DFD .                9.5:   Density
 TCS .HRS               3:   Time Circ. stopped
 MRT .F                78:   Maximum recorded temp.
 ENGI.          D. LAWSON:   Recorded By
 WITN.            K. JAPP:   Witnessed by
 ORIG.         2.5" PRINT:   Origin of data
 UWI .     49025103030000:   Unique Well ID
 DICO. A2D TECHNOLOGIES,INC.:   Digitizing Company
 PD  .                 GL:   Permanent Datum
 EPD .               4976:   Elevation Permanent Datum
 LMF .                 KB:   Log Measured From
 DMF .                 KB:   Drilling Measured From
 DAPD.                 10:   Feet Above Permanent Datum
 DFL .                8.8:   Fluid loss
 MSS .           FLOWLINE:   Source of sample
 RMS .OHMM            .40:   Rm
 MST .F                58:   Rm Meas. temp.
 RMF .OHMM            .37:   Rmf
 MFST.F                58:   Rmf Meas. temp.
 MFSS.OHMM            .67:   Source Rmf.
 MCST.F                58:   Rmc Meas. temp.
 MCSS.               MEAS:   Source Rmc.
 RMB .OHMM            .30:   Rm. at BHT
 BHT .F                78:   BHT.
~OTHER INFORMATION
~A   DEPT       GRD        CALD      CORR        RHOB      SPR        ILD        ILM       SGRD   
# ...
 2832.0000   124.6744     7.8717     0.0120     2.4547   -38.2287     4.1733     4.9984     6.9032
 2832.5000   126.2760     7.8652     0.0120     2.4559   -38.3580     4.1191     4.9957     7.6017
 2833.0000   128.9172     7.8429     0.0120     2.4523   -38.6568     4.1169     4.8571     7.4942
 2833.5000   131.1346     7.8432     0.0090     2.4501   -38.9556     4.1082     4.7224     6.8946
 2834.0000   133.3196     7.8373     0.0090     2.4501   -39.2544     4.0560     4.7198     6.7971
 2834.5000   134.1844     7.8144     0.0090     2.4501   -39.2574     4.0467     4.6526     7.0821
 2835.0000   132.3071     7.8147     0.0090     2.4501   -39.2603     3.9961     4.5236     6.7914
 2835.5000   130.2642     7.8150     0.0090     2.4510   -39.2633     3.9862     4.4592     6.1622
 2836.0000   128.8895     7.8153     0.0090     2.4633   -39.2663     3.8752     4.3957     6.4206
 2836.5000   128.5583     7.8156     0.0090     2.4624   -39.5651     3.7753     4.3332     6.8774
 2837.0000   129.2728     7.8159     0.0120     2.4557   -39.5681     3.7650     4.2715     6.1546
 2837.5000   130.8650     7.8162     0.0120     2.4646   -39.5710     3.7111     4.2107     5.8210
 2838.0000   132.2133     7.8164     0.0120     2.4718   -39.7199     3.6078     4.2084     5.9817
 2838.5000   132.5630     7.8167     0.0120     2.4763   -39.8728     3.5649     4.2061     6.4073
 2839.0000   131.3316     7.8170     0.0120     2.4760   -40.1716     3.5629     4.2038     6.1444
 2839.5000   129.7605     7.8173     0.0120     2.4754   -40.3147     3.5610     4.2015     6.1418
 2840.0000   131.0558     7.8176     0.0150     2.4754   -40.4734     3.5590     4.1992     6.3993
 2840.5000   131.7056     7.8179     0.0150     2.4724   -40.4763     3.5571     4.0827     6.3088
 2841.0000   129.1987     7.8182     0.0150     2.4665   -40.4793     3.5551     4.0246     6.3062
 2841.5000   127.6773     7.8185     0.0150     2.4605   -40.4823     3.4939     3.9130     6.3036
 2842.0000   127.3244     7.8188     0.0150     2.4545   -40.4852     3.3967     3.8573     5.7993
 2842.5000   129.0666     7.8191     0.0150     2.4575   -40.4881     3.3481     3.8024     5.4096
 2843.0000   132.2935     7.8194     0.0150     2.4650   -40.4911     3.3001     3.7482     5.9570
 2843.5000   135.4480     7.8197     0.0150     2.4724   -40.4941     3.2082     3.6949     5.9545
 2844.0000   138.4916     7.8200     0.0180     2.4754   -40.4970     3.1623     3.6423     5.4028
 2844.5000   136.0113     7.8203     0.0180     2.4665   -40.5000     3.0743     3.5413     5.0398
 2845.0000   133.6753     7.8206     0.0180     2.4575   -40.5030     3.0303     3.5393     5.4735
 2845.5000   130.9400     7.8209     0.0180     2.4545   -40.5059     2.9981     3.5374     5.7030
 2846.0000   128.2511     7.8212     0.0210     2.4575   -40.5089     2.9964     3.5355     4.8962
 2846.5000   132.8867     7.8215     0.0210     2.4650   -40.5119     2.9948     3.5335     4.8942
 2847.0000   135.0088     7.8218     0.0240     2.4739   -40.5148     2.9931     3.5806     5.0293
 2847.5000   133.8271     7.8221     0.0240     2.4814   -40.5177     2.9915     3.6284     5.6154
 2848.0000   131.7937     7.8223     0.0240     2.4724   -40.5207     2.9898     3.6767     6.0987
 2848.5000   134.1555     7.8226     0.0240     2.4650   -40.5236     2.9881     3.6747     6.0961
 2849.0000   136.0170     7.8229     0.0210     2.4769   -40.5266     2.9865     3.6224     5.6865
 2849.5000   137.9735     7.8232     0.0210     2.4784   -40.5296     2.9715     3.5219     5.3044
 2850.0000   139.6385     7.8235     0.0210     2.4575   -40.6313     2.8888     3.3311     5.0867
 2850.5000   141.2054     7.8238     0.0210     2.4352   -40.8314     2.8216     3.1498     4.8779
 2851.0000   142.5786     7.8241     0.0150     2.4218   -41.1302     2.7814     2.9790     4.6135
 2851.5000   143.2727     7.8244     0.0090     2.4158   -41.2259     2.7664     2.8973     4.3634
 2852.0000   142.7032     7.8247     0.0030     2.4232   -41.4320     2.7268     2.8544     4.1269
 2852.5000   141.2468     7.8250     0.0060     2.4382   -41.5239     2.6643     2.8154     4.3598
 2853.0000   139.4040     7.8253     0.0120     2.4501   -41.7337     2.6628     2.7753     4.8010
 2853.5000   138.0167     7.8256     0.0180     2.4545   -41.7367     2.6475     2.7737     5.0023
 2854.0000   138.7899     7.8259     0.0210     2.4560   -41.7396     2.6234     2.7342     4.6021
 2854.5000   140.0556     7.8262     0.0210     2.4575   -41.7426     2.5722     2.7327     4.8618
 2855.0000   142.5518     7.8265     0.0210     2.4560   -41.7456     2.5354     2.7275     4.9274
 2855.5000   146.9496     7.8268     0.0180     2.4516   -41.7485     2.5130     2.6923     4.5332
 2856.0000   150.1564     7.8271     0.0180     2.4426   -41.7515     2.4974     2.6865     4.2875
 2856.5000   149.0183     7.8273     0.0150     2.4352   -41.7545     2.4758     2.6526     4.1688
 2857.0000   129.4109     7.8276     0.0210     2.4277   -41.7574     2.4406     2.6511     4.1671
 2857.5000    53.0207     7.8279     0.0269     2.4396   -41.7603     2.4392     2.6496     4.3418
 2858.0000    53.0183     7.8282     0.0329     2.4590   -41.7633     2.4379     2.6482     4.5868
 2858.5000    53.0158     7.8285     0.0329     2.4665   -41.7662     2.4704     2.6467     4.5849
 2859.0000    53.0132     7.8288     0.0329     2.4650   -41.7692     2.4690     2.6453     4.3364
 2859.5000    53.0107     7.8291     0.0329     2.4575   -41.7722     2.4677     2.6438     4.1013
 2860.0000    53.0082     7.8294     0.0311     2.4486   -41.7752     2.4326     2.6424     4.3328
 2860.5000    53.0057     7.8297     0.0299     2.4426   -41.7781     2.4312     2.6409     4.6410
 2861.0000    53.0032     7.8300     0.0269     2.4426   -41.7811     2.3808     2.6032     4.3292
 2861.5000    53.0007     7.8303     0.0252     2.4456   -41.7840     2.3625     2.5936     4.0945
 2862.0000    52.9982     7.8306     0.0240     2.4501   -41.7870     2.3131     2.5297     4.0928
 2862.5000    52.9957     7.8358     0.0210     2.4441   -41.7899     2.2487     2.4936     4.2058
 2863.0000    52.9932     7.8606     0.0210     2.4158   -41.7929     2.2165     2.4581     4.1464
 2863.5000    52.9907     7.8609     0.0210     2.4128   -41.7506     2.1701     2.4142     3.8146
 2864.0000    52.9882     7.8906     0.0210     2.4113   -41.5027     2.1240     2.3559     3.6078
 2864.5000    52.9857     7.8909     0.0180     2.4128   -41.2099     2.0935     2.3453     3.6566
 2865.0000    52.9832     7.8912     0.0133     2.4143   -41.1735     2.0787     2.3211     3.7575
 2865.5000    52.9807     7.8915     0.0103     2.4173   -40.8826     2.0776     2.3199     3.9696
 2866.0000    52.9782     7.8917     0.0090     2.4218   -40.5918     2.0764     2.3186     3.8597
 2866.5000    52.9757     7.8887     0.0137     2.4292   -40.0050     2.1041     2.3497     3.7013
 2867.0000    52.9732     7.8629     0.0213     2.4352   -39.4180     2.1030     2.3482     3.8565
 2867.5000    52.9707     7.8338     0.0285     2.4441   -38.2100     2.1310     2.3469     4.0742
 2868.0000    52.9682     7.8341     0.0329     2.4486   -36.7101     2.1940     2.3135     4.2450
 2868.5000    52.9657     7.8344     0.0343     2.4426   -34.9695     2.2858     2.2805     4.3622
 2869.0000    52.9632     7.8347     0.0283     2.4292   -33.4972     2.4344     2.2173     4.0132
 2869.5000    52.9607     7.8350     0.0178     2.4173   -32.3207     2.6436     2.1329     3.6414
 2870.0000    52.9582     7.8353     0.0074     2.4083   -31.1638     2.9994     2.0448     3.3967
 2870.5000    52.9556     7.8356     0.0060     2.4128   -30.5768     3.3473     2.0168     3.2126
 2871.0000    52.9531     7.8359     0.0090     2.4203   -30.0058     3.5842     2.2120     3.0808
 2871.5000    52.9506     7.8362     0.0166     2.4292  -999.2500  -999.2500  -999.2500  -999.2500
 2872.0000    52.9481     7.8365     0.0226     2.4352  -999.2500  -999.2500  -999.2500  -999.2500
