~VERSION INFORMATION
 VERS.                2.0:   CWLS LOG ASCII STANDARD - VERSION 2.0
 WRAP.                 NO:   ONE LINE PER DEPTH STEP
~WELL INFORMATION
#MNEM.UNIT      DATA TYPE    INFORMATION
#----------   ------------   ------------------------------
 STRT.F          200.0000:   START DEPTH
 STOP.F         3058.0000:   STOP DEPTH
 STEP.F            0.5000:   STEP LENGTH
 NULL.          -999.2500:   NO VALUE
 COMP.    FENIX & SCISSON:   COMPANY
 WELL. FENIX & SCISSON "A" #45-34:   WELL
 FLD .              N P R:   FIELD
 LOC .      S34 T39N R78W:   LOCATION
 CNTY.            NATRONA:   COUNTY
 STAT.            WYOMING:   STATE
 CTRY. UNITED STATES OF AMERICA:   COUNTRY
 SRVC.              WELEX:   SERVICE COMPANY
 DATE.        11-MAY-1977:   LOGDATE
 API .     49025103760000:   API NUMBER
~CURVE INFORMATION
#MNEM.UNIT       API CODE    CURVE DESCRIPTION
#----------   ------------   ------------------------------
 DEPT.F                  :   
 GRD .GAPI   45 310 01 00:   GAMMA RAY FROM DENSITY LOG
 CALD.IN     45 280 60 00:   CALIPER FROM DENSITY LOG
 RHOB.G/C3   45 350 01 00:   BULK DENSITY
 CORR.G/C3   45 356 01 00:   DENSITY CORRECTION
 SPR .MV     07 010 01 00:   SPONTANEOUS POTENTIAL
 ILD .OHMM   07 120 46 00:   DEEP INDUCTION RESISTIVITY
 ILM .OHMM   07 120 44 00:   INDUCTION LOG MEDIUM RESISTIVITY
 GURD.OHMM   07 220 05 00:   GUARD LOG RESISTIVITY
~PARAMETER INFORMATION
#MNEM.UNIT          VALUE    DESCRIPTION
#----------   ------------   ------------------------------
 EKB .F         5123.0000:   Kelly bushing
 EGL .F         5113.0000:   Ground level
 EDF .F            0.0000:   Drilling floor
 EPD .F            0.0000:   Permanent datum
 TD  .F         3060.0000:   Total depth
 DATE.        11-MAY-1977:   Date logged
 CLNT.            A2DTECH:   Client Code
 SL  . 2310' FSL & 2310' FWL:   Surface Location
 PD  .                 GL:   Permanent Datum
 DD  .F              3060:   Depth driller
 DL  .F              3060:   Depth logger
 BLI .F              3058:   Bottom log interval
 CS1 .IN            8.625:   Casing size
 CBD1.      8.625" @ 205':   Casing driller 1
 CBL1.F               214:   Casing logger 1
 BS1 .IN            7.875:   Bit size
 DFT .            KCL/MUD:   Type fluid in hole
 DFD .                8.8:   Density
 DFV .                 45:   Viscosity
 MSS .           FLOWLINE:   Source of sample
 RMS .OHMM            3.2:   Rm
 MST .F                85:   Rm Meas. temp.
 RMF .OHMM            2.7:   Rmf
 MFST.F                85:   Rmf Meas. temp.
 RMC .OHMM            3.6:   Rmc
 MCST.F                85:   Rmc Meas. temp.
 MFSS.               CALC:   Source Rmf.
 RMB .OHMM           2.44:   Rm. at BHT
 BHT .F               112:   BHT.
 TCS .HRS             2.5:   Time Circ. stopped
 MRT .F               112:   Maximum recorded temp.
 LUN .               8611:   Logging unit number
 LUL .           GILLETTE:   Logging unit location
 ENGI.            C. DOAK:   Recorded By
 WITN.      B. HARRINGTON:   Witnessed by
 ORIG.           5" PRINT:   Origin of data
 UWI .     49025103760000:   Unique Well ID
 DICO. A2D TECHNOLOGIES, INC.:   Digitizing Company
 DAPD.F                10:   Feet Above Permanent Datum
 BSD1.F              3060:   Depth drilled with bit1
 MCSS.               CALC:   Source Rmc.
 TLI .F               200:   Top log interval
~OTHER INFORMATION
~A   DEPT       GRD      CALD         RHOB      CORR       SPR        ILD        ILM       GURD   
# ...
 1131.5000   113.5610    10.2080     2.4560     0.0350   -37.0480     7.2370     8.1140     9.4430
 1132.0000   113.3440    10.1980     2.4590     0.0350   -37.0560     7.2310     8.1220     9.4220
 1132.5000   113.1320    10.1880     2.4630     0.0350   -37.0630     7.2240     8.1080     9.4010
 1133.0000   112.9120    10.1780     2.4640     0.0350   -37.0710     7.2180     8.0770     9.3800
 1133.5000   112.6690    10.1700     2.4630     0.0350   -37.0790     7.2110     8.0480     9.3600
 1134.0000   112.7180    10.1660     2.4590     0.0350   -37.0870     7.2040     8.0200     9.3390
 1134.5000   113.2800    10.1620     2.4560     0.0340   -37.0950     7.1980     7.9910     9.3180
 1135.0000   113.9100    10.1580     2.4520     0.0330   -37.1020     7.1910     7.9620     9.2970
 1135.5000   113.6380    10.1540     2.4480     0.0320   -37.1100     7.1840     7.9330     9.2760
 1136.0000   112.4280    10.1500     2.4430     0.0310   -37.1180     7.1780     7.9040     9.2560
 1136.5000   111.4160    10.1460     2.4360     0.0300   -37.1260     7.1710     7.8760     9.2350
 1137.0000   110.3250    10.1420     2.4310     0.0290   -37.1340     7.1640     7.8470     9.2140
 1137.5000   111.1490    10.1380     2.4350     0.0280   -37.1410     7.1580     7.8180     9.1930
 1138.0000   112.1810    10.1340     2.4390     0.0270   -37.1490     7.1510     7.7890     9.1720
 1138.5000   113.2700    10.1310     2.4340     0.0260   -37.1570     7.1440     7.7600     9.1510
 1139.0000   114.2700    10.1430     2.4290     0.0250   -37.1650     7.1440     7.7320     9.1310
 1139.5000   115.3990    10.1550     2.4230     0.0240   -37.1730     7.1440     7.7030     9.1100
 1140.0000   115.2930    10.1660     2.4170     0.0230   -37.1800     7.1440     7.6690     9.0890
 1140.5000   114.5120    10.1780     2.4140     0.0250   -37.1880     7.1440     7.6300     9.0680
 1141.0000   113.8310    10.1890     2.4180     0.0270   -37.1960     7.1440     7.5910     9.0470
 1141.5000   113.1600    10.2000     2.4230     0.0290   -37.2040     7.1440     7.5500     9.0270
 1142.0000   112.4430    10.2240     2.4280     0.0310   -37.2120     7.1440     7.5340     9.0060
 1142.5000   111.7880    10.2790     2.4330     0.0330   -37.2200     7.1440     7.5180     8.9850
 1143.0000   111.0390    10.3320     2.4360     0.0350   -37.2270     7.1440     7.5030     8.9640
 1143.5000   110.9920    10.3890     2.4360     0.0370   -37.2350     7.1440     7.4870     8.9430
 1144.0000   110.9620    10.4090     2.4390     0.0390   -37.2430     7.1440     7.4710     8.9220
 1144.5000   110.9990    10.4070     2.4420     0.0410   -37.2510     7.1440     7.4560     8.9020
 1145.0000   111.0140    10.4070     2.4460     0.0430   -37.2590     7.1430     7.4400     8.8810
 1145.5000   112.0610    10.4070     2.4490     0.0450   -37.2660     7.1450     7.4240     8.8600
 1146.0000   113.3720    10.4070     2.4500     0.0470   -37.2740     7.1430     7.4090     8.8390
 1146.5000   114.6980    10.4070     2.4350     0.0460   -37.2820     7.1480     7.3460     8.8180
 1147.0000   115.6940    10.4070     2.4150     0.0370   -37.2900     7.0300     7.2930     8.7980
 1147.5000   115.8160    10.4070     2.4090     0.0290   -37.2980     6.9130     7.2390     8.7770
 1148.0000   115.9470    10.4080     2.4260     0.0200   -37.3050     6.7960     7.1850     8.7560
 1148.5000   116.0560    10.3990     2.4460     0.0200   -37.3130     6.6790     7.1310     8.7350
 1149.0000   116.1700    10.3770     2.4650     0.0220   -37.3210     6.5620     7.0760     8.7140
 1149.5000   116.2800    10.3560     2.4790     0.0240   -37.3290     6.4450     7.0220     8.6930
 1150.0000   116.4300    10.3360     2.4650     0.0250   -37.3370     6.3810     6.9680     8.6730
 1150.5000   116.2130    10.3150     2.4510     0.0260   -37.3440     6.3520     6.9130     8.6520
 1151.0000   115.4860    10.2850     2.4530     0.0280   -37.3520     6.3240     6.8590     8.6310
 1151.5000   114.8050    10.2440     2.4600     0.0290   -37.3600     6.2950     6.8050     8.6100
 1152.0000   114.0890    10.2310     2.4700     0.0310   -37.3680     6.2670     6.7600     8.5890
 1152.5000   113.4260    10.2090     2.4800     0.0320   -37.3760     6.2380     6.7920     8.5690
 1153.0000   112.7310    10.1900     2.4900     0.0330   -37.3830     6.2100     6.8180     8.5480
 1153.5000   113.6280    10.1720     2.5000     0.0350   -37.3910     6.1810     6.8450     8.5270
 1154.0000   115.0670    10.1700     2.4960     0.0350   -37.3990     6.1530     6.8710     8.5060
 1154.5000   116.4860    10.1740     2.4870     0.0360   -37.4070     6.1240     6.8980     8.4850
 1155.0000   117.9760    10.1850     2.4790     0.0370   -37.4150     6.0950     6.9240     8.4640
 1155.5000   119.3130    10.1960     2.4710     0.0370   -37.4220     6.0550     6.9510     8.4440
 1156.0000   120.4820    10.2070     2.4620     0.0380   -37.4300     6.0790     6.9780     8.4230
 1156.5000   121.6960    10.2180     2.4600     0.0390   -37.4380     6.1250     7.0040     8.4020
 1157.0000   122.6630    10.2290     2.4660     0.0420   -37.4460     6.1710     7.0310     8.3810
 1157.5000   121.8490    10.2400     2.4720     0.0430   -37.4630     6.2170     7.0570     8.3620
 1158.0000   121.2230    10.2490     2.4780     0.0430   -37.4970     6.2630     7.0830     8.3400
 1158.5000   120.4620    10.2590     2.4830     0.0490   -37.5310     6.3100     7.1100     8.3180
 1159.0000   120.9750    10.2740     2.4850     0.0530   -37.5650     6.3560     7.1360     8.2980
 1159.5000   121.7470    10.2870     2.4780     0.0600   -37.6000     6.4020     7.2890     8.2760
 1160.0000   121.0590    10.3020     2.4720     0.0680   -37.6340     6.4480     7.4880     8.5270
 1160.5000   118.9550    10.3160     2.4650     0.0750   -37.6680     6.4940     7.6870     8.8000
 1161.0000   117.0500    10.3270     2.4590     0.0830   -37.7030     6.6800     7.8870     9.0730
 1161.5000   115.0400    10.3330     2.4480     0.0900   -37.7370     6.9970     8.0860     9.3450
 1162.0000   113.7300    10.3510     2.4330     0.0980   -37.7710     7.3150     8.2850     9.6180
 1162.5000   113.1540    10.3670     2.4130     0.1030   -37.8050     7.6320     8.4850     9.8910
 1163.0000   112.4870    10.3840     2.3950     0.1030   -37.8400     7.9500     8.6840    10.1630
 1163.5000   111.8320    10.4010     2.3760     0.0980   -37.8740     8.2670     8.8410    10.4360
 1164.0000   111.1780    10.4180     2.3570     0.0790   -37.9080     8.4290     8.9790    10.7080
 1164.5000   110.5610    10.4350     2.3380     0.0610   -37.9420     8.5470     9.1180    10.8970
 1165.0000   109.5560    10.4520     2.3300     0.0430   -37.9770     8.6550     9.2560    10.8760
 1165.5000   108.1630    10.4690     2.3500     0.0230   -38.0110     8.7630     9.4120    10.8550
 1166.0000   106.8270    10.4860     2.3880     0.0230   -38.0450     8.9070     9.4510    10.8330
 1166.5000   105.3580    10.5030     2.4160     0.0390   -38.0790     8.8580     9.4960    10.8120
 1167.0000   104.6710    10.5210     2.4270     0.0360   -38.1140     8.7850     9.5410    10.7910
 1167.5000   104.7650    10.5170     2.4410     0.0350   -38.1480     8.7130     9.5850    10.7690
 1168.0000   106.4010    10.4840     2.4530     0.0420   -38.1820     8.6400     9.6300    10.7480
 1168.5000   108.3080    10.4490     2.4640     0.0460   -38.2180     8.6020     9.6750    10.7270
 1169.0000   110.0550    10.4310     2.4670     0.0510   -38.2330     8.6650     9.7190    10.7050
 1169.5000   109.2110    10.4120     2.4540     0.0490   -38.2220     8.7290     9.7640    10.6840
 1170.0000   108.3920    10.3930     2.4410     0.0410   -38.2140     8.7930     9.8090    10.6630
 1170.5000   107.4100    10.3740     2.4280     0.0320   -38.2060     8.8570     9.8530    10.6410
 1171.0000   106.5830    10.3560     2.4270     0.0320   -38.1970     8.9210     9.8980    10.6200
 1171.5000   105.5870    10.3370     2.4360     0.0350   -38.1890     8.9840     9.9430    10.5980
