~VERSION INFORMATION
 VERS.                2.0:   CWLS LOG ASCII STANDARD - VERSION 2.0
 WRAP.                 NO:   ONE LINE PER DEPTH STEP
~WELL INFORMATION
#MNEM.UNIT      DATA TYPE    INFORMATION
#----------   ------------   ------------------------------
 STRT.F          450.0000:   START DEPTH
 STOP.F         3098.0000:   STOP DEPTH
 STEP.F            0.5000:   STEP LENGTH
 NULL.          -999.2500:   NO VALUE
 COMP. FENIX & SCISSON - U.S NAVY:   COMPANY
 WELL. FENIX NPR 3 "AX" #11-33:   WELL
 FLD .              N P R:   FIELD
 LOC .      S33 T39N R78W:   LOCATION
 CNTY.            NATRONA:   COUNTY
 STAT.            WYOMING:   STATE
 CTRY. UNITED STATES OF AMERICA:   COUNTRY
 SRVC.              WELEX:   SERVICE COMPANY
 DATE.        12-MAR-1977:   LOGDATE
 API .     49025103210000:   API NUMBER
~CURVE INFORMATION
#MNEM.UNIT       API CODE    CURVE DESCRIPTION
#----------   ------------   ------------------------------
 DEPT.F                  :   
 CALD.IN     45 280 60 00:   CALIPER FROM DENSITY LOG
 GRD .GAPI   45 310 01 00:   GAMMA RAY FROM DENSITY LOG
 RHOB.G/C3   45 350 01 00:   BULK DENSITY
 CORR.G/C3   45 356 01 00:   DENSITY CORRECTION
 SPR .MV     07 010 01 00:   SPONTANEOUS POTENTIAL
 SGRD.MV     07 010 01 00:   SHALLOW GUARD RESISTIVITY
 ILD .OHMM   07 120 46 00:   DEEP INDUCTION RESISTIVITY
 ILM .OHMM   07 120 44 00:   INDUCTION LOG MEDIUM RESISTIVITY
~PARAMETER INFORMATION
#MNEM.UNIT          VALUE    DESCRIPTION
#----------   ------------   ------------------------------
 EKB .F         5133.0000:   Kelly bushing
 EGL .F         5122.0000:   Ground level
 TD  .F         3130.0000:   Total depth
 DATE.        12-MAR-1977:   Date logged
 CLNT.            A2DTECH:   Client Code
 SL  . 331' FNL & 430' FWL:   Surface Location
 PD  .                 GL:   Permanent Datum
 DD  .F              3130:   Depth driller
 DL  .F              3102:   Depth logger
 BLI .F              3100:   Bottom log interval
 CS1 .IN            8.625:   Casing size
 CBD1.      8.625" @ 459':   Casing driller 1
 CBL1.F               455:   Casing logger 1
 BS1 .IN            7.875:   Bit size
 DFT .                KCL:   Type fluid in hole
 DFD .                9.3:   Density
 DFV .                 36:   Viscosity
 DFL .               16.2:   Fluid loss
 MSS .           FLOWLINE:   Source of sample
 RMS .OHMM           0.37:   Rm
 MST .F                50:   Rm Meas. temp.
 RMF .OHMM           0.32:   Rmf
 MFST.F                55:   Rmf Meas. temp.
 RMC .OHMM           0.58:   Rmc
 MCST.F                55:   Rmc Meas. temp.
 MFSS.               MEAS:   Source Rmf.
 RMB .OHMM           .168:   Rm. at BHT
 BHT .F               110:   BHT.
 TCS .HRS               4:   Time Circ. stopped
 MRT .F               110:   Maximum recorded temp.
 LUN .               0716:   Logging unit number
 LUL .             VERNAT:   Logging unit location
 ENGI.        E. CALLAHAN:   Recorded By
 WITN.            K. JAPP:   Witnessed by
 ORIG.           5" PRINT:   Origin of data
 UWI .     49025103210000:   Unique Well ID
 DICO. A2D TECHNOLOGIES, INC.:   Digitizing Company
 DAPD.F                11:   Feet Above Permanent Datum
 BSD1.               3950:   Depth drilled with bit1
 MCSS.               CALC:   Source Rmc.
 EPD .F              5122:   Elevation Permanent Datum
 LMF .                 KB:   Log Measured From
 DMF .                 KB:   Drilling Measured From
 TLI .F               455:   Top log interval
~OTHER INFORMATION
~A   DEPT       CALD       GRD        RHOB      CORR       SPR       SGRD        ILD        ILM   
# ...
 1300.5000     9.9410   113.5307     2.5212     0.0836   -60.4772     8.6192     6.9748     7.9624
 1301.0000     9.9605   112.7236     2.5140     0.0719   -60.2805     8.7791     6.7847     7.9337
 1301.5000     9.9604   110.9410     2.5010     0.0639   -60.2837     9.1070     6.8464     7.8599
 1302.0000     9.9406   109.7524     2.4970     0.0699   -60.0892     9.1898     6.9086     8.0040
 1302.5000     9.9207   109.5539     2.5100     0.0659   -60.0923     8.9380     6.9078     8.0035
 1303.0000     9.9206   108.9593     2.5100     0.0619   -60.0955     8.8549     6.9070     8.3027
 1303.5000     9.9206   107.3747     2.4875     0.0559   -60.0987     8.9354     7.0338     9.0182
 1304.0000     9.9403   109.1567     2.5040     0.0579   -60.1018     9.4416     7.0980     9.2691
 1304.5000     9.9204   109.9484     2.5245     0.0699   -60.1050     9.7042     7.2959     9.0156
 1305.0000     9.9402   110.9382     2.5183     0.0709   -60.1082     9.7928     7.3618     8.7689
 1305.5000     9.9401   111.9281     2.5121     0.0629   -60.1113     9.9730     7.4290     9.0963
 1306.0000     9.9401   110.3433     2.5060     0.0489   -60.1145     9.9715     7.4279     9.2637
 1306.5000     9.9400   111.3331     2.5025     0.0659   -60.1176     9.8787     7.4268     9.0934
 1307.0000     9.9598   112.3230     2.5245     0.0719   -60.1208     9.6972     7.4255     8.9263
 1307.5000     9.9399   112.7187     2.5162     0.0719   -60.3216     9.6064     7.4246     9.0075
 1308.0000     9.9398   113.5105     2.5079     0.0798   -60.1271     9.6056     7.4239     9.1735
 1308.5000     9.9398   112.5199     2.4985     0.0798   -59.9326     9.7829     7.3544     8.8404
 1309.0000     9.9397   111.9254     2.5091     0.0918   -60.1347     9.7812     7.3533     8.6779
 1309.5000     9.9397   112.3211     2.5198     0.0998   -59.9389     9.3397     7.2847     8.6766
 1310.0000     9.9198   113.1130     2.5284     0.0958   -60.1398     9.1682     7.1508     8.6754
 1310.5000     9.9197   113.9049     2.5221     0.0798   -60.1429     9.1667     7.1497     8.5162
 1311.0000     9.9395   112.5181     2.5158     0.0759   -59.9484     9.0814     7.0183     8.5934
 1311.5000     9.9394   111.1312     2.5090     0.0719   -59.7538     9.0800     7.0172     8.4354
 1312.0000     9.9394   111.1309     2.5050     0.0719   -59.7570     9.5906     7.0162     8.4342
 1312.5000     9.9393   110.3382     2.4950     0.0838   -59.7601     9.0777     6.9509     8.4335
 1313.0000     9.9392   110.5359     2.4970     0.0679   -59.9610     9.0761     6.9499     8.4322
 1313.5000     9.9392   112.1199     2.5100     0.0679   -59.9642     8.9921     6.8852     8.4307
 1314.0000     9.9589   111.1295     2.5110     0.0779   -59.7696     8.8266     7.0120     8.4298
 1314.5000     9.9391   110.5347     2.4885     0.0579   -59.5750     8.8256     6.8201     8.4283
 1315.0000     9.8796   112.3170     2.5096     0.0699   -59.5782     8.8243     6.8191     8.4268
 1315.5000     9.9587   114.0994     2.5225     0.0798   -59.5813     8.8227     6.7556     8.4258
 1316.0000     9.9587   114.6932     2.5235     0.0599   -59.7822     8.7406     6.7546     8.4246
 1316.5000     9.9586   115.6833     2.4973     0.0459   -59.9831     8.7396     7.0069     8.1930
 1317.0000     9.9586   114.2964     2.4795     0.0399   -59.7885     8.7381     7.0058     8.1927
 1317.5000     9.9783   113.7018     2.5035     0.0539   -59.7917     8.7371     6.7516     8.1915
 1318.0000     9.9584   112.7110     2.5085     0.0659   -59.3993     8.7360     6.7506     8.1903
 1318.5000     9.9584   113.7010     2.5185     0.0659   -59.4025     8.7342     6.6262     8.1889
 1319.0000     9.9583   114.0969     2.5078     0.0459   -59.6034     8.7330     6.6257     8.1877
 1319.5000     9.9583   114.2946     2.4985     0.0519   -59.8043     8.7315     6.6251     8.1867
 1320.0000     9.9582   113.1057     2.5166     0.0619   -60.0053     8.8924     6.6243     8.1853
 1320.5000     9.9780   113.3035     2.5265     0.0779   -59.8106     8.9733     6.6227     8.1846
 1321.0000     9.9779   113.3030     2.5109     0.0539   -59.6160     8.9720     6.6826     8.1836
 1321.5000     9.9778   115.0856     2.4945     0.0559   -59.6192     8.9707     6.7434     8.1820
 1322.0000     9.9778   116.6700     2.5180     0.0739   -59.6223     8.8875     6.8047     8.0313
 1322.5000     9.9579   115.8773     2.5230     0.0679   -59.6255     8.7238     6.9942     8.0301
 1323.0000     9.9578   116.2732     2.5289     0.0679   -59.8264     8.6429     6.7404     8.0289
 1323.5000     9.9380   116.4710     2.5359     0.0639   -59.8296     8.8833     6.9285     8.0278
 1324.0000     9.9379   117.0650     2.5534     0.1018   -59.4371     9.1310     6.9273     8.0266
 1324.5000     9.9378   117.6590     2.5429     0.0499   -59.4403     9.1297     6.9262     7.9519
 1325.0000     9.9378   117.0643     2.4995     0.0579   -59.4434     8.7175     6.9252     7.9507
 1325.5000     9.9575   116.6678     2.5101     0.0679   -59.4466     8.6366     6.9240     7.8767
 1326.0000     9.9178   117.4599     2.5175     0.0459   -59.6475     8.9590     6.9232     8.2465
 1326.5000     9.9376   119.2426     2.4875     0.0599   -59.6507     9.0408     6.9219     8.2453
 1327.0000     9.9375   118.8462     2.5015     0.0619   -59.4560     9.1231     6.7946     8.1686
 1327.5000     9.9375   117.6571     2.5015     0.0759   -59.4592     9.1218     6.7938     8.1671
 1328.0000     9.9374   116.0717     2.4895     0.0699   -59.6602     9.0369     6.6687     8.1659
 1328.5000     9.9968   116.0714     2.4895     0.0679   -59.8612     8.7894     6.6068     8.1650
 1329.0000     9.9769   115.2785     2.4975     0.0739   -59.8643     8.5482     6.4260     8.1635
 1329.5000     9.9571   114.4856     2.4925     0.0579   -59.8675     8.5469     6.3079     8.3135
 1330.0000     9.9372   113.6928     2.4795     0.0679   -59.6728     8.5457     6.3067     8.3133
 1330.5000     9.9371   113.6925     2.5045     0.0539   -59.4781     8.7033     6.3060     8.3116
 1331.0000     9.9371   114.2865     2.4825     0.0619   -59.4812     8.8637     6.4218     8.1588
 1331.5000     9.9370   114.0880     2.5040     0.0699   -59.4844     8.9447     6.4805     8.0090
 1332.0000     9.9171   112.8987     2.5324     0.0798   -59.6854     9.3607     6.7224     7.9342
 1332.5000     9.9171   113.2947     2.5354     0.0838   -59.4907     9.0210     6.7836     7.9332
 1333.0000     9.9170   115.0776     2.5384     0.0739   -59.6917     8.8553     6.7828     7.9321
 1333.5000     9.8971   115.2755     2.5221     0.0639   -59.8934     9.0221     6.7820     7.9309
 1334.0000     9.9169   113.2936     2.5025     0.0439   -59.8966     9.5292     6.7812     7.9295
 1334.5000     9.9168   114.6802     2.5198     0.0459   -59.8997     9.0991     6.7176     7.9283
 1335.0000     9.9366   115.4726     2.5314     0.0579   -59.9029     8.8499     6.6547     7.9272
 1335.5000     9.9365   115.8685     2.4795     0.0359   -60.1039     8.5287     6.6541     7.9260
 1336.0000     9.9166   116.0664     2.4775     0.0399   -60.1071     8.5274     6.6533     7.9251
 1336.5000     9.9364   117.2550     2.5025     0.0439   -59.9124     8.9314     6.7136     7.9239
 1337.0000     9.9562   118.8400     2.5035     0.0439   -59.9155     8.9304     6.7747     7.9960
 1337.5000     9.9165   120.2268     2.5065     0.0639   -59.9187     8.8469     6.7737     8.0686
 1338.0000     9.9164   117.8485     2.5085     0.0659   -59.7239     8.6842     6.7729     7.9935
 1338.5000     9.9362   120.0279     2.5215     0.0759   -59.7271     8.4466     6.7094     7.6326
 1339.0000     9.9361   120.2259     2.5133     0.0838   -59.9282     8.2913     6.5860     7.5616
 1339.5000     9.9360   120.6220     2.5051     0.0679   -59.9313     8.2141     6.5251     7.4916
 1340.0000     9.9360   121.6126     2.5215     0.0639   -59.9345     8.1376     6.4641     7.4900
 1340.5000     9.9557   124.3867     2.4955     0.0689   -59.7397     8.0618     6.4031     7.4889
