~VERSION INFORMATION
 VERS.                2.0:   CWLS LOG ASCII STANDARD - VERSION 2.0
 WRAP.                 NO:   ONE LINE PER DEPTH STEP
~WELL INFORMATION
#MNEM.UNIT      DATA TYPE    INFORMATION
#----------   ------------   ------------------------------
 STRT.F          224.0000:   START DEPTH
 STOP.F         2912.0000:   STOP DEPTH
 STEP.F            0.5000:   STEP LENGTH
 NULL.          -999.2500:   NO VALUE
 COMP.    FENIX & SCISSON:   COMPANY
 WELL. FENIX & SCISSON NPR 34 "A" #3-21:   WELL
 FLD .             NPR #3:   FIELD
 LOC .      S21 T39N R78W:   LOCATION
 CNTY.            NATRONA:   COUNTY
 STAT.            WYOMING:   STATE
 CTRY. UNITED STATES OF AMERICA:   COUNTRY
 SRVC.              WELEX:   SERVICE COMPANY
 DATE.        15-JUL-1977:   LOGDATE
 API .     49025103970000:   API NUMBER
~CURVE INFORMATION
#MNEM.UNIT       API CODE    CURVE DESCRIPTION
#----------   ------------   ------------------------------
 DEPT.F                  :   
 CALD.IN     45 280 60 00:   CALIPER FROM DENSITY LOG
 CORR.G/C3   45 356 01 00:   DENSITY CORRECTION
 RHOB.G/C3   45 350 01 00:   BULK DENSITY
 GRD .GAPI   45 310 01 00:   GAMMA RAY FROM DENSITY LOG
 SPR .MV     07 010 01 00:   SPONTANEOUS POTENTIAL
 ILD .OHMM   07 120 46 00:   DEEP INDUCTION RESISTIVITY
 ILM .OHMM   07 120 44 00:   INDUCTION LOG MEDIUM RESISTIVITY
 SGRD.OHMM   07 220 05 00:   SHALLOW SHORT GUARD RESISTIVITY
~PARAMETER INFORMATION
#MNEM.UNIT          VALUE    DESCRIPTION
#----------   ------------   ------------------------------
 EKB .F         4921.0000:   Kelly bushing
 EGL .F         4911.0000:   Ground level
 TD  .F         2914.0000:   Total depth
 CLNT.            A2DTECH:   Client Code
 SL  . 2310' FNL & 1650' FWL:   Surface Location
 DATE.        15-JUL-1977:   Date Logged [DD-MMM-YYYY]
 DD  .F              2900:   Depth driller
 DL  .F              2914:   Depth logger
 BLI .F              2912:   Bottom log interval
 TLI .F               218:   Top log interval
 CS1 .              8.625:   Casing size
 CBD1.      8.625" @ 230':   Casing driller 1
 CBL1.IN              226:   Casing logger 1
 BS1 .IN            7.875:   Bit size
 BSD1.F              2900:   Depth drilled with bit1
 DFT .                KCL:   Type fluid in hole
 DFD .                8.9:   Density
 DFV .               1.42:   Viscosity
 DFPH.                7.5:   pH
 DFL .               19.6:   Fluid loss
 MSS .            MUD PIT:   Source of sample
 RMS .OHMM           3.75:   Rm
 MST .F                83:   Rm Meas. temp.
 RMF .OHMM           3.40:   Rmf
 MFST.F                83:   Rmf Meas. temp.
 MFSS.           MEASURED:   Source Rmf.
 RMC .OHMM            9.0:   Rmc
 MCST.F                83:   Rmc Meas. temp.
 MCSS.           MEASURED:   Source Rmc.
 RMB .OHMM           2.80:   Rm. at BHT
 BHT .F               111:   BHT.
 TCS .HRS               3:   Time Circ. stopped
 MRT .F               111:   Maximum recorded temp.
 LUN .               8766:   Logging unit number
 LUL .             CASPER:   Logging unit location
 ENGI.          T. JOYNER:   Recorded By
 WITN.     MR. PETTINGILL:   Witnessed by
 ORIG.           5" PRINT:   Origin of data
 UWI .     49025103970000:   Unique Well ID
 DICO. A2D TECHNOLOGIES, INC.:   Digitizing Company
 PD  .                 GL:   Permanent Datum
 EPD .F              4911:   Elevation Permanent Datum
 LMF .                 KB:   Log Measured From
 DMF .                 KB:   Drilling Measured From
 DAPD.F                10:   Feet Above Permanent Datum
~OTHER INFORMATION
~A   DEPT      CALD        CORR       RHOB       GRD       SPR        ILD        ILM       SGRD   
# ...
  750.5000     9.4404     0.0353     2.4811    88.7069   -61.6478     7.9440     8.1188     9.6921
  751.0000     9.4431     0.0369     2.4819    89.3185   -61.7801     8.0030     8.1199     9.6309
  751.5000     9.4457     0.0370     2.4812    89.3349   -61.6152     8.0625     8.1210     9.5699
  752.0000     9.4484     0.0371     2.4896    88.4584   -61.1530     8.0664     8.0662     9.5752
  752.5000     9.4510     0.0357     2.4941    87.0101   -60.9881     8.1264     8.0711     9.5146
  753.0000     9.4537     0.0328     2.4845    86.2868   -60.5260     8.1868     8.1853     9.5198
  753.5000     9.4564     0.0269     2.4757    85.4147   -60.5097     8.1908     8.3587     9.5251
  754.0000     9.4590     0.0240     2.4668    85.5842   -60.6419     8.1947     8.4123     9.5304
  754.5000     9.4467     0.0241     2.4579    86.9442   -60.7741     8.1987     8.3555     9.4700
  755.0000     9.4495     0.0302     2.4648    87.7090   -60.9064     8.0899     8.2915     9.4100
  755.5000     9.4522     0.0348     2.4696    87.7298   -61.0386     7.9826     8.1300     9.4152
  756.0000     9.4548     0.0349     2.4560    86.8576   -61.4681     7.8224     8.0107     9.4205
  756.5000     9.4575     0.0260     2.4434    86.4319   -61.4517     7.6653     7.9012     9.4257
  757.0000     9.4602     0.0186     2.4330    86.4527   -61.4354     7.4083     7.7493     9.4309
  757.5000     9.4628     0.0127     2.4279    86.3244   -61.4190     7.2096     7.6440     9.3726
  758.0000     9.4655     0.0143     2.4228    86.0476   -61.5513     7.1139     7.6984     9.2945
  758.5000     9.4682     0.0189     2.4259    85.6209   -61.5349     7.0682     7.7528     9.2305
  759.0000     9.4559     0.0235     2.4327    85.1925   -61.5186     7.1703     7.8076     9.2353
  759.5000     9.4433     0.0250     2.4395    84.6151   -61.6508     7.4263     7.8628     9.3031
  760.0000     9.4311     0.0177     2.4463    84.6627   -61.7831     7.6385     7.9185     9.4364
  760.5000     9.4188     0.0118     2.4494    85.7312   -61.8353     7.8025     7.9745     9.5715
  761.0000     9.4066     0.0119     2.4502    86.1726   -61.7492     7.8605     7.9756     9.5755
  761.5000     9.3944     0.0135     2.4548    85.8583   -61.5842     7.8643     7.9767     9.5795
  762.0000     9.3828     0.0166     2.4616    84.9802   -61.2706     7.8681     7.9228     9.4520
  762.5000     9.3855     0.0182     2.4744    84.1020   -61.1056     7.8719     7.8691     9.2621
  763.0000     9.3882     0.0198     2.4857    83.0754   -60.6435     7.8757     7.7087     9.1379
  763.5000     9.3759     0.0213     2.5008    83.1559   -60.4785     7.7177     7.6042     9.1426
  764.0000     9.3786     0.0214     2.4852    83.3254   -60.4621     7.6153     7.6053     9.3378
  764.5000     9.3813     0.0215     2.4606    82.7509   -60.4457     7.5143     7.6063     9.3417
  765.0000     9.3691     0.0186     2.4331    82.9205   -60.4293     7.4659     7.6074     9.3456
  765.5000     9.3569     0.0098     2.4302    84.7269   -60.8586     7.4173     7.6084     9.3494
  766.0000     9.3595     0.0263     2.4497    85.7893   -61.5852     7.4218     7.5050     9.3533
  766.5000     9.3473     0.0399     2.4618    84.9172   -61.7215     7.4254     7.4544     9.3572
  767.0000     9.3500     0.0475     2.4693    84.6351   -61.7010     7.4290     7.5071     9.2966
  767.5000     9.3527     0.0506     2.4575    85.5539   -61.6846     7.4326     7.5081     9.2365
  768.0000     9.3553     0.0417     2.4382    87.5091   -61.5196     7.3840     7.6360     9.2403
  768.5000     9.3591     0.0328     2.4248    88.2687   -61.5032     7.3885     7.7927     9.1796
  769.0000     9.3756     0.0314     2.4212    87.4018   -61.1896     7.3921     7.8527     9.1202
  769.5000     9.3783     0.0330     2.4280    88.0177   -60.8760     7.3957     7.8586     9.0621
  770.0000     9.3810     0.0346     2.4408    89.6754   -60.7110     7.4506     7.8646     9.0026
  770.5000     9.3836     0.0392     2.4528    90.7378   -60.6946     7.4543     7.8706     8.9451
  771.0000     9.3863     0.0393     2.4604    91.0561   -60.6782     7.4579     7.8766     8.9490
  771.5000     9.3890     0.0379     2.4665    90.4816   -60.8104     7.4618     7.8826     9.0772
  772.0000     9.4071     0.0350     2.4681    90.0507   -60.7940     7.4651     7.8886     9.1438
  772.5000     9.4097     0.0426     2.4771    89.9227   -61.2234     7.4690     7.8403     9.2110
  773.0000     9.4124     0.0561     2.4862    89.6458   -61.3597     7.4724     7.8462     9.2787
  773.5000     9.4002     0.0637     2.4982    88.4812   -61.4919     7.4760     7.8522     9.3468
  774.0000     9.4026     0.0623     2.5065    86.7162   -61.4714     7.5316     7.9127     9.3507
  774.5000     9.4053     0.0549     2.5007    87.3322   -61.4550     7.5875     8.0846     9.3545
  775.0000     9.4080     0.0505     2.4799    87.9482   -61.4386     7.6970     8.1468     9.2940
  775.5000     9.4106     0.0446     2.4665    87.3736   -61.2736     7.7542     8.0953     9.1704
  776.0000     9.4133     0.0402     2.4621    86.7940   -61.2572     7.8661     8.0457     9.1110
  776.5000     9.4160     0.0388     2.4614    88.0103   -61.2408     7.9246     7.9964     8.9897
  777.0000     9.4031     0.0389     2.4616    87.4358   -61.2244     7.9284     8.0040     8.9317
  777.5000     9.4064     0.0390     2.4624    86.5637   -61.2080     7.8766     7.9550     8.9354
  778.0000     9.4091     0.0391     2.4565    87.4773   -61.3443     7.8261     7.9062     8.9391
  778.5000     9.4117     0.0392     2.4514    88.3909   -61.6251     7.7768     7.8577     8.9428
  779.0000     9.4144     0.0378     2.4515    88.7092   -61.7572     7.7260     7.8081     8.8848
  779.5000     9.4022     0.0379     2.4583    88.5803   -61.7367     7.6235     7.7602     8.8273
  780.0000     9.4049     0.0380     2.4666    88.7507   -61.7236     7.5233     7.7127     8.8311
  780.5000     9.4075     0.0411     2.4682    89.3667   -61.7072     7.4741     7.7200     8.8959
  781.0000     9.4102     0.0442     2.4675    89.9826   -61.5424     7.4262     7.6199     8.8996
  781.5000     9.4128     0.0473     2.4721    89.8545   -61.2288     7.3786     7.5210     8.9033
  782.0000     9.4304     0.0519     2.4782    89.4285   -61.1907     7.3830     7.4234     8.9070
  782.5000     9.4331     0.0535     2.4723    89.4496   -61.0476     7.3348     7.2266     8.7885
  783.0000     9.4357     0.0446     2.4583    89.4703   -61.0312     7.2375     7.1315     8.7315
  783.5000     9.4235     0.0402     2.4442    89.9386   -61.1639     7.1919     7.0390     8.7352
  784.0000     9.4262     0.0358     2.4308    91.1686   -61.2961     7.1954     7.0457     8.7389
  784.5000     9.4288     0.0299     2.4249    93.2807   -61.4283     7.1989     7.0999     8.6817
  785.0000     9.4166     0.0240     2.4235    94.9306   -61.5605     7.2024     7.1043     8.6859
  785.5000     9.4044     0.0181     2.4229    94.9315   -61.5438     7.2059     7.1590     8.7500
  786.0000     9.4072     0.0122     2.4260    95.4778   -61.5275     7.2094     7.1644     8.7533
  786.5000     9.4098     0.0108     2.4358    98.2846   -61.5112     7.2125     7.1698     8.8176
  787.0000     9.3976     0.0214     2.4471    99.6072   -61.4948     7.2164     7.1256     8.8824
  787.5000     9.4006     0.0320     2.4643    99.8017   -61.4785     7.2700     7.0820     8.8861
  788.0000     9.4031     0.0426     2.4801   100.4206   -61.6107     7.2736     7.0876     8.8898
  788.5000     9.4062     0.0472     2.4862   100.7154   -61.5942     7.2260     7.0439     8.8934
  789.0000     9.4084     0.0473     2.4855    98.5005   -61.5778     7.2304     6.9938     8.8971
  789.5000     9.3957     0.0444     2.4804    97.3308   -61.4129     7.2339     6.9034     8.9008
  790.0000     9.3989     0.0430     2.4760    96.3099   -61.2479     7.1380     6.8615     8.8431
  790.5000     9.4015     0.0416     2.4709    95.7354   -60.9343     7.0424     6.8255     8.7860
