~VERSION INFORMATION
 VERS.                2.0:   CWLS LOG ASCII STANDARD - VERSION 2.0
 WRAP.                 NO:   ONE LINE PER DEPTH STEP
~WELL INFORMATION
#MNEM.UNIT      DATA TYPE    INFORMATION
#----------   ------------   ------------------------------
 STRT.F           34.0000:   START DEPTH
 STOP.F         2909.0000:   STOP DEPTH
 STEP.F            0.5000:   STEP LENGTH
 NULL.          -999.2500:   NO VALUE
 COMP.   TESORO PETROLEUM:   COMPANY
 WELL. TESORO NPR "A" #3-28:   WELL
 FLD .             TEAPOT:   FIELD
 LOC .      S28 T39N R78W:   LOCATION
 CNTY.            NATRONA:   COUNTY
 STAT.            WYOMING:   STATE
 CTRY. UNITED STATES OF AMERICA:   COUNTRY
 SRVC.              WELEX:   SERVICE COMPANY
 DATE.        22-JUL-1968:   LOGDATE
 API .     49025102620000:   API NUMBER
~CURVE INFORMATION
#MNEM.UNIT       API CODE    CURVE DESCRIPTION
#----------   ------------   ------------------------------
 DEPT.F                  :   
 GRD .GAPI   45 310 01 00:   GAMMA RAY FROM DENSITY LOG
 SPR .MV     05 010 01 00:   SPONTANEOUS POTENTIAL FROM RES.
 ASN .OHMM   05 041 16 00:   AMPLIFIED SHORT NORMAL 16"
 ILD .OHMM   05 120 46 00:   INDUCTION LOG DEEP
~PARAMETER INFORMATION
#MNEM.UNIT          VALUE    DESCRIPTION
#----------   ------------   ------------------------------
 EKB .F         5050.0000:   Kelly bushing
 EGL .F         5039.0000:   Ground level
 EDF .F            0.0000:   Drilling floor
 EPD .F         5039.0000:   Permanent datum
 TD  .F         2906.0000:   Total depth
 CLNT.            A2DTECH:   Client Code
 DATE.       22-JULY-1968:   Date Logged [DD-MMM-YYYY]
 DD  .F              2906:   Depth driller
 DL  .F              2906:   Depth logger
 BLI .F              2901:   Bottom log interval
 TLI .F               356:   Top log interval
 CS1 .              10.75:   Casing size
 CBD1.      10.75" @ 356':   Casing driller 1
 CBL1.IN              356:   Casing logger 1
 BS1 .IN                9:   Bit size
 DFT .     WATER BASE MUD:   Type fluid in hole
 DFD .                9.6:   Density
 DFV .                 60:   Viscosity
 DFPH.                9.0:   pH
 DFL .                  6:   Fluid loss
 MSS .               CTRC:   Source of sample
 RMS .OHMM            2.1:   Rm
 MST .F                74:   Rm Meas. temp.
 RMF .OHMM            1.6:   Rmf
 MFST.F                71:   Rmf Meas. temp.
 MFSS.               MEAS:   Source Rmf.
 RMC .OHMM            3.0:   Rmc
 MCST.F                66:   Rmc Meas. temp.
 RMB .OHMM            1.3:   Rm. at BHT
 BHT .F               120:   BHT.
 MRT .F               120:   Maximum recorded temp.
 LUN .               6869:   Logging unit number
 ORIG.         2.5" PRINT:   Origin of data
 UWI .     49025102620000:   Unique Well ID
 DICO. A2D TECHNOLOGIES, INC.:   Digitizing Company
 LUL .          NEWCASTLE:   Logging unit location
~OTHER INFORMATION
~A   DEPT      GRD        SPR         ASN         ILD 
# ...
  618.0000  -999.2500   -31.3585     7.2328     7.3824
  618.5000  -999.2500   -31.3648     7.2286     7.3778
  619.0000  -999.2500   -31.3710     7.2631     7.3740
  619.5000  -999.2500   -31.0629     7.3258     7.3702
  620.0000  -999.2500   -31.0702     7.4217     7.3664
  620.5000  -999.2500   -30.7610     7.4900     7.5196
  621.0000  -999.2500   -30.4528     7.5819     7.6724
  621.5000  -999.2500   -30.4596     7.6541     7.6685
  622.0000  -999.2500   -30.4657     7.7834     7.6647
  622.5000  -999.2500   -30.4718     7.8812     7.8176
  623.0000  -999.2500   -30.4780     7.9790     7.8401
  623.5000  -999.2500   -30.4842     8.0614     7.9667
  624.0000  -999.2500   -30.4906     8.0769     7.9623
  624.5000  -999.2500   -30.1818     8.0762     7.9584
  625.0000  -999.2500   -30.1887     8.0756     7.9545
  625.5000  -999.2500   -30.1950     8.0434     8.1074
  626.0000  -999.2500   -30.2012     8.0744     8.1035
  626.5000  -999.2500   -30.2075     8.0738     8.0988
  627.0000  -999.2500   -30.2139     8.0732     8.2523
  627.5000  -999.2500   -30.2201     8.1041     8.2479
  628.0000  -999.2500   -30.2276     8.1674     8.2441
  628.5000  -999.2500   -30.2337     8.2002     8.3970
  629.0000  -999.2500   -30.2399     8.2692     8.3932
  629.5000  -999.2500   -30.2460     8.3604     8.3894
  630.0000  -999.2500   -30.2521     8.4248     8.5424
  630.5000  -999.2500   -30.5727     8.4576     8.5384
  631.0000  -999.2500   -30.5788     8.4784     8.5345
  631.5000  -999.2500   -30.5875     8.4776     8.5306
  632.0000  -999.2500   -30.9266     8.4769     8.5267
  632.5000  -999.2500   -31.2264     8.4763     8.5228
  633.0000  -999.2500   -31.5472     8.4125     8.3620
  633.5000  -999.2500   -31.8679     8.3488     8.1286
  634.0000  -999.2500   -31.7799     8.2535     8.0408
  634.5000  -999.2500   -31.5649     8.1898     8.0361
  635.0000  -999.2500   -31.5724     8.1577     8.0323
  635.5000  -999.2500   -31.5786     8.1571     8.0284
  636.0000  -999.2500   -31.5849     8.1565     8.1814
  636.5000  -999.2500   -31.5924     8.1574     8.1776
  637.0000  -999.2500   -31.5986     8.1868     8.1738
  637.5000  -999.2500   -31.6047     8.2177     8.1700
  638.0000  -999.2500   -31.6108     8.2170     8.1662
  638.5000  -999.2500   -31.6169     8.2164     8.1622
  639.0000  -999.2500   -31.6230     8.2158     8.1583
  639.5000  -999.2500   -31.6291     8.2023     8.1544
  640.0000  -999.2500   -31.6352     8.1830     8.3077
  640.5000  -999.2500   -31.6231     8.1508     8.3033
  641.0000  -999.2500   -31.3330     8.1501     8.2994
  641.5000  -999.2500   -31.3396     8.1179     8.2954
  642.0000  -999.2500   -31.6604     8.0857     8.2915
  642.5000  -999.2500   -31.9811     8.0851     8.2876
  643.0000  -999.2500   -32.4119     8.0845     8.2830
  643.5000  -999.2500   -33.0656     8.0523     8.2792
  644.0000  -999.2500   -32.9434     8.0517     8.2754
  644.5000  -999.2500   -32.4702     8.0511     8.2716
  645.0000  -999.2500   -32.0126     8.0526     8.2678
  645.5000  -999.2500   -31.7055     8.0854     8.2640
  646.0000  -999.2500   -31.3962     8.1813     8.2592
  646.5000  -999.2500   -31.7177     8.3320     8.0996
  647.0000  -999.2500   -32.0383     8.4897     8.0957
  647.5000  -999.2500   -32.0444     8.4143     8.0917
  648.0000  -999.2500   -31.7361     8.3487     8.0878
  648.5000  -999.2500   -31.1132     8.3453     8.0839
  649.0000  -999.2500   -30.8049     8.3924     8.0800
  649.5000  -999.2500   -32.0692     8.4548     8.0761
  650.0000  -999.2500   -32.0755     8.5172     8.0721
  650.5000  -999.2500   -32.0110     8.5482     8.2249
  651.0000  -999.2500   -31.7727     8.6107     8.2203
  651.5000  -999.2500   -32.0944     8.6731     8.2165
  652.0000  -999.2500   -32.5409     8.7672     8.2127
  652.5000  -999.2500   -33.0503     8.7981     8.3656
  653.0000  -999.2500   -33.3711     8.8290     8.3618
  653.5000  -999.2500   -32.8821     8.8284     8.3580
  654.0000  -999.2500   -32.1269     8.8278     8.3542
  654.5000  -999.2500   -31.8176     8.8271     8.3503
  655.0000  -999.2500   -31.8247     8.8265     8.3464
  655.5000  -999.2500   -31.8308     8.8259     8.3425
  656.0000  -999.2500   -32.1514     8.8252     8.3385
  656.5000  -999.2500   -31.8430     8.8387     8.3346
  657.0000  -999.2500   -31.5346     8.8715     8.3307
  657.5000  -999.2500   -31.5409     8.9043     8.3268
  658.0000  -999.2500   -31.5472     9.0119     8.3229
  658.5000  -999.2500   -31.5535     9.0744     8.4757
  659.0000  -999.2500   -31.5597     9.1999     8.6285
  659.5000  -999.2500   -31.5661     9.3886     8.9375
  660.0000  -999.2500   -31.5723     9.7665     9.0904
  660.5000  -999.2500   -31.5786    10.8479     9.5568
  661.0000  -999.2500   -31.8994    11.1219    10.0235
  661.5000  -999.2500   -31.9057    10.8057     9.8627
  662.0000  -999.2500   -31.7757    10.3008     9.5454
  662.5000  -999.2500   -31.6049     9.6057     9.0674
  663.0000  -999.2500   -31.6110     9.2223     8.8696
  663.5000  -999.2500   -31.6171     8.8967     8.6718
  664.0000  -999.2500   -31.6233     8.7096     8.5539
  664.5000  -999.2500   -31.6294     8.6883     8.5860
  665.0000  -999.2500   -31.3210     8.7024     8.4247
  665.5000  -999.2500   -31.3271     8.7668     8.4854
  666.0000  -999.2500   -31.0188     8.7996     8.5737
  666.5000  -999.2500   -31.3684     8.9065     8.7265
  667.0000  -999.2500   -31.6604     9.0321     8.8785
  667.5000  -999.2500   -31.6666     9.1577     9.0315
  668.0000  -999.2500   -31.2746     9.2832     9.3412
  668.5000  -999.2500   -31.0493     9.5034    10.1211
  669.0000  -999.2500   -30.6217     9.6921    10.5875
  669.5000  -999.2500   -30.4340    10.6288    11.2106
  670.0000  -999.2500   -30.2830    12.2231    11.6771
  670.5000  -999.2500   -30.3077    13.4505    12.1524
  671.0000  -999.2500   -30.4540    14.0302    12.6099
  671.5000  -999.2500   -31.0890    14.1968    12.7863
  672.0000  -999.2500   -31.4096    14.2625    13.0725
  672.5000  -999.2500   -32.0447    14.1040    13.0682
  673.0000  -999.2500   -32.3652    14.1034    13.0643
  673.5000  -999.2500   -32.0569    14.1028    13.2178
  674.0000  -999.2500   -31.7485    14.1022    13.2131
  674.5000  -999.2500   -31.4325    14.1016    13.2092
  675.0000  -999.2500   -31.1058    14.1009    13.2053
  675.5000  -999.2500   -30.8235    14.1003    13.3582
  676.0000  -999.2500   -31.1446    14.2575    13.5110
  676.5000  -999.2500   -31.2321    14.2852    13.6638
  677.0000  -999.2500   -31.5714    14.4518    13.8166
  677.5000  -999.2500   -31.9103    14.7760    14.1260
  678.0000  -999.2500   -31.9770    15.1003    14.4356
  678.5000  -999.2500   -31.3360    15.4247    14.7477
  679.0000  -999.2500   -31.0094    15.6732    14.8983
  679.5000  -999.2500   -30.8742    15.6725    14.8942
  680.0000  -999.2500   -30.5661    15.5141    14.8903
  680.5000  -999.2500   -30.5732    15.3557    14.7296
  681.0000  -999.2500   -30.5793    15.0397    14.5183
  681.5000  -999.2500   -30.8999    14.8813    14.1912
  682.0000  -999.2500   -30.9060    14.5653    13.8642
  682.5000  -999.2500   -30.9121    14.4069    13.5371
  683.0000  -999.2500   -30.9235    14.0908    13.2994
  683.5000  -999.2500   -31.2390    13.9325    13.2948
  684.0000  -999.2500   -31.2453    13.9192    13.2910
  684.5000  -999.2500   -31.2516    13.7735    13.2872
  685.0000  -999.2500   -31.2579    13.6151    13.1266
  685.5000  -999.2500   -31.2642    13.5735    13.1228
  686.0000  -999.2500   -31.5849    13.4561    13.1190
  686.5000  -999.2500   -31.7248    13.4555    13.1152
  687.0000  -999.2500   -32.0639    13.4549    12.9546
  687.5000  -999.2500   -32.2327    13.4543    12.9507
  688.0000  -999.2500   -31.9258    13.4536    12.9467
  688.5000  -999.2500   -31.3029    13.4529    12.9428
  689.0000  -999.2500   -30.9946    13.4523    12.9389
  689.5000  -999.2500   -30.6855    13.4517    12.7782
  690.0000  -999.2500   -31.0068    13.6088    12.7743
  690.5000  -999.2500   -31.3274    13.6082    12.7704
