~VERSION INFORMATION
 VERS.                2.0:   CWLS LOG ASCII STANDARD - VERSION 2.0
 WRAP.                 NO:   ONE LINE PER DEPTH STEP
~WELL INFORMATION
#MNEM.UNIT      DATA TYPE    INFORMATION
#----------   ------------   ------------------------------
 STRT.F          634.0000:   START DEPTH
 STOP.F         3464.0000:   STOP DEPTH
 STEP.F            0.5000:   STEP LENGTH
 NULL.          -999.2500:   NO VALUE
 COMP. LAWRENCE-ALLISON & ASSOCIATES W:   COMPANY
 WELL. LAWRENCE "TX" #44-27:   WELL
 FLD .   NAVAL RESERVE #3:   FIELD
 LOC .      S27 T39N R78W:   LOCATION
 CNTY.            NATRONA:   COUNTY
 STAT.            WYOMING:   STATE
 CTRY. UNITED STATES OF AMERICA:   COUNTRY
 SRVC.       SCHLUMBERGER:   SERVICE COMPANY
 DATE.        13-MAR-1982:   LOGDATE
 API .     49025108870000:   API NUMBER
~CURVE INFORMATION
#MNEM.UNIT       API CODE    CURVE DESCRIPTION
#----------   ------------   ------------------------------
 DEPT.F                  :   
 TENR.LBS    07 635 01 00:   TENSION FROM RESISTIVITY
 ILD .OHMM   07 120 46 00:   DEEP INDUCTION RESISTIVITY
 ILM .OHMM   07 120 44 00:   INDUCTION LOG MEDIUM RESISTIVITY
 SFLU.OHMM   07 220 01 00:   SPHERICALLY FOCUSED LOG UNAVERAGED RESISTIVITY
 SPR .MV     07 010 01 00:   SPONTANEOUS POTENTIAL
 TENN.LBS    42 635 01 00:   TENSION FROM COMPENSATE NEUTRON
 CALD.IN     45 280 60 00:   CALIPER FROM DENSITY LOG
 GRD .GAPI   45 310 01 00:   GAMMA RAY FROM DENSITY LOG
 RHOB.G/C3   45 350 01 00:   BULK DENSITY
 DRHO.G/C3   45 356 01 00:   DENSITY CORRECTION
 NPHI.DEC    42 890 03 00:   NEUTRON POROSITY SANDSTONE
~PARAMETER INFORMATION
#MNEM.UNIT          VALUE    DESCRIPTION
#----------   ------------   ------------------------------
 EKB .F         5049.0000:   Kelly bushing
 EGL .F         5039.0000:   Ground level
 EDF .F            0.0000:   Drilling floor
 EPD .F            0.0000:   Permanent datum
 TD  .F         3440.0000:   Total depth
 DATE.        13-MAR-1982:   Date logged
 CLNT.            A2DTECH:   Client Code
 PD  .                 GL:   Permanent Datum
 DD  .F              3440:   Depth driller
 DL  .F              3439:   Depth logger
 BLI .F              3433:   Bottom log interval
 CS1 .IN            9.625:   Casing size
 CBD1.      9.625" @ 650':   Casing driller 1
 CBL1.F               647:   Casing logger 1
 BS1 .IN            7.875:   Bit size
 DFT .                GEL:   Type fluid in hole
 DFD .                9.3:   Density
 DFV .                 48:   Viscosity
 DFPH.                 10:   pH
 DFL .                  8:   Fluid loss
 MSS .                PIT:   Source of sample
 RMS .OHMM           1.82:   Rm
 MST .F                67:   Rm Meas. temp.
 RMF .OHMM           1.32:   Rmf
 MFST.F                67:   Rmf Meas. temp.
 MFSS.               MEAS:   Source Rmf.
 RMB .OHMM           1.09:   Rm. at BHT
 BHT .F               112:   BHT.
 TCS .HRS            1300:   Time Circ. stopped
 MRT .F               112:   Maximum recorded temp.
 LUN .               8039:   Logging unit number
 LUL .               CSPR:   Logging unit location
 ENGI.   WAGNER/CONOSENTI:   Recorded By
 WITN.           JENNINGS:   Witnessed by
 ORIG.           5" PRINT:   Origin of data
 UWI .     49025108870000:   Unique Well ID
 DICO. A2D TECHNOLOGIES, INC.:   Digitizing Company
 DAPD.                 10:   Feet Above Permanent Datum
 BSD1.F              3440:   Depth drilled with bit1
 TLI .F               647:   Top log interval
 TLAB.HRS            1800:   Time logger at bottom
~OTHER INFORMATION
~A   DEPT     TENR        ILD        ILM       SFLU        SPR       TENN       CALD         GRD      RHOB       DRHO       NPHI   
# ...
 2494.5000  1287.4250     5.3760     5.0590     8.0980   -28.1470  1716.2700     9.7040   116.7980     2.4440     0.0070     0.2760
 2495.0000  1287.4250     5.1470     4.7730     6.6750   -28.0290  1716.2700     9.7040   122.4270     2.4400     0.0060     0.2910
 2495.5000  1287.4250     4.9180     4.4870     5.7430   -27.9140  1716.2700     9.7090   130.9340     2.4480     0.0200     0.3060
 2496.0000  1287.4250     4.7450     4.2110     5.1080   -27.8260  1716.2700     9.7240   138.9480     2.4640     0.0550     0.3210
 2496.5000  1287.4250     4.9420     4.6440     4.8780   -27.6750  1716.2700     9.7270   143.8800     2.4800     0.0810     0.3360
 2497.0000  1287.4250     5.3870     5.0620     5.2670   -27.5010  1716.2700     9.7330   138.7070     2.4560     0.0680     0.3540
 2497.5000  1287.4250     5.8320     5.4800     6.8210   -27.3250  1716.2700     9.7390   129.9820     2.4250     0.0360     0.3400
 2498.0000  1287.4250     6.2770     5.8980     9.6750   -27.1420  1716.2700     9.7440   124.7390     2.4070     0.0110     0.3200
 2498.5000  1287.4250     6.7220     6.3160    14.5650   -26.8450  1716.2700     9.7450   121.7310     2.4170     0.0110     0.3050
 2499.0000  1287.4250     7.1670     6.7340    14.4350   -26.5800  1716.2700     9.7440   125.6330     2.4320     0.0150     0.3060
 2499.5000  1287.4250     7.6130     7.1520    14.3000   -26.3610  1716.2700     9.7410   129.6860     2.4450     0.0230     0.3060
 2500.0000  1287.4250     8.0140     7.4450    11.7870   -26.1440  1716.2700     9.7390   138.7690     2.4510     0.0320     0.2990
 2500.5000  1287.4250     7.8180     7.0020    10.4360   -25.9240  1716.2700     9.7370   147.8540     2.4570     0.0380     0.3010
 2501.0000  1287.4250     7.4300     6.6610    10.1990   -25.9070  1716.2700     9.7350   150.9990     2.4600     0.0390     0.3020
 2501.5000  1287.4250     7.0410     6.4000     9.2660   -26.0830  1716.2700     9.7330   154.4880     2.4620     0.0400     0.3030
 2502.0000  1287.4250     6.6520     6.1660     7.6790   -26.2580  1716.2700     9.7300   157.8500     2.4600     0.0480     0.2940
 2502.5000  1287.4250     6.0820     5.9170     7.1770   -26.4350  1716.2700     9.7280   157.9960     2.4490     0.0550     0.3110
 2503.0000  1287.4250     6.1950     5.4890     8.2770   -26.6120  1716.2700     9.7260   158.0260     2.4280     0.0530     0.2690
 2503.5000  1287.4250     5.1450     4.9040     9.1140   -26.7890  1716.2700     9.7490   159.4750     2.4210     0.0500     0.2950
 2504.0000  1287.4250     4.8370     4.3190     7.9020   -26.9650  1716.2700     9.7930   163.6210     2.4310     0.0550     0.2920
 2504.5000  1287.4250     4.5280     4.0130     4.4910   -27.1440  1716.2700     9.8380   162.9670     2.4420     0.0530     0.2980
 2505.0000  1287.4250     4.2200     3.7930     4.3480   -27.2980  1716.2700     9.8830   152.9740     2.4550     0.0350     0.3090
 2505.5000  1287.4250     3.9110     3.5730     4.1990   -27.5250  1716.2700     9.9280   145.7420     2.4770     0.0140     0.2990
 2506.0000  1287.4250     3.6020     3.3460     3.9210   -27.7510  1716.2700     9.9650   140.3910     2.4990     0.0290     0.2900
 2506.5000  1287.4250     3.2940     3.0810     3.5470   -27.9880  1716.2700     9.9600   134.8520     2.5220     0.0520     0.2820
 2507.0000  1287.4250     3.2150     3.0810     3.2550   -27.7070  1716.2700     9.9540   130.6090     2.5120     0.0680     0.2990
 2507.5000  1287.4250     3.2020     3.0810     3.6240   -27.3070  1716.6331     9.9490   127.4120     2.4930     0.0560     0.3000
 2508.0000  1287.5160     3.1880     3.0810     4.2520   -26.9000  1717.4000     9.9430   124.1960     2.4800     0.0220     0.3020
 2508.5000  1287.9810     3.1670     3.0810     4.8780   -26.4950  1718.1660     9.9380   121.0990     2.4990     0.0180     0.3030
 2509.0000  1288.4449     3.2070     3.1030     4.4090   -26.1090  1718.9330     9.9320   121.1100     2.5140     0.0220     0.3050
 2509.5000  1288.9100     3.3040     3.2100     3.6690   -25.5930  1719.6990     9.9270   121.0260     2.5140     0.0270     0.3130
 2510.0000  1289.3750     3.4020     3.3170     3.7630   -25.5440  1720.4650     9.9330   120.8250     2.5070     0.0240     0.3140
 2510.5000  1289.8400     3.5000     3.4250     3.9900   -25.3760  1721.2321     9.9460   120.2010     2.5070     0.0210     0.3090
 2511.0000  1290.3051     3.5830     3.5320     4.2160   -25.2170  1721.9980     9.9580   119.5760     2.5170     0.0190     0.3050
 2511.5000  1290.7690     3.6920     3.6350     4.4420   -25.3830  1722.7640     9.9660   118.9410     2.5270     0.0170     0.3030
 2512.0000  1291.2340     3.8010     3.6770     4.6590   -25.7800  1723.5310     9.9440   119.0130     2.5280     0.0150     0.3000
 2512.5000  1291.6990     3.9490     3.7170     4.5790   -26.1750  1724.2970     9.9460   119.2370     2.5260     0.0170     0.2950
 2513.0000  1292.1639     3.9240     3.7710     4.5020   -26.5720  1725.0640     9.9460   119.4450     2.5230     0.0190     0.2870
 2513.5000  1292.6290     3.8870     3.7510     4.4250   -26.9660  1725.8300     9.9460   118.2980     2.5210     0.0170     0.2800
 2514.0000  1293.0930     3.8490     3.7070     4.3690   -27.0200  1726.5959     9.9460   116.4470     2.5210     0.0140     0.2820
 2514.5000  1293.5580     3.8120     3.6640     4.4270   -27.0210  1727.3630     9.9460   116.4770     2.5200     0.0130     0.2870
 2515.0000  1294.0229     3.7740     3.6200     4.4470   -27.0200  1728.1290     9.9380   117.3460     2.5200     0.0160     0.2880
 2515.5000  1294.4880     3.7370     3.5760     4.2380   -27.0200  1728.8960     9.9210   118.2190     2.5190     0.0200     0.2880
 2516.0000  1294.9530     3.7020     3.5360     3.8770   -27.0190  1729.6620     9.9030   119.0910     2.5120     0.0250     0.2880
 2516.5000  1295.4170     3.7440     3.5920     3.9860   -27.0180  1730.4280     9.8850   119.9690     2.5040     0.0230     0.2890
 2517.0000  1295.8820     3.8030     3.6560     4.2070   -26.7780  1731.1949     9.8680   121.0780     2.4910     0.0070     0.2910
 2517.5000  1296.3470     3.8630     3.7190     4.4910   -26.3010  1731.9611     9.8500   123.0610     2.4820     0.0000     0.2930
 2518.0000  1296.8120     3.9220     3.7820     4.4800   -25.8230  1732.7271     9.8330   125.0320     2.4790    -0.0010     0.2980
 2518.5000  1297.2770     3.9820     3.8450     4.4500   -25.3310  1733.4940     9.8150   126.9820     2.4790    -0.0010     0.3020
 2519.0000  1297.7419     4.0270     3.9120     4.5960   -25.2470  1734.2600     9.8050   128.4970     2.4840     0.0030     0.3070
 2519.5000  1298.2061     4.0410     3.9190     4.8760   -25.2870  1735.0270     9.8050   127.9980     2.4930     0.0080     0.3140
 2520.0000  1298.6710     4.0550     3.9250     5.0610   -25.3310  1735.7930     9.8050   126.1100     2.5030     0.0130     0.3050
 2520.5000  1299.1360     4.0700     3.9320     4.9420   -25.3750  1716.8970     9.8050   122.9460     2.5120     0.0180     0.2980
 2521.0000  1299.6010     4.0840     3.9390     4.8340   -25.4330  1718.5160     9.8050   119.9800     2.5140     0.0200     0.2950
 2521.5000  1300.0660     4.0960     3.9490     4.8560   -25.5610  1720.1360     9.8050   117.5840     2.5140     0.0210     0.2980
 2522.0000  1300.5300     3.9020     3.8700     4.8860   -25.6900  1721.7550     9.8050   115.7810     2.5060     0.0190     0.2990
 2522.5000  1300.9950     3.7350     3.7290     4.9230   -25.8180  1723.3740     9.8050   117.0970     2.4980     0.0110     0.2870
 2523.0000  1301.4600     3.5670     3.5570     4.4970   -25.9470  1724.9940     9.8050   119.7760     2.4900     0.0060     0.2820
 2523.5000  1301.9250     3.4000     3.3630     3.9450   -26.0750  1726.6130     9.8050   122.4790     2.4750     0.0110     0.2900
 2524.0000  1302.3900     3.2320     3.1690     3.3930   -26.2040  1728.2321     9.8050   122.5930     2.4690     0.0200     0.3020
 2524.5000  1302.8540     3.0640     2.9740     3.1380   -26.3330  1729.8521     9.8050   121.7400     2.4670     0.0210     0.3080
