~VERSION INFORMATION
 VERS.                2.0:   CWLS LOG ASCII STANDARD - VERSION 2.0
 WRAP.                 NO:   ONE LINE PER DEPTH STEP
~WELL INFORMATION
#MNEM.UNIT      DATA TYPE    INFORMATION
#----------   ------------   ------------------------------
 STRT.F          230.0000:   START DEPTH
 STOP.F         3480.0000:   STOP DEPTH
 STEP.F            0.5000:   STEP LENGTH
 NULL.          -999.2500:   NO VALUE
 COMP.    FENIX & SCISSON:   COMPANY
 WELL. FENIX NPR 3 "AX" #33-15:   WELL
 FLD .                NPR:   FIELD
 LOC .      S15 T38N R78W:   LOCATION
 CNTY.            NATRONA:   COUNTY
 STAT.            WYOMING:   STATE
 CTRY. UNITED STATES OF AMERICA:   COUNTRY
 SRVC.       SCHLUMBERGER:   SERVICE COMPANY
 DATE.        19-MAR-1981:   LOGDATE
 API .     49025108760000:   API NUMBER
~CURVE INFORMATION
#MNEM.UNIT       API CODE    CURVE DESCRIPTION
#----------   ------------   ------------------------------
 DEPT.F                  :   
 TENR.LBS    07 635 01 00:   TENSION
 SFL .OHMM   07 220 01 00:   SHALLOW FOCUSED LOG RESISTIVITY
 ILM .OHMM   07 120 44 00:   INDUCTION LOG MEDIUM RESISTIVITY
 ILD .OHMM   07 120 46 00:   INDUCTION LOG DEEP RESISTIVITY
 SPR .MV     07 010 01 00:   SPONTANEOUS POTENTIAL
 CALD.IN     45 280 60 00:   CALIPER FROM DENSITY LOG
 GRD .GAPI   45 310 01 00:   GAMMA RAY FROM DENSITY LOG
 CORR.G/C3   45 356 01 00:   DENSITY CORRECTION
 RHOB.G/C3   45 350 01 00:   BULK DENSITY
~PARAMETER INFORMATION
#MNEM.UNIT          VALUE    DESCRIPTION
#----------   ------------   ------------------------------
 EKB .F         5286.0000:   Kelly bushing
 EGL .F         5276.0000:   Ground level
 EDF .F            0.0000:   Drilling floor
 TD  .F         3500.0000:   Total depth
 DATE.        19-MAR-1981:   Date logged
 CLNT.            A2DTECH:   Client Code
 SL  . 1545' FNL & 1467' FWL:   Surface Location
 PD  .                 GL:   Permanent Datum
 EPD .F              5276:   Elevation Permanent Datum
 LMF .                 KB:   Log Measured From
 DMF .                 KB:   Drilling Measured From
 DAPD.F                10:   Feet Above Permanent Datum
 DD  .F              3500:   Depth driller
 DL  .F              3476:   Depth logger
 BLI .F              3470:   Bottom log interval
 TLI .F               234:   Top log interval
 CS1 .IN            8.625:   Casing size
 CBD1.      8.625" @ 250':   Casing driller 1
 CBL1.F               234:   Casing logger 1
 BS1 .IN            7.875:   Bit size
 BSD1.F              3500:   Depth drilled with bit1
 DFT .                FGM:   Type fluid in hole
 DFD .                8.9:   Density
 DFV .                 39:   Viscosity
 DFPH.                9.5:   pH
 DFL .                 10:   Fluid loss
 MSS .               TANK:   Source of sample
 RMS .OHMM           2.26:   Rm
 MST .F                54:   Rm Meas. temp.
 RMF .OHMM           1.60:   Rmf
 MFST.F                54:   Rmf Meas. temp.
 MFSS.               MEAS:   Source Rmf.
 RMB .OHMM            .87:   Rm. at BHT
 BHT .F               140:   BHT.
 TCS .HRS            1030:   Time Circ. stopped
 TLAB.HRS            1300:   Time logger at bottom
 MRT .F               140:   Maximum recorded temp.
 LUN .               8039:   Logging unit number
 LUL .               CSPR:   Logging unit location
 ENGI.           C. PFARR:   Recorded By
 WITN.           R. SCOTT:   Witnessed by
 ORIG.     2.5", 5" PRINT:   Origin of data
 UWI .     49025108760000:   Unique Well ID
 DICO. A2D TECHNOLOGIES, INC.:   Digitizing Company
~OTHER INFORMATION
~A   DEPT     TENR          SFL      ILM        ILD        SPR         CALD       GRD      CORR         RHOB 
# ...
  449.0000   696.3030     7.0490     5.6720     6.5690   -52.1310     9.7990    99.2250     0.0550     2.4840
  449.5000   696.9630     6.9110     5.6240     6.4950   -52.1820     9.7960   100.5250     0.0520     2.4800
  450.0000   697.6230     6.7730     5.5840     6.4210   -52.0740     9.7960   102.9090     0.0480     2.4760
  450.5000   698.2830     6.6350     5.5440     6.3470   -51.9720     9.7960   105.7610     0.0530     2.4770
  451.0000   698.9430     6.4580     5.5040     6.2730   -51.8640     9.7960   106.4700     0.0580     2.4830
  451.5000   699.6020     6.3930     5.4630     6.2000   -51.7590     9.7960   105.6700     0.0620     2.4800
  452.0000   700.2620     6.3090     5.4230     6.1260   -51.6530     9.7960   104.9770     0.0550     2.4820
  452.5000   700.9220     6.2230     5.3650     6.1090   -51.5470     9.7960   106.2520     0.0520     2.4860
  453.0000   701.5820     6.2230     5.4170     5.9960   -51.4410     9.7960   108.8770     0.0520     2.4910
  453.5000   702.2420     6.2230     5.5100     6.0550   -51.3350     9.7960   109.3230     0.0490     2.4830
  454.0000   702.8110     6.3640     5.6030     6.2230   -51.2290     9.7960   107.6970     0.0370     2.4710
  454.5000   702.8110     6.5140     5.6960     6.3910   -51.1250     9.7960   104.8380     0.0230     2.4640
  455.0000   702.8110     6.6640     5.7890     6.5590   -51.0130     9.7960   102.3240     0.0290     2.4740
  455.5000   702.8110     6.8270     5.8820     6.7270   -51.0630     9.7960   102.4130     0.0380     2.4850
  456.0000   702.8110     7.1180     5.9740     6.8950   -51.2810     9.7960   103.3150     0.0480     2.4950
  456.5000   702.8110     7.4370     6.0670     7.0630   -51.4900     9.7960   103.0250     0.0540     2.5030
  457.0000   702.8110     7.7560     6.1600     7.2320   -51.7040     9.7960   101.2370     0.0500     2.4980
  457.5000   702.8110     8.0750     6.2530     7.3520   -51.9130     9.7960   100.3740     0.0440     2.4930
  458.0000   702.8110     8.3710     6.3390     7.3520   -52.1250     9.7960   100.4850     0.0380     2.4780
  458.5000   702.8110     8.3710     6.3120     7.3520   -52.1890     9.7960   101.1540     0.0270     2.4510
  459.0000   702.8110     8.1180     6.2120     7.3520   -52.1550     9.7960   100.3540     0.0170     2.4300
  459.5000   702.8110     7.8260     6.1110     7.3150   -52.0950     9.7960    99.6120     0.0080     2.4290
  460.0000   702.8110     7.5330     6.0100     7.1680   -52.0400     9.7960   101.2050     0.0030     2.4370
  460.5000   702.8110     7.2400     5.9100     7.0210   -51.9830     9.7960   105.1680     0.0200     2.4550
  461.0000   702.8110     6.9550     5.8090     6.8730   -51.9270     9.7960   106.6440     0.0370     2.4710
  461.5000   702.8110     6.7020     5.7080     6.7260   -51.8700     9.7960   105.4610     0.0410     2.4830
  462.0000   702.8110     6.5780     5.6080     6.5780   -51.8140     9.7960   104.3140     0.0430     2.4800
  462.5000   702.8110     6.4580     5.5170     6.4310   -51.7570     9.7960   105.9760     0.0350     2.4810
  463.0000   702.8110     6.4580     5.4660     6.2830   -51.7010     9.7960   107.6920     0.0350     2.4900
  463.5000   702.8110     6.4580     5.4660     6.2230   -51.6440     9.7960   109.2530     0.0440     2.4990
  464.0000   702.8110     6.6460     5.5710     6.3770   -51.5880     9.7960   109.0430     0.0530     2.4970
  464.5000   702.8110     6.8040     5.6590     6.5070   -51.5320     9.7960   106.9090     0.0550     2.4920
  465.0000   702.8110     6.9630     5.7480     6.6360   -51.4740     9.7960   103.4450     0.0470     2.4890
  465.5000   702.8110     7.1210     5.8360     6.7660   -51.4220     9.7960    99.6310     0.0400     2.4890
  466.0000   702.8110     7.2790     5.9250     6.8960   -51.3240     9.7960    98.2800     0.0330     2.4920
  466.5000   702.8110     7.6300     6.0140     7.0260   -51.1800     9.7960    99.2610     0.0350     2.5020
  467.0000   702.8110     7.6070     6.1090     7.1560   -51.0410     9.7960   100.5210     0.0390     2.5050
  467.5000   702.8110     7.5370     6.1290     7.2170   -50.8960     9.7960   100.6650     0.0370     2.4960
  468.0000   702.8110     7.4900     6.1510     7.2170   -50.7610     9.7960   100.6760     0.0290     2.4870
  468.5000   702.8110     7.4900     6.1730     7.2170   -50.6070     9.7960   102.4420     0.0280     2.4840
  469.0000   702.8110     7.4900     6.1950     7.2170   -50.5960     9.7960   104.1100     0.0350     2.4980
  469.5000   702.8110     7.4900     6.2170     7.2170   -50.5940     9.7960   105.6360     0.0430     2.5080
  470.0000   702.8110     7.5320     6.2390     7.2170   -50.5950     9.7960   104.8710     0.0470     2.5060
  470.5000   702.8110     7.6830     6.2610     7.2170   -50.5940     9.7960   104.0770     0.0450     2.5070
  471.0000   702.8110     7.8330     6.2830     7.2170   -50.5980     9.7960   104.4880     0.0460     2.5110
  471.5000   702.8110     7.9830     6.3050     7.2170   -50.5850     9.7960   104.8990     0.0510     2.5090
  472.0000   702.8110     8.1330     6.3390     7.2170   -50.7120     9.7960   104.3510     0.0550     2.4980
  472.5000   702.8110     8.2170     6.3080     7.2170   -51.0270     9.7960   104.0810     0.0450     2.4890
  473.0000   702.8110     8.0140     6.2380     7.1530   -51.3020     9.7930   104.6070     0.0470     2.4950
  473.5000   702.8110     7.7930     6.1680     7.0930   -51.6290     9.7870   105.1660     0.0530     2.5010
  474.0000   702.8110     7.5720     6.0970     7.0330   -51.8740     9.7800   104.1820     0.0580     2.4900
  474.5000   702.8110     7.3520     6.0270     6.9730   -52.2160     9.7740   102.8940     0.0510     2.4670
  475.0000   702.8110     7.2170     5.9570     6.9130   -51.8960     9.7680   104.4260     0.0420     2.4510
  475.5000   702.8110     7.1300     5.8860     6.8520   -51.7870     9.7610   106.3480     0.0490     2.4670
  476.0000   702.8110     7.0850     5.7780     6.8110   -51.7280     9.7550   107.5110     0.0570     2.4830
  476.5000   702.8110     6.9550     5.7990     6.7820   -51.5630     9.7490   107.8280     0.0630     2.4900
  477.0000   702.8110     6.9670     5.8260     6.7540   -51.4080     9.7420   106.7880     0.0570     2.4850
  477.5000   702.8110     6.9800     5.8530     6.7260   -51.2500     9.7360   105.1240     0.0510     2.4800
  478.0000   702.8110     6.9930     5.8810     6.7020   -51.0900     9.7350   103.7780     0.0440     2.4770
  478.5000   702.8110     7.0060     5.9080     6.7290   -50.9340     9.7370   105.0500     0.0380     2.4780
  479.0000   702.8110     7.0190     5.9350     6.7540   -50.7740     9.7390   106.8440     0.0370     2.4790
  479.5000   702.8110     7.0320     5.9620     6.7780   -50.6170     9.7420   108.6700     0.0370     2.4800
  480.0000   702.8110     7.0450     5.9960     6.8020   -50.4600     9.7440   110.4920     0.0390     2.4850
  480.5000   702.8110     7.0580     5.9900     6.8260   -50.2900     9.7460   111.6320     0.0470     2.5010
  481.0000   702.8110     7.0710     5.9690     6.8500   -50.1890     9.7490   109.6820     0.0550     2.5150
  481.5000   702.8110     7.0850     5.9480     6.8740   -50.2010     9.7510   106.1460     0.0610     2.5150
  482.0000   702.8110     7.0860     5.9270     6.8990   -50.1980     9.7530   103.3590     0.0560     2.5050
  482.5000   702.8110     7.1360     5.9060     6.9220   -50.1980     9.7550   104.4730     0.0500     2.5040
  483.0000   702.8110     7.1800     5.8870     6.9460   -50.1990     9.7580   106.4690     0.0520     2.5080
  483.5000   702.8110     7.2250     5.8990     6.9630   -50.1970     9.7600   106.6460     0.0490     2.5060
  484.0000   702.8110     7.2710     5.9200     6.9760   -50.2000     9.7620   104.4780     0.0410     2.5030
  484.5000   702.8110     7.3170     5.9410     6.9890   -50.1990     9.7640   102.8570     0.0370     2.5080
  485.0000   702.8110     7.3630     5.9610     7.0020   -50.2960     9.7670   104.9920     0.0410     2.5040
