~VERSION INFORMATION
 VERS.                2.0:   CWLS LOG ASCII STANDARD - VERSION 2.0
 WRAP.                 NO:   ONE LINE PER DEPTH STEP
~WELL INFORMATION
#MNEM.UNIT      DATA TYPE    INFORMATION
#----------   ------------   ------------------------------
 STRT.F            0.5000:   START DEPTH
 STOP.F         5758.0000:   STOP DEPTH
 STEP.F            0.5000:   STEP LENGTH
 NULL.          -999.2500:   NO VALUE
 COMP.   LAWRENCE ALLISON:   COMPANY
 WELL. LAWRENCE "X" #51-10:   WELL
 FLD .          NPR NO. 3:   FIELD
 LOC .      S10 T38N R78W:   LOCATION
 CNTY.            NATRONA:   COUNTY
 STAT.            WYOMING:   STATE
 CTRY. UNITED STATES OF AMERICA:   COUNTRY
 SRVC.      DRESSER ATLAS:   SERVICE COMPANY
 DATE.        31-JAN-1987:   LOGDATE
 API .     49025111230000:   API NUMBER
~CURVE INFORMATION
#MNEM.UNIT       API CODE    CURVE DESCRIPTION
#----------   ------------   ------------------------------
 DEPT.F                  :   
 GRR .GAPI   07 310 01 00:   GAMMA RAY FROM RESISTIVITY
 TENR.LBS    07 635 01 00:   TENSION FROM RESISTIVITY
 SPR .MV     07 010 01 00:   SPONTANEOUS POTENTIAL
 RD  .OHMM   11 220 10 00:   RESISTIVITY DEEP
 RS  .OHMM   11 220 09 00:   RESISTIVITY SHALLOW
 CNC .DEC    42 890 03 00:   NEUTRON POROSITY
 CALD.IN     45 280 60 00:   CALIPER FROM DENSITY LOG
 DEN .G/C3   45 350 01 00:   BULK DENSITY
 CORR.G/C3   45 356 01 00:   DENSITY CORRECTION
 TEND.LBS    45 635 01 00:   TENSION FORM DENSITY LOG
~PARAMETER INFORMATION
#MNEM.UNIT          VALUE    DESCRIPTION
#----------   ------------   ------------------------------
 EKB .F         5227.0000:   Kelly bushing
 EGL .F         5215.0000:   Ground level
 EDF .F            0.0000:   Drilling floor
 TD  .F         5750.0000:   Total depth
 CLNT.            A2DTECH:   Client Code
 SL  . 2356' FEL & 170' FNL:   Surface Location
 PD  .                 GL:   Permanent Datum
 EPD .F              5215:   Elevation Permanent Datum
 LMF .                 KB:   Log Measured From
 DMF .                 KB:   Drilling Measured From
 DAPD.F                12:   Feet Above Permanent Datum
 DATE.        31-JAN-1987:   Date Logged [DD-MMM-YYYY]
 DD  .F              5747:   Depth driller
 DL  .F              5750:   Depth logger
 BLI .F              5748:   Bottom log interval
 CS1 .IN            9.625:   Casing size
 CBD1.      9.625" @ 511':   Casing driller 1
 CBL1.F               512:   Casing logger 1
 BS1 .IN             8.75:   Bit size
 BSD1.F              5747:   Depth drilled with bit1
 DFT .        KCL POLYMER:   Type fluid in hole
 DFD .                9.3:   Density
 DFV .                 43:   Viscosity
 DFPH.                9.5:   pH
 MSS .           FLOWLINE:   Source of sample
 RMS .OHMM          0.247:   Rm
 MST .F                74:   Rm Meas. temp.
 RMF .OHMM          0.162:   Rmf
 MFST.F                74:   Rmf Meas. temp.
 MFSS.               MEAS:   Source Rmf.
 RMC .OHMM          0.310:   Rmc
 MCST.F                74:   Rmc Meas. temp.
 MCSS.               CALC:   Source Rmc.
 RMB .OHMM          0.109:   Rm. at BHT
 BHT .F               167:   BHT.
 TCS .HRS               5:   Time Circ. stopped
 MRT .F               167:   Maximum recorded temp.
 LUN .            HL-6274:   Logging unit number
 LUL .           GILLETTE:   Logging unit location
 ORIG.        2" 5" PRINT:   Origin of data
 UWI .     49025111230000:   Unique Well ID
 DICO. A2D TECHNOLOGIES, INC.:   Digitizing Company
 ENGI.             RAUTIO:   Recorded By
 WITN.             STRONG:   Witnessed by
 DFL .                7.8:   Fluid loss
~OTHER INFORMATION
~A  DEPTH      GRR       TENR        SPR         RD         RS        CNC       CALD        DEN       CORR       TEND
# ...
  905.0000    94.0825  -108.3630   -45.2341     9.5435     6.7896  -999.2500  -999.2500  -999.2500  -999.2500  -999.2500
  905.5000    95.9730  -112.5590   -45.3746     9.6097     6.7910  -999.2500  -999.2500  -999.2500  -999.2500  -999.2500
  906.0000    98.1672  -115.0000   -45.3622     9.6097     6.7924  -999.2500  -999.2500  -999.2500  -999.2500  -999.2500
  906.5000    94.4843  -115.0000   -45.3480     9.6097     6.8915  -999.2500  -999.2500  -999.2500  -999.2500  -999.2500
  907.0000    90.7955  -115.0000   -45.3363     9.6097     6.9925  -999.2500  -999.2500  -999.2500  -999.2500  -999.2500
  907.5000    89.5769  -115.0000   -45.3246     9.6097     6.8456  -999.2500  -999.2500  -999.2500  -999.2500  -999.2500
  908.0000    92.0908  -115.0000   -45.3127     9.6764     6.7498  -999.2500  -999.2500  -999.2500  -999.2500  -999.2500
  908.5000    94.9059   -95.0000   -45.4560     9.4778     6.6080  -999.2500  -999.2500  -999.2500  -999.2500  -999.2500
  909.0000    96.1707   -95.0000   -45.9058     9.2192     6.5623  -999.2500  -999.2500  -999.2500  -999.2500  -999.2500
  909.5000    95.8808  -104.0782   -45.8941     9.2192     6.6110  -999.2500  -999.2500  -999.2500  -999.2500  -999.2500
  910.0000    94.6749  -105.1175   -45.8824     9.2832     6.6598  -999.2500  -999.2500  -999.2500  -999.2500  -999.2500
  910.5000    94.0825  -105.1516   -45.8677     9.3476     6.7570  -999.2500  -999.2500  -999.2500  -999.2500  -999.2500
  911.0000    95.0442  -105.0000   -45.8560     9.2832     6.8069  -999.2500  -999.2500  -999.2500  -999.2500  -999.2500
  911.5000    95.9994  -105.0000   -45.6895     9.1557     6.7601  -999.2500  -999.2500  -999.2500  -999.2500  -999.2500
  912.0000    98.5025  -105.0000   -45.2134     9.0926     6.6655  -999.2500  -999.2500  -999.2500  -999.2500  -999.2500
  912.5000   100.6960  -105.0000   -45.0440     9.1557     6.6191  -999.2500  -999.2500  -999.2500  -999.2500  -999.2500
  913.0000    98.5618  -105.0000   -45.0323     9.1557     6.5268  -999.2500  -999.2500  -999.2500  -999.2500  -999.2500
  913.5000    93.0154  -105.0000   -45.0206     9.2832     6.6224  -999.2500  -999.2500  -999.2500  -999.2500  -999.2500
  914.0000    89.9458  -103.6239   -45.1641     9.2832     6.7191  -999.2500  -999.2500  -999.2500  -999.2500  -999.2500
  914.5000    89.3529   -99.2729   -45.3219     9.2832     6.8172  -999.2500  -999.2500  -999.2500  -999.2500  -999.2500
  915.0000    89.9985   -94.9129   -45.7595     9.2832     6.8186  -999.2500  -999.2500  -999.2500  -999.2500  -999.2500
  915.5000    88.7930   -90.5667   -46.2093     9.2832     6.8137  -999.2500  -999.2500  -999.2500  -999.2500  -999.2500
  916.0000    87.8906   -86.2167   -46.3553     9.2832     6.6767  -999.2500  -999.2500  -999.2500  -999.2500  -999.2500
  916.5000    88.5361   -89.4235   -46.4955     9.2896     6.6305  -999.2500  -999.2500  -999.2500  -999.2500  -999.2500
  917.0000    92.4211   -95.5592   -46.6385     9.4124     6.6322  -999.2500  -999.2500  -999.2500  -999.2500  -999.2500
  917.5000    95.7161  -101.7225   -46.6239     9.5435     6.6359  -999.2500  -999.2500  -999.2500  -999.2500  -999.2500
  918.0000    96.0455  -105.0026   -46.4574     9.6764     6.7789  -999.2500  -999.2500  -999.2500  -999.2500  -999.2500
  918.5000    92.9825  -105.0118   -45.8265     9.8198     6.9272  -999.2500  -999.2500  -999.2500  -999.2500  -999.2500
  919.0000    93.0320  -105.0035   -45.3475     9.8924     6.9286  -999.2500  -999.2500  -999.2500  -999.2500  -999.2500
  919.5000    94.8993  -105.0000   -45.0262    10.1087     6.9797  -999.2500  -999.2500  -999.2500  -999.2500  -999.2500
  920.0000    94.6161  -105.0000   -45.0145    10.2268     7.2354  -999.2500  -999.2500  -999.2500  -999.2500  -999.2500
  920.5000    93.0944  -105.0000   -45.0028    10.3692     7.4277  -999.2500  -999.2500  -999.2500  -999.2500  -999.2500
  921.0000    92.8111  -105.0000   -44.9907    10.4411     7.6641  -999.2500  -999.2500  -999.2500  -999.2500  -999.2500
  921.5000    92.8441  -105.0000   -44.9765    10.4653     7.8883  -999.2500  -999.2500  -999.2500  -999.2500  -999.2500
  922.0000    94.4185  -105.0000   -44.9648    10.6600     7.8899  -999.2500  -999.2500  -999.2500  -999.2500  -999.2500
  922.5000    96.6120  -105.0000   -46.0367    10.6600     7.6691  -999.2500  -999.2500  -999.2500  -999.2500  -999.2500
  923.0000    95.3994  -105.0000   -46.3346    10.6600     7.5080  -999.2500  -999.2500  -999.2500  -999.2500  -999.2500
  923.5000    94.1444  -105.0000   -46.1651    10.4411     7.4030  -999.2500  -999.2500  -999.2500  -999.2500  -999.2500
  924.0000    93.2921  -105.0000   -46.0000    10.2268     7.4665  -999.2500  -999.2500  -999.2500  -999.2500  -999.2500
  924.5000    93.0022  -105.0000   -45.8321    10.0863     7.5280  -999.2500  -999.2500  -999.2500  -999.2500  -999.2500
  925.0000    93.3447  -105.0000   -45.6656    10.0863     7.6774  -999.2500  -999.2500  -999.2500  -999.2500  -999.2500
  925.5000    93.3715  -105.0000   -45.4962    10.1563     7.7895  -999.2500  -999.2500  -999.2500  -999.2500  -999.2500
  926.0000    91.8560  -105.0000   -45.4845    10.1563     7.8469  -999.2500  -999.2500  -999.2500  -999.2500  -999.2500
  926.5000    91.2566  -105.0000   -45.6305    10.2268     7.9619  -999.2500  -999.2500  -999.2500  -999.2500  -999.2500
  927.0000    91.9087  -105.0000   -45.6159    10.2977     7.9064  -999.2500  -999.2500  -999.2500  -999.2500  -999.2500
  927.5000    94.4119  -105.0000   -45.6013    10.3692     7.8521  -999.2500  -999.2500  -999.2500  -999.2500  -999.2500
  928.0000    98.7792  -105.0000   -45.5896    10.3689     7.6871  -999.2500  -999.2500  -999.2500  -999.2500  -999.2500
  928.5000    96.0191  -105.0000   -45.5779    10.1563     7.6280  -999.2500  -999.2500  -999.2500  -999.2500  -999.2500
  929.0000    93.8783  -105.0000   -45.4114    10.0863     7.4736  -999.2500  -999.2500  -999.2500  -999.2500  -999.2500
  929.5000    95.1431  -105.0000   -45.3994    10.0863     7.4219  -999.2500  -999.2500  -999.2500  -999.2500  -999.2500
  930.0000    97.1103  -105.0000   -45.3850     9.9478     7.4770  -999.2500  -999.2500  -999.2500  -999.2500  -999.2500
  930.5000    97.6725  -105.0000   -45.5311     9.8792     7.6406  -999.2500  -999.2500  -999.2500  -999.2500  -999.2500
  931.0000    93.6807  -105.0000   -45.5164     9.8792     7.6973  -999.2500  -999.2500  -999.2500  -999.2500  -999.2500
  931.5000    93.3909  -105.0000   -45.6595     9.8792     7.5356  -999.2500  -999.2500  -999.2500  -999.2500  -999.2500
  932.0000    97.1726  -105.0000   -45.6449     9.8792     7.3247  -999.2500  -999.2500  -999.2500  -999.2500  -999.2500
  932.5000    99.6487  -105.0000   -45.7909     9.8792     7.1198  -999.2500  -999.2500  -999.2500  -999.2500  -999.2500
  933.0000    98.1270  -105.0000   -45.7763     9.8792     6.9702  -999.2500  -999.2500  -999.2500  -999.2500  -999.2500
  933.5000    95.3670  -105.0000   -45.7646     9.8792     6.8730  -999.2500  -999.2500  -999.2500  -999.2500  -999.2500
  934.0000    94.7740  -105.0000   -45.7500     9.8112     6.8744  -999.2500  -999.2500  -999.2500  -999.2500  -999.2500
  934.5000    96.3551  -105.0000   -45.7383     9.6764     6.8758  -999.2500  -999.2500  -999.2500  -999.2500  -999.2500
  935.0000    98.8582  -105.0000   -45.7266     9.6764     6.9268  -999.2500  -999.2500  -999.2500  -999.2500  -999.2500
  935.5000    97.6462  -105.0000   -45.7149     9.8112     7.0783  -999.2500  -999.2500  -999.2500  -999.2500  -999.2500
  936.0000    96.1245  -105.0000   -45.5067     9.9173     7.2850  -999.2500  -999.2500  -999.2500  -999.2500  -999.2500
  936.5000    94.9125  -105.0000   -45.0694    10.0863     7.5044  -999.2500  -999.2500  -999.2500  -999.2500  -999.2500
  937.0000    94.3197  -105.0000   -45.0577    10.0863     7.6621  -999.2500  -999.2500  -999.2500  -999.2500  -999.2500
  937.5000    94.0364  -105.0000   -45.0460    10.1563     7.5549  -999.2500  -999.2500  -999.2500  -999.2500  -999.2500
  938.0000    94.9981  -104.7578   -45.3540     9.9384     7.3436  -999.2500  -999.2500  -999.2500  -999.2500  -999.2500
