~VERSION INFORMATION
 VERS.                2.0:   CWLS LOG ASCII STANDARD - VERSION 2.0
 WRAP.                 NO:   ONE LINE PER DEPTH STEP
~WELL INFORMATION
#MNEM.UNIT      DATA TYPE    INFORMATION
#----------   ------------   ------------------------------
 STRT.F           96.5000:   START DEPTH
 STOP.F         2720.0000:   STOP DEPTH
 STEP.F            0.5000:   STEP LENGTH
 NULL.          -999.2500:   NO VALUE
 COMP.          INTEX OIL:   COMPANY
 WELL. INTEX NPR 65 "AX" #3-20:   WELL
 FLD .             TEAPOT:   FIELD
 LOC .      S20 T39N R78W:   LOCATION
 CNTY.            NATRONA:   COUNTY
 STAT.            WYOMING:   STATE
 CTRY. UNITED STATES OF AMERICA:   COUNTRY
 SRVC.       SCHLUMBERGER:   SERVICE COMPANY
 DATE.        04-MAY-1966:   LOGDATE
 API .     49025094910000:   API NUMBER
~CURVE INFORMATION
#MNEM.UNIT       API CODE    CURVE DESCRIPTION
#----------   ------------   ------------------------------
 DEPT.F                  :   
 SPR .MV     05 010 01 00:   SPONTANEOUS POTENTIAL FROM RES.
 SN  .OHMM   05 040 16 00:   SHORT NORMAL 16"
 ILD .OHMM   05 120 46 00:   INDUCTION LOG DEEP
 CALD.IN     45 280 60 00:   CALIPER FROM DENSITY LOG
 CORR.G/C3   45 356 01 00:   DENSITY CORRECTION
 GRD .GAPI   45 310 01 00:   GAMMA RAY FROM DENSITY LOG
 RHOB.G/C3   45 350 01 00:   BULK DENSITY
~PARAMETER INFORMATION
#MNEM.UNIT          VALUE    DESCRIPTION
#----------   ------------   ------------------------------
 EKB .F         5053.3000:   Kelly bushing
 EGL .F         5043.0000:   Ground level
 EDF .F            0.0000:   Drilling floor
 TD  .F         2720.0000:   Total depth
 DATE.        04-MAY-1966:   Date logged
 CLNT.            A2DTECH:   Client Code
 PD  .                 GL:   Permanent Datum
 EPD .F              5043:   Elevation Permanent Datum
 LMF .                 KB:   Log Measured From
 DMF .                 KB:   Drilling Measured From
 DAPD.F              10.3:   Feet Above Permanent Datum
 DD  .F              2720:   Depth driller
 DL  .F              2720:   Depth logger
 BLI .F              2719:   Bottom log interval
 TLI .F                97:   Top log interval
 CS1 .IN            10.75:   Casing size
 CBD1.       10.75" @ 30':   Casing driller 1
 BS1 .IN            7.875:   Bit size
 BSD1.F              2720:   Depth drilled with bit1
 DFT . GEL/Q-BROX/OIL/DAKOLITE:   Type fluid in hole
 DFD .               10.3:   Density
 DFV .                 41:   Viscosity
 DFPH.                7.2:   pH
 DFL .                8.8:   Fluid loss
 MSS .           FLOWLINE:   Source of sample
 RMS .OHMM              2:   Rm
 MST .F                61:   Rm Meas. temp.
 RMF .OHMM           1.31:   Rmf
 MFST.F                65:   Rmf Meas. temp.
 MFSS.                 FP:   Source Rmf.
 RMB .OHMM           1.15:   Rm. at BHT
 BHT .F               110:   BHT.
 TCS .HRS               2:   Time Circ. stopped
 MRT .F               110:   Maximum recorded temp.
 LUN .               4507:   Logging unit number
 LUL .               CSPR:   Logging unit location
 ENGI.            MANGOLD:   Recorded By
 WITN.             TUTTLE:   Witnessed by
 ORIG.       2", 5" PRINT:   Origin of data
 UWI .     49025094910000:   Unique Well ID
 DICO. A2D TECHNOLOGIES, INC.:   Digitizing Company
~OTHER INFORMATION
~A   DEPT      SPR         SN         ILD      CALD       CORR        GRD       RHOB   
# ...
 2371.5000   -30.9640    18.2580    13.6190     7.7710     0.0400   103.9550     2.4530
 2372.0000   -30.6750    17.5580    12.8790     7.8270     0.0220   103.8690     2.4440
 2372.5000   -30.3650    16.8640    12.1350     7.8820     0.0180   103.7690     2.4240
 2373.0000   -30.0180    16.1070    11.3380     7.9390     0.0230   103.6090     2.4250
 2373.5000   -29.6660    15.3520    10.5190     7.9940     0.0270   103.5670     2.4330
 2374.0000   -29.4040    14.6480     9.8070     8.0470     0.0220   105.8070     2.4400
 2374.5000   -29.3020    13.9290     9.3290     8.0490     0.0130   109.4110     2.4350
 2375.0000   -29.3160    13.1430     9.0780     8.0490     0.0080   111.3790     2.4440
 2375.5000   -29.3340    12.4120     8.9150     8.0470     0.0090   113.6890     2.4540
 2376.0000   -29.2880    11.9450     8.7350     8.0460     0.0100   115.7520     2.4640
 2376.5000   -29.2010    11.8070     8.5770     8.0450     0.0100   118.1880     2.4610
 2377.0000   -29.1250    11.8500     8.5280     8.0440     0.0110   118.1810     2.4590
 2377.5000   -29.0840    11.8880     8.5750     8.0430     0.0120   117.8290     2.4570
 2378.0000   -29.0450    11.8700     8.6370     8.0410     0.0120   117.0110     2.4650
 2378.5000   -28.9580    11.8490     8.6670     8.0400     0.0080   114.8580     2.4740
 2379.0000   -28.8190    11.8550     8.6900     8.0390     0.0050   112.2550     2.4650
 2379.5000   -28.6740    11.8700     8.7280     8.0380     0.0010   112.6730     2.4470
 2380.0000   -28.5430    11.8710     8.7720     8.0370     0.0030   114.8650     2.4490
 2380.5000   -28.4070    11.8590     8.8080     8.0360     0.0070   116.8870     2.4540
 2381.0000   -28.2770    11.8500     8.8390     8.0340     0.0100   115.0500     2.4590
 2381.5000   -28.2240    11.8700     8.8750     8.0330     0.0140   112.2780     2.4640
 2382.0000   -28.2850    11.9340     8.9160     8.0320     0.0090   110.5460     2.4610
 2382.5000   -28.3970    12.0210     8.9530     8.0310     0.0050   110.9180     2.4550
 2383.0000   -28.4830    12.1050     8.9820     8.0300     0.0060   112.7310     2.4550
 2383.5000   -28.5370    12.1980     9.0160     8.0290     0.0070   112.8820     2.4630
 2384.0000   -28.6010    12.3170     9.0670     8.0270     0.0080   114.6400     2.4690
 2384.5000   -28.6850    12.4090     9.1050     8.0260     0.0080   115.5010     2.4760
 2385.0000   -28.7670    12.3860     9.0860     8.0250     0.0080   115.8420     2.4740
 2385.5000   -28.8410    12.2360     8.9950     8.0240     0.0070   113.5730     2.4750
 2386.0000   -28.9090    12.0710     8.8680     8.0230     0.0060   111.9140     2.4820
 2386.5000   -28.9590    12.0130     8.7460     8.0220     0.0090   111.7380     2.4910
 2387.0000   -28.9560    12.0660     8.6450     8.0200     0.0130   111.7030     2.4910
 2387.5000   -28.8600    12.1080     8.5500     8.0190     0.0170   112.0800     2.4810
 2388.0000   -28.6640    12.0020     8.4430     8.0180     0.0150   112.4580     2.4740
 2388.5000   -28.4210    11.7370     8.3170     8.0170     0.0110   112.8270     2.4660
 2389.0000   -28.2240    11.4510     8.2070     8.0160     0.0160   115.1510     2.4760
 2389.5000   -28.1360    11.3060     8.1680     8.0150     0.0170   116.3840     2.4870
 2390.0000   -28.1350    11.3360     8.2300     8.0130     0.0130   115.1480     2.4960
 2390.5000   -28.1550    11.4430     8.3640     8.0130     0.0090   114.5860     2.4830
 2391.0000   -28.1560    11.5320     8.5110     8.0050     0.0050   112.4590     2.4700
 2391.5000   -28.1470    11.5920     8.6390     7.9900     0.0010   110.7690     2.4590
 2392.0000   -28.1460    11.6560     8.7550     7.9770    -0.0030   110.2610     2.4500
 2392.5000   -28.1510    11.7370     8.8800     7.9620    -0.0050   110.3680     2.4400
 2393.0000   -28.1520    11.8240     9.0240     7.9490    -0.0010   110.2870     2.4490
 2393.5000   -28.1490    11.8980     9.1680     7.9370     0.0040   111.5460     2.4590
 2394.0000   -28.1480    11.9570     9.2780     7.9700     0.0060   111.8650     2.4530
 2394.5000   -28.1490    12.0260     9.3290     8.0070     0.0060   110.9880     2.4410
 2395.0000   -28.1510    12.1290     9.3290     8.0450     0.0200   110.0690     2.4490
 2395.5000   -28.1510    12.2200     9.3040     8.0820     0.0340   110.2990     2.4710
 2396.0000   -28.1480    12.1940     9.2720     8.1190     0.0490   110.7000     2.4920
 2396.5000   -28.1470    11.9970     9.2040     8.1170     0.0450   110.8050     2.5060
 2397.0000   -28.1510    11.7020     9.0460     8.1010     0.0340   112.5210     2.4990
 2397.5000   -28.1550    11.4240     8.7730     8.0850     0.0300   114.1040     2.4930
 2398.0000   -28.1480    11.1870     8.4350     8.0690     0.0300   116.7650     2.4850
 2398.5000   -28.1410    10.9290     8.1060     8.0530     0.0210   119.4680     2.5040
 2399.0000   -28.1530    10.6270     7.8000     8.0380     0.0170   122.2430     2.5000
 2399.5000   -28.1690    10.3400     7.4700     8.0220     0.0150   125.0120     2.4860
 2400.0000   -28.1150    10.1160     7.1180     8.0060     0.0160   126.9530     2.4770
 2400.5000   -27.9230     9.9130     6.8260     7.9910     0.0190   125.2240     2.4790
 2401.0000   -27.6340     9.6630     6.6510     7.9750     0.0200   123.6150     2.4820
 2401.5000   -27.3950     9.3860     6.5480     7.9600     0.0270   120.4670     2.4850
 2402.0000   -27.3270     9.1690     6.4380     7.9420     0.0370   119.1870     2.4990
 2402.5000   -27.3820     9.0570     6.2990     7.9400     0.0460   119.9690     2.5160
 2403.0000   -27.3950     8.9850     6.1590     7.9610     0.0460   120.5680     2.5180
 2403.5000   -27.2660     8.8460     6.0290     7.9800     0.0370   123.6300     2.5100
 2404.0000   -27.0690     8.5860     5.9010     8.0000     0.0250   125.6010     2.5020
 2404.5000   -26.9420     8.2330     5.7740     8.0190     0.0320   127.1360     2.5020
 2405.0000   -26.9340     7.8780     5.6480     8.0410     0.0510   128.9300     2.5170
 2405.5000   -26.9800     7.6260     5.5070     8.0380     0.0460   128.9490     2.5130
 2406.0000   -26.9990     7.5260     5.3540     7.9980     0.0540   126.8160     2.5100
 2406.5000   -26.9620     7.5320     5.2320     7.9630     0.0620   122.8670     2.5100
 2407.0000   -26.9260     7.5560     5.1900     7.9260     0.0510   121.7660     2.5100
 2407.5000   -27.0060     7.5580     5.2200     7.8890     0.0420   124.9420     2.5020
 2408.0000   -27.2610     7.5480     5.2600     7.8530     0.0310   126.4000     2.4890
 2408.5000   -27.5690     7.5440     5.2690     7.8190     0.0250   127.2260     2.4860
 2409.0000   -27.6990     7.5440     5.2710     7.8240     0.0260   127.8290     2.5000
 2409.5000   -27.5380     7.5520     5.3060     7.8300     0.0430   129.5220     2.5180
 2410.0000   -27.2230     7.5610     5.3500     7.8380     0.0590   131.5750     2.5120
 2410.5000   -26.9900     7.5480     5.3420     7.8440     0.0450   132.5130     2.4940
 2411.0000   -26.9400     7.5220     5.3160     7.8520     0.0190   132.6200     2.4770
 2411.5000   -26.9850     7.5790     5.4290     7.8550     0.0210   132.1530     2.4650
 2412.0000   -26.9890     7.8400     5.7800     7.8480     0.0150   131.7860     2.4670
 2412.5000   -26.9380     8.3110     6.3000     7.8420     0.0030   131.4110     2.4670
 2413.0000   -26.9410     8.8490     6.8810     7.8340     0.0010   130.9610     2.4760
 2413.5000   -27.0720     9.3210     7.5260     7.8280     0.0130   130.7180     2.4860
 2414.0000   -27.2590     9.7610     8.2190     7.8200     0.0240   129.3890     2.4960
 2414.5000   -27.3590    10.2930     8.7630     7.8250     0.0360   127.5650     2.5100
 2415.0000   -27.3380    10.8910     8.9540     7.8490     0.0440   125.9080     2.5060
 2415.5000   -27.2770    11.3400     8.8490     7.8710     0.0320   123.4560     2.4870
 2416.0000   -27.2510    11.5040     8.6720     7.8950     0.0170   124.3880     2.4830
 2416.5000   -27.2480    11.4980     8.4960     7.9180     0.0220   124.4900     2.4920
