~VERSION INFORMATION
 VERS.                2.0:   CWLS LOG ASCII STANDARD - VERSION 2.0
 WRAP.                 NO:   ONE LINE PER DEPTH STEP
~WELL INFORMATION
#MNEM.UNIT      DATA TYPE    INFORMATION
#----------   ------------   ------------------------------
 STRT.F         3500.0000:   START DEPTH
 STOP.F         6855.0000:   STOP DEPTH
 STEP.F            0.5000:   STEP LENGTH
 NULL.          -999.2500:   NO VALUE
 COMP.          U.S. NAVY:   COMPANY
 WELL.  US NAVY "G" #1-10:   WELL
 FLD . TEAPOT NAVAL RESERVE:   FIELD
 LOC .      S10 T38N R78W:   LOCATION
 CNTY.            NATRONA:   COUNTY
 STAT.            WYOMING:   STATE
 CTRY. UNITED STATES OF AMERICA:   COUNTRY
 SRVC.         LANE WELLS:   SERVICE COMPANY
 DATE.        23-MAR-1952:   LOGDATE
 API .     49025063380000:   API NUMBER
~CURVE INFORMATION
#MNEM.UNIT       API CODE    CURVE DESCRIPTION
#----------   ------------   ------------------------------
 DEPT.F                  :   
 GRN .GAPI   35 310 01 00:   GAMMA RAY
 NEUT.NAPI   35 330 01 00:   NEUTRON
~PARAMETER INFORMATION
#MNEM.UNIT          VALUE    DESCRIPTION
#----------   ------------   ------------------------------
 EKB .F         5195.0000:   Kelly bushing
 EGL .F         5184.0000:   Ground level
 EDF .F         5195.0000:   Drilling floor
 EPD .F            0.0000:   Permanent datum
 TD  .F         6861.0000:   Total depth
 CLNT.            A2DTECH:   Client Code
 PD  .                 GL:   Permanent Datum
 DATE.        23-MAR-1952:   Date Logged [DD-MMM-YYYY]
 DD  .F              6861:   Depth driller
 DL  .F              6861:   Depth logger
 BLI .F              6855:   Bottom log interval
 TLI .F              3500:   Top log interval
 BSD1.F              6861:   Depth drilled with bit1
 DFT .                MUD:   Type fluid in hole
 ENGI.            GAMBERG:   Recorded By
 WITN.           GRIBBENS:   Witnessed by
 ORIG.         2.5" PRINT:   Origin of data
 UWI .     49025063380000:   Unique Well ID
 DICO. A2D TECHNOLOGIES, INC.:   Digitizing Company
~OTHER INFORMATION
~A  DEPT       GRN        NEUT  
# ...
 5444.0000    22.6541   630.7293
 5444.5000    19.7297   599.3538
 5445.0000    22.6588   582.5183
 5445.5000    24.6124   633.9076
 5446.0000    25.1026   663.4998
 5446.5000    24.6171   678.3137
 5447.0000    24.1316   685.7383
 5447.5000    24.7446   666.9589
 5448.0000    26.8684   603.5461
 5448.5000    25.6874   567.6244
 5449.0000    24.1411   518.1987
 5449.5000    24.7354   488.6640
 5450.0000    24.7561   481.5241
 5450.5000    22.8192   501.2084
 5451.0000    21.7122   520.1423
 5451.5000    22.2028   533.8666
 5452.0000    22.9368   550.3556
 5452.5000    23.6709   596.4641
 5453.0000    24.8927   604.6812
 5453.5000    26.1403   577.8499
 5454.0000    28.7015   577.8854
 5454.5000    31.2523   580.3840
 5455.0000    33.5002   592.7349
 5455.5000    31.9909   615.2881
 5456.0000    28.7633   637.1429
 5456.5000    24.9572   627.9721
 5457.0000    26.5824   609.4737
 5457.5000    29.0614   610.1600
 5458.0000    29.7955   603.5973
 5458.5000    29.5537   574.5322
 5459.0000    29.5195   559.5910
 5459.5000    30.0464   583.2205
 5460.0000    31.0244   647.2953
 5460.5000    32.6184   713.8334
 5461.0000    35.5660   755.7408
 5461.5000    38.3241   773.0178
 5462.0000    39.5704   762.8565
 5462.5000    37.1643   745.3868
 5463.0000    35.5636   731.7208
 5463.5000    35.6880   709.1906
 5464.0000    36.6541   679.2071
 5464.5000    36.9004   683.6679
 5465.0000    34.4637   705.6620
 5465.5000    33.2465   715.1957
 5466.0000    33.4928   684.6856
 5466.5000    36.1781   650.2384
 5467.0000    40.8146   628.1065
 5467.5000    38.2573   605.9745
 5468.0000    36.9168   578.9164
 5468.5000    37.2306   586.5022
 5469.0000    37.4093   596.9409
 5469.5000    35.6054   608.5837
 5470.0000    32.7805   607.1419
 5470.5000    31.6671   589.2235
 5471.0000    30.5907   570.6246
 5471.5000    29.3735   574.5985
 5472.0000    28.7896   598.9232
 5472.5000    31.0855   602.1757
 5473.0000    30.6001   589.1420
 5473.5000    28.8833   576.8623
 5474.0000    27.5793   547.3412
 5474.5000    27.1925   537.5245
 5475.0000    27.6829   556.0320
 5475.5000    26.6357   582.2682
 5476.0000    24.8100   621.7932
 5476.5000    24.2756   656.4636
 5477.0000    26.0101   690.3737
 5477.5000    26.5671   716.1375
 5478.0000    25.2589   733.9866
 5478.5000    23.3100   747.1864
 5479.0000    22.0929   744.7589
 5479.5000    23.3147   741.8041
 5480.0000    23.8049   747.2930
 5480.5000    22.5513   749.7916
 5481.0000    22.9074   754.8135
 5481.5000    23.8122   757.5040
 5482.0000    23.8146   762.2136
 5482.5000    23.8171   739.8459
 5483.0000    24.8565   673.5756
 5483.5000    26.5167   632.0056
 5484.0000    25.2883   602.3010
 5484.5000    25.7784   593.5078
 5485.0000    27.0003   597.4200
 5485.5000    26.7585   617.1600
 5486.0000    24.8099   641.8260
 5486.5000    23.8237   656.6400
 5487.0000    24.8393   649.2864
 5487.5000    25.3355   634.3441
 5488.0000    25.2588   621.9669
 5488.5000    24.1999   617.3734
 5489.0000    23.1901   628.4550
 5489.5000    21.8329   689.5402
 5490.0000    20.4380   750.9732
 5490.5000    19.1854   822.1230
 5491.0000    18.8951   844.1699
 5491.5000    20.4467   847.4802
 5492.0000    20.9368   822.0735
 5492.5000    21.4270   804.8676
 5493.0000    20.9415   785.1988
 5493.5000    18.9927   775.3821
 5494.0000    19.8238   785.4208
 5494.5000    21.8523   790.5744
 5495.0000    23.8167   789.2096
 5495.5000    25.3375   771.1742
 5496.0000    25.8337   743.8765
 5496.5000    24.2698   718.3200
 5497.0000    22.5100   717.8337
 5497.5000    20.2321   711.6448
 5498.0000    20.4784   679.6608
 5498.5000    21.9442   667.3810
 5499.0000    23.1743   674.8057
 5499.5000    24.8761   689.6196
 5500.0000    24.9595   689.6552
 5500.5000    23.9052   695.7873
 5501.0000    23.9075   735.9875
 5501.5000    24.6416   760.4737
 5502.0000    25.3756   768.6207
 5502.5000    26.3848   758.9103
 5503.0000    27.3317   739.2881
 5503.5000    27.0433   726.6203
 5504.0000    26.2306   687.4944
 5504.5000    25.0608   665.3624
 5505.0000    24.2112   650.6196
 5505.5000    22.8376   648.1897
 5506.0000    21.3225   660.5429
 5506.5000    21.9833   710.1553
 5507.0000    21.0101   740.6099
 5507.5000    19.4390   769.5778
 5508.0000    18.5366   813.5039
 5508.5000    19.9787   872.5193
 5509.0000    21.1606   916.5964
 5509.5000    21.9512   952.3702
 5510.0000    21.5772   998.5585
 5510.5000    21.9512  1049.9182
 5511.0000    21.9512  1069.5063
 5511.5000    21.2195  1055.5146
 5512.0000    19.7561  1028.2303
 5512.5000    19.2683   995.6936
 5513.0000    19.0244   941.5301
 5513.5000    19.0917   926.7755
 5514.0000    22.0677   921.8719
 5514.5000    24.6341   946.5272
 5515.0000    23.9024   963.9579
 5515.5000    24.3304   968.7460
 5516.0000    25.6976   968.7697
 5516.5000    27.4749   963.8673
 5517.0000    29.2683   918.6455
 5517.5000    27.8049   872.5029
 5518.0000    26.0976   800.3580
 5518.5000    23.9024   726.4981
 5519.0000    22.9268   661.7289
 5519.5000    21.9512   593.2450
 5520.0000    20.4552   566.1733
 5520.5000    19.1982   572.4430
 5521.0000    18.4830   572.4667
 5521.5000    18.0488   562.6382
 5522.0000    18.2308   560.1988
 5522.5000    19.1342   560.2225
 5523.0000    20.0134   567.7054
 5523.5000    21.7073   583.8173
 5524.0000    22.9268   626.1272
 5524.5000    21.9512   673.7008
 5525.0000    20.9756   694.1708
 5525.5000    21.4634   741.0685
 5526.0000    21.7103   812.5948
 5526.5000    19.9847   888.7794
 5527.0000    19.0244   947.1470
 5527.5000    19.8090   971.8012
 5528.0000    20.5590   984.1401
 5528.5000    20.7317   996.4791
 5529.0000    19.8912   976.7983
 5529.5000    19.5122   939.2260
 5530.0000    20.4878   911.3661
 5530.5000    22.4390   860.0242
 5531.0000    23.4146   795.9345
 5531.5000    21.9512   777.1190
 5532.0000    20.4878   758.1945
 5532.5000    22.9268   737.7231
 5533.0000    22.8675   735.2253
 5533.5000    21.1864   745.4962
 5534.0000    21.3754   750.4460
 5534.5000    22.5805   762.7850
 5535.0000    23.5937   797.2914
 5535.5000    24.6059   839.4670
 5536.0000    25.1220   882.6924
 5536.5000    24.8780   913.2234
 5537.0000    24.7984   937.8233
 5537.5000    25.6098   947.6601
 5538.0000    23.9024   934.7837
 5538.5000    22.1714   926.7909
 5539.0000    23.6585   925.5665
 5539.5000    25.1635   928.0583
 5540.0000    26.0976   925.6189
 5540.5000    22.7725   861.6031
 5541.0000    22.1951   812.3658
 5541.5000    23.4369   780.3698
 5542.0000    24.0390   750.3168
 5542.5000    23.6506   722.1415
 5543.0000    22.9268   693.0200
 5543.5000    23.9024   649.7812
 5544.0000    24.8780   612.7451
 5544.5000    26.0976   554.8374
 5545.0000    26.8293   528.9793
 5545.5000    27.5610   504.7090
 5546.0000    28.5633   494.8769
 5546.5000    29.8827   512.1455
 5547.0000    31.5641   529.4106
 5547.5000    32.7522   534.3596
 5548.0000    33.2586   546.0450
 5548.5000    33.0955   578.0229
 5549.0000    31.9443   593.5468
 5549.5000    30.4878   583.7241
 5550.0000    29.7561   586.2108
 5550.5000    28.7805   596.0867
 5551.0000    28.7805   608.4257
 5551.5000    28.2363   623.2277
 5552.0000    27.0183   615.8622
 5552.5000    25.6670   572.0363
 5553.0000    24.8780   502.1903
 5553.5000    24.8780   476.8913
 5554.0000    24.8780   464.9583
 5554.5000    25.3659   458.9105
 5555.0000    25.3659   448.8519
 5555.5000    25.1220   427.0351
 5556.0000    24.6341   404.2409
 5556.5000    22.9268   396.8754
 5557.0000    20.8328   394.4335
 5557.5000    17.1706   396.9228
 5558.0000    15.4439   401.8726
 5558.5000    13.9986   386.5325
 5559.0000    13.1707   356.0243
 5559.5000    15.7898   345.2933
 5560.0000    18.0814   369.4661
 5560.5000    20.0000   379.8276
 5561.0000    20.7317   377.3892
 5561.5000    21.2195   377.4138
 5562.0000    22.9268   394.6847
 5562.5000    23.6788   436.5803
 5563.0000    23.6570   456.3084
 5563.5000    25.1738   446.4799
 5564.0000    25.8893   436.6513
 5564.5000    25.6344   451.4533
 5565.0000    24.1463   479.0660
