~VERSION INFORMATION
 VERS.                2.0:   CWLS LOG ASCII STANDARD - VERSION 2.0
 WRAP.                 NO:   ONE LINE PER DEPTH STEP
~WELL INFORMATION
#MNEM.UNIT      DATA TYPE    INFORMATION
#----------   ------------   ------------------------------
 STRT.F          200.5000:   START DEPTH
 STOP.F         3164.0000:   STOP DEPTH
 STEP.F            0.5000:   STEP LENGTH
 NULL.          -999.2500:   NO VALUE
 COMP. FENIX & SCISSON U.S NAVY:   COMPANY
 WELL. FENIX & SCISSON "A" #83-4:   WELL
 FLD .              NPR-3:   FIELD
 LOC .       S4 T38N R78W:   LOCATION
 CNTY.            NATRONA:   COUNTY
 STAT.            WYOMING:   STATE
 CTRY. UNITED STATES OF AMERICA:   COUNTRY
 SRVC.       SCHLUMBERGER:   SERVICE COMPANY
 DATE.        25-MAY-1977:   LOGDATE
 API .     49025103660000:   API NUMBER
~CURVE INFORMATION
#MNEM.UNIT       API CODE    CURVE DESCRIPTION
#----------   ------------   ------------------------------
 DEPT.F                  :   
 CALD.IN     45 280 60 00:   CALIPER FROM DENSITY LOG
 GRD .GAPI   45 310 01 00:   GAMMA RAY FROM DENSITY LOG
 RHOB.G/C3   45 350 01 00:   BULK DENSITY
 CORR.G/C3   45 356 01 00:   DENSITY CORRECTION
 SPR .MV     07 010 01 00:   SPONTANEOUS POTENTIAL
 SFLU.OHMM   07 220 01 00:   SPHERICALLY FOCUSED LOG UNAVERAGED RESISTIVITY
 ILD .OHMM   07 120 46 00:   DEEP INDUCTION RESISTIVITY
 ILM .OHMM   07 120 44 00:   INDUCTION LOG MEDIUM RESISTIVITY
~PARAMETER INFORMATION
#MNEM.UNIT          VALUE    DESCRIPTION
#----------   ------------   ------------------------------
 EKB .F         5163.0000:   Kelly bushing
 EGL .F         5149.0000:   Ground level
 EDF .F            0.0000:   Drilling floor
 EPD .F            0.0000:   Permanent datum
 TD  .F         3173.0000:   Total depth
 DATE.        25-MAY-1977:   Date logged
 CLNT.            A2DTECH:   Client Code
 SL  . 1650' FNL & 330 ' FEL:   Surface Location
 PD  .                 GL:   Permanent Datum
 DAPD.F                14:   Feet Above Permanent Datum
 DD  .F              3173:   Depth driller
 DL  .F              3157:   Depth logger
 BLI .F              3165:   Bottom log interval
 TLI .F               200:   Top log interval
 CS1 .IN            8.625:   Casing size
 CBD1.      8.625" @ 204':   Casing driller 1
 CBL1.F               220:   Casing logger 1
 BS1 .IN            7.875:   Bit size
 BSD1.F              3173:   Depth drilled with bit1
 DFT .            KCL MUD:   Type fluid in hole
 DFD .                8.8:   Density
 DFV .                 37:   Viscosity
 DFPH.                7.5:   pH
 DFL .                4.4:   Fluid loss
 MSS .           FLOWLINE:   Source of sample
 RMS .OHMM            .39:   Rm
 MST .F                79:   Rm Meas. temp.
 RMF .OHMM            .31:   Rmf
 MFST.F                79:   Rmf Meas. temp.
 RMC .OHMM            .63:   Rmc
 MCST.F                79:   Rmc Meas. temp.
 MFSS.           FANN KIT:   Source Rmf.
 MCSS.           FANN KIT:   Source Rmc.
 RMB .OHMM            .27:   Rm. at BHT
 BHT .F               112:   BHT.
 TCS .HRS             2.5:   Time Circ. stopped
 MRT .F               112:   Maximum recorded temp.
 LUN .               8611:   Logging unit number
 LUL .             CASPER:   Logging unit location
 ENGI.            C. DOAK:   Recorded By
 WITN.      B. HARRINGTON:   Witnessed by
 ORIG.       2.5"5" PRINT:   Origin of data
 UWI .     49025103660000:   Unique Well ID
 DICO. A2D TECHNOLOGIES, INC.:   Digitizing Company
~OTHER INFORMATION
~A   DEPT     CALD        GRD         RHOB     CORR        SPR       SFLU        ILD        ILM   
# ...
 1577.5000     8.5879   105.8642     2.5275     0.0098   -39.1349    10.1007     6.7679     5.8541
 1578.0000     8.5877   105.0782     2.5275     0.0059   -39.1364     9.0536     6.7672     5.8534
 1578.5000     8.6266   105.0751     2.5275     0.0080   -38.3636     9.2194     6.8905     5.8530
 1579.0000     8.6264   101.9454     2.5216     0.0080   -38.3659     9.7364     7.0158     5.8524
 1579.5000     8.5871   101.9422     2.5157     0.0040   -38.3674    10.2827     7.0153     5.8519
 1580.0000     8.5869   105.0625     2.5098     0.0040   -38.3698    10.6633     7.0145     5.8513
 1580.5000     8.5867   105.0594     2.5196     0.0040   -38.3713    10.8586     7.4061     5.9579
 1581.0000     8.5865   104.2750     2.5255     0.0040   -38.3736    10.8574     7.6788     6.0663
 1581.5000     8.5472   104.2703     2.5334     0.0119   -38.3752    10.4680     7.6782     6.0658
 1582.0000     8.5471   105.0484     2.5451     0.0119   -38.3775    10.6594     8.1066     6.0652
 1582.5000     8.5469   104.2624     2.5491     0.0236   -38.3790    10.8546     7.8173     6.1757
 1583.0000     8.5467   102.6968     2.5471     0.0236   -38.3814    10.8534     8.1051     6.2880
 1583.5000     8.5465   102.6921     2.5451     0.0158   -37.9953    10.8526     8.4038     6.1746
 1584.0000     8.5463   105.8139     2.5295     0.0158   -38.3852    10.8514     8.4029     6.1739
 1584.5000     8.5070   106.5905     2.5196     0.0080   -38.3868    10.8507     8.1030     6.2864
 1585.0000     8.5068   107.3686     2.5157     0.0080   -38.3891    10.4612     8.1022     6.5179
 1585.5000     8.5066   107.1436     2.5079     0.0040   -38.7782    10.0860     8.1016     6.5174
 1586.0000     8.4674   106.3608     2.5118     0.0119   -38.3930    10.6516     7.6718     6.5167
 1586.5000     8.4672   104.7935     2.5255     0.0080   -38.3945    11.0462     8.3992     6.7569
 1587.0000     8.5061   104.0091     2.5275     0.0119   -38.3968    11.4083     8.8678     6.7561
 1587.5000     8.5058   102.4419     2.5236     0.0119   -38.0108    11.6647     9.3628     6.8792
 1588.0000     8.5057   103.2200     2.5157     0.0197   -38.4007    11.6635     9.8852     6.8785
 1588.5000     8.5054   104.7778     2.5079     0.0119   -38.4022    11.4520     9.5324     7.0038
 1589.0000     8.5053   104.7747     2.5118     0.0080   -38.4046    12.0942     9.8834     7.2603
 1589.5000     8.5050   103.2075     2.5098     0.0080   -38.4061    12.7729     9.7051     7.2598
 1590.0000     8.5049   102.4231     2.5118     0.0080   -38.4084    12.7715     9.1903     7.2590
 1590.5000     8.5437   102.4184     2.5177     0.0080   -38.4100    11.8728     9.5290     7.2377
 1591.0000     8.5436   103.1965     2.5216     0.0080   -38.4123    11.6571     9.3567     7.2164
 1591.5000     8.5434   104.7543     2.5255     0.0119   -38.4139    11.6562     9.3561     7.1953
 1592.0000     8.5432   104.7511     2.5314     0.0119   -38.4162    11.0349     9.3550     7.1742
 1592.5000     8.5430   103.9652     2.5471     0.0137   -38.4177    11.8684     9.3544     7.1531
 1593.0000     8.5428   103.1808     2.5471     0.0137   -38.4200    11.4424     9.3533     7.1321
 1593.5000     8.5817   101.8323     2.5432     0.0137   -38.4216    11.2350     9.3527     7.1112
 1594.0000     8.5814   102.6104     2.5353     0.0137   -38.4239    11.2338     9.8744     7.0904
 1594.5000     8.5813   105.7307     2.5236     0.0137   -38.4255    11.8641     9.3510     7.0696
 1595.0000     8.5420   108.0713     2.5196     0.0137   -38.4278    11.8628     9.3500     7.0488
 1595.5000     8.5418   109.6291     2.5295     0.0137   -38.4293    11.4374     9.3493     7.0282
 1596.0000     8.5416   110.9682     2.5334     0.0137   -38.4316    10.8278     9.8708     7.0075
 1596.5000     8.5805   110.9651     2.5393     0.0137   -38.4332    11.8598     9.3476     6.9923
 1597.0000     8.5803   110.9619     2.5412     0.0137   -38.4355    12.0766     9.5176     6.9916
 1597.5000     8.5801   108.6134     2.5393     0.0137   -39.2123    12.0757     9.6910     7.1190
 1598.0000     8.5799   107.8290     2.5353     0.0137   -38.0518    11.4320     8.6911     7.1182
 1598.5000     8.5797   105.4806     2.5353     0.0137   -38.4409    12.2955     8.8495     7.1177
 1599.0000     8.6185   104.6962     2.5334     0.0137   -38.4440    12.7505     8.8485     7.2471
 1599.5000     8.6184   103.1290     2.5255     0.0137   -38.4448    12.7496     9.3425     7.2466
 1600.0000     8.5791   100.2195     2.5255     0.0137   -38.4471    12.0700     9.3415     7.3784
 1600.5000     8.6143    99.4399     2.5284     0.0137   -38.4492    11.8650     9.6554     7.3777
 1601.0000     8.6181   100.2188     2.5314     0.0137   -38.4473    11.8519     9.6864     7.3783
 1601.5000     8.6181   100.2188     2.5333     0.0137   -38.4473    11.8519     9.6864     7.3783
 1602.0000     8.5400   101.7813     2.5353     0.0137   -38.4473    12.5179     9.6864     7.3783
 1602.5000     8.6181   104.1250     2.5314     0.0136   -38.4473    12.2918     9.6864     7.3783
 1603.0000     8.6181   104.9063     2.5294     0.0136   -38.4473    12.7481     9.6864     7.3783
 1603.5000     8.6572   105.6875     2.5294     0.0136   -38.5709    12.5179     9.3414     7.2472
 1604.0000     8.6962   105.4688     2.5255     0.0136   -38.6946    12.5179     9.3414     7.2458
 1604.5000     8.6962   104.9063     2.5196     0.0136   -38.8349    11.8519     9.6864     7.2458
 1605.0000     8.6572   104.1250     2.5156     0.0135   -38.4473    12.2918     9.8636     7.3783
 1605.5000     8.6962   102.5625     2.5137     0.0135   -38.4473    12.7481     9.8636     7.2916
 1606.0000     8.6572   105.6875     2.5234     0.0135   -38.4473    12.7481     9.8636     7.2458
 1606.5000     8.6572   108.0313     2.5234     0.0135   -38.4473    12.9825     9.6864     7.2458
 1607.0000     8.6962   108.8125     2.5234     0.0135   -38.4473    12.2918     9.6864     7.2458
 1607.5000     8.6962   108.0313     2.5215     0.0134   -39.2225    12.0698     9.3414     7.2458
 1608.0000     8.6962   105.6875     2.5215     0.0173   -39.2225    12.7481     9.3414     7.2458
 1608.5000     8.6572   106.4688     2.5175     0.0134   -38.8349    11.6379     9.3414     6.9891
 1609.0000     8.6572   106.4688     2.5136     0.0134   -39.2225    11.8519     9.3414     6.8635
 1609.5000     8.6181   107.2500     2.5116     0.0016   -39.2225    12.0698     9.3414     6.8635
 1610.0000     8.5791   107.8125     2.5116     0.0049   -39.2225    11.6094     9.1736     6.8635
 1610.5000     8.6181   108.0313     2.5116     0.0094   -39.2225    11.4008     9.0087     6.7402
 1611.0000     8.6181   108.0313     2.5177     0.0094   -39.2225    10.6033     8.8468     6.7402
 1611.5000     8.5791   106.4688     2.5253     0.0133   -39.2225    10.6033     9.0087     6.7402
 1612.0000     8.7353   106.4688     2.5253     0.0133   -39.2225    10.9948     9.5123     6.7402
 1612.5000     8.6181   101.0000     2.5312     0.0172   -38.8349    11.8218     8.8468     6.7402
 1613.0000     8.6181   101.0000     2.5312     0.0211   -38.8349    11.4277     8.8468     6.7402
 1613.5000     8.6572   101.0000     2.5272     0.0250   -39.2225    11.2214     8.8468     6.7402
 1614.0000     8.6572   102.5625     2.5233     0.0250   -39.2225    11.2214     8.8468     6.7402
 1614.5000     8.6962   104.6875     2.5233     0.0210   -39.2225    12.0698     9.3414     6.7402
 1615.0000     8.6572   104.6875     2.5233     0.0171   -39.2225    11.4277     9.3414     6.8635
 1615.5000     8.6962   103.9063     2.5213     0.0092   -39.6101    11.0187     9.3414     6.8635
 1616.0000     8.6572   103.9063     2.5213     0.0131   -39.2225    10.4325     9.3414     6.8635
 1616.5000     8.6572   104.1250     2.5311     0.0170   -39.2225    11.0187     9.5123     6.8635
 1617.0000     8.6962   104.9063     2.5370     0.0209   -39.2225    11.8519     9.5123     6.8635
 1617.5000     8.6962   106.4688     2.5409     0.0248   -39.2225    12.5179     9.5123     6.8635
