~VERSION INFORMATION
 VERS.                2.0:   CWLS LOG ASCII STANDARD - VERSION 2.0
 WRAP.                 NO:   ONE LINE PER DEPTH STEP
~WELL INFORMATION
#MNEM.UNIT      DATA TYPE    INFORMATION
#----------   ------------   ------------------------------
 STRT.F            0.0000:   START DEPTH
 STOP.F         5786.0000:   STOP DEPTH
 STEP.F            0.5000:   STEP LENGTH
 NULL.          -999.2500:   NO VALUE
 COMP. U.S. DEPARTMENT OF ENERGY:   COMPANY
 WELL. DEPARTMENT "X" #2-3:   WELL
 FLD .           N P R #3:   FIELD
 LOC .       S3 T38N R78W:   LOCATION
 CNTY.            NATRONA:   COUNTY
 STAT.            WYOMING:   STATE
 CTRY. UNITED STATES OF AMERICA:   COUNTRY
 SRVC.       BAKER HUHGES:   SERVICE COMPANY
 DATE.        14-JUL-2002:   LOGDATE
 API .     49025230540000:   API NUMBER
~CURVE INFORMATION
#MNEM.UNIT       API CODE    CURVE DESCRIPTION
#----------   ------------   ------------------------------
 DEPT.F                  :   
 TEND.LBS    45 635 01 00:   TENSION FROM DENSITY LOG
 CALD.IN     45 280 60 00:   CALIPER FROM DENSITY LOG
 ZCOR.G/C3   45 356 01 00:   DENSITY CORRECTION
 PE  .B/E    45 358 01 00:   PHOTOELECTRIC FACTOR
 ZDEN.G/C3   45 350 01 00:   BULK DENSITY
 CNCF.DEC    42 890 03 00:   NEUTRON POROSITY
 TENS.LBS    60 635 01 00:   TENSION FROM SONIC
 DT  .US/F   60 520 00 00:   DELTA TIME
 RD  .OHMM   11 220 10 00:   RESISTIVITY DEEP
 TENR.LBS    11 635 01 00:   TENSION FROM RES. LOG
 RS  .OHMM   11 220 09 00:   RESISTIVITY SHALLOW
 GRR .GAPI   11 310 01 00:   GAMMA RAY FROM RES.
 RMLL.OHMM   11 270 04 00:   MICRO LATEROLOG
 SPR .MV     11 010 01 00:   SPONTANEOUS POTENTIAL FROM RES.
~PARAMETER INFORMATION
#MNEM.UNIT          VALUE    DESCRIPTION
#----------   ------------   ------------------------------
 EKB .F         5164.7000:   Kelly bushing
 EGL .F         5154.7000:   Ground level
 EDF .F         5163.7000:   Drilling floor
 TD  .F         5773.0000:   Total depth
 DATE.        14-JUL-2002:   Date logged
 CLNT.            A2DTECH:   Client Code
 SL  . 838' FNL & 2128' FWL:   Surface Location
 PD  .                 GL:   Permanent Datum
 EPD .F            5154.7:   Elevation Permanent Datum
 LMF .                 KB:   Log Measured From
 DMF .                 KB:   Drilling Measured From
 DD  .F              5770:   Depth driller
 DL  .F              5773:   Depth logger
 BLI .F              5770:   Bottom log interval
 CS1 .IN            9.625:   Casing size
 CBD1.       9.625 @ 578':   Casing driller 1
 CBL1.F               578:   Casing logger 1
 BS1 .IN             8.75:   Bit size
 DFT .       GEL/CHEMICAL:   Type fluid in hole
 DFD .                  9:   Density
 DFV .                 45:   Viscosity
 DFPH.                8.5:   pH
 DFL .                9.6:   Fluid loss
 MSS .           FLOWLINE:   Source of sample
 RMS .OHMM          0.568:   Rm
 MST .F                91:   Rm Meas. temp.
 RMF .OHMM          0.490:   Rmf
 MFST.F                92:   Rmf Meas. temp.
 RMC .OHMM          1.072:   Rmc
 MCST.F                90:   Rmc Meas. temp.
 MFSS.               MEAS:   Source Rmf.
 RMB .OHMM          0.291:   Rm. at BHT
 BHT .F               184:   BHT.
 TCS .HRS               8:   Time Circ. stopped
 MRT .F               184:   Maximum recorded temp.
 LUN .            HL-6530:   Logging unit number
 LUL .             CASPER:   Logging unit location
 ENGI.           VERCIMAK:   Recorded By
 WITN.              HARDY:   Witnessed by
 ORIG.           5" PRINT:   Origin of data
 UWI .     49025230540000:   Unique Well ID
 DICO. A2D TECHNOLOGIES, INC.:   Digitizing Company
~OTHER INFORMATION
~A    DEPT    TEND       CALD       ZCOR         PE       ZDEN       CNCF       TENS         DT         RD       TENR         RS         GRR      RMLL        SPR   
# ...
 1935.5000   -48.8940     9.3360     0.0400     3.8700     2.4990     0.3330   -26.9970    92.4550     6.7410    -7.0610     8.8090   139.2260  -999.2500    -0.7300
 1936.0000   -50.3470     9.3340     0.0450     3.8710     2.4970     0.3350   -25.7060    92.4550     6.7700     4.4910     8.8320   133.1780  -999.2500    -0.7500
 1936.5000   -51.8000     9.3330     0.0410     3.8450     2.4950     0.3370   -25.1970    92.1780     6.7920     1.7790     8.8540   128.0000  -999.2500    -0.7660
 1937.0000   -53.2530     9.3310     0.0390     3.8160     2.4930     0.3290   -31.4410    91.9220     6.7170    -4.0570     8.8660   129.3570  -999.2500    -0.7810
 1937.5000   -54.7060     9.3290     0.0380     3.7860     2.4920     0.3210   -37.6850    91.9010     6.6040    -9.8920     8.7530   131.4770  -999.2500    -0.7960
 1938.0000   -55.0000     9.3270     0.0420     3.7560     2.4940     0.3290   -43.9290    91.9540     6.4270   -15.4690     8.7030   131.7410  -999.2500    -0.8110
 1938.5000   -55.0000     9.3250     0.0430     3.7460     2.4940     0.3440   -50.1740    91.9540     6.4590   -25.4490     8.6530   130.5300  -999.2500    -0.8270
 1939.0000   -55.0000     9.3240     0.0400     3.7390     2.4910     0.3480   -56.4180    91.9540     6.5300   -25.4490     8.6250   131.3160  -999.2500    -0.8420
 1939.5000   -55.0000     9.3250     0.0370     3.7320     2.4900     0.3350   -62.6620    91.8260     6.6020   -25.4490     8.6610   132.9960  -999.2500    -0.8570
 1940.0000   -54.8430     9.3280     0.0380     3.7260     2.4960     0.3310   -68.9060    91.6700     6.6730   -25.4490     8.7180   133.1670  -999.2500    -0.8730
 1940.5000   -54.3850     9.3300     0.0430     3.7190     2.5010     0.3460   -74.6490    91.5140     6.7290   -32.6170     8.7740   132.2000  -999.2500    -0.8880
 1941.0000   -53.9280     9.3320     0.0480     3.7120     2.5030     0.3630   -78.3370    91.3590     6.6400   -41.3700     8.8660   134.1000  -999.2500    -0.9030
 1941.5000   -53.4710     9.3340     0.0490     3.7100     2.5020     0.3690   -81.7500    91.2650     6.5300   -50.1230     8.8150   138.2020  -999.2500    -0.9180
 1942.0000   -53.0140     9.3360     0.0440     3.7100     2.4970     0.3520   -84.0880    91.3040     6.4270   -53.6110     8.7730   140.7920  -999.2500    -0.9330
 1942.5000   -52.5560     9.3390     0.0260     3.7070     2.4920     0.3470   -80.0720    91.3440     6.5900   -44.5930     8.7310   135.8560  -999.2500    -0.9340
 1943.0000   -52.0990     9.3410     0.0200     3.6380     2.4910     0.3420   -76.0560    91.3220     6.7260   -35.4290     8.7050   131.9770  -999.2500    -0.8990
 1943.5000   -51.6420     9.3430     0.0280     3.6170     2.4960     0.3370   -72.0400    91.2830     6.8620   -37.0470     8.8540   131.0890  -999.2500    -0.8660
 1944.0000   -51.1840     9.3450     0.0390     3.6450     2.5020     0.3310   -68.0240    91.2530     6.9980   -39.1130     9.0050   134.0410  -999.2500    -0.8320
 1944.5000   -50.7270     9.3470     0.0470     3.6220     2.5010     0.3220   -64.0080    91.3280     7.1110   -41.1800     9.1560   136.8090  -999.2500    -0.7980
 1945.0000   -50.2700     9.3500     0.0460     3.5690     2.4930     0.3130   -59.9930    91.6930     6.9790   -43.2470     9.2830   136.8610  -999.2500    -0.7640
 1945.5000   -49.8130     9.3520     0.0460     3.6000     2.4850     0.3130   -55.9770    92.1110     6.8650   -45.4090     9.1760   135.8320  -999.2500    -0.7300
 1946.0000   -49.3550     9.3540     0.0450     3.6290     2.4850     0.3350   -51.9610    92.3030     6.7520   -38.8220     8.9830   134.7760  -999.2500    -0.6960
 1946.5000   -48.8980     9.3560     0.0430     3.6280     2.4910     0.3630   -47.9450    92.2870     6.6390   -30.0690     8.7900   133.7220  -999.2500    -0.6620
 1947.0000   -48.4410     9.3580     0.0410     3.6250     2.4970     0.3730   -40.3810    92.1940     6.5260   -21.3160     8.5970   133.2720  -999.2500    -0.6280
 1947.5000   -47.9830     9.3610     0.0340     3.6220     2.4950     0.3680   -35.4410    92.2450     6.4270   -15.0870     8.4680   133.5170  -999.2500    -0.5950
 1948.0000   -47.5260     9.3630     0.0310     3.6190     2.4920     0.3530   -37.7250    92.4030     6.4850   -12.1700     8.5280   133.9890  -999.2500    -0.5610
 1948.5000   -47.0690     9.3600     0.0310     3.6160     2.4890     0.3460   -40.0090    92.5550     6.5470    -9.2520     8.6090   132.9600  -999.2500    -0.5270
 1949.0000   -46.6120     9.3560     0.0300     3.6130     2.4870     0.3480   -42.2940    92.5320     6.6090    -6.3340     8.6910   131.7670  -999.2500    -0.4930
 1949.5000   -46.1540     9.3510     0.0300     3.6100     2.4840     0.3400   -44.5780    92.5100     6.6710    -5.4890     8.7730   132.5370  -999.2500    -0.4590
 1950.0000   -45.6970     9.3470     0.0300     3.6200     2.4830     0.3310   -46.8620    92.4870     6.7340    -9.5380     8.8550   133.3910  -999.2500    -0.4250
 1950.5000   -45.2400     9.3440     0.0290     3.6310     2.4830     0.3210   -49.1460    92.4650     6.7960   -14.0090     8.9370   131.1740  -999.2500    -0.3910
 1951.0000   -42.1640     9.3500     0.0290     3.6420     2.4880     0.3180   -51.4310    92.3550     6.8540    -7.8180     9.0310   127.6190  -999.2500    -0.3580
 1951.5000   -36.2000     9.3560     0.0300     3.6530     2.4900     0.3170   -53.7150    92.1730     6.8540    -6.9530     8.9480   125.6690  -999.2500    -0.3240
 1952.0000   -30.2360     9.3620     0.0320     3.6640     2.4900     0.3240   -56.5760    91.9900     6.8540   -10.2130     8.9480   130.8060  -999.2500    -0.2900
 1952.5000   -24.2730     9.3680     0.0330     3.6750     2.4860     0.3360   -59.8070    91.8890     6.8540   -13.4730     8.9480   136.9410  -999.2500    -0.2560
 1953.0000   -18.3090     9.3740     0.0340     3.6860     2.4800     0.3450   -63.0390    92.0300     6.7440   -15.4690     8.9480   138.4750  -999.2500    -0.2220
 1953.5000   -12.3450     9.3800     0.0430     3.6970     2.4810     0.3480   -63.0830    92.1880     6.6640   -12.5520     8.9480   133.9530  -999.2500    -0.1880
 1954.0000    -6.3820     9.3860     0.0500     3.7080     2.4830     0.3480   -58.1590    92.4730     6.5840    -8.7900     8.7190   132.5060  -999.2500    -0.1540
 1954.5000    -6.0220     9.3920     0.0460     3.7040     2.4830     0.3470   -53.2350    92.7570     6.5040    -5.4890     8.5300   133.0700  -999.2500    -0.1200
 1955.0000    -7.3510     9.3980     0.0450     3.6950     2.4800     0.3510   -48.3110    93.0420     6.4240    -6.7830     8.3410   134.1390  -999.2500    -0.0870
 1955.5000    -8.6810     9.4030     0.0460     3.6750     2.4810     0.3570   -44.8070    93.3090     6.3440    -8.5940     8.1520   135.2200  -999.2500    -0.0530
 1956.0000   -10.0110     9.4090     0.0460     3.5640     2.4870     0.3560   -45.6980    93.5250     6.2640   -10.4050     8.0140   134.9110  -999.2500    -0.0190
 1956.5000   -11.3410     9.4150     0.0470     3.4510     2.4950     0.3520   -46.5900    93.7580     6.1380   -12.2160     8.0360   134.5220  -999.2500     0.0150
 1957.0000   -12.6700     9.4210     0.0470     3.3560     2.5030     0.3490   -47.4810    93.7580     6.1480   -14.0280     8.0630   135.3500  -999.2500     0.0500
 1957.5000   -14.0000     9.4270     0.0470     3.3530     2.5080     0.3470   -48.3730    93.5880     6.1710   -15.7860     8.0890   136.3350  -999.2500     0.0600
 1958.0000   -15.0000     9.4330     0.0410     3.3650     2.5100     0.3350   -49.2640    93.2860     6.1940   -17.3380     8.1150   136.1610  -999.2500     0.0600
 1958.5000   -17.0160     9.4390     0.0350     3.5290     2.5070     0.3230   -50.1550    92.9560     6.2170   -18.8910     8.1420   137.3170  -999.2500     0.0600
 1959.0000   -18.9450     9.4450     0.0280     3.8370     2.5000     0.3330   -51.0470    92.9130     6.2400   -20.4430     8.1680   138.3040  -999.2500     0.0600
 1959.5000   -20.8750     9.4510     0.0230     3.8920     2.4940     0.3410   -51.9380    92.8190     6.2630   -21.9960     8.1940   137.9010  -999.2500     0.0600
