~VERSION INFORMATION
 VERS.                2.0:   CWLS LOG ASCII STANDARD - VERSION 2.0
 WRAP.                 NO:   ONE LINE PER DEPTH STEP
~WELL INFORMATION
#MNEM.UNIT      DATA TYPE    INFORMATION
#----------   ------------   ------------------------------
 STRT.F          198.0000:   START DEPTH
 STOP.F         3252.0000:   STOP DEPTH
 STEP.F            0.5000:   STEP LENGTH
 NULL.          -999.2500:   NO VALUE
 COMP. FENIX & SCISSON - U.S. NAVY:   COMPANY
 WELL.   FENIX A X #21-33:   WELL
 FLD .              NPR-3:   FIELD
 LOC .      S33 T39N R78W:   LOCATION
 CNTY.            NATRONA:   COUNTY
 STAT.            WYOMING:   STATE
 CTRY. UNITED STATES OF AMERICA:   COUNTRY
 SRVC.              WELEX:   SERVICE COMPANY
 DATE.        06-JUN-1977:   LOGDATE
 API .     49025103750000:   API NUMBER
~CURVE INFORMATION
#MNEM.UNIT       API CODE    CURVE DESCRIPTION
#----------   ------------   ------------------------------
 DEPT.F                  :   
 CALD.IN     45 280 60 00:   CALIPER FROM DENSITY LOG
 GRD .GAPI   45 310 01 00:   GAMMA RAY FROM DENSITY LOG
 RHOB.G/C3   45 350 01 00:   BULK DENSITY
 CORR.G/C3   45 356 01 00:   DENSITY CORRECTION
 NPHI.DEC    42 890 01 00:   NEUTRON POROSITY LIMESTONE
 SPR .MV     07 010 01 00:   SPONTANEOUS POTENTIAL
 GURD.OHMM   07 220 05 00:   GUARD LOG RESISTIVITY
 FORX.OHMM   07 220 00 00:   FORMATION FACTOR
~PARAMETER INFORMATION
#MNEM.UNIT          VALUE    DESCRIPTION
#----------   ------------   ------------------------------
 EKB .F         5147.0000:   Kelly bushing
 EGL .F         5137.0000:   Ground level
 EDF .F            0.0000:   Drilling floor
 EPD .F            0.0000:   Permanent datum
 TD  .F         3254.0000:   Total depth
 CLNT.            A2DTECH:   Client Code
 SL  . 660' FNL & 1320' FWL:   Surface Location
 PD  .                 GL:   Permanent Datum
 DAPD.F                10:   Feet Above Permanent Datum
 DATE.        06-JUN-1977:   Date Logged [DD-MMM-YYYY]
 DD  .F              3249:   Depth driller
 DL  .F              3254:   Depth logger
 BLI .F              3252:   Bottom log interval
 TLI .F               200:   Top log interval
 CS1 .IN            8.625:   Casing size
 CBD1.      8.625" @ 204':   Casing driller 1
 CBL1.F               221:   Casing logger 1
 BS1 .IN            7.875:   Bit size
 BSD1.F              3249:   Depth drilled with bit1
 DFT .            KCL MUD:   Type fluid in hole
 DFD .                  9:   Density
 DFV .                134:   Viscosity
 DFPH.                7.5:   pH
 DFL .                7.8:   Fluid loss
 MSS .           FLOWLINE:   Source of sample
 RMS .OHMM           0.64:   Rm
 MST .F                85:   Rm Meas. temp.
 RMF .OHMM           0.61:   Rmf
 MFST.F                85:   Rmf Meas. temp.
 MFSS.           FANN KIT:   Source Rmf.
 RMC .OHMM              1:   Rmc
 MCST.F                85:   Rmc Meas. temp.
 MCSS.           FANN KIT:   Source Rmc.
 RMB .OHMM           0.46:   Rm. at BHT
 BHT .F               116:   BHT.
 TCS .HRS             2.5:   Time Circ. stopped
 MRT .F               116:   Maximum recorded temp.
 LUN .               8611:   Logging unit number
 LUL .             CASPER:   Logging unit location
 ENGI.            C. DOAK:   Recorded By
 WITN.      B. HARRINGTON:   Witnessed by
 ORIG.           5" PRINT:   Origin of data
 UWI .     49025103750000:   Unique Well ID
 DICO. A2D TECHNOLOGIES, INC.:   Digitizing Company
~OTHER INFORMATION
~A   DEPT     CALD         GRD      RHOB       CORR       NPHI        SPR       GURD       FORX   
# ...
 3195.0000     7.9643   135.5669     2.4749     0.0284     0.2947   -28.8386     6.4427     5.9711
 3195.5000     7.9494   130.8195     2.4809     0.0300     0.2935   -28.8386     8.0355     5.0745
 3196.0000     7.9494   128.7875     2.4932     0.0330     0.2925   -28.8387     9.3559     3.2225
 3196.5000     7.9494   129.8500     2.5114     0.0376     0.2912   -28.8405     7.9385     3.4898
 3197.0000     7.9494   130.9125     2.5156     0.0392     0.2903   -28.8455     7.3645     3.9513
 3197.5000     7.9494   132.0692     2.5060     0.0348     0.2887   -28.4380     8.5763     4.3542
 3198.0000     7.9494   133.2742     2.4956     0.0318     0.2861   -28.4430     8.8881     4.4199
 3198.5000     7.9494   135.3720     2.4822     0.0304     0.2809   -28.4448     7.9523     4.1198
 3199.0000     7.9494   136.9824     2.4740     0.0290     0.2762   -28.4449     7.0429     4.0066
 3199.5000     7.9494   139.8689     2.4846     0.0306     0.2722   -28.4449     6.1986     4.2451
 3200.0000     7.9494   135.7167     2.5175     0.0351     0.2699   -28.6362     7.3090     4.1876
 3200.5000     7.9494   129.2706     2.5280     0.0471     0.2678   -28.4696    24.2392     3.9254
 3201.0000     7.9506   121.5729     2.5221     0.0456     0.2672   -28.4551     8.8531     3.5475
 3201.5000     7.9643   115.5208     2.5072     0.0411     0.2668   -28.4405     8.1447     3.2075
 3202.0000     7.9643   114.3455     2.4961     0.0366     0.2662   -28.5743     9.8722     4.9056
 3202.5000     7.9643   112.2768     2.4924     0.0336     0.2652   -28.5597     8.0778     5.2313
 3203.0000     7.9706   110.4658     2.4925     0.0306     0.2652   -28.5451     6.7943     4.4133
 3203.5000     7.9940   108.9932     2.4917     0.0291     0.2664   -28.5312     9.3879     4.0542
 3204.0000     8.0012   111.7291     2.4925     0.0293     0.2686   -28.5160     8.0613     4.1729
 3204.5000     8.0238   116.8033     2.4956     0.0306     0.2707   -28.5014     6.5961     4.0004
 3205.0000     8.0238   115.9251     2.5046     0.0336     0.2719   -28.4866     7.5141     3.7809
 3205.5000     8.0238   115.6384     2.5152     0.0351     0.2722   -28.4718     9.5617     4.2079
 3206.0000     8.0685   121.3115     2.5136     0.0411     0.2710   -28.4541     9.8187     3.8110
 3206.5000     8.0833   135.9094     2.5345     0.0471     0.2682   -28.4421     7.1390     3.6015
 3207.0000     8.0833   135.3288     2.5450     0.0531     0.2641   -28.4249     9.8037     3.8688
 3207.5000     8.0833   132.6613     2.5503     0.0575     0.2592   -28.4103    10.4980     4.2754
 3208.0000     8.0536   136.5486     2.5421     0.0590     0.2551   -28.3976    11.3938     4.5922
 3208.5000     8.0238   142.2180     2.5310     0.0591     0.2511   -28.2328    14.4965     5.0776
 3209.0000     8.0089   146.6969     2.5243     0.0605     0.2477   -28.2183     9.2530     5.6882
 3209.5000     7.9792   148.1997     2.5348     0.0635     0.2455   -28.2037     7.8367     5.1365
 3210.0000     7.9643   148.2143     2.5438     0.0680     0.2451   -28.3411     8.0503     4.9043
 3210.5000     7.9494   147.2962     2.5498     0.0740     0.2454   -28.3229    10.3824     4.4102
 3211.0000     7.9345   144.8911     2.5536     0.0755     0.2473   -28.3083     7.9171     4.1090
 3211.5000     7.9345   141.7118     2.5546     0.0710     0.2500   -28.2937     7.4987     4.5090
 3212.0000     7.9196   133.3931     2.4888     0.0605     0.2512   -28.2789     7.1363     4.3845
 3212.5000     7.9196   146.8006     2.4695     0.0471     0.2525   -28.2641     8.4765     3.9709
 3213.0000     7.9196   147.1129     2.4498     0.0366     0.2528   -28.2464    11.8769     3.5705
 3213.5000     7.9196   145.6394     2.4365     0.0321     0.2533   -28.2318     6.3818     3.9461
 3214.0000     7.9196   146.8482     2.4308     0.0321     0.2543   -28.2172     5.5170     3.6509
 3214.5000     7.9196   149.2438     2.4376     0.0351     0.2558   -28.2027     4.9375     3.2599
 3215.0000     7.9196   143.9012     2.4518     0.0366     0.2573   -28.3401     5.8229     3.3315
 3215.5000     7.9196   136.7730     2.4668     0.0411     0.2611   -28.4703     4.9316     3.1487
 3216.0000     7.9196   135.8912     2.4802     0.0441     0.2688   -28.6077     8.0958     2.7133
 3216.5000     7.9345   140.9690     2.4982     0.0471     0.2727   -28.7415     5.6520     2.7927
 3217.0000     7.9342   144.5550     2.5161     0.0471     0.2726   -28.7233     5.0236     3.0246
 3217.5000     7.9334   147.3437     2.5221     0.0486     0.2704   -28.7087     7.7023     3.2914
 3218.0000     7.9325   155.2273     2.5117     0.0486     0.2676   -28.6941     6.1263     2.8942
 3218.5000     7.9316   167.9300     2.4969     0.0486     0.2648   -28.5312     5.1538     2.9404
 3219.0000     7.9308   196.4005     2.4902     0.0484     0.2620   -28.3565     5.6322     3.1138
 3219.5000     7.9299   220.2234     2.4970     0.0456     0.2605   -28.0340     8.7499     3.1593
 3220.0000     7.9290   248.2143     2.5186     0.0381     0.2602   -27.5936     6.1945     2.8212
 3220.5000     7.9281   343.5453     2.5247     0.0336     0.2645   -27.2823     5.2463     2.9038
 3221.0000     7.9273   300.3293     2.4760     0.0336     0.2731   -26.6743     6.2289     3.0750
 3221.5000     7.9264   256.5940     2.4845     0.0366     0.2889   -25.4727     9.6768     3.1203
 3222.0000     7.9255   131.9062     2.4965     0.0366     0.3012   -23.9745     7.9188     3.0338
 3222.5000     7.9246   118.5243     2.5032     0.0381     0.3637   -21.7344    11.8037     3.4990
 3223.0000     7.9238   123.0069     2.5085     0.0321     0.4484   -16.2302     8.3565     4.2712
 3223.5000     7.9229   126.2954     2.5115     0.0277     0.5264   -10.0890     7.4787     5.2137
 3224.0000     7.9220   128.6910     2.5063     0.0293  -999.2500    -1.9288     9.9834     4.6223
 3224.5000     7.9211   128.1104     2.4959     0.0336  -999.2500  -999.2500     7.0678     4.2162
 3225.0000     7.9203   126.9345     2.4975     0.0351  -999.2500  -999.2500     9.1767     3.7915
 3225.5000     7.9196   128.1985     2.5065     0.0336  -999.2500  -999.2500    11.0485     3.6090
 3226.0000     7.9048   130.6150     2.4821     0.0321  -999.2500  -999.2500     9.5513     4.3662
 3226.5000     7.9048   131.7403     2.4529     0.0306  -999.2500  -999.2500     7.9479     4.9733
 3227.0000     7.9048   129.3777     2.4417     0.0306  -999.2500  -999.2500     5.9277     4.5691
 3227.5000     7.9048   128.7934     2.4328     0.0291  -999.2500  -999.2500     4.7838     3.9094
 3228.0000     7.9048   131.7879     2.4429     0.0291  -999.2500  -999.2500     5.2681     3.0498
 3228.5000     7.9048   137.4573     2.4560     0.0291  -999.2500  -999.2500     5.1680     2.9237
 3229.0000     7.9048   140.1505     2.4509     0.0291  -999.2500  -999.2500     4.7079     2.8430
 3229.5000     7.9048   138.9747     2.4502     0.0291  -999.2500  -999.2500     4.5453     2.5026
 3230.0000     7.9048   121.1322     2.4584     0.0277  -999.2500  -999.2500     4.5736     2.5759
 3230.5000     7.9048     6.8611     2.4786     0.0306  -999.2500  -999.2500     4.9647     2.5587
 3231.0000     7.9048     3.0042     2.5055     0.0381  -999.2500  -999.2500     6.7606     2.3842
 3231.5000     7.9048     3.0158     2.5234     0.0456  -999.2500  -999.2500    10.3428     2.5975
 3232.0000     7.9048     3.0174     2.5287     0.0516  -999.2500  -999.2500     8.2477     2.9323
 3232.5000     7.8899     3.0190     2.5303     0.0531  -999.2500  -999.2500     5.8220     3.3339
 3233.0000     7.8899     3.0206     2.5363     0.0546  -999.2500  -999.2500     9.6048     3.6376
 3233.5000     7.8750     3.0221     2.5438     0.0546  -999.2500  -999.2500    11.0599     2.9557
 3234.0000     7.8750     3.0237     2.5460     0.0546  -999.2500  -999.2500    24.0114     3.2888
 3234.5000     7.8601     3.0253     2.5386     0.0531  -999.2500  -999.2500     9.7256     4.2843
 3235.0000     7.8452     3.0269     2.5178     0.0531  -999.2500  -999.2500     6.8075     6.2447
