~VERSION INFORMATION
 VERS.                2.0:   CWLS LOG ASCII STANDARD - VERSION 2.0
 WRAP.                 NO:   ONE LINE PER DEPTH STEP
~WELL INFORMATION
#MNEM.UNIT      DATA TYPE    INFORMATION
#----------   ------------   ------------------------------
 STRT.F          492.0000:   START DEPTH
 STOP.F         3008.0000:   STOP DEPTH
 STEP.F            0.5000:   STEP LENGTH
 NULL.          -999.2500:   NO VALUE
 COMP.    FENIX & SCISSON:   COMPANY
 WELL. FENIX & SCISSON AX #24-28:   WELL
 FLD .             TEAPOT:   FIELD
 LOC .      S28 T39N R78W:   LOCATION
 CNTY.            NATRONA:   COUNTY
 STAT.            WYOMING:   STATE
 CTRY. UNITED STATES OF AMERICA:   COUNTRY
 SRVC.              WELEX:   SERVICE COMPANY
 DATE.        03-AUG-1980:   LOGDATE
 API .     49025108490000:   API NUMBER
~CURVE INFORMATION
#MNEM.UNIT       API CODE    CURVE DESCRIPTION
#----------   ------------   ------------------------------
 DEPT.F                  :   
 SPR .MV     07 010 01 00:   SPONTANEOUS POTENTIAL
 ILD .OHMM   07 120 46 00:   DEEP INDUCTION RESISTIVITY
 ILM .OHMM   07 120 44 00:   INDUCTION LOG MEDIUM RESISTIVITY
 SGRD.OHMM   07 220 05 00:   SHALLOW SHORT GUARD RESISTIVITY
 GRD .GAPI   45 310 01 00:   GAMMA RAY FROM DENSITY LOG
 CALD.IN     45 280 60 00:   CALIPER FROM DENSITY LOG
 CORR.G/C3   45 356 01 00:   DENSITY CORRECTION
 RHOB.G/C3   45 350 01 00:   BULK DENSITY
~PARAMETER INFORMATION
#MNEM.UNIT          VALUE    DESCRIPTION
#----------   ------------   ------------------------------
 EKB .F         5061.0000:   Kelly bushing
 EGL .F         5051.0000:   Ground level
 TD  .F         3000.0000:   Total depth
 CLNT.            A2DTECH:   Client Code
 SL  . 2350' FNL & 1000' FWL:   Surface Location
 DATE.         3-AUG-1980:   Date Logged [DD-MMM-YYYY]
 DD  .F              3000:   Depth driller
 DL  .F              3010:   Depth logger
 BLI .F              3008:   Bottom log interval
 TLI .F               308:   Top log interval
 CS1 .              8.625:   Casing size
 CBD1.      8.625" @ 393':   Casing driller 1
 BS1 .IN            7.875:   Bit size
 BSD1.F              3000:   Depth drilled with bit1
 DFT .     WATER BASE MUD:   Type fluid in hole
 DFD .                8.9:   Density
 TCS .HRS               8:   Time Circ. stopped
 MRT .F               115:   Maximum recorded temp.
 ENGI.           WACHTELL:   Recorded By
 WITN.           DINSMORE:   Witnessed by
 ORIG.      2.5" 5" PRINT:   Origin of data
 UWI .     49025108490000:   Unique Well ID
 DICO. A2D TECHNOLOGIES, INC.:   Digitizing Company
 PD  .                 GL:   Permanent Datum
 EPD .F              3051:   Elevation Permanent Datum
 LMF .                 KB:   Log Measured From
 DMF .                 KB:   Drilling Measured From
 DAPD.F                10:   Feet Above Permanent Datum
 DFV .                 43:   Viscosity
 DFPH.                9.5:   pH
 DFL .                7.2:   Fluid loss
 MSS .           FLOWLINE:   Source of sample
 RMS .OHMM             .9:   Rm
 MST .F                80:   Rm Meas. temp.
 RMF .OHMM            .72:   Rmf
 MFST.F                80:   Rmf Meas. temp.
 MFSS.               MEAS:   Source Rmf.
 RMC .OHMM           1.08:   Rmc
 MCST.F                80:   Rmc Meas. temp.
 MCSS.               MEAS:   Source Rmc.
 RMB .OHMM            .06:   Rm. at BHT
 BHT .F               115:   BHT.
 LUN .               1892:   Logging unit number
 LUL .             CASPER:   Logging unit location
~OTHER INFORMATION
~A   DEPT      SPR        ILD        ILM       SGRD        GRD       CALD       CORR       RHOB   
# ...
 2476.5000   -18.5061    13.4114    14.8459    15.4596    66.1169     9.4517     0.0998     2.5518
 2477.0000   -18.8214    13.5863    15.0452    17.2888    67.6912     9.3197     0.1117     2.5128
 2477.5000   -18.8393    13.5754    15.9277    18.5547    69.2804     9.2741     0.1146     2.5000
 2478.0000   -18.9224    13.5645    16.6001    19.6055    70.6147     9.2434     0.0980     2.5515
 2478.5000   -19.1726    13.5536    17.3170    20.5138    71.7391     9.2277     0.0964     2.5627
 2479.0000   -19.1905    13.7329    17.7406    21.3273    72.8636     9.2268     0.1008     2.4640
 2479.5000   -19.2083    13.7214    17.7278    19.8242    74.4378     9.2110     0.0917     2.4347
 2480.0000   -19.2262    13.5202    17.6024    18.2131    75.7871     9.2102     0.0288     2.4212
 2480.5000   -19.2474    13.3220    16.4942    17.7941    77.5862     9.2091     0.0563     2.4340
 2481.0000   -19.2646    13.3109    15.6072    17.1810    79.4272     9.2082     0.0899     2.4749
 2481.5000   -19.2818    13.2998    14.7523    16.6972    81.1844     9.2074     0.0973     2.4816
 2482.0000   -19.0013    13.2886    14.1398    16.2271    81.8591     9.2065     0.0553     2.4381
 2482.5000   -19.0185    13.2775    13.7429    15.9911    81.6342     9.2056     0.0537     2.4284
 2483.0000   -19.0357    13.0808    13.3571    15.7586    80.5097     9.1897     0.0671     2.4530
 2483.5000   -19.0536    12.7111    13.3441    15.3091    78.9355     9.1592     0.0987     2.4918
 2484.0000   -19.0240    12.5252    12.9740    14.8830    77.5862     9.1283     0.1326     2.5181
 2484.5000   -18.7896    12.3419    12.7864    14.6283    76.4080     9.0976     0.1415     2.5320
 2485.0000   -18.7153    12.1614    12.6016    14.3466    75.1124     9.0819     0.1459     2.5409
 2485.5000   -18.4123    12.1515    12.5937    13.5943    74.4378     9.0512     0.1547     2.5438
 2486.0000   -18.2500    12.1257    12.4116    13.1965    73.9880     9.0653     0.0709     2.5392
 2486.5000   -17.9702    11.9634    12.3169    12.9897    73.5382     9.1246     0.0873     2.5362
 2487.0000   -17.6905    11.9534    12.2230    12.8887    73.5382     9.2571     0.0767     2.5196
 2487.5000   -17.7108    11.8883    12.2157    12.8792    73.9880     9.3307     0.0527     2.4813
 2488.0000   -17.7280    11.6054    12.2083    13.2329    74.6959     9.3599     0.0227     2.4433
 2488.5000   -17.4476    11.2770    12.2009    13.5963    75.7871     9.2396     0.0151     2.4238
 2489.0000   -17.4648    10.9367    12.3650    13.9696    76.9115     9.1493     0.0419     2.4350
 2489.5000   -17.4885    10.6464    12.5307    14.3532    78.2609     9.1633     0.0687     2.4424
 2490.0000   -17.7976    10.6378    12.6988    14.5436    79.8351     9.1923     0.0965     2.4931
 2490.5000   -17.8155    10.6293    12.6649    14.5321    81.6342     9.2210     0.1298     2.5420
 2491.0000   -17.8333    10.3289    12.5071    14.2754    83.9009     9.2502     0.1431     2.5296
 2491.5000   -17.8512    10.0369    12.2740    13.5348    87.0315     9.2642     0.1550     2.5549
 2492.0000   -17.9920     9.8899    12.0831    13.0138    89.5052     9.3078     0.1504     2.5713
 2492.5000   -18.1845     9.8634    11.8069    12.3517    89.2804     9.3368     0.0995     2.5354
 2493.0000   -18.2024     9.7367    11.6362    12.0814    87.4813     9.3657     0.1071     2.5488
 2493.5000   -18.2233     9.7286    11.3080    12.4111    85.6822     9.3961     0.1097     2.5524
 2494.0000   -18.2404     9.7205    11.1448    12.7519    84.7826     9.4385     0.0797     2.5317
 2494.5000   -17.9583     9.6514    10.9840    12.7425    85.4696     9.4821     0.0677     2.5396
 2495.0000   -17.9772     9.4375    10.8255    12.7332    86.5817     9.5111     0.0676     2.5507
 2495.5000   -17.9944     9.1690    10.6692    12.7238    88.1559     9.5253     0.0690     2.5522
 2496.0000   -18.0119     9.0349    10.5152    12.3609    89.2804     9.3752     0.0765     2.5327
 2496.5000   -18.0298     8.9027    10.5086    12.0169    88.8306     9.1359     0.0926     2.5304
 2497.0000   -18.0476     8.8956    10.5020    11.9768    87.2564     9.1052     0.0985     2.5351
 2497.5000   -18.0655     8.8884    10.4566    11.7891    85.6822     9.1340     0.1149     2.5452
 2498.0000   -18.0833     8.8812    10.3437    11.6603    84.2972     9.2225     0.1551     2.5571
 2498.5000   -18.1012     8.8741    10.2762    11.7210    82.7586     9.2962     0.1864     2.6138
 2499.0000   -18.1190     8.9914    10.1878    12.1421    83.2084     9.3251     0.2133     2.6347
 2499.5000   -18.1404     9.1103    10.0393    12.6464    85.4573     9.3392     0.2415     2.6354
 2500.0000   -18.1576     9.1017     9.8944    12.2884    87.9310     9.3383     0.1726     2.6173
 2500.5000   -18.1748     9.1468     9.8884    11.7774    89.0555     9.3692     0.1531     2.5871
 2501.0000   -18.1920     9.2140     9.8825    11.2876    89.9550     9.3956     0.1575     2.5656
 2501.5000   -18.2092     9.3355     9.8765    11.2793    90.4788     9.4392     0.1559     2.5693
 2502.0000   -18.5240     9.3264     9.8706    11.4290    91.0706     9.4825     0.1214     2.5730
 2502.5000   -18.5412     9.3189     9.8644    11.5806    90.8430     9.5114     0.1004     2.5789
 2503.0000   -18.5237     9.3727     9.8587    11.5714    89.7164     9.5696     0.1017     2.5915
 2503.5000   -18.5066     9.4345     9.9941    11.7255    88.8147     9.6142     0.1256     2.6004
 2504.0000   -18.4896     9.4962    10.1206    11.7659    87.9130     9.5223     0.1434     2.5353
 2504.5000   -18.4726     9.5579    10.2530    11.8723    86.9939     9.4317     0.0865     2.5480
 2505.0000   -18.4555     9.6197    10.3898    12.0292    86.1090     9.4008     0.0655     2.5845
 2505.5000   -18.4385     9.6705    10.6806    12.0185    84.7575     9.3850     0.0470     2.5650
 2506.0000   -18.4215     9.5274    10.9992    12.1776    82.9563     9.4581     0.0309     2.4755
 2506.5000   -18.4044     9.5194    11.6423    12.2592    81.8297     9.5165     0.0577     2.5245
 2507.0000   -18.3874     9.5114    12.0781    12.5021    82.5022     9.4983     0.0591     2.5499
 2507.5000   -18.3704     9.5020    11.8552    12.4910    83.6318     9.4394     0.0575     2.5028
 2508.0000   -18.3686     9.4943    11.5112    12.6578    85.1960     9.4234     0.0335     2.4679
 2508.5000   -18.3824     9.4866    11.1772    12.6472    86.0933     9.4073    -0.0042     2.4492
 2509.0000   -18.3958     9.4789    10.8529    12.4632    86.9907     9.4062    -0.0206     2.4394
 2509.5000   -18.4092     9.6047    10.6168    12.4540    88.3379     9.4348    -0.0371     2.4334
 2510.0000   -18.4226     9.5964    10.4612    12.4448    89.2358     9.4784     0.0010     2.4430
 2510.5000   -18.4360     9.5886    10.6008    12.6213    89.6829     9.5071     0.0163     2.5073
 2511.0000   -18.4494     9.5806    10.8930    12.9560    88.2803     9.5208     0.0336     2.5625
 2511.5000   -18.4628     9.7074    11.5096    13.1278    85.6300     9.4747     0.0141     2.4885
 2512.0000   -18.4788     9.6988    12.3317    13.0684    84.0537     9.4288     0.0035     2.4750
 2512.5000   -18.4917     9.7247    12.6716    12.9257    82.4773     9.4277     0.0138     2.4832
 2513.0000   -18.5047    10.0000    12.6631    12.9158    80.9009     9.4265     0.0197     2.5100
 2513.5000   -18.5177    10.2306    11.9612    12.9059    78.8748     9.4552     0.0270     2.5213
 2514.0000   -18.5306    10.2205    11.4708    13.0767    77.0498     9.4985     0.0299     2.5008
 2514.5000   -18.5436    10.2841    11.9802    13.6216    76.1718     9.5423     0.0177     2.4987
 2515.0000   -18.5565    10.3466    12.4940    14.1917    79.3175     9.5710     0.0102     2.5188
 2515.5000   -18.5699    10.4830    12.9034    14.5813    81.3393     9.5099     0.0399     2.5345
 2516.0000   -18.5833    10.6212    13.4005    14.7747    82.9114     9.4343     0.0413     2.5247
 2516.5000   -18.5967    10.7612    13.2767    15.1803    84.7083     9.3884     0.0367     2.4978
