~VERSION INFORMATION
 VERS.                2.0:   CWLS LOG ASCII STANDARD - VERSION 2.0
 WRAP.                 NO:   ONE LINE PER DEPTH STEP
~WELL INFORMATION
#MNEM.UNIT      DATA TYPE    INFORMATION
#----------   ------------   ------------------------------
 STRT.F           44.0000:   START DEPTH
 STOP.F         6166.0000:   STOP DEPTH
 STEP.F            0.5000:   STEP LENGTH
 NULL.          -999.2500:   NO VALUE
 COMP.   TESORO PETROLEUM:   COMPANY
 WELL. TESORO 11X NPR #3-23:   WELL
 FLD .             TEAPOT:   FIELD
 LOC .      S23 T38N R78W:   LOCATION
 CNTY.            NATRONA:   COUNTY
 STAT.            WYOMING:   STATE
 CTRY. UNITED STATES OF AMERICA:   COUNTRY
 SRVC.       SCHLUMBERGER:   SERVICE COMPANY
 DATE.        29-OCT-1968:   LOGDATE
 API .     49025100170000:   API NUMBER
~CURVE INFORMATION
#MNEM.UNIT       API CODE    CURVE DESCRIPTION
#----------   ------------   ------------------------------
 DEPT.F                  :   
 SN  .OHMM   05 040 18 00:   SHORT NORMAL 18"
 RES .OHMM   05 000 00 00:   RESISTIVITY
 ILD .OHMM   05 120 46 00:   INDUCTION LOG DEEP RESISTIVITY
 SPR .MV     05 010 01 00:   SPONTANEOUS POTENTIAL FROM RES.
~PARAMETER INFORMATION
#MNEM.UNIT          VALUE    DESCRIPTION
#----------   ------------   ------------------------------
 EKB .F         5283.0000:   Kelly bushing
 EGL .F         5272.0000:   Ground level
 EDF .F            0.0000:   Drilling floor
 TD  .F         6171.0000:   Total depth
 CLNT.            A2DTECH:   Client Code
 SL  . 380' FNL & 380' FWL:   Surface Location
 PD  .                 GL:   Permanent Datum
 EPD .F              5272:   Elevation Permanent Datum
 LMF .                 KB:   Log Measured From
 DMF .                 KB:   Drilling Measured From
 DAPD.F                11:   Feet Above Permanent Datum
 DATE.        29-OCT-1968:   Date Logged [DD-MMM-YYYY]
 DD  .F              6171:   Depth driller
 DL  .F              6167:   Depth logger
 BLI .F              6166:   Bottom log interval
 TLI .F               975:   Top log interval
 CS1 .IN            10.75:   Casing size
 CBD1.      10.75" @ 975':   Casing driller 1
 CBL1.F               975:   Casing logger 1
 BS1 .IN            9.125:   Bit size
 BSD1.F              6171:   Depth drilled with bit1
 DFT .           GEL-CHEM:   Type fluid in hole
 DFD .                9.6:   Density
 DFV .                 61:   Viscosity
 DFPH.                 10:   pH
 DFL .                6.8:   Fluid loss
 MSS .           FLOWLINE:   Source of sample
 RMS .OHMM           0.89:   Rm
 MST .F                80:   Rm Meas. temp.
 RMF .OHMM           0.60:   Rmf
 MFST.F                80:   Rmf Meas. temp.
 MFSS.               MEAS:   Source Rmf.
 RMB .OHMM           0.45:   Rm. at BHT
 BHT .F               160:   BHT.
 TCS .HRS               4:   Time Circ. stopped
 MRT .F               160:   Maximum recorded temp.
 LUN .               7041:   Logging unit number
 LUL .               CSPR:   Logging unit location
 ENGI.            MANGOLD:   Recorded By
 WITN.                MAY:   Witnessed by
 ORIG.         2.5" PRINT:   Origin of data
 UWI .     49025100170000:   Unique Well ID
 DICO. A2D TECHNIOLOGIES,INC.:   Digitizing Company
~OTHER INFORMATION
~A  DEPTH       SN        RES        ILD        SPR
# ...
  482.0000     6.1697     7.6296     5.6775   -26.9697
  482.5000     6.1667     7.6235     5.6761   -27.2727
  483.0000     6.1634     7.7353     5.6746   -27.5758
  483.5000     6.1606     7.7654     5.6732   -27.8788
  484.0000     6.1576     7.7586     5.6717   -28.1818
  484.5000     6.1545     7.9071     5.6702   -28.1818
  485.0000     6.1515     7.9012     5.8208   -28.1818
  485.5000     6.1485     7.8951     5.8191   -28.1818
  486.0000     6.1455     7.8889     5.8764   -28.1818
  486.5000     6.1420     7.8827     5.9681   -28.1818
  487.0000     6.1392     7.8765     5.9666   -27.8788
  487.5000     6.1364     7.8704     6.1170   -27.5758
  488.0000     6.1333     7.8642     6.1153   -27.2727
  488.5000     6.1303     7.8580     5.9619   -26.9697
  489.0000     6.1273     7.8519     5.9604   -26.6667
  489.5000     6.1242     7.8457     5.9590   -26.6121
  490.0000     6.1212     7.8395     5.9574   -26.3636
  490.5000     6.1177     7.8333     5.8040   -26.0606
  491.0000     6.1149     7.8272     5.8024   -25.9273
  491.5000     6.1120     7.8198     5.8009   -25.9172
  492.0000     6.1091     7.8140     5.6849   -26.0606
  492.5000     6.1061     7.8082     5.6456   -26.3636
  493.0000     6.1030     7.9567     5.6442   -26.6667
  493.5000     6.1000     7.9506     5.4907   -26.9697
  494.0000     6.0970     7.9444     5.4893   -26.9697
  494.5000     6.0935     7.9383     5.4878   -26.9839
  495.0000     6.0906     7.9321     5.4863   -27.2727
  495.5000     6.0877     7.9259     5.4848   -27.2727
  496.0000     6.0848     7.9198     5.4833   -27.2727
  496.5000     6.0818     7.9136     5.4818   -27.2727
  497.0000     6.0788     7.9797     5.4802   -27.1273
  497.5000     6.0758     8.0556     5.4787   -26.9697
  498.0000     6.0727     8.0494     5.4545   -26.6667
  498.5000     6.0692     8.0432     5.4545   -26.3636
  499.0000     6.0663     8.0370     5.4545   -26.3636
  499.5000     6.0635     7.9117     5.3030   -26.0606
  500.0000     5.9684     7.8267     5.3030   -25.7576
  500.5000     5.8675     7.7650     5.1515   -25.7576
  501.0000     5.7476     7.7099     5.1515   -25.7576
  501.5000     5.8949     7.7068     5.1515   -25.7576
  502.0000     6.0424     7.7037     5.1515   -25.6525
  502.5000     6.0379     7.6550     5.1515   -25.4545
  503.0000     6.2051     7.5432     5.1515   -25.4516
  503.5000     6.3324     7.4762     5.1515   -25.4400
  504.0000     6.3273     7.3827     5.1515   -25.5717
  504.5000     6.4035     7.3796     5.1515   -26.2050
  505.0000     6.6212     7.3765     5.1515   -26.6359
  505.5000     6.6162     7.3735     5.1420   -26.9360
  506.0000     6.4605     7.3700     5.1234   -27.2362
  506.5000     6.4460     7.3671     5.1047   -27.5363
  507.0000     6.3000     7.5185     5.0860   -26.9273
  507.5000     6.2955     7.5154     5.0673   -26.6212
  508.0000     6.1394     7.4949     5.0486   -26.5374
  508.5000     6.0540     7.3549     5.0299   -26.2010
  509.0000     5.9788     7.3519     5.0112   -25.8646
  509.5000     5.9742     7.3488     5.0000   -25.7000
  510.0000     5.9697     7.3457     5.0000   -25.3935
  510.5000     5.9652     7.2794     5.0195   -25.3906
  511.0000     5.9606     7.1852     5.0592   -25.0847
  511.5000     5.9561     7.1007     5.0989   -25.0818
  512.0000     5.9515     7.0247     5.1386   -25.0788
  512.5000     5.9470     7.0216     5.1515   -25.0758
  513.0000     5.9420     7.1273     5.3030   -25.0727
  513.5000     5.9379     7.1698     5.6061   -25.0697
  514.0000     6.0850     7.1662     5.7576   -25.3697
  514.5000     6.2322     7.1632     5.9091   -25.5384
  515.0000     6.2273     7.1603     6.0606   -25.6667
  515.5000     6.2227     7.3117     6.0606   -25.6633
  516.0000     6.4152     7.3086     6.0606   -25.9636
  516.5000     6.5167     7.3056     6.0606   -25.9606
  517.0000     6.5118     7.3025     6.0606   -26.2607
  517.5000     6.5076     7.2994     6.0025   -25.9545
  518.0000     6.5030     7.3421     5.9091   -25.9515
  518.5000     6.4985     7.5024     5.9091   -25.6455
  519.0000     6.4939     7.5988     5.7576   -25.3394
  519.5000     6.4313     7.5957     5.7576   -25.0333
  520.0000     6.3326     7.5926     5.4545   -24.4238
  520.5000     6.3284     7.5895     5.4545   -24.4209
  521.0000     6.3241     7.5864     5.2939   -24.1150
  521.5000     6.3197     7.5833     5.1515   -23.8090
  522.0000     6.3152     7.5802     5.0000   -23.8061
  522.5000     6.3106     7.7310     5.0000   -23.8030
  523.0000     6.3414     7.7281     4.8485   -24.1838
  523.5000     6.4530     7.7252     4.8485   -24.4036
  524.0000     6.4485     7.7222     5.0000   -24.7030
  524.5000     6.4437     7.7293     5.1515   -25.0030
  525.0000     6.4394     7.8707     5.3030   -24.9995
  525.5000     6.4348     7.8673     5.4545   -24.9966
  526.0000     6.4303     7.9017     5.4545   -24.9937
  526.5000     6.4258     8.0154     5.4545   -24.9909
  527.0000     6.4212     8.0682     5.4545   -24.9879
  527.5000     6.4160     8.1636     5.4545   -24.9848
  528.0000     6.3515     8.1605     5.4545   -24.9818
  528.5000     6.2561     8.1574     5.4545   -24.9788
  529.0000     6.1000     8.1543     5.4545   -24.8343
  529.5000     6.0955     8.1512     5.4545   -24.3667
  530.0000     6.0909     8.1481     5.4545   -24.0601
  530.5000     6.0864     8.1451     5.3030   -23.7542
  531.0000     6.0818     8.1415     5.3030   -23.7513
  531.5000     6.1328     8.1386     5.3030   -23.1424
  532.0000     6.2242     7.9813     5.3030   -23.1394
  532.5000     6.2197     7.8241     5.3030   -22.8336
  533.0000     6.2152     7.8210     5.3030   -23.1337
  533.5000     6.3627     7.7977     5.3030   -23.1303
  534.0000     6.3576     7.6312     5.3030   -23.5717
  534.5000     6.3530     7.5031     5.3030   -23.9020
  535.0000     6.3478     7.5000     5.3030   -24.3329
  535.5000     6.3435     7.4969     5.4545   -24.6330
  536.0000     6.3394     7.4938     5.4545   -24.6301
  536.5000     6.3348     7.4907     5.3030   -24.6272
  537.0000     6.3303     7.4877     5.3030   -24.6242
  537.5000     6.3258     7.4846     5.3030   -24.6212
  538.0000     6.3212     7.4815     5.3030   -24.3152
  538.5000     6.3158     7.4784     5.3030   -24.0091
  539.0000     6.3121     7.5959     5.3030   -23.8646
  539.5000     6.3076     7.6265     5.3030   -23.5282
  540.0000     6.3030     7.7775     5.3030   -23.0904
  540.5000     6.2985     7.7746     5.3030   -22.7845
  541.0000     6.2939     7.7716     5.3030   -22.7816
  541.5000     6.2894     7.7685     5.3030   -22.4757
  542.0000     6.2848     7.7654     5.3030   -22.4727
  542.5000     6.2796     7.7623     5.3030   -22.4697
  543.0000     6.2758     7.7593     5.3505   -22.4667
  543.5000     6.4226     7.7562     5.4545   -22.4636
  544.0000     6.4182     7.7531     5.5313   -22.6020
  544.5000     6.4742     7.7500     5.7576   -22.9323
  545.0000     6.5613     7.7469     5.9091   -23.0606
  545.5000     6.5561     7.7438     5.9091   -23.3603
  546.0000     6.5818     7.7407     6.0606   -23.3574
  546.5000     6.6979     7.7377     6.2121   -23.6576
  547.0000     6.8452     7.7346     6.3636   -23.6545
  547.5000     6.8409     7.7315     6.5152   -23.6515
  548.0000     6.8364     7.7279     6.5576   -23.6485
  548.5000     6.8318     7.7250     6.6667   -23.6455
  549.0000     6.9242     7.7221     6.6667   -23.6424
  549.5000     7.0517     7.8735     6.6667   -23.6394
  550.0000     7.1212     7.8704     6.6667   -23.6359
  550.5000     7.1167     7.8893     6.6667   -23.3300
  551.0000     7.1593     8.0191     6.6667   -23.0240
  551.5000     7.2641     8.0154     6.6667   -23.0212
  552.0000     7.4065     7.9630     6.6667   -22.6950
  552.5000     7.4015     7.8549     6.6667   -22.3586
  553.0000     7.3970     7.8519     6.8182   -22.0222
  553.5000     7.3924     7.8488     6.9697   -21.7970
  554.0000     7.3873     7.9316     7.0364   -21.7939
  554.5000     7.3830     7.9969     7.2025   -22.5687
