~VERSION INFORMATION
 VERS.                2.0:   CWLS LOG ASCII STANDARD - VERSION 2.0
 WRAP.                 NO:   ONE LINE PER DEPTH STEP
~WELL INFORMATION
#MNEM.UNIT      DATA TYPE    INFORMATION
#----------   ------------   ------------------------------
 STRT.F           80.0000:   START DEPTH
 STOP.F         2730.0000:   STOP DEPTH
 STEP.F            0.5000:   STEP LENGTH
 NULL.          -999.2500:   NO VALUE
 COMP.          U.S. NAVY:   COMPANY
 WELL. US NPR 3 "AX" #57-20:   WELL
 FLD .             TEAPOT:   FIELD
 LOC .      S20 T39N R78W:   LOCATION
 CNTY.            NATRONA:   COUNTY
 STAT.            WYOMING:   STATE
 CTRY. UNITED STATES OF AMERICA:   COUNTRY
 SRVC.       SCHLUMBERGER:   SERVICE COMPANY
 DATE.        31-JUL-1964:   LOGDATE
 API .     49025066320000:   API NUMBER
~CURVE INFORMATION
#MNEM.UNIT       API CODE    CURVE DESCRIPTION
#----------   ------------   ------------------------------
 DEPT.F                  :   
 SPR .MV     01 010 01 00:   SPONTANEOUS POTENTIAL FROM RES.
 LN  .OHMM   01 060 39 00:   LONG NORMAL 39"
 ASN .OHMM   01 041 16 00:   AMPLIFIED SHORT NORMAL 16"
 LAT .OHMM   01 070 00 00:   LATERAL
 GRN .GAPI   35 310 30 00:   GAMMA RAY
 NEUT.NAPI   35 330 01 00:   NEUTRON
~PARAMETER INFORMATION
#MNEM.UNIT          VALUE    DESCRIPTION
#----------   ------------   ------------------------------
 EKB .F         5019.0000:   Kelly bushing
 EGL .F         5011.0000:   Ground level
 TD  .F         2696.0000:   Total depth
 DATE.        31-JUL-1964:   Date logged
 CLNT.            A2DTECH:   Client Code
 PD  .                 GL:   Permanent Datum
 EPD .F              5011:   Elevation Permanent Datum
 LMF .                 KB:   Log Measured From
 DMF .                 KB:   Drilling Measured From
 DAPD.F                 8:   Feet Above Permanent Datum
 DD  .F              2690:   Depth driller
 DL  .F              2696:   Depth logger
 BLI .F              2695:   Bottom log interval
 TLI .F                82:   Top log interval
 CS1 .IN            12.25:   Casing size
 CBD1.       12.25" @ 15':   Casing driller 1
 BS1 .IN               11:   Bit size
 BSD1.F              2690:   Depth drilled with bit1
 DFT .                GEL:   Type fluid in hole
 MSS .           FLOWLINE:   Source of sample
 RMS .OHMM           2.48:   Rm
 MST .F                83:   Rm Meas. temp.
 RMF .OHMM           1.87:   Rmf
 MFST.F                83:   Rmf Meas. temp.
 MFSS.                 FP:   Source Rmf.
 MCSS.                 FP:   Source Rmc.
 TCS .HRS               4:   Time Circ. stopped
 LUN .               3527:   Logging unit number
 LUL .               CSPR:   Logging unit location
 ENGI.            WINKLER:   Recorded By
 WITN.          GORGENSEN:   Witnessed by
 ORIG.         2.5" PRINT:   Origin of data
 UWI .     49025066320000:   Unique Well ID
 DICO.   A2D TECHNOLOGIES:   Digitizing Company
~OTHER INFORMATION
~A   DEPT      SPR         LN        ASN        LAT        GRN       NEUT   
# ...
  964.0000   -41.6020    11.8390    11.1870    12.6930  -999.2500  -999.2500
  964.5000   -41.6020    11.8740    11.1880    12.6500  -999.2500  -999.2500
  965.0000   -41.6020    11.8170    11.1880    12.6080  -999.2500  -999.2500
  965.5000   -41.6020    11.7690    11.1880    12.5800  -999.2500  -999.2500
  966.0000   -41.6020    11.7160    11.1880    12.6280  -999.2500  -999.2500
  966.5000   -41.6020    11.6660    11.1880    12.6690  -999.2500  -999.2500
  967.0000   -41.6020    11.6140    11.1880    12.7140  -999.2500  -999.2500
  967.5000   -41.6020    11.5630    11.1880    12.7570  -999.2500  -999.2500
  968.0000   -41.6020    11.5120    11.1880    12.8010  -999.2500  -999.2500
  968.5000   -41.6020    11.4610    11.1890    12.8440  -999.2500  -999.2500
  969.0000   -41.6020    11.4100    11.1850    12.8880  -999.2500  -999.2500
  969.5000   -41.6020    11.3590    11.1930    12.9310  -999.2500  -999.2500
  970.0000   -41.6020    11.3080    11.1780    12.9680  -999.2500  -999.2500
  970.5000   -41.6020    11.2570    11.2060    12.9700  -999.2500  -999.2500
  971.0000   -41.6020    11.2060    11.0320    12.9700  -999.2500  -999.2500
  971.5000   -41.6020    11.1540    10.9840    12.9700  -999.2500  -999.2500
  972.0000   -41.6020    11.1030    10.9910    12.9700  -999.2500  -999.2500
  972.5000   -41.6020    11.0520    10.9740    12.9700  -999.2500  -999.2500
  973.0000   -41.6020    11.0010    10.7820    12.9700  -999.2500  -999.2500
  973.5000   -41.6020    10.9500    10.6080    12.9700  -999.2500  -999.2500
  974.0000   -41.6020    10.8990    10.5780    12.9700  -999.2500  -999.2500
  974.5000   -41.6020    10.8480    10.3930    12.9700  -999.2500  -999.2500
  975.0000   -41.6020    10.7960    10.2000    12.9700  -999.2500  -999.2500
  975.5000   -41.6020    10.7460     9.9990    12.9700  -999.2500  -999.2500
  976.0000   -41.6020    10.6990     9.7800    12.9700  -999.2500  -999.2500
  976.5000   -41.6020    10.7230     9.5610    12.9700  -999.2500  -999.2500
  977.0000   -41.6020    10.7530     9.3380    12.9690  -999.2500  -999.2500
  977.5000   -41.6020    10.7840     9.2360    12.9710  -999.2500  -999.2500
  978.0000   -41.6020    10.8130     9.1480    12.9690  -999.2500  -999.2500
  978.5000   -41.6020    10.8440     9.2910    12.9630  -999.2500  -999.2500
  979.0000   -41.6020    10.8730     9.4640    12.8490  -999.2500  -999.2500
  979.5000   -41.6020    10.9040     9.6420    12.7180  -999.2500  -999.2500
  980.0000   -41.6020    10.9330     9.7900    12.5880  -999.2500  -999.2500
  980.5000   -41.6020    10.9640    10.0850    12.4560  -999.2500  -999.2500
  981.0000   -41.6020    10.9930    10.6170    12.3280  -999.2500  -999.2500
  981.5000   -41.6020    11.0250    10.9320    12.1910  -999.2500  -999.2500
  982.0000   -41.6020    11.0530    10.9960    12.1790  -999.2500  -999.2500
  982.5000   -41.6020    11.0840    10.9820    12.1780  -999.2500  -999.2500
  983.0000   -41.6020    11.0370    10.8030    12.1800  -999.2500  -999.2500
  983.5000   -41.6020    10.9760    10.6230    12.1780  -999.2500  -999.2500
  984.0000   -41.6020    10.9140    10.4070    12.1790  -999.2500  -999.2500
  984.5000   -41.6020    10.8530    10.2100    12.1800  -999.2500  -999.2500
  985.0000   -41.6020    10.7920     9.9900    12.2100  -999.2500  -999.2500
  985.5000   -41.6020    10.7310     9.8850    12.2500  -999.2500  -999.2500
  986.0000   -41.6020    10.6690     9.7600    12.2880  -999.2500  -999.2500
  986.5000   -41.6020    10.6080     9.6560    12.3280  -999.2500  -999.2500
  987.0000   -41.6020    10.5470     9.5440    12.3680  -999.2500  -999.2500
  987.5000   -41.6020    10.4860     9.4360    12.4480  -999.2500  -999.2500
  988.0000   -41.6020    10.4250     9.4050    12.5470  -999.2500  -999.2500
  988.5000   -41.6020    10.3630     9.4490    12.5760  -999.2500  -999.2500
  989.0000   -41.6020    10.3020     9.5070    12.5440  -999.2500  -999.2500
  989.5000   -41.6020    10.2410     9.5300    12.5010  -999.2500  -999.2500
  990.0000   -41.6020    10.1800     9.4870    12.4590  -999.2500  -999.2500
  990.5000   -41.6020    10.1200     9.4270    12.4170  -999.2500  -999.2500
  991.0000   -41.6020    10.0810     9.3620    12.3750  -999.2500  -999.2500
  991.5000   -41.6020    10.0520     9.2860    12.3340  -999.2500  -999.2500
  992.0000   -41.6020    10.0240     9.2160    12.2920  -999.2500  -999.2500
  992.5000   -41.6020     9.9960     9.1460    12.2500  -999.2500  -999.2500
  993.0000   -41.6020     9.9680     9.0750    12.2080  -999.2500  -999.2500
  993.5000   -41.6010     9.9400     9.0390    12.1660  -999.2500  -999.2500
  994.0000   -41.6060     9.9110     9.0240    12.1240  -999.2500  -999.2500
  994.5000   -41.6150     9.8830     9.0090    12.0820  -999.2500  -999.2500
  995.0000   -41.6230     9.8550     8.9900    12.0400  -999.2500  -999.2500
  995.5000   -41.6300     9.8270     8.9830    11.9980  -999.2500  -999.2500
  996.0000   -41.6380     9.7990     8.9250    11.9620  -999.2500  -999.2500
  996.5000   -41.6460     9.7710     8.9110    11.9280  -999.2500  -999.2500
  997.0000   -41.6540     9.7430     8.9680    11.8960  -999.2500  -999.2500
  997.5000   -41.6620     9.7150     9.0120    11.8630  -999.2500  -999.2500
  998.0000   -41.6690     9.6870     9.0580    11.8310  -999.2500  -999.2500
  998.5000   -41.6770     9.6590     9.1090    11.7970  -999.2500  -999.2500
  999.0000   -41.6850     9.6310     9.1180    11.7810  -999.2500  -999.2500
  999.5000   -41.6930     9.6030     9.0870    11.7830  -999.2500  -999.2500
 1000.0000   -41.7010     9.5750     9.0620    11.7820  -999.2500  -999.2500
 1000.5000   -41.7090     9.5470     9.0360    11.7820  -999.2500  -999.2500
 1001.0000   -41.7160     9.5180     9.0080    11.7820  -999.2500  -999.2500
 1001.5000   -41.7240     9.5040     8.9880    11.7810  -999.2500  -999.2500
 1002.0000   -41.7320     9.5060     8.9270    11.7840  -999.2500  -999.2500
 1002.5000   -41.7400     9.5050     8.9100    11.7580  -999.2500  -999.2500
 1003.0000   -41.7480     9.5050     8.9660    11.7050  -999.2500  -999.2500
 1003.5000   -41.7550     9.5050     9.0110    11.6570  -999.2500  -999.2500
 1004.0000   -41.7630     9.5050     9.0580    11.6060  -999.2500  -999.2500
 1004.5000   -41.7710     9.5050     9.1100    11.5570  -999.2500  -999.2500
 1005.0000   -41.7790     9.5050     9.1150    11.5080  -999.2500  -999.2500
 1005.5000   -41.7870     9.5050     9.0810    11.4550  -999.2500  -999.2500
 1006.0000   -41.7940     9.5050     9.0510    11.4130  -999.2500  -999.2500
 1006.5000   -41.8020     9.5050     9.0260    11.3170  -999.2500  -999.2500
 1007.0000   -41.8100     9.5050     8.9610    11.1770  -999.2500  -999.2500
 1007.5000   -41.8180     9.5050     8.8630    11.0480  -999.2500  -999.2500
 1008.0000   -41.8260     9.5050     8.7730    10.9340  -999.2500  -999.2500
 1008.5000   -41.8340     9.5050     8.6770    10.8330  -999.2500  -999.2500
 1009.0000   -41.8410     9.5050     8.5920    10.7340  -999.2500  -999.2500
 1009.5000   -41.8490     9.5050     8.4810    10.6340  -999.2500  -999.2500
 1010.0000   -41.8570     9.5050     8.5530    10.5360  -999.2500  -999.2500
 1010.5000   -41.8650     9.5050     8.7530    10.4350  -999.2500  -999.2500
 1011.0000   -41.8730     9.5050     8.9430    10.3780  -999.2500  -999.2500
 1011.5000   -41.8800     9.5050     8.9800    10.3510  -999.2500  -999.2500
 1012.0000   -41.8880     9.5060     8.8990    10.3220  -999.2500  -999.2500
 1012.5000   -41.8960     9.5030     8.8380    10.2940  -999.2500  -999.2500
 1013.0000   -41.9040     9.5270     8.7710    10.2650  -999.2500  -999.2500
 1013.5000   -41.9120     9.5710     8.7030    10.2370  -999.2500  -999.2500
 1014.0000   -41.9190     9.6090     8.6410    10.2080  -999.2500  -999.2500
 1014.5000   -41.9270     9.6490     8.6040    10.1800  -999.2500  -999.2500
 1015.0000   -41.9350     9.6890     8.6950    10.1520  -999.2500  -999.2500
 1015.5000   -41.9430     9.7290     8.8470    10.1230  -999.2500  -999.2500
