~VERSION INFORMATION
 VERS.                2.0:   CWLS LOG ASCII STANDARD - VERSION 2.0
 WRAP.                 NO:   ONE LINE PER DEPTH STEP
~WELL INFORMATION
#MNEM.UNIT      DATA TYPE    INFORMATION
#----------   ------------   ------------------------------
 STRT.F          298.0000:   START DEPTH
 STOP.F         3084.0000:   STOP DEPTH
 STEP.F            0.5000:   STEP LENGTH
 NULL.          -999.2500:   NO VALUE
 COMP. LAWERNCE ALLISON AND ASSOCIATED:   COMPANY
 WELL. LAWERNCE "TX" #77-20:   WELL
 FLD .        TEAPOT DOME:   FIELD
 LOC .      S20 T39N R78W:   LOCATION
 CNTY.            NATRONA:   COUNTY
 STAT.            WYOMING:   STATE
 CTRY. UNITED STATES OF AMERICA:   COUNTRY
 SRVC.       SCHLUMBERGER:   SERVICE COMPANY
 DATE.        22-JAN-1982:   LOGDATE
 API .     49025108840000:   API NUMBER
~CURVE INFORMATION
#MNEM.UNIT       API CODE    CURVE DESCRIPTION
#----------   ------------   ------------------------------
 DEPT.F                  :   
 CALD.IN     45 280 60 00:   CALIPER FROM DENSITY LOG
 GRD .GAPI   45 310 01 00:   GAMMA RAY FROM DENSITY LOG
 TEND.LBS    45 635 01 00:   TENSION FROM DENSITY LOG
 RHOB.G/C3   45 350 01 00:   BULK DENSITY
 NPHI.DEC    42 890 03 00:   NEUTRON POROSITY SANDSTONE
 CORR.G/C3   45 356 01 00:   DENSITY CORRECTION
 SFLU.OHMM   07 220 01 00:   SPHERICALLY FOCUSED LOG UNAVERAGED RESISTIVITY
 ILD .OHMM   07 120 46 00:   INDUCTION LOG DEEP RESISTIVITY
 ILM .OHMM   07 120 44 00:   INDUCTION LOG MEDIUM RESISTIVITY
 TENR.LBS    07 635 01 00:   TENSION
 SPR .MV     07 010 01 00:   SPONTANEOUS POTENTIAL
~PARAMETER INFORMATION
#MNEM.UNIT          VALUE    DESCRIPTION
#----------   ------------   ------------------------------
 EKB .F         5022.0000:   Kelly bushing
 EGL .F         5012.0000:   Ground level
 EDF .F         5021.0000:   Drilling floor
 TD  .F         3079.0000:   Total depth
 DATE.        22-JAN-1982:   Date logged
 CLNT.            A2DTECH:   Client Code
 SL  . 986' FSL & 779' FEL:   Surface Location
 PD  .                 GL:   Permanent Datum
 EPD .F              5012:   Elevation Permanent Datum
 LMF .                 KB:   Log Measured From
 DMF .                 KB:   Drilling Measured From
 DAPD.F                10:   Feet Above Permanent Datum
 DD  .F              3079:   Depth driller
 DL  .F              3070:   Depth logger
 BLI .F              3064:   Bottom log interval
 TLI .F               328:   Top log interval
 CS1 .IN            9.625:   Casing size
 CBD1.      9.625" @ 300':   Casing driller 1
 CBL1.F               328:   Casing logger 1
 BS1 .IN            7.875:   Bit size
 BSD1.F              3079:   Depth drilled with bit1
 DFT .           CHEM/GEL:   Type fluid in hole
 DFD .                8.9:   Density
 DFV .                 50:   Viscosity
 DFPH.               10.5:   pH
 DFL .                  8:   Fluid loss
 MSS .           FLOWLINE:   Source of sample
 RMS .OHMM           2.53:   Rm
 MST .F                49:   Rm Meas. temp.
 RMF .OHMM           2.04:   Rmf
 MFST.F                49:   Rmf Meas. temp.
 RMC .OHMM           3.80:   Rmc
 MCST.F                49:   Rmc Meas. temp.
 MFSS.               MEAS:   Source Rmf.
 MCSS.               CALC:   Source Rmc.
 RMB .OHMM           1.04:   Rm. at BHT
 BHT .F               119:   BHT.
 TCS .HRS            0330:   Time Circ. stopped
 TLAB.HRS            0800:   Time logger at bottom
 MRT .F               119:   Maximum recorded temp.
 LUN .               8043:   Logging unit number
 LUL .               CSPR:   Logging unit location
 ENGI.            PERAKIS:   Recorded By
 WITN.              SCOTT:   Witnessed by
 ORIG.           5" PRINT:   Origin of data
 UWI .     49025108840000:   Unique Well ID
 DICO. A2D TECHNOLOGIES, INC.:   Digitizing Company
~OTHER INFORMATION
~A   DEPT       CALD       GRD      TEND         RHOB       NPHI     CORR       SFLU        ILD        ILM       TENR        SPR   
# ...
 1243.5000    10.9050    92.8100   802.0300     2.5390     0.2960     0.0300     8.2730     7.6580     7.7920   771.1040   -20.0750
 1244.0000    10.9130    94.6780   802.0300     2.5540     0.3090     0.0370     8.2730     7.6630     7.8020   764.7460   -20.4680
 1244.5000    10.9210    94.9610   802.0300     2.5330     0.3200     0.0330     8.3140     7.6680     7.8110   758.3880   -20.8640
 1245.0000    10.9280    93.5460   802.0300     2.5100     0.3160     0.0190     8.3740     7.6720     7.8210   752.0300   -20.9690
 1245.5000    10.9030    92.1630   801.2960     2.4970     0.3080     0.0040     8.4290     7.6770     7.8310   745.6730   -20.7580
 1246.0000    10.8790    90.7940   798.2920     2.4950     0.3040     0.0010     8.3310     7.6850     7.8400   743.4230   -20.3090
 1246.5000    10.8540    89.7700   795.2880     2.4990     0.3010     0.0010     8.2210     7.6970     7.8500   751.5610   -19.8640
 1247.0000    10.8300    90.1710   792.2840     2.5040     0.3010     0.0080     8.0440     7.7090     7.8600   759.6990   -19.4170
 1247.5000    10.8350    91.7470   789.2800     2.5120     0.3010     0.0150     8.0190     7.7200     7.8690   767.8380   -19.1790
 1248.0000    10.8450    93.1070   786.2770     2.5250     0.3010     0.0230     7.9950     7.7320     7.8790   775.9760   -19.5530
 1248.5000    10.8540    92.6780   783.2730     2.5300     0.3020     0.0300     7.9700     7.7430     7.8890   781.7260   -20.0750
 1249.0000    10.8630    92.2250   806.4970     2.5230     0.3020     0.0300     8.1580     7.7740     7.8950   799.9190   -20.6070
 1249.5000    10.8730    91.7070   842.6400     2.5120     0.2980     0.0210     8.4300     7.8590     8.0230   820.2640   -21.1480
 1250.0000    10.8810    91.0210   822.3350     2.5000     0.2950     0.0110     8.7020     7.9700     8.1960   779.9350   -20.9360
 1250.5000    10.8810    91.2790   761.4210     2.5010     0.2970     0.0060     8.9990     7.9220     8.1440   721.7400   -20.4280
 1251.0000    10.8510    91.5860   762.5710     2.5090     0.2990     0.0170     8.9990     7.8280     8.0390   730.5440   -20.1860
 1251.5000    10.8230    89.9860   766.4020     2.5170     0.3010     0.0300     8.9580     7.7340     7.9350   739.3490   -20.3080
 1252.0000    10.7940    87.6850   770.2330     2.5210     0.2940     0.0430     8.6090     7.6400     7.8300   748.1530   -20.7670
 1252.5000    10.7880    85.3210   774.0640     2.5240     0.2930     0.0500     8.2590     7.5460     7.6770   756.9580   -21.2130
 1253.0000    10.7900    86.1360   777.8950     2.5270     0.2970     0.0500     7.9100     7.4650     7.7110   765.7620   -21.6670
 1253.5000    10.7920    89.0150   781.7260     2.5280     0.3020     0.0510     7.7490     7.5230     7.7760   774.5670   -21.6940
 1254.0000    10.7940    91.4420   785.5570     2.5270     0.3070     0.0500     7.8070     7.6010     7.8400   783.3710   -21.4780
 1254.5000    10.7960    92.8630   789.3880     2.5240     0.3030     0.0500     8.2000     7.6790     7.9040   792.1760   -21.2620
 1255.0000    10.7990    94.3350   793.2190     2.5140     0.3000     0.0410     8.5930     7.7570     7.9680   800.9800   -20.8970
 1255.5000    10.8010    93.8450   797.0500     2.4980     0.2950     0.0330     8.9990     7.8350     8.0320   809.7850   -20.4280
 1256.0000    10.8030    92.2530   800.8810     2.4880     0.2900     0.0250     8.9990     7.9140     8.0960   818.5890   -19.9530
 1256.5000    10.8050    89.0980   800.2900     2.4980     0.2880     0.0210     8.8250     7.9920     8.1600   804.2800   -19.4080
 1257.0000    10.8090    86.5110   794.4890     2.5150     0.2940     0.0320     8.6450     8.0700     8.2240   772.8540   -19.4890
 1257.5000    10.8230    86.2980   788.6870     2.5330     0.2980     0.0430     8.4660     8.1480     8.2880   741.1170   -19.6820
 1258.0000    10.8370    86.5110   782.8860     2.5470     0.3040     0.0650     8.4290     8.2730     8.3520   744.6760   -19.9410
 1258.5000    10.8510    86.7020   777.0850     2.5570     0.3110     0.0860     8.7930     8.2570     8.4290   750.6840   -20.0370
 1259.0000    10.8650    85.0910   771.2840     2.5440     0.3080     0.0740     9.1570     8.2160     8.3970   756.6920   -20.1160
 1259.5000    10.8790    83.3170   765.4820     2.5220     0.3010     0.0570     9.5170     8.1750     8.3580   762.6990   -20.1890
 1260.0000    10.8990    81.5610   771.5740     2.5070     0.2800     0.0390     9.5170     8.1340     8.3190   768.7070   -20.4200
 1260.5000    10.9340    80.2480   783.8020     2.5000     0.2710     0.0390     9.1740     8.0940     8.2800   774.7150   -20.6530
 1261.0000    10.9680    81.3760   786.1100     2.4970     0.2650     0.0390     8.8370     8.0530     8.2400   780.7230   -20.8850
 1261.5000    11.0020    82.7560   788.4170     2.4950     0.2720     0.0410     8.5000     8.0120     8.2010   786.7300   -21.1170
 1262.0000    11.0130    84.3880   790.7250     2.4940     0.2920     0.0430     8.1640     7.9710     8.1620   792.7380   -21.3440
 1262.5000    10.8970    86.4490   793.0320     2.4940     0.2990     0.0450     7.9700     7.9300     8.1220   798.7460   -21.4500
 1263.0000    10.7810    89.4680   795.3390     2.5000     0.2990     0.0490     8.1390     7.8900     8.0830   795.8580   -21.5610
 1263.5000    10.6950    92.7010   797.6470     2.5090     0.2950     0.0550     8.5120     7.8490     8.0440   782.2400   -21.6740
 1264.0000    10.6710    90.2990   799.9540     2.5240     0.2950     0.0600     8.8860     7.8080     8.0040   768.6230   -21.7630
 1264.5000    10.6450    85.0820   802.0300     2.5330     0.2980     0.0640     9.0830     7.7670     7.9650   762.4330   -21.3590
 1265.0000    10.6200    84.5730   804.6890     2.5340     0.2980     0.0660     9.0830     7.7270     7.9260   766.1470   -20.9130
 1265.5000    10.5940    87.5200   807.1070     2.5390     0.2990     0.0750     8.6320     7.6860     7.8870   769.8610   -20.4690
 1266.0000    10.5850    90.7920   809.5240     2.5530     0.2880     0.0880     8.0940     7.6450     7.8470   773.5750   -20.1840
 1266.5000    10.5910    92.5730   811.9410     2.5580     0.2830     0.0830     7.7490     7.6040     7.8080   777.2880   -20.2560
 1267.0000    10.5960    90.8710   814.3580     2.5490     0.2860     0.0740     7.7490     7.5630     7.7490   781.0020   -20.3310
 1267.5000    10.6010    88.7270   816.7750     2.5330     0.2920     0.0640     7.8780     7.5350     7.7830   784.7160   -20.5430
 1268.0000    10.6010    86.5750   819.1930     2.5250     0.2950     0.0580     8.2970     7.6200     7.8500   788.4300   -20.4900
 1268.5000    10.5950    85.1960   821.6100     2.5290     0.2990     0.0530     8.7160     7.6850     7.9170   792.1440   -20.3720
 1269.0000    10.5880    85.2240   819.3490     2.5300     0.2890     0.0480     8.9150     7.7510     7.9840   795.8580   -20.2560
 1269.5000    10.5810    85.9220   813.3770     2.5330     0.2790     0.0470     8.6510     7.8160     8.0510   799.5720   -20.1380
 1270.0000    10.5750    87.8580   807.4050     2.5380     0.2840     0.0490     8.3510     7.8810     8.1180   793.4010   -20.0040
 1270.5000    10.5680    89.7190   802.0300     2.5370     0.2930     0.0620     8.9150     7.9460     8.1850   767.8680   -20.2950
 1271.0000    10.5680    89.3530   764.8050     2.5300     0.3030     0.0530     8.9150     8.0110     8.2520   761.9930   -20.5650
 1271.5000    10.6000    87.1450   741.1170     2.5180     0.3110     0.0410     8.5770     8.0760     8.3190   765.7760   -20.8420
 1272.0000    10.6320    85.2450   779.1880     2.5140     0.2960     0.0350     8.3510     8.1410     8.3860   769.5580   -21.1160
 1272.5000    10.6680    85.6500   802.0300     2.5230     0.2880     0.0490     8.6400     8.2060     8.4530   773.3410   -21.3680
 1273.0000    10.6780    85.9070   802.9260     2.5340     0.2850     0.0760     9.1490     8.2710     8.5200   777.1240   -21.3710
 1273.5000    10.6450    84.6180   805.9120     2.5340     0.2880     0.0770     9.9140     8.3510     8.5880   780.9060   -21.2790
