~VERSION INFORMATION
 VERS.                2.0:   CWLS LOG ASCII STANDARD - VERSION 2.0
 WRAP.                 NO:   ONE LINE PER DEPTH STEP
~WELL INFORMATION
#MNEM.UNIT      DATA TYPE    INFORMATION
#----------   ------------   ------------------------------
 STRT.F            0.0000:   START DEPTH
 STOP.F         3504.0000:   STOP DEPTH
 STEP.F            0.5000:   STEP LENGTH
 NULL.          -999.2500:   NO VALUE
 COMP. LAWRENCE-ALLISON AND ASSOCIATES:   COMPANY
 WELL. LAWRENCE "TX" #16-34:   WELL
 FLD .              NPR 3:   FIELD
 LOC .      S34 T39N R78W:   LOCATION
 CNTY.            NATRONA:   COUNTY
 STAT.            WYOMING:   STATE
 CTRY. UNITED STATES OF AMERICA:   COUNTRY
 SRVC.       SCHLUMBERGER:   SERVICE COMPANY
 DATE.        10-APR-1982:   LOGDATE
 API .     49025108970000:   API NUMBER
~CURVE INFORMATION
#MNEM.UNIT       API CODE    CURVE DESCRIPTION
#----------   ------------   ------------------------------
 DEPT.F                  :   
 SPR .MV     07 010 01 00:   SPONTANEOUS POTENTIAL
 ILD .OHMM   07 120 46 00:   DEEP INDUCTION RESISTIVITY
 SFLU.OHMM   07 220 01 00:   SPHERICALLY FOCUSED LOG UNAVERAGED RESISTIVITY
 TENR.LBS    07 635 01 00:   TENSION FROM RESISTIVITY
 ILM .OHMM   07 120 44 00:   INDUCTION LOG MEDIUM RESISTIVITY
 GRD .GAPI   45 310 01 00:   GAMMA RAY FROM DENSITY LOG
 CALD.IN     45 280 60 00:   CALIPER FROM DENSITY LOG
 RHOB.G/C3   45 350 01 00:   BULK DENSITY
 CORR.G/C3   45 356 01 00:   DENSITY CORRECTION
 TEND.LBS    45 635 01 00:   TENSION FROM DENSITY LOG
 NPHI.DEC    42 890 03 00:   NEUTRON POROSITY SANDSTONE
~PARAMETER INFORMATION
#MNEM.UNIT          VALUE    DESCRIPTION
#----------   ------------   ------------------------------
 EKB .F         5149.0000:   Kelly bushing
 EGL .F         5139.0000:   Ground level
 EDF .F            0.0000:   Drilling floor
 TD  .F         3500.0000:   Total depth
 DATE.        10-APR-1982:   Date logged
 CLNT.            A2DTECH:   Client Code
 SL  . 1406' FSL & 423' FWL:   Surface Location
 PD  .                 GL:   Permanent Datum
 EPD .F              5139:   Elevation Permanent Datum
 LMF .                 KB:   Log Measured From
 DMF .                 KB:   Drilling Measured From
 DAPD.F                10:   Feet Above Permanent Datum
 DD  .F              3500:   Depth driller
 DL  .F              3497:   Depth logger
 BLI .F              3491:   Bottom log interval
 TLI .F               658:   Top log interval
 CS1 .IN            9.625:   Casing size
 CBD1.      9.625" @ 632':   Casing driller 1
 CBL1.F               658:   Casing logger 1
 BS1 .IN             8.75:   Bit size
 BSD1.F              3500:   Depth drilled with bit1
 DFT .           SPUD MUD:   Type fluid in hole
 DFD .                  9:   Density
 DFV .                 44:   Viscosity
 DFPH.                 10:   pH
 DFL .                  7:   Fluid loss
 MSS .           FLOWLINE:   Source of sample
 RMS .OHMM              2:   Rm
 MST .F                53:   Rm Meas. temp.
 RMF .OHMM            1.9:   Rmf
 MFST.F                53:   Rmf Meas. temp.
 RMC .OHMM            1.5:   Rmc
 MCST.F                53:   Rmc Meas. temp.
 MFSS.               MEAS:   Source Rmf.
 MCSS.               CALC:   Source Rmc.
 RMB .OHMM              1:   Rm. at BHT
 BHT .F               106:   BHT.
 TCS .HRS            1100:   Time Circ. stopped
 TLAB.HRS            1330:   Time logger at bottom
 MRT .F               106:   Maximum recorded temp.
 LUN .               8151:   Logging unit number
 LUL .                GLT:   Logging unit location
 ENGI.            NEUFFER:   Recorded By
 WITN.           JENNINGS:   Witnessed by
 ORIG.           5" PRINT:   Origin of data
 UWI .     49025108970000:   Unique Well ID
 DICO. A2D TECHNOLOGIES, INC.:   Digitizing Company
~OTHER INFORMATION
~A    DEPT     SPR        ILD       SFLU       TENR        ILM        GRD       CALD       RHOB       CORR       TEND       NPHI   
# ...
 1189.5000   -11.4290     9.0650     9.8580  1008.9540     9.3190   102.0160    10.1060     2.5080     0.0120   900.0000     0.3200
 1190.0000   -11.4250     9.0650     9.8290  1009.1910     9.3190   102.4470    10.1090     2.5220     0.0120   900.0000     0.3320
 1190.5000   -11.4220     9.0650     9.8000  1009.4280     9.3190   102.9760    10.1110     2.5190     0.0130   900.0000     0.3380
 1191.0000   -11.4180     9.0650     9.7710  1009.6640     9.3190   104.3480    10.1370     2.5150     0.0160   900.0000     0.3250
 1191.5000   -11.4150     9.0550     9.7420  1009.9010     9.3080   105.5550    10.1650     2.5150     0.0210   900.0000     0.3200
 1192.0000   -11.4110     9.0290     9.7120  1010.1380     9.2810   104.8180    10.1930     2.5140     0.0210   900.0000     0.3150
 1192.5000   -11.4080     9.0030     9.6830  1010.3740     9.2550   102.6620    10.2220     2.5140     0.0210   900.0000     0.3110
 1193.0000   -11.4050     8.9740     9.6540  1010.6110     9.2250   101.0430    10.2500     2.5230     0.0260   900.0000     0.3120
 1193.5000   -11.4010     8.9340     9.6250  1010.8480     9.1840   100.8680    10.2790     2.5330     0.0350   900.0000     0.3110
 1194.0000   -11.3980     8.8940     9.5960  1011.0840     9.1430   101.3720    10.2900     2.5340     0.0410   900.0000     0.3070
 1194.5000   -11.3940     8.8540     9.5660  1011.3210     9.1020   101.3190    10.2900     2.5260     0.0360   900.0000     0.3040
 1195.0000   -11.3910     8.8140     9.5370  1011.5580     9.0610   101.1620    10.2900     2.5270     0.0350   900.0000     0.3120
 1195.5000   -11.3870     8.7750     9.5080  1011.7940     9.0200   101.8780    10.3080     2.5410     0.0370   900.0000     0.3210
 1196.0000   -11.3840     8.7350     9.4460  1012.0310     8.9790   103.2990    10.3310     2.5580     0.0470   900.0000     0.3220
 1196.5000   -11.3800     8.6950     9.3430  1012.2680     8.9380   106.1000    10.3540     2.5620     0.0520   900.0000     0.3190
 1197.0000   -11.3770     8.6550     9.2400  1012.5040     8.8980   108.5530    10.3660     2.5540     0.0520   900.0000     0.3150
 1197.5000   -11.3740     8.6160     9.1380  1012.7410     8.8570   107.8980    10.3580     2.5440     0.0460   900.0000     0.3130
 1198.0000   -11.3700     8.5760     9.0350  1012.9780     8.8160   105.8890    10.3490     2.5310     0.0370   900.0000     0.3180
 1198.5000   -11.3670     8.5360     8.9000  1013.2150     8.7750   104.3630    10.3100     2.5170     0.0210   900.0000     0.3250
 1199.0000   -11.3630     8.5000     9.0670  1013.4510     8.7380   103.2480    10.1800     2.5130     0.0060   900.0000     0.3320
 1199.5000   -11.3600     8.4390     9.3110  1013.6880     8.6760   104.8850    10.1490     2.5140     0.0020   900.0000     0.3320
 1200.0000   -11.3560     8.3840     9.5800  1013.9250     8.6190   111.6280    10.1470     2.5190     0.0020   900.0000     0.3290
 1200.5000   -11.3530     8.3290     9.4320  1014.1610     8.5620   116.1040    10.1770     2.5240     0.0100   900.0000     0.3280
 1201.0000   -11.3490     8.2680     9.2220  1014.3980     8.5000   112.0320    10.2070     2.5280     0.0210   900.0000     0.3320
 1201.5000   -11.3460     8.2250     9.0110  1014.6350     8.4550   108.9460    10.2360     2.5270     0.0330   900.0000     0.3450
 1202.0000   -11.3420     8.1770     8.8010  1014.8710     8.4050   106.1950    10.2660     2.5260     0.0410   900.0000     0.3590
 1202.5000   -11.3390     8.1290     8.6580  1015.1080     8.3560   107.5400    10.2960     2.5240     0.0400   900.0000     0.3730
 1203.0000   -11.3360     8.0810     8.7110  1015.3450     8.3070   109.5450    10.3250     2.5270     0.0390   900.0000     0.3580
 1203.5000   -11.3320     8.0330     8.7850  1015.5810     8.2570   109.5450    10.3550     2.5300     0.0380   900.0000     0.3420
 1204.0000   -11.3290     7.9850     8.9320  1015.8180     8.2080   107.9090    10.3220     2.5320     0.0370   900.0000     0.3260
 1204.5000   -11.3250     7.9370     9.0780  1016.0550     8.1590   106.2530    10.2510     2.5290     0.0300   900.0000     0.3140
 1205.0000   -11.3220     7.8890     9.2330  1016.2910     8.1090   105.9870    10.2690     2.5300     0.0260   900.0000     0.3230
 1205.5000   -11.3180     7.8410     9.0450  1016.5280     8.0600   108.5540    10.2860     2.5370     0.0380   900.0000     0.3320
 1206.0000   -11.3150     7.7930     8.7890  1016.7650     8.0110   111.1080    10.3030     2.5490     0.0590   900.0000     0.3360
 1206.5000   -11.3110     7.7450     8.5340  1017.0010     7.9610   113.0750    10.3190     2.5560     0.0730   900.0000     0.3390
 1207.0000   -11.3080     7.6970     8.2680  1017.2380     7.9120   113.9460    10.3300     2.5340     0.0500   900.0000     0.3420
 1207.5000   -11.3040     7.6490     8.1170  1017.4750     7.8630   114.4180    10.3290     2.5150     0.0350   900.0000     0.3380
 1208.0000   -11.3010     7.6010     8.1350  1017.7110     7.8130   114.1580    10.3290     2.5110     0.0250   900.0000     0.3320
 1208.5000   -11.2980     7.5530     8.1500  1017.9480     7.7640   113.9090    10.3290     2.5190     0.0260   900.0000     0.3260
 1209.0000   -11.2940     7.5280     8.1650  1018.1850     7.7390   113.6450    10.3290     2.5240     0.0320   900.0000     0.3260
 1209.5000   -11.2910     7.5110     8.1800  1018.4220     7.7210   114.1070    10.3290     2.5260     0.0360   900.0000     0.3270
 1210.0000   -11.2870     7.4930     8.1960  1018.6580     7.7030   114.7450    10.3240     2.5300     0.0390   900.0000     0.3270
 1210.5000   -11.2840     7.4720     8.2110  1018.8950     7.6810   113.0200    10.3120     2.5370     0.0420   900.0000     0.3180
 1211.0000   -11.2800     7.5270     8.2260  1019.1320     7.7380   110.1640    10.2990     2.5490     0.0450   900.0000     0.3100
 1211.5000   -11.2770     7.5970     8.2410  1019.3680     7.8100   107.3340    10.2910     2.5580     0.0450   900.0000     0.3150
 1212.0000   -11.2730     7.6670     8.2560  1019.6050     7.8820   104.4800    10.2970     2.5590     0.0420   900.0000     0.3200
 1212.5000   -11.2700     7.7370     8.3080  1019.8420     7.9530   104.2470    10.3030     2.5510     0.0350   900.0000     0.3220
 1213.0000   -11.2660     7.8070     8.5070  1020.0780     8.0250   106.1650    10.3090     2.5400     0.0270   900.0000     0.3100
 1213.5000   -11.2620     7.8770     8.7060  1020.3150     8.0970   106.3440    10.2970     2.5280     0.0210   900.0000     0.2980
 1214.0000   -11.2900     7.9470     8.9050  1020.5520     8.1690   105.7140    10.2700     2.5170     0.0180   900.0000     0.2950
 1214.5000   -11.3230     8.0160     9.0010  1020.7880     8.2410   105.0370    10.2380     2.5080     0.0160   900.0000     0.2980
 1215.0000   -11.3570     8.0510     9.0320  1021.0250     8.2760   106.5890    10.1830     2.5050     0.0140   900.0000     0.3080
 1215.5000   -11.3900     8.0700     9.0630  1021.2620     8.2950   108.3060    10.1280     2.5030     0.0130   900.0000     0.3170
 1216.0000   -11.4240     8.0880     9.0940  1021.4980     8.3150   107.6710    10.1120     2.5010     0.0130   900.0000     0.3260
 1216.5000   -11.4570     8.1170     9.1250  1021.7350     8.3450   106.7670    10.1130     2.5020     0.0160   900.0000     0.3320
 1217.0000   -11.4910     8.0680     9.1490  1021.9720     8.2940   107.6990    10.1300     2.5060     0.0180   900.0000     0.3320
 1217.5000   -11.5240     7.9550     8.6500  1022.2080     8.1780   109.6010    10.1470     2.5120     0.0200   900.0000     0.3300
 1218.0000   -11.5580     7.8420     8.3450  1022.4450     8.0610   110.0820    10.1640     2.5160     0.0220   900.0000     0.3400
 1218.5000   -11.5920     7.8010     8.3650  1022.6820     8.0190   108.4340    10.1800     2.5180     0.0180   900.6560     0.3460
 1219.0000   -11.6260     7.7730     8.3840  1022.9180     7.9910   108.0080    10.1970     2.5080     0.0140   901.5710     0.3500
 1219.5000   -11.6530     7.7520     8.4040  1023.1550     7.9690   109.6370    10.2130     2.4960     0.0110   902.4850     0.3440
