~VERSION INFORMATION
 VERS.                2.0:   CWLS LOG ASCII STANDARD - VERSION 2.0
 WRAP.                 NO:   ONE LINE PER DEPTH STEP
~WELL INFORMATION
#MNEM.UNIT      DATA TYPE    INFORMATION
#----------   ------------   ------------------------------
 STRT.F          190.0000:   START DEPTH
 STOP.F         2998.5000:   STOP DEPTH
 STEP.F            0.5000:   STEP LENGTH
 NULL.          -999.2500:   NO VALUE
 COMP.    FENIX & SCISSON:   COMPANY
 WELL.   FENIX "A" #52-28:   WELL
 FLD .        TEAPOT DOME:   FIELD
 LOC .      S28 T39N R78W:   LOCATION
 CNTY.            NATRONA:   COUNTY
 STAT.            WYOMING:   STATE
 CTRY. UNITED STATES OF AMERICA:   COUNTRY
 SRVC.           BIRDWELL:   SERVICE COMPANY
 DATE.        14-AUG-1977:   LOGDATE
 API .     49025104130000:   API NUMBER
~CURVE INFORMATION
#MNEM.UNIT       API CODE    CURVE DESCRIPTION
#----------   ------------   ------------------------------
 DEPT.F                  :   
 SPR .MV     05 010 01 00:   SPONTANEOUS POTENTIAL FROM RES.
 SN  .OHMM   05 040 16 00:   SHORT NORMAL 16"
 ILD .OHMM   05 120 46 00:   INDUCTION LOG DEEP
 GRD .GAPI   45 310 01 00:   GAMMA RAY FROM DENSITY LOG
 CALD.IN     45 280 60 00:   CALIPER FROM DENSITY LOG
 RHOB.G/C3   45 350 01 00:   BULK DENSITY
 CORR.G/C3   45 356 01 00:   DENSITY CORRECTION
~PARAMETER INFORMATION
#MNEM.UNIT          VALUE    DESCRIPTION
#----------   ------------   ------------------------------
 EKB .F         5026.0000:   Kelly bushing
 EGL .F         5016.0000:   Ground level
 EDF .F            0.0000:   Drilling floor
 TD  .F         3000.0000:   Total depth
 DATE.        14-AUG-1977:   Date logged
 CLNT.            A2DTECH:   Client Code
 SL  . 990' FNL & 2310' FEL:   Surface Location
 PD  .                 GL:   Permanent Datum
 EPD .F              5016:   Elevation Permanent Datum
 LMF .                 KB:   Log Measured From
 DMF .                 KB:   Drilling Measured From
 DAPD.F                10:   Feet Above Permanent Datum
 DD  .F              3000:   Depth driller
 DL  .F              3000:   Depth logger
 BLI .F              2994:   Bottom log interval
 TLI .F               214:   Top log interval
 CS1 .IN            8.625:   Casing size
 CBD1.      8.625" @ 214':   Casing driller 1
 CBL1.F               212:   Casing logger 1
 BS1 .IN            7.875:   Bit size
 BSD1.F              3000:   Depth drilled with bit1
 DFT .                KCL:   Type fluid in hole
 DFD .                8.8:   Density
 DFV .                 30:   Viscosity
 DFPH.               10.5:   pH
 DFL .               10.4:   Fluid loss
 MSS .           FLOWLINE:   Source of sample
 RMS .OHMM           0.13:   Rm
 MST .F                82:   Rm Meas. temp.
 RMF .OHMM           0.12:   Rmf
 MFST.F                72:   Rmf Meas. temp.
 RMC .OHMM           0.16:   Rmc
 MCST.F                72:   Rmc Meas. temp.
 MFSS.               MEAS:   Source Rmf.
 MCSS.               MEAS:   Source Rmc.
 TCS .HRS               4:   Time Circ. stopped
 LUN .               2958:   Logging unit number
 LUL .             CASPER:   Logging unit location
 ENGI.                LAW:   Recorded By
 WITN.         PETTINGILL:   Witnessed by
 ORIG.           5" PRINT:   Origin of data
 UWI .     49025104130000:   Unique Well ID
 DICO. A2D TECHNOLOGIES, INC.:   Digitizing Company
~OTHER INFORMATION
~A   DEPT      SPR         SN        ILD         GRD      CALD       RHOB       CORR   
# ...
  554.0000   -15.4200     6.8410    10.1300   107.7010     9.0110     2.5190     0.0350
  554.5000   -15.3310     6.8050    10.0860   106.5190     9.0090     2.5180     0.0350
  555.0000   -15.2420     6.7690    10.0420   106.5100     9.0070     2.5210     0.0350
  555.5000   -15.1530     6.7330     9.9990   106.4110     9.0040     2.5230     0.0340
  556.0000   -15.0640     6.6960     9.9260   110.6640     9.0020     2.5240     0.0340
  556.5000   -14.9740     6.6600     9.8370   109.8480     9.0020     2.5240     0.0340
  557.0000   -14.8840     6.6230     9.7470   107.1250     9.0020     2.5230     0.0310
  557.5000   -14.7940     6.5850     9.6580   104.8470     9.0020     2.5200     0.0240
  558.0000   -14.7170     6.5460     9.5690   105.7360     9.0020     2.5160     0.0230
  558.5000   -14.9570     6.5070     9.4790   108.2460     9.0020     2.5110     0.0230
  559.0000   -16.2360     6.4690     9.4130   110.7860     9.0020     2.5100     0.0230
  559.5000   -17.9380     6.4300     9.2830   113.4930     9.0020     2.5150     0.0260
  560.0000   -18.6270     6.3890     9.1530   116.7840     9.0020     2.5230     0.0310
  560.5000   -20.0000     6.3340     9.0230   117.9460     9.0020     2.5290     0.0270
  561.0000   -22.7740     6.2780     8.8940   114.1220     9.0020     2.5290     0.0270
  561.5000   -24.7610     6.2230     8.7640   109.3180     9.0020     2.5300     0.0310
  562.0000   -21.1460     6.1680     8.6330   108.7760     9.0020     2.5310     0.0320
  562.5000   -19.8170     6.1120     8.5380   107.4830     9.0020     2.5280     0.0320
  563.0000   -19.7870     6.0570     8.4420   106.4310     9.0020     2.5230     0.0310
  563.5000   -19.7800     6.0030     8.3470   109.7660     9.0020     2.5180     0.0300
  564.0000   -19.7830     6.0110     8.2510   111.8040     9.0020     2.5160     0.0310
  564.5000   -19.7830     6.0190     8.1550   108.6380     9.0020     2.5180     0.0330
  565.0000   -19.7830     6.0270     8.0270   109.7940     9.0020     2.5220     0.0350
  565.5000   -19.7830     6.0360     8.0620   111.1380     9.0020     2.5260     0.0360
  566.0000   -19.7830     6.0440     8.1140   111.8540     9.0020     2.5290     0.0350
  566.5000   -19.7830     6.0520     8.1660   117.1910     9.0020     2.5320     0.0340
  567.0000   -19.7830     6.0630     8.2170   117.8410     9.0020     2.5340     0.0350
  567.5000   -19.7830     6.0820     8.2690   114.8960     9.0020     2.5340     0.0350
  568.0000   -19.7830     6.1010     8.3250   114.4230     9.0020     2.5310     0.0310
  568.5000   -19.7830     6.1190     8.4250   114.7470     9.0020     2.5310     0.0350
  569.0000   -19.7830     6.1380     8.5340   119.6120     9.0020     2.5350     0.0360
  569.5000   -19.7830     6.1570     8.6420   120.7790     9.0020     2.5390     0.0300
  570.0000   -19.7840     6.1770     8.7500   121.9020     9.0020     2.5310     0.0320
  570.5000   -19.7850     6.2010     8.8580   122.5910     9.0020     2.5330     0.0350
  571.0000   -19.7890     6.2250     8.9670   118.9290     9.0020     2.5370     0.0380
  571.5000   -19.6990     6.2490     9.1130   113.4750     9.0020     2.5400     0.0390
  572.0000   -18.9540     6.2730     9.0990   111.3460     9.0020     2.5370     0.0320
  572.5000   -18.2000     6.3220     9.0710   111.0250     9.0020     2.5330     0.0310
  573.0000   -18.1160     6.3860     9.0340   108.6790     9.0020     2.5350     0.0430
  573.5000   -18.0690     6.4510     9.1840   107.6780     9.0020     2.5590     0.0450
  574.0000   -18.0440     6.5150     9.4130   107.9270     9.0020     2.5540     0.0380
  574.5000   -17.1510     6.5730     9.6420   108.8400     9.0020     2.5460     0.0390
  575.0000   -16.0120     6.5680     9.8030   110.8500     9.0020     2.5470     0.0390
  575.5000   -16.0530     6.5630     9.7460   111.2980     9.0020     2.5470     0.0390
  576.0000   -16.0620     6.5570     9.7020   111.4570     9.0020     2.5480     0.0370
  576.5000   -16.0680     6.5520     9.6570   111.6400     9.0020     2.5460     0.0350
  577.0000   -16.0760     6.5470     9.6130   112.0550     9.0020     2.5430     0.0340
  577.5000   -16.0830     6.5420     9.5690   114.0890     9.0020     2.5390     0.0320
  578.0000   -16.0910     6.5370     9.5250   112.9120     9.0020     2.5360     0.0310
  578.5000   -16.0990     6.5320     9.4800   110.3780     9.0020     2.5330     0.0310
  579.0000   -16.1060     6.5260     9.4340   104.1340     9.0020     2.5330     0.0290
  579.5000   -16.1140     6.5210     9.3830   105.2120     9.0020     2.5330     0.0260
  580.0000   -16.1220     6.5160     9.3320   106.1020     9.0020     2.5310     0.0230
  580.5000   -16.1290     6.5140     9.2830   102.8670     9.0020     2.5260     0.0230
  581.0000   -16.1370     6.4950     9.2700   107.8860     9.0020     2.5280     0.0250
  581.5000   -16.1450     6.4720     9.2570   109.5760     9.0020     2.5300     0.0290
  582.0000   -16.1520     6.4490     9.2440   105.8500     9.0020     2.5330     0.0300
  582.5000   -16.1600     6.4270     9.2320   104.3260     9.0020     2.5330     0.0280
  583.0000   -16.1680     6.4040     9.2190   105.2620     9.0020     2.5320     0.0270
  583.5000   -16.1750     6.3810     9.2060   102.7130     9.0020     2.5300     0.0280
  584.0000   -16.1830     6.3580     9.1930   104.5220     9.0020     2.5300     0.0300
  584.5000   -16.1910     6.3350     9.1800   106.0190     9.0020     2.5340     0.0320
  585.0000   -16.1980     6.3120     9.1670   103.9970     9.0020     2.5390     0.0320
  585.5000   -16.2060     6.2900     9.1550   107.0910     9.0010     2.5410     0.0300
  586.0000   -16.2140     6.2670     9.1420   109.5530     9.0000     2.5420     0.0280
  586.5000   -16.2210     6.2440     9.1290   108.2440     9.0000     2.5350     0.0250
  587.0000   -16.2280     6.2210     9.1160   112.2210     8.9990     2.5320     0.0320
  587.5000   -16.2360     6.1980     9.1060   114.0690     8.9980     2.5360     0.0290
  588.0000   -16.1260     6.1760     9.0960   114.3660     8.9980     2.5380     0.0250
  588.5000   -15.9270     6.1530     9.0860   113.6170     8.9970     2.5280     0.0210
  589.0000   -15.7150     6.1300     9.0760   112.8210     8.9960     2.5200     0.0220
  589.5000   -15.4930     6.1130     9.0670   112.0210     8.9950     2.5200     0.0270
  590.0000   -15.4490     6.1130     9.0570   111.2360     8.9950     2.5310     0.0330
  590.5000   -15.4430     6.1130     9.0470   111.4520     8.9940     2.5370     0.0340
  591.0000   -15.4380     6.1130     9.0370   112.9200     8.9930     2.5350     0.0300
  591.5000   -15.4330     6.1130     9.0260   113.0950     8.9930     2.5340     0.0300
  592.0000   -15.4280     6.1130     9.0140   112.3020     8.9920     2.5340     0.0280
  592.5000   -15.4230     6.1130     9.0030   109.7930     8.9910     2.5310     0.0250
  593.0000   -15.4180     6.1130     8.9910   107.5440     8.9910     2.5270     0.0290
  593.5000   -15.4130     6.1130     8.9800   104.3020     8.9900     2.5300     0.0280
  594.0000   -15.4080     6.1120     8.9680   106.4520     8.9890     2.5300     0.0260
  594.5000   -15.4030     6.1420     8.9530   108.1470     8.9890     2.5260     0.0290
  595.0000   -15.3980     6.1820     8.9810   106.9920     8.9880     2.5290     0.0320
  595.5000   -15.3930     6.2220     9.0310   107.8070     8.9870     2.5340     0.0320
  596.0000   -15.3880     6.2610     9.0810   105.5820     8.9870     2.5360     0.0350
  596.5000   -15.3830     6.3010     9.1310   100.5220     8.9860     2.5380     0.0370
  597.0000   -15.3780     6.3400     9.1810   103.2970     8.9850     2.5390     0.0350
  597.5000   -15.3730     6.3800     9.2050   101.5180     8.9850     2.5350     0.0310
  598.0000   -15.3680     6.4190     9.2140   101.7930     8.9840     2.5330     0.0320
  598.5000   -15.3630     6.4590     9.2230   104.5980     8.9830     2.5340     0.0320
  599.0000   -15.3580     6.4980     9.2310   106.6900     8.9820     2.5350     0.0330
