~VERSION INFORMATION
 VERS.                2.0:   CWLS LOG ASCII STANDARD - VERSION 2.0
 WRAP.                 NO:   ONE LINE PER DEPTH STEP
~WELL INFORMATION
#MNEM.UNIT      DATA TYPE    INFORMATION
#----------   ------------   ------------------------------
 STRT.F           10.5000:   START DEPTH
 STOP.F         5650.0000:   STOP DEPTH
 STEP.F            0.5000:   STEP LENGTH
 NULL.          -999.2500:   NO VALUE
 COMP.    FENIX & SCISSON:   COMPANY
 WELL. FENIX NPR 3 "LX" #56-3:   WELL
 FLD .              N P R:   FIELD
 LOC .       S3 T38N R78W:   LOCATION
 CNTY.            NATRONA:   COUNTY
 STAT.            WYOMING:   STATE
 CTRY. UNITED STATES OF AMERICA:   COUNTRY
 SRVC.              WELEX:   SERVICE COMPANY
 DATE.        13-JUN-1978:   LOGDATE
 API .     49025109250000:   API NUMBER
~CURVE INFORMATION
#MNEM.UNIT       API CODE    CURVE DESCRIPTION
#----------   ------------   ------------------------------
 DEPT.F                  :   
 NPHI.DEC    42 890 03 00:   NEUTRON POROSITY SANDSTONE
 SPR .MV     07 010 01 00:   SPONTANEOUS POTENTIAL
 ILD .OHMM   07 120 46 00:   DEEP INDUCTION RESISTIVITY
 ILM .OHMM   07 120 44 00:   INDUCTION LOG MEDIUM RESISTIVITY
 SFL .OHMM   07 220 01 00:   SHALLOW FOCUSED LOG RESISTIVITY
 GRD .GAPI   45 310 01 00:   GAMMA RAY FROM DENSITY LOG
 CALD.IN     45 280 60 00:   CALIPER FROM DENSITY LOG
 RHOB.G/C3   45 350 01 00:   BULK DENSITY
 CORR.G/C3   45 356 01 00:   DENSITY CORRECTION
~PARAMETER INFORMATION
#MNEM.UNIT          VALUE    DESCRIPTION
#----------   ------------   ------------------------------
 EKB .F         5181.0000:   Kelly bushing
 EGL .F         5171.0000:   Ground level
 EDF .F         5180.0000:   Drilling floor
 TD  .F         5644.0000:   Total depth
 DATE.        13-JUN-1978:   Date logged
 CLNT.            A2DTECH:   Client Code
 SL  . 1980' FSL & 2080' FEL:   Surface Location
 PD  .                 GL:   Permanent Datum
 EPD .F              5171:   Elevation Permanent Datum
 LMF .                 KB:   Log Measured From
 DMF .                 KB:   Drilling Measured From
 DD  .F              5640:   Depth driller
 DL  .F              5644:   Depth logger
 BLI .F              5638:   Bottom log interval
 TLI .F              3093:   Top log interval
 CS1 .IN            8.625:   Casing size
 CBD1.      8.625" @ 545':   Casing driller 1
 BS1 .IN            7.875:   Bit size
 DFT .                FGM:   Type fluid in hole
 DFD .                9.2:   Density
 DFV .                 52:   Viscosity
 DFPH.                 11:   pH
 DFL .                5.2:   Fluid loss
 MSS .           MUD/TANK:   Source of sample
 RMS .OHMM           0.59:   Rm
 MST .F                80:   Rm Meas. temp.
 RMF .OHMM           0.48:   Rmf
 MFST.F                80:   Rmf Meas. temp.
 MFSS.               MEAS:   Source Rmf.
 RMB .OHMM           0.29:   Rm. at BHT
 BHT .F               162:   BHT.
 TCS .HRS            1200:   Time Circ. stopped
 MRT .F               162:   Maximum recorded temp.
 LUN .               7675:   Logging unit number
 LUL .               CODY:   Logging unit location
 ENGI.               BOND:   Recorded By
 ORIG.           5" PRINT:   Origin of data
 UWI .     49025109250000:   Unique Well ID
 DICO. A2D TECHNOLOGIES, INC.:   Digitizing Company
 DAPD.F                10:   Feet Above Permanent Datum
 BSD1.F              5640:   Depth drilled with bit1
 TLAB.HRS            1630:   Time logger at bottom
~OTHER INFORMATION
~A  DEPTH     NPHI        SPR        ILD        ILM        SFL        GRD       CALD       RHOB       CORR
# ...
 1543.5000     0.2930   -31.3170     8.0580     6.9810     8.3140   112.7840    10.7680     2.5740     0.0220
 1544.0000     0.3000   -31.1900     8.0130     7.0090     8.3830   112.1080    10.7750     2.5750     0.0220
 1544.5000     0.2990   -31.0640     7.9670     7.0320     8.4730   111.5680    10.7830     2.5770     0.0210
 1545.0000     0.3010   -30.9370     7.9220     7.0550     8.5620   110.9210    10.7900     2.5780     0.0200
 1545.5000     0.3030   -30.8100     7.8760     7.0790     8.6520   110.3440    10.7980     2.5790     0.0230
 1546.0000     0.3050   -30.6840     7.8680     7.1020     8.7050   109.7740    10.8050     2.5840     0.0260
 1546.5000     0.3060   -30.5570     7.8750     7.1110     8.6030   109.0050    10.8120     2.5910     0.0300
 1547.0000     0.3050   -30.4310     7.8830     7.0900     8.5190   109.7440    10.8200     2.5910     0.0290
 1547.5000     0.3030   -30.3040     7.8920     7.0690     8.4360   110.1880    10.8270     2.5860     0.0280
 1548.0000     0.3000   -30.1770     7.9000     7.0490     8.3900   109.6760    10.8350     2.6010     0.0270
 1548.5000     0.2990   -30.0530     7.9090     7.0290     8.3900   109.1760    10.8420     2.6160     0.0310
 1549.0000     0.2980   -30.0060     7.9180     7.0080     8.4210   108.7890    10.8500     2.6320     0.0350
 1549.5000     0.2980   -30.2080     7.9260     6.9880     8.4660   107.5570    10.8570     2.6420     0.0400
 1550.0000     0.2990   -30.4030     7.9350     6.9810     8.5110   107.5930    10.8650     2.6210     0.0360
 1550.5000     0.3000   -30.5970     7.9430     7.0660     8.5570   108.4380    10.8720     2.5830     0.0280
 1551.0000     0.2990   -30.7920     7.9520     7.1320     8.6020   109.1550    10.8790     2.5620     0.0190
 1551.5000     0.2920   -30.9580     7.9610     7.1770     8.6470   109.8280    10.8870     2.5520     0.0200
 1552.0000     0.2840   -30.9310     7.9690     7.1470     8.6920   111.4240    10.8940     2.5390     0.0180
 1552.5000     0.2860   -30.9020     7.9780     7.1110     8.7370   113.0110    10.9020     2.5600     0.0400
 1553.0000     0.2890   -30.8730     7.9860     7.1110     8.7850   112.8170    10.9090     2.5740     0.0680
 1553.5000     0.2930   -30.8450     7.9950     7.1110     8.7680   112.8440    10.9170     2.5700     0.0720
 1554.0000     0.2940   -30.8160     8.0040     7.0910     8.7500   112.6800    10.9240     2.5490     0.0510
 1554.5000     0.2920   -30.7880     8.0120     7.0640     8.7320   112.3050    10.9310     2.5280     0.0380
 1555.0000     0.2910   -30.7590     8.0210     7.0370     8.7140   111.9620    10.9380     2.5410     0.0280
 1555.5000     0.2900   -30.7310     8.0290     7.0100     8.6960   109.7700    10.9290     2.5530     0.0160
 1556.0000     0.2900   -30.7020     8.0380     6.9830     8.6780   107.5920    10.9200     2.5610     0.0130
 1556.5000     0.2910   -30.6740     8.0470     6.9560     8.6600   105.4050    10.9110     2.5680     0.0200
 1557.0000     0.2900   -30.6450     8.0550     6.9290     8.6420   102.8930    10.9010     2.5750     0.0230
 1557.5000     0.2880   -30.6170     8.0640     6.9020     8.6240   104.5390    10.8920     2.5840     0.0270
 1558.0000     0.2900   -30.5880     8.0720     6.8750     8.6060   108.4660    10.8820     2.5840     0.0270
 1558.5000     0.2910   -30.5610     8.0810     6.8540     8.5880   112.1730    10.8730     2.5830     0.0240
 1559.0000     0.2920   -30.5860     8.0870     6.8830     8.5700   113.7120    10.8640     2.5580     0.0210
 1559.5000     0.2910   -30.6150     8.0730     6.9070     8.5520   113.8030    10.8540     2.5570     0.0200
 1560.0000     0.2880   -30.6440     8.0590     6.9310     8.4090   112.1860    10.8450     2.5520     0.0190
 1560.5000     0.2900   -30.6730     8.0460     6.9540     8.0880   109.5320    10.8350     2.5550     0.0180
 1561.0000     0.2940   -30.7030     8.0320     6.9780     8.2160   106.6730    10.8260     2.5600     0.0170
 1561.5000     0.2970   -30.7320     8.0130     7.0010     8.4870   106.3180    10.8170     2.5590     0.0170
 1562.0000     0.3000   -30.7610     8.0190     7.0250     8.7580   108.0640    10.8170     2.5590     0.0160
 1562.5000     0.3010   -30.7910     8.0410     7.0490     8.9480   111.2490    10.8170     2.5590     0.0150
 1563.0000     0.2990   -30.8200     8.0620     7.0720     8.8880   112.9830    10.8170     2.5560     0.0120
 1563.5000     0.2970   -30.8490     8.0840     7.0960     8.8410   114.0490    10.8170     2.5500     0.0070
 1564.0000     0.2910   -30.8780     8.1050     7.1190     8.7950   115.0920    10.8170     2.5450     0.0060
 1564.5000     0.2920   -30.9080     8.1260     7.1430     8.7480   115.2510    10.8170     2.5490     0.0130
 1565.0000     0.2940   -30.9370     8.1480     7.1670     8.7020   112.0370    10.8170     2.5500     0.0180
 1565.5000     0.2970   -30.9530     8.1690     7.1900     8.6550   110.2310    10.8170     2.5530     0.0220
 1566.0000     0.2990   -30.8880     8.1900     7.2140     8.6310   110.1770    10.8170     2.5630     0.0240
 1566.5000     0.3030   -30.8220     8.2110     7.2370     8.7060   110.0100    10.8170     2.5770     0.0260
 1567.0000     0.3040   -30.7570     8.2330     7.3510     8.7670   109.8100    10.8170     2.5740     0.0230
 1567.5000     0.2990   -30.6920     8.2540     7.4910     8.8270   109.6580    10.8170     2.5700     0.0190
 1568.0000     0.2990   -30.6270     8.2750     7.6320     8.8870   109.6280    10.8170     2.5610     0.0150
 1568.5000     0.2990   -30.5610     8.2970     7.7720     8.9470   109.6310    10.8170     2.5500     0.0130
 1569.0000     0.2990   -30.4960     8.3140     7.9130     9.0310   109.6570    10.8170     2.5460     0.0110
 1569.5000     0.2990   -30.4310     8.2520     7.9400     8.9870   109.5610    10.8170     2.5460     0.0100
 1570.0000     0.2990   -30.3660     8.2010     7.7650     8.8800   110.3570    10.8170     2.5460     0.0140
 1570.5000     0.2990   -30.3010     8.1500     7.6390     8.7740   111.3820    10.8170     2.5560     0.0210
 1571.0000     0.2990   -30.2360     8.0990     7.5130     8.6670   112.1350    10.8170     2.5690     0.0280
 1571.5000     0.3000   -30.1700     8.0480     7.3870     8.5600   112.8830    10.8170     2.5830     0.0350
 1572.0000     0.3010   -30.1050     7.9970     7.2610     8.4530   113.6850    10.8170     2.5900     0.0410
 1572.5000     0.3000   -30.0400     7.9460     7.2430     8.3470   114.4180    10.8170     2.5800     0.0410
 1573.0000     0.2950   -29.9750     7.8950     7.2140     8.2400   115.2110    10.8170     2.5630     0.0490
 1573.5000     0.2900   -29.9100     7.8680     7.1700     8.1620   115.2670    10.8170     2.5630     0.0610
 1574.0000     0.2900   -29.8450     7.8730     7.1260     8.1940   115.1360    10.8170     2.5700     0.0730
 1574.5000     0.2960   -29.7770     7.8790     7.0820     8.3090   114.7030    10.8170     2.5780     0.0840
 1575.0000     0.2960   -29.7750     7.8850     7.0380     8.4230   114.3050    10.8170     2.5850     0.1180
 1575.5000     0.2960   -29.7960     7.8910     6.9810     8.5380   113.8920    10.8170     2.5920     0.1060
 1576.0000     0.2960   -29.8190     7.8970     7.0300     8.6520   113.4860    10.8170     2.6000     0.0770
 1576.5000     0.2960   -29.8410     7.9020     7.0990     8.7670   113.0680    10.8170     2.6020     0.0480
 1577.0000     0.2960   -29.8630     7.9080     7.1680     8.8620   112.6600    10.8170     2.6020     0.0320
 1577.5000     0.2940   -29.8850     7.9140     7.2370     8.8320   112.2940    10.8170     2.6020     0.0350
 1578.0000     0.2950   -29.9070     7.9200     7.3050     8.8020   110.6860    10.8170     2.5890     0.0330
 1578.5000     0.2960   -29.9280     7.9260     7.3770     8.7720   107.3870    10.8170     2.5820     0.0260
 1579.0000     0.2940   -29.9500     7.9320     7.3770     8.7420   106.9870    10.8170     2.5840     0.0210
 1579.5000     0.2910   -29.9720     7.9380     7.3890     8.7110   105.0390    10.8170     2.5860     0.0230
