~VERSION INFORMATION
 VERS.                2.0:   CWLS LOG ASCII STANDARD - VERSION 2.0
 WRAP.                 NO:   ONE LINE PER DEPTH STEP
~WELL INFORMATION
#MNEM.UNIT      DATA TYPE    INFORMATION
#----------   ------------   ------------------------------
 STRT.F           22.0000:   START DEPTH
 STOP.F         4228.5000:   STOP DEPTH
 STEP.F            0.5000:   STEP LENGTH
 NULL.          -999.2500:   NO VALUE
 COMP. LAWRENCE ALLISON & ASSOCIATES:   COMPANY
 WELL. LAWRENCE NPR 3 "X" #25-2:   WELL
 FLD .                NPR:   FIELD
 LOC .       S2 T38N R78W:   LOCATION
 CNTY.            NATRONA:   COUNTY
 STAT.            WYOMING:   STATE
 CTRY. UNITED STATES OF AMERICA:   COUNTRY
 SRVC.      DRESSER ATLAS:   SERVICE COMPANY
 DATE.        22-DEC-1985:   LOGDATE
 API .     49025110700000:   API NUMBER
~CURVE INFORMATION
#MNEM.UNIT       API CODE    CURVE DESCRIPTION
#----------   ------------   ------------------------------
 DEPT.F                  :   
 TENS.LBS    60 635 01 00:   TENSION FROM SONIC
 DT  .US/F   60 520 00 00:   DELTA TIME
 SPHI.DEC    60 890 00 00:   SONIC POROSITY
 TENR.LBS    07 635 01 00:   TENSION FROM RESISTIVITY
 CALR.IN     07 280 01 00:   CALIPER FROM RESISTIVITY
 SPR .MV     07 010 01 00:   SPONTANEOUS POTENTIAL
 GRR .GAPI   07 310 01 00:   GAMMA RAY FROM RESISTIVITY
 SFL .OHMM   07 220 01 00:   SHALLOW FOCUSED LOG RESISTIVITY
 ILD .OHMM   07 120 46 00:   DEEP INDUCTION RESISTIVITY
 ILM .OHMM   07 120 44 00:   INDUCTION LOG MEDIUM RESISTIVITY
~PARAMETER INFORMATION
#MNEM.UNIT          VALUE    DESCRIPTION
#----------   ------------   ------------------------------
 EKB .F         5148.0000:   Kelly bushing
 EGL .F         5136.0000:   Ground level
 EDF .F            0.0000:   Drilling floor
 TD  .F         4228.0000:   Total depth
 DATE.        22-DEC-1985:   Date logged
 CLNT.            A2DTECH:   Client Code
 SL  . 1350' FWL & 1968' FSL:   Surface Location
 PD  .                 GL:   Permanent Datum
 DD  .F              4224:   Depth driller
 DL  .F              4228:   Depth logger
 BLI .F              4225:   Bottom log interval
 CS1 .IN            8.625:   Casing size
 CBD1.      8.625" @ 677':   Casing driller 1
 CBL1.F               677:   Casing logger 1
 BS1 .IN            7.875:   Bit size
 DFT .            KCL/GEL:   Type fluid in hole
 DFD .                9.2:   Density
 DFV .                 45:   Viscosity
 DFPH.                8.5:   pH
 DFL .               11.5:   Fluid loss
 MSS .               TANK:   Source of sample
 RMS .OHMM           .256:   Rm
 MST .F                63:   Rm Meas. temp.
 RMF .OHMM           .192:   Rmf
 MFST.F                64:   Rmf Meas. temp.
 RMC .OHMM           .320:   Rmc
 MCST.F                64:   Rmc Meas. temp.
 MFSS.               MEAS:   Source Rmf.
 RMB .OHMM           .119:   Rm. at BHT
 BHT .F               143:   BHT.
 TCS .HRS             4.5:   Time Circ. stopped
 MRT .F               143:   Maximum recorded temp.
 LUN .               6427:   Logging unit number
 LUL .          WILLISTON:   Logging unit location
 ENGI.             MCHUCH:   Recorded By
 WITN.             STRONG:   Witnessed by
 ORIG.           5" PRINT:   Origin of data
 UWI .     49025110700000:   Unique Well ID
 DICO. A2D TECHNOLOGIES, INC.:   Digitizing Company
 DAPD.                 12:   Feet Above Permanent Datum
 BSD1.               4224:   Depth drilled with bit1
 MCSS.               CALC:   Source Rmc.
 EPD .F              5136:   Elevation Permanent Datum
 LMF .                 KB:   Log Measured From
 DMF .                 KB:   Drilling Measured From
~OTHER INFORMATION
~A   DEPT     TENS         DT       SPHI       TENR       CALR        SPR         GRR       SFL        ILD        ILM   
# ...
 2769.0000   -77.7210    77.0710     0.1890   -75.5230     7.8710   -13.5350    67.7440    11.1120    17.0970    11.3680
 2769.5000   -78.4240    76.8250     0.1870   -74.9630     7.8800   -13.7280    67.3220    11.1120    17.1780    11.3450
 2770.0000   -79.1280    76.7640     0.1860   -73.4030     7.8800   -14.3290    64.1300    11.0570    17.2580    11.3220
 2770.5000   -79.8320    76.8560     0.1860   -71.8420     7.8780   -14.9150    62.6890    10.9580    17.3390    11.2990
 2771.0000   -80.5350    76.9490     0.1870   -70.2820     7.8760   -15.4990    64.0390    11.0110    17.4260    11.2770
 2771.5000   -81.2390    77.0130     0.1880   -68.7220     7.8740   -16.1170    64.5940    10.8940    17.4260    11.2540
 2772.0000   -81.9420    77.0130     0.1880   -67.1610     7.8710   -16.8240    64.1250    10.7310    17.4260    11.2310
 2772.5000   -82.6460    76.6120     0.1850   -65.6010     7.8690   -17.5020    62.8750    10.8410    17.6040    11.2150
 2773.0000   -83.3500    76.3060     0.1830   -64.0400     7.8660   -18.3250    62.8490    10.9890    17.8660    11.2870
 2773.5000   -84.0530    76.0750     0.1810   -62.4800     7.8640   -18.9270    63.2280    11.2270    18.1280    11.4510
 2774.0000   -84.7570    75.8430     0.1790   -60.9200     7.8660   -19.5300    62.5940    11.5280    18.3900    11.7460
 2774.5000   -81.7180    75.6140     0.1770   -59.3590     7.8850   -20.1430    61.0770    11.8020    18.6520    12.0410
 2775.0000   -73.5100    75.1150     0.1760   -57.7990     7.8910   -20.5950    61.8950    12.0690    18.7870    12.3370
 2775.5000   -65.1850    74.9150     0.1740   -56.2380     7.8970   -20.9060    63.1430    11.8270    18.8410    12.6370
 2776.0000   -67.8820    75.1520     0.1750   -56.0840     7.9020   -21.2210    66.3160    11.5280    18.8940    12.2120
 2776.5000   -70.6180    75.9250     0.1800   -56.9460     7.9070   -21.2710    71.5690    11.6040    18.9280    11.8500
 2777.0000   -73.3540    76.6140     0.1850   -57.8080     7.9120   -21.2210    76.4670    11.7030    18.9280    11.8500
 2777.5000   -75.8910    77.1130     0.1890   -58.6700     7.9170   -21.1680    80.1210    11.8030    18.9270    12.0540
 2778.0000   -78.0330    76.7550     0.1870   -59.5330     7.9170   -21.1010    77.9320    12.0130    18.9250    12.2710
 2778.5000   -80.1740    76.2630     0.1840   -60.3950     7.8940   -20.6790    75.7610    12.3150    18.9280    12.4870
 2779.0000   -82.3160    75.7880     0.1810   -61.2570     7.8700   -20.2440    76.1130    12.5210    19.4210    12.7040
 2779.5000   -84.4570    75.3570     0.1780   -62.1200     7.8470   -19.8110    77.8210    12.7530    19.9680    12.9210
 2780.0000   -89.7710    75.2150     0.1760   -62.9820     7.8240   -19.4790    76.0910    12.6080    20.3710    13.1370
 2780.5000   -75.1750    75.4960     0.1760   -63.8440     7.8230   -19.3370    73.9630    12.3910    21.2330    13.3540
 2781.0000   -75.1750    75.7610     0.1780   -64.7070     7.8230   -19.2050    72.9390    12.1810    22.0150    13.6710
 2781.5000   -75.1750    76.0280     0.1800   -65.5530     7.8260   -18.8930    72.9710    12.3880    23.1340    14.1090
 2782.0000   -75.1750    76.2970     0.1810   -67.2220     7.8410   -18.4640    74.0570    12.6370    24.2540    15.1060
 2782.5000   -75.1750    76.5130     0.1830   -68.8600     7.8550   -18.2110    75.6020    12.9910    26.7550    16.2230
 2783.0000   -75.1750    76.5130     0.1840   -70.4990     7.8740   -18.0100    77.6760    13.3520    29.8720    17.9100
 2783.5000   -75.1750    76.5130     0.1820   -72.1370     7.9000   -17.8120    78.0720    14.0440    32.4810    19.5980
 2784.0000   -75.1750    74.8710     0.1740   -73.7750     7.9250   -17.5530    75.9250    16.1500    35.0190    21.2860
 2784.5000   -75.1750    71.7180     0.1540   -75.5230     7.9510   -17.0900    71.2300    20.8180    34.7720    22.5510
 2785.0000   -75.1750    68.8840     0.1340   -68.4680     7.9420   -16.6310    68.5840    25.8640    34.5110    21.0760
 2785.5000   -75.1750    66.6230     0.1160   -60.9060     7.8900   -16.1610    68.7380    25.8640    34.2510    19.6080
 2786.0000   -75.1750    66.9230     0.1140   -56.7960     7.8380   -15.6090    70.0150    18.3540    34.0670    18.1400
 2786.5000   -75.1750    69.4720     0.1290   -60.8920     7.7850   -15.0400    71.4170    13.9210    32.9730    16.6720
 2787.0000   -75.1750    71.8030     0.1460   -64.9880     7.7800   -14.6740    71.0950    12.6470    32.2410    16.0800
 2787.5000   -75.1750    74.0160     0.1660   -69.0840     7.7760   -14.4910    69.0890    12.7190    28.9430    15.9130
 2788.0000   -75.1750    74.5430     0.1720   -73.1800     7.7720   -14.3100    69.0030    13.2740    25.8470    15.7520
 2788.5000   -75.4420    74.7740     0.1730   -73.7700     7.7680   -14.2320    72.4160    14.0810    23.8610    15.1760
 2789.0000   -76.0650    74.5890     0.1720   -69.6740     7.7640   -14.4840    76.2700    14.8880    22.5360    14.5620
 2789.5000   -76.6890    74.3880     0.1700   -65.5530     7.7550   -14.7180    78.0100    15.0450    22.7970    14.0550
 2790.0000   -77.3120    74.2460     0.1690   -73.6960     7.7440   -15.0960    76.8200    14.0510    23.1650    13.5490
 2790.5000   -77.9350    74.4100     0.1690   -75.5230     7.7670   -15.4840    74.8530    13.0500    22.8850    13.1860
 2791.0000   -78.5590    74.6130     0.1710   -75.5230     7.7900   -15.5780    76.6020    12.4650    22.1300    13.0680
 2791.5000   -79.1820    74.8870     0.1730   -75.5230     7.8140   -16.2500    82.3080    13.1420    21.3280    12.9500
 2792.0000   -79.8060    75.1910     0.1750   -78.7890     7.8380   -16.7630    86.4420    13.8520    20.5590    12.7440
 2792.5000   -80.4290    75.8000     0.1800   -85.4940     7.8300   -17.1290    86.5150    13.5840    19.9560    12.5100
 2793.0000   -81.0520    76.4080     0.1840   -85.4940     7.8140   -16.9390    84.3420    13.0650    19.3040    12.2650
 2793.5000   -81.6760    77.0170     0.1870   -85.4940     7.7980   -16.7150    81.1740    12.5470    18.9630    12.0190
 2794.0000   -82.2990    77.2600     0.1900   -85.4940     7.7810   -16.5440    78.7610    11.9770    18.7620    11.7740
 2794.5000   -82.9230    77.2920     0.1910   -85.4940     7.7660   -15.9520    76.3980    12.0960    18.5610    11.6260
 2795.0000   -83.5460    77.2130     0.1900   -85.4940     7.7480   -15.2760    74.0680    12.2530    18.3600    11.4520
 2795.5000   -84.1700    76.8990     0.1890   -85.4940     7.7260   -14.5500    71.1210    12.4070    18.2450    11.3180
 2796.0000   -84.7930    76.8660     0.1880   -80.8000     7.7040   -13.6470    68.7950    11.9620    18.8950    11.4080
 2796.5000   -85.1650    76.8330     0.1880   -73.2380     7.7090   -12.7400    69.1100    11.5280    19.4010    11.5590
 2797.0000   -86.6970    76.7650     0.1880   -65.5530     7.7190   -12.3250    71.5010    11.9620    19.8920    11.7850
 2797.5000   -94.9050    76.4290     0.1850   -70.3890     7.7280   -12.2070    74.9920    12.5070    20.1430    12.0110
 2798.0000  -103.1140    75.7470     0.1800   -75.5230     7.7380   -12.0920    78.5170    13.0530    20.3270    12.2370
 2798.5000   -92.7910    75.0560     0.1740   -83.7240     7.7550   -12.0010    80.0540    13.8520    20.5110    12.4090
 2799.0000   -76.3740    74.6150     0.1710   -71.4360     7.7870   -12.0760    79.2090    13.6560    21.6190    12.5630
 2799.5000   -59.9570    74.4210     0.1690   -59.1480     7.8200   -12.1490    77.9520    13.1090    23.0560    12.7580
 2800.0000   -59.0310    74.4700     0.1690   -55.5830     7.8520   -12.2210    79.5660    13.3860    24.9310    13.1390
 2800.5000   -66.5950    74.5150     0.1700   -55.5830     7.8820   -12.2930    80.4480    13.9310    24.7030    13.5210
 2801.0000   -74.1600    74.8970     0.1740   -60.7060     7.8780   -12.3700    79.8950    14.4770    25.7300    13.9020
 2801.5000   -72.8740    75.4410     0.1770   -68.2530     7.8740   -12.3020    76.0360    14.7920    26.4220    14.1090
 2802.0000   -70.2180    76.0840     0.1820   -75.5230     7.8700   -12.1740    73.1960    14.8370    27.6690    14.2790
