~VERSION INFORMATION
 VERS.                2.0:   CWLS LOG ASCII STANDARD - VERSION 2.0
 WRAP.                 NO:   ONE LINE PER DEPTH STEP
~WELL INFORMATION
#MNEM.UNIT      DATA TYPE    INFORMATION
#----------   ------------   ------------------------------
 STRT.F           22.0000:   START DEPTH
 STOP.F         4228.5000:   STOP DEPTH
 STEP.F            0.5000:   STEP LENGTH
 NULL.          -999.2500:   NO VALUE
 COMP. LAWRENCE ALLISON & ASSOCIATES:   COMPANY
 WELL. LAWRENCE NPR 3 "X" #25-2:   WELL
 FLD .                NPR:   FIELD
 LOC .       S2 T38N R78W:   LOCATION
 CNTY.            NATRONA:   COUNTY
 STAT.            WYOMING:   STATE
 CTRY. UNITED STATES OF AMERICA:   COUNTRY
 SRVC.      DRESSER ATLAS:   SERVICE COMPANY
 DATE.        22-DEC-1985:   LOGDATE
 API .     49025110700000:   API NUMBER
~CURVE INFORMATION
#MNEM.UNIT       API CODE    CURVE DESCRIPTION
#----------   ------------   ------------------------------
 DEPT.F                  :   
 TENS.LBS    60 635 01 00:   TENSION FROM SONIC
 DT  .US/F   60 520 00 00:   DELTA TIME
 SPHI.DEC    60 890 00 00:   SONIC POROSITY
 TENR.LBS    07 635 01 00:   TENSION FROM RESISTIVITY
 CALR.IN     07 280 01 00:   CALIPER FROM RESISTIVITY
 SPR .MV     07 010 01 00:   SPONTANEOUS POTENTIAL
 GRR .GAPI   07 310 01 00:   GAMMA RAY FROM RESISTIVITY
 SFL .OHMM   07 220 01 00:   SHALLOW FOCUSED LOG RESISTIVITY
 ILD .OHMM   07 120 46 00:   DEEP INDUCTION RESISTIVITY
 ILM .OHMM   07 120 44 00:   INDUCTION LOG MEDIUM RESISTIVITY
~PARAMETER INFORMATION
#MNEM.UNIT          VALUE    DESCRIPTION
#----------   ------------   ------------------------------
 EKB .F         5148.0000:   Kelly bushing
 EGL .F         5136.0000:   Ground level
 EDF .F            0.0000:   Drilling floor
 TD  .F         4228.0000:   Total depth
 DATE.        22-DEC-1985:   Date logged
 CLNT.            A2DTECH:   Client Code
 SL  . 1350' FWL & 1968' FSL:   Surface Location
 PD  .                 GL:   Permanent Datum
 DD  .F              4224:   Depth driller
 DL  .F              4228:   Depth logger
 BLI .F              4225:   Bottom log interval
 CS1 .IN            8.625:   Casing size
 CBD1.      8.625" @ 677':   Casing driller 1
 CBL1.F               677:   Casing logger 1
 BS1 .IN            7.875:   Bit size
 DFT .            KCL/GEL:   Type fluid in hole
 DFD .                9.2:   Density
 DFV .                 45:   Viscosity
 DFPH.                8.5:   pH
 DFL .               11.5:   Fluid loss
 MSS .               TANK:   Source of sample
 RMS .OHMM           .256:   Rm
 MST .F                63:   Rm Meas. temp.
 RMF .OHMM           .192:   Rmf
 MFST.F                64:   Rmf Meas. temp.
 RMC .OHMM           .320:   Rmc
 MCST.F                64:   Rmc Meas. temp.
 MFSS.               MEAS:   Source Rmf.
 RMB .OHMM           .119:   Rm. at BHT
 BHT .F               143:   BHT.
 TCS .HRS             4.5:   Time Circ. stopped
 MRT .F               143:   Maximum recorded temp.
 LUN .               6427:   Logging unit number
 LUL .          WILLISTON:   Logging unit location
 ENGI.             MCHUCH:   Recorded By
 WITN.             STRONG:   Witnessed by
 ORIG.           5" PRINT:   Origin of data
 UWI .     49025110700000:   Unique Well ID
 DICO. A2D TECHNOLOGIES, INC.:   Digitizing Company
 DAPD.                 12:   Feet Above Permanent Datum
 BSD1.               4224:   Depth drilled with bit1
 MCSS.               CALC:   Source Rmc.
 EPD .F              5136:   Elevation Permanent Datum
 LMF .                 KB:   Log Measured From
 DMF .                 KB:   Drilling Measured From
~OTHER INFORMATION
~A   DEPT     TENS         DT       SPHI       TENR       CALR        SPR         GRR       SFL        ILD        ILM   
# ...
  926.5000  -999.2500  -999.2500  -999.2500   -95.1580    10.9190   -62.9410    92.9050     8.1320     8.9960     8.3590
  927.0000  -999.2500  -999.2500  -999.2500   -88.6310    10.9300   -62.9400    95.1350     8.0890     8.9960     8.3310
  927.5000  -999.2500  -999.2500  -999.2500   -85.4940    10.9370   -62.9400    96.4030     7.9780     8.9960     8.3060
  928.0000  -999.2500  -999.2500  -999.2500   -85.4940    10.9400   -62.9410    94.2740     7.7240     8.9960     8.2810
  928.5000  -999.2500  -999.2500  -999.2500   -85.4940    10.9430   -62.9410    92.0500     7.6960     8.9960     8.2560
  929.0000  -999.2500  -999.2500  -999.2500   -85.4940    10.9460   -62.9400    90.3050     7.9090     8.9960     8.2310
  929.5000  -999.2500  -999.2500  -999.2500   -85.4940    10.9490   -62.9390    92.1940     8.1130     8.9970     8.2070
  930.0000  -999.2500  -999.2500  -999.2500   -85.4940    10.9520   -62.8490    94.9560     8.0410     8.9960     8.3250
  930.5000  -999.2500  -999.2500  -999.2500   -89.5010    10.9550   -62.6300    97.7590     7.8390     9.0420     8.4390
  931.0000  -999.2500  -999.2500  -999.2500   -99.2920    10.9580   -62.5100    96.6770     7.9360     9.1540     8.5530
  931.5000  -999.2500  -999.2500  -999.2500  -109.0830    10.9610   -62.4530    94.0870     8.1000     9.2660     8.6670
  932.0000  -999.2500  -999.2500  -999.2500  -108.4650    10.9640   -62.3960    92.3450     8.2630     9.3780     8.7800
  932.5000  -999.2500  -999.2500  -999.2500   -88.8830    10.9670   -62.3380    93.7000     8.4270     9.4890     8.8560
  933.0000  -999.2500  -999.2500  -999.2500   -75.6920    10.9700   -62.2810    96.1180     8.6720     9.6010     8.8980
  933.5000  -999.2500  -999.2500  -999.2500   -76.2250    10.9730   -62.2240    98.2790     8.6510     9.7130     8.9410
  934.0000  -999.2500  -999.2500  -999.2500   -76.7570    10.9760   -62.1640    98.3110     8.6110     9.8620     8.9840
  934.5000  -999.2500  -999.2500  -999.2500   -77.2890    10.9790   -62.1920    98.3040     8.5700     9.8480     9.0270
  935.0000  -999.2500  -999.2500  -999.2500   -77.8210    10.9820   -62.2560    98.3030     8.5190     9.8260     9.0690
  935.5000  -999.2500  -999.2500  -999.2500   -78.3530    10.9850   -62.3210    98.2800     8.5490     9.8050     9.1120
  936.0000  -999.2500  -999.2500  -999.2500   -78.8850    10.9880   -62.3860    98.2660     8.6050     9.7840     9.1630
  936.5000  -999.2500  -999.2500  -999.2500   -79.4170    10.9910   -62.4500    95.9790     8.6610     9.7420     9.1020
  937.0000  -999.2500  -999.2500  -999.2500   -79.9490    10.9940   -62.5160    95.4120     8.7160     9.6680     9.0260
  937.5000  -999.2500  -999.2500  -999.2500   -80.4810    10.9970   -62.5440    95.0420     8.7520     9.5930     8.9490
  938.0000  -999.2500  -999.2500  -999.2500   -81.0130    11.0000   -62.5440    94.7680     8.6460     9.5180     8.8830
  938.5000  -999.2500  -999.2500  -999.2500   -81.5460    11.0030   -62.5440    96.0090     8.4490     9.4430     8.6490
  939.0000  -999.2500  -999.2500  -999.2500   -82.0780    11.0060   -62.5440    97.7230     8.2520     9.3690     8.4160
  939.5000  -999.2500  -999.2500  -999.2500   -82.6100    11.0090   -62.5440    99.1950     8.0560     9.2940     8.0580
  940.0000  -999.2500  -999.2500  -999.2500   -83.1420    11.0120   -62.5440   100.1020     7.9110     9.2190     8.1150
  940.5000  -999.2500  -999.2500  -999.2500   -83.6740    11.0150   -62.5440    99.1850     8.0360     9.1560     8.2380
  941.0000  -999.2500  -999.2500  -999.2500   -84.2060    11.0180   -62.5440    98.1710     8.1320     9.1260     8.2920
  941.5000  -999.2500  -999.2500  -999.2500   -84.7380    11.0210   -62.5440    93.5830     8.1120     9.0960     8.3140
  942.0000  -999.2500  -999.2500  -999.2500   -85.2700    11.0240   -62.5440    91.2000     8.0930     9.0660     8.3360
  942.5000  -999.2500  -999.2500  -999.2500   -80.3270    11.0270   -62.5430    90.2470     8.0740     9.0370     8.3590
  943.0000  -999.2500  -999.2500  -999.2500   -71.4270    11.0300   -62.5480    91.9830     8.0580     9.0070     8.2790
  943.5000  -999.2500  -999.2500  -999.2500   -68.1150    11.0330   -62.7430    92.9860     8.1320     8.9770     8.1960
  944.0000  -999.2500  -999.2500  -999.2500   -75.6460    11.0340   -62.9530    93.3750     7.9840     8.9470     8.1130
  944.5000  -999.2500  -999.2500  -999.2500   -83.1770    11.0340   -63.1240    95.2390     7.9070     8.9170     8.0300
  945.0000  -999.2500  -999.2500  -999.2500   -84.5520    11.0340   -62.8260    97.7050     7.8240     8.7390     7.9460
  945.5000  -999.2500  -999.2500  -999.2500   -83.1920    11.0340   -62.7740    99.0980     7.7400     8.5430     7.8630
  946.0000  -999.2500  -999.2500  -999.2500   -81.8320    11.0340   -62.8130    97.2190     7.6560     8.3810     7.7800
  946.5000  -999.2500  -999.2500  -999.2500   -80.4720    11.0270   -62.8550    95.4020     7.5720     8.2600     7.7030
  947.0000  -999.2500  -999.2500  -999.2500   -79.1130    11.0130   -62.8980    94.8280     7.4880     8.1380     7.6280
  947.5000  -999.2500  -999.2500  -999.2500   -77.7530    11.0110   -62.9420    95.5380     7.4040     8.0160     7.5520
  948.0000  -999.2500  -999.2500  -999.2500   -76.3930    11.0090   -63.0280    97.6740     7.3200     7.8950     7.4760
  948.5000  -999.2500  -999.2500  -999.2500   -77.7290    11.0060   -63.1170    99.8390     7.2580     7.7670     7.4010
  949.0000  -999.2500  -999.2500  -999.2500   -83.8480    11.0040   -63.2050   101.2880     7.2120     7.7280     7.3480
  949.5000  -999.2500  -999.2500  -999.2500   -89.9680    11.0010   -63.2930   102.7430     7.1650     7.6870     7.3310
  950.0000  -999.2500  -999.2500  -999.2500   -95.4640    10.9990   -63.3150   104.2350     7.1190     7.6260     7.3140
  950.5000  -999.2500  -999.2500  -999.2500   -89.4700    10.9960   -63.2730   104.2810     7.0730     7.6300     7.2960
  951.0000  -999.2500  -999.2500  -999.2500   -84.0310    10.9980   -63.2310   102.3540     7.0230     7.6380     7.2840
  951.5000  -999.2500  -999.2500  -999.2500   -78.5920    11.0130   -63.1880   100.1210     7.0340     7.6470     7.2740
  952.0000  -999.2500  -999.2500  -999.2500   -76.3440    11.0280   -63.1420    97.8530     7.0490     7.6550     7.2630
  952.5000  -999.2500  -999.2500  -999.2500   -78.2270    11.0430   -63.2490    98.6460     7.0640     7.6640     7.2520
  953.0000  -999.2500  -999.2500  -999.2500   -80.1100    11.0570   -63.3810   102.5890     7.0790     7.6720     7.2420
  953.5000  -999.2500  -999.2500  -999.2500   -81.9920    11.0720   -63.5140   104.6910     7.1090     7.6800     7.2310
  954.0000  -999.2500  -999.2500  -999.2500   -83.8750    11.0870   -63.6460   102.6410     7.1500     7.6890     7.2200
  954.5000  -999.2500  -999.2500  -999.2500   -85.4200    11.1210   -63.7350   100.2500     7.1900     7.6950     7.0790
  955.0000  -999.2500  -999.2500  -999.2500   -84.9000    11.1690   -63.7330   100.6700     7.2310     7.5990     6.8950
  955.5000  -999.2500  -999.2500  -999.2500   -84.3790    11.2180   -63.7330   101.3650     7.2840     7.5140     6.7070
  956.0000  -999.2500  -999.2500  -999.2500   -83.8580    11.2660   -63.7380   101.6980     7.1450     7.4290     6.5110
  956.5000  -999.2500  -999.2500  -999.2500   -83.3370    11.3270   -63.8380   100.9570     6.9460     7.2310     6.3150
  957.0000  -999.2500  -999.2500  -999.2500   -82.8160    11.3900   -63.9370   100.2890     6.7480     7.0180     6.1190
  957.5000  -999.2500  -999.2500  -999.2500   -82.2960    11.4520   -64.0340   100.1000     6.5490     6.8050     5.9230
  958.0000  -999.2500  -999.2500  -999.2500   -81.7750    11.5150   -64.1250    99.9550     6.3500     6.5920     5.7270
  958.5000  -999.2500  -999.2500  -999.2500   -81.2540    11.5770   -64.2020    98.8840     6.2260     6.4520     5.5300
  959.0000  -999.2500  -999.2500  -999.2500   -80.7330    11.6380   -64.2900    97.6490     6.2120     6.4240     5.5300
  959.5000  -999.2500  -999.2500  -999.2500   -80.2130    11.6770   -64.3020    97.3290     6.1990     6.3950     5.6820
