~VERSION INFORMATION
 VERS.                2.0:   CWLS LOG ASCII STANDARD - VERSION 2.0
 WRAP.                 NO:   ONE LINE PER DEPTH STEP
~WELL INFORMATION
#MNEM.UNIT      DATA TYPE    INFORMATION
#----------   ------------   ------------------------------
 STRT.F          514.0000:   START DEPTH
 STOP.F         4154.0000:   STOP DEPTH
 STEP.F            0.5000:   STEP LENGTH
 NULL.          -999.2500:   NO VALUE
 COMP.    FENIX & SCISSON:   COMPANY
 WELL.  FENIX "MX" #86-10:   WELL
 FLD .        TEAPOT DOME:   FIELD
 LOC .      S10 T38N R78W:   LOCATION
 CNTY.            NATRONA:   COUNTY
 STAT.            WYOMING:   STATE
 CTRY. UNITED STATES OF AMERICA:   COUNTRY
 SRVC.       SCHLUMBERGER:   SERVICE COMPANY
 DATE.        30-SEP-1978:   LOGDATE
 API .     49025107290000:   API NUMBER
~CURVE INFORMATION
#MNEM.UNIT       API CODE    CURVE DESCRIPTION
#----------   ------------   ------------------------------
 DEPT.F                  :   
 SPR .MV     07 010 01 00:   SPONTANEOUS POTENTIAL
 TENR.LBS    07 635 01 00:   TENSION FROM RESISTIVITY
 SFL .OHMM   07 220 01 00:   SHALLOW FOCUSED LOG RESISTIVITY
 ILM .OHMM   07 120 44 00:   INDUCTION LOG MEDIUM RESISTIVITY
 ILD .OHMM   07 120 46 00:   INDUCTION LOG DEEP RESISTIVITY
 CALD.IN     45 280 60 00:   CALIPER FROM DENSITY LOG
 GRD .GAPI   45 310 01 00:   GAMMA RAY FROM DENSITY LOG
 TEND.LBS    45 635 01 00:   TENSION FROM DENSITY LOG
 CORR.G/C3   45 356 01 00:   DENSITY CORRECTION
 RHOB.G/C3   45 350 01 00:   BULK DENSITY
 NPHI.DEC    42 890 03 00:   NEUTRON POROSITY SANDSTONE
~PARAMETER INFORMATION
#MNEM.UNIT          VALUE    DESCRIPTION
#----------   ------------   ------------------------------
 EKB .F         5233.0000:   Kelly bushing
 EGL .F         5222.0000:   Ground level
 EDF .F            0.0000:   Drilling floor
 TD  .F         4150.0000:   Total depth
 DATE.        30-SEP-1978:   Date logged
 CLNT.            A2DTECH:   Client Code
 SL  . 1450' FSL & 600' FEL:   Surface Location
 PD  .                 GL:   Permanent Datum
 LMF .                 KB:   Log Measured From
 DMF .                 KB:   Drilling Measured From
 DAPD.F                11:   Feet Above Permanent Datum
 DD  .F              4150:   Depth driller
 DL  .F              4141:   Depth logger
 BLI .F              4135:   Bottom log interval
 TLI .F               520:   Top log interval
 CS1 .IN            9.625:   Casing size
 CBD1.      9.625" @ 529':   Casing driller 1
 CBL1.F               529:   Casing logger 1
 BS1 .IN             8.75:   Bit size
 BSD1.F              4150:   Depth drilled with bit1
 DFT .                FGM:   Type fluid in hole
 DFD .                9.5:   Density
 DFV .                 36:   Viscosity
 DFPH.                 11:   pH
 DFL .                 60:   Fluid loss
 MSS .           MUD TANK:   Source of sample
 RMS .OHMM            .57:   Rm
 MST .F                68:   Rm Meas. temp.
 RMF .OHMM           .449:   Rmf
 MFST.F                68:   Rmf Meas. temp.
 MFSS.               MEAS:   Source Rmf.
 RMB .OHMM            .27:   Rm. at BHT
 BHT .F               142:   BHT.
 TCS .HRS            1500:   Time Circ. stopped
 TLAB.HRS            0700:   Time logger at bottom
 MRT .F               142:   Maximum recorded temp.
 LUN .               8043:   Logging unit number
 LUL .               CSPR:   Logging unit location
 ENGI.             LARSON:   Recorded By
 WITN.           DINSMORE:   Witnessed by
 ORIG.           5" PRINT:   Origin of data
 UWI .     49025107290000:   Unique Well ID
 DICO. A2D TECHNOLOGIES, INC.:   Digitizing Company
 EPD .               5222:   Elevation Permanent Datum
~OTHER INFORMATION
~A   DEPT      SPR       TENR        SFL        ILM        ILD       CALD         GRD      TEND       CORR       RHOB         NPHI 
# ...
 2191.5000   -35.5830   689.6570     4.2690     4.1150     4.4040    10.7550   119.0910   939.5700     0.1170     2.4590     0.3840
 2192.0000   -35.4110   689.9450     4.3850     4.1920     4.5310    10.8200   113.7050   939.2950     0.0730     2.4190     0.3900
 2192.5000   -34.8510   690.2340     4.5950     4.4170     4.6580    10.7400   110.4070   939.0200     0.0320     2.4230     0.3600
 2193.0000   -34.3010   690.5230     5.4240     4.6120     4.7850    10.5600   108.4710   938.7450     0.0360     2.4490     0.3250
 2193.5000   -34.0590   690.8110     6.7600     4.8060     4.9130    10.4860   108.4980   938.4700     0.0480     2.4710     0.3300
 2194.0000   -34.1070   691.1000     6.7030     5.0010     5.0920    10.4790   109.4770   938.1950     0.0430     2.4710     0.3420
 2194.5000   -34.1360   691.3880     6.5160     5.1950     5.2910    10.4630   110.4920   937.9200     0.0360     2.4620     0.3520
 2195.0000   -34.1590   691.6770     6.6790     5.3900     5.4890    10.4460   111.4060   937.6450     0.0330     2.4530     0.3460
 2195.5000   -34.1900   691.9660     6.8860     5.5230     5.6250    10.4330   114.9870   937.3700     0.0350     2.4500     0.3420
 2196.0000   -34.2180   692.2540     6.7110     5.4220     5.6250    10.4170   116.9060   937.0950     0.0450     2.4610     0.3490
 2196.5000   -34.2470   692.5430     6.3960     5.4220     5.5460    10.4430   118.2810   936.8200     0.0570     2.4920     0.3600
 2197.0000   -34.2760   692.8310     6.1670     5.2680     5.4460    10.4750   115.3530   936.5450     0.0640     2.5070     0.3630
 2197.5000   -34.3040   693.1200     6.4480     5.1190     5.3460    10.5080   114.5510   936.2550     0.0640     2.5030     0.3510
 2198.0000   -34.3330   693.4090     6.8860     4.9700     5.2460    10.5390   117.0990   936.2550     0.0580     2.4630     0.3440
 2198.5000   -34.3610   693.6970     6.0330     4.8560     5.1310    10.5740   120.3140   936.2550     0.0360     2.4190     0.3520
 2199.0000   -34.3890   693.9860     4.7670     4.8560     5.1720    10.5670   122.8720   936.2550     0.0160     2.4270     0.3600
 2199.5000   -34.4180   694.2740     5.5670     4.9140     5.2200    10.5570   120.6440   936.2550     0.0160     2.4390     0.3520
 2200.0000   -34.4480   694.5630     6.2990     4.9950     5.2670    10.5470   118.9210   936.2550     0.0150     2.4530     0.3400
 2200.5000   -34.4640   694.8520     7.0320     5.0760     5.3150    10.5340   120.4530   936.2550     0.0170     2.4640     0.3280
 2201.0000   -34.4620   695.1400     7.8310     5.1570     5.3630    10.5570   120.6920   936.2550     0.0200     2.4660     0.3390
 2201.5000   -34.4630   695.4290     7.5470     5.2260     5.4110    10.5940   120.2210   936.2550     0.0230     2.4670     0.3570
 2202.0000   -34.4630   695.7180     7.2340     5.0520     5.4220    10.6290   118.9050   936.2550     0.0200     2.4610     0.3590
 2202.5000   -34.4610   696.2840     6.9210     4.8470     5.0980    10.6650   117.0190   936.2550     0.0160     2.4390     0.3430
 2203.0000   -34.4640   697.0150     6.3670     4.6420     4.7400    10.7000   116.2320   936.2550     0.0110     2.4280     0.3390
 2203.5000   -34.4640   697.7460     5.5580     4.4370     4.3810    10.7610   117.2500   936.2550     0.0060     2.3900     0.3470
 2204.0000   -34.3970   698.4760     4.7490     4.2320     4.0230    10.8180   119.5820   936.2550     0.0050     2.3410     0.3740
 2204.5000   -34.1010   699.2070     3.6860     4.0400     3.7540    10.8770   120.0350   936.2550     0.0020     2.3200     0.4070
 2205.0000   -33.7940   699.9380     3.8020     4.3180     3.9090    10.8990   116.1660   936.2550     0.0020     2.3460     0.3940
 2205.5000   -33.6470   700.6690     4.1860     4.5790     4.1350    10.8100   110.6760   936.2550     0.0020     2.4070     0.3810
 2206.0000   -33.7800   701.4000     5.8580     4.8400     4.2690    10.7050   105.1590   936.2550     0.0180     2.4740     0.3000
 2206.5000   -34.0860   702.1310     8.1250     5.1310     4.2160    10.6180   106.1750   936.2550     0.0380     2.5080     0.2740
 2207.0000   -34.3890   702.8620     8.4290     4.5240     4.0110    10.6190   107.1790   936.2550     0.0550     2.5030     0.2780
 2207.5000   -34.3760   703.5930     7.7580     3.8240     3.8070    10.6180   108.7180   936.2550     0.0720     2.4820     0.2930
 2208.0000   -34.1050   704.3240     5.9020     3.5260     3.6030    10.6970   107.3490   936.2550     0.0770     2.4450     0.3490
 2208.5000   -33.8410   705.0550     4.0450     3.3010     3.3980    10.7840   105.5950   936.2550     0.0680     2.4030     0.3830
 2209.0000   -33.5870   705.7860     3.0790     3.0150     3.1810    10.8510   104.7780   936.2550     0.0480     2.3600     0.3850
 2209.5000   -33.3240   706.5170     2.5990     2.7970     3.1230    10.7690   105.2020   936.2550     0.0280     2.3360     0.3720
 2210.0000   -33.3330   707.2480     3.0690     2.7460     3.0180    10.7000   107.5350   936.2550     0.0380     2.3590     0.3440
 2210.5000   -33.4210   707.9790     3.4680     2.7510     2.9020    10.6200   111.0370   936.2550     0.0470     2.4040     0.3120
 2211.0000   -33.5100   708.7100     4.1150     2.7590     2.9020    10.5740   114.3080   936.2550     0.0560     2.4070     0.3030
 2211.5000   -33.5980   709.4410     4.0070     2.7660     2.9140    10.6210   116.7430   936.2550     0.0580     2.4090     0.2970
 2212.0000   -33.6610   710.1710     3.7180     2.7740     2.9240    10.6620   115.4970   936.2550     0.0580     2.4070     0.3070
 2212.5000   -33.5440   710.9020     3.4290     2.7810     2.9340    10.7060   113.8020   936.2550     0.0460     2.4020     0.3330
 2213.0000   -33.4410   711.6330     3.1400     2.7880     2.9440    10.7550   113.6540   936.2550     0.0310     2.3930     0.3540
 2213.5000   -33.2840   712.3640     2.7970     2.7970     2.9560    10.7680   113.5860   936.2550     0.0160     2.3940     0.3610
 2214.0000   -33.8250   713.0950     2.9830     2.8380     3.1140    10.7300   114.7420   936.2550     0.0160     2.4150     0.3510
 2214.5000   -34.5780   713.8260     3.2120     2.9310     3.3070    10.6950   119.3820   936.2550     0.0160     2.4330     0.3410
 2215.0000   -34.6370   714.5570     3.4410     3.0110     3.5010    10.6600   123.8710   936.2550     0.0100     2.4400     0.3300
 2215.5000   -34.2510   715.2880     3.6700     3.3170     3.6950    10.6250   128.6000   936.2550     0.0060     2.4490     0.3160
 2216.0000   -33.9930   716.0190     4.0100     3.5820     3.8890    10.5890   133.0630   936.2550     0.0140     2.4710     0.3220
 2216.5000   -33.7420   716.7500     4.4160     3.8480     4.0830    10.5820   130.2990   936.2550     0.0220     2.4930     0.3350
 2217.0000   -33.4660   717.4810     4.7650     4.1130     4.2770    10.5940   124.2170   936.2550     0.0180     2.4910     0.3480
 2217.5000   -33.3800   718.2120     5.0060     4.3790     4.4700    10.6060   117.5670   936.2550     0.0120     2.4810     0.3590
 2218.0000   -33.9160   718.9430     5.2480     4.6440     4.6640    10.6160   110.6640   936.2550     0.0070     2.4700     0.3450
 2218.5000   -34.0150   719.6740     5.9180     4.9100     4.8580    10.6280   107.9230   936.2550     0.0020     2.4680     0.3330
 2219.0000   -33.9170   720.4050     6.6370     5.1310     5.0120    10.6390   111.8310   936.2550    -0.0020     2.4720     0.3210
 2219.5000   -33.8200   721.1360     6.7600     5.1140     5.0840    10.6500   117.0100   936.2550    -0.0010     2.4760     0.3140
 2220.0000   -33.7480   721.8670     6.5880     5.1000     5.1440    10.6610   121.8690   936.2550    -0.0010     2.4710     0.3180
 2220.5000   -33.6860   722.5970     5.9410     5.0850     5.2030    10.6720   127.7050   936.2550    -0.0010     2.4670     0.3280
 2221.0000   -34.0100   723.3280     5.0380     5.0710     5.2630    10.6830   129.4950   936.2550     0.0000     2.4700     0.3380
 2221.5000   -34.3110   724.0590     5.1510     5.0560     5.3220    10.6940   129.4180   936.2550     0.0010     2.4790     0.3480
