~VERSION INFORMATION
 VERS.                2.0:   CWLS LOG ASCII STANDARD - VERSION 2.0
 WRAP.                 NO:   ONE LINE PER DEPTH STEP
~WELL INFORMATION
#MNEM.UNIT      DATA TYPE    INFORMATION
#----------   ------------   ------------------------------
 STRT.F            0.0000:   START DEPTH
 STOP.F         3040.0000:   STOP DEPTH
 STEP.F            0.5000:   STEP LENGTH
 NULL.          -999.2500:   NO VALUE
 COMP.    FENIX & SCISSON:   COMPANY
 WELL.  FENIX "AX" #43-28:   WELL
 FLD .             TEAPOT:   FIELD
 LOC .      S28 T39N R78W:   LOCATION
 CNTY.            NATRONA:   COUNTY
 STAT.            WYOMING:   STATE
 CTRY. UNITED STATES OF AMERICA:   COUNTRY
 SRVC.              WELEX:   SERVICE COMPANY
 DATE.        20-JUL-1980:   LOGDATE
 API .     49025108450000:   API NUMBER
~CURVE INFORMATION
#MNEM.UNIT       API CODE    CURVE DESCRIPTION
#----------   ------------   ------------------------------
 DEPT.F                  :   
 GRD .GAPI   45 310 01 00:   GAMMA RAY FROM DENSITY LOG
 CALD.IN     45 280 60 00:   CALIPER FROM DENSITY LOG
 RHOB.G/C3   45 350 01 00:   BULK DENSITY
 CORR.G/C3   45 356 01 00:   DENSITY CORRECTION
 SPR .MV     07 010 01 00:   SPONTANEOUS POTENTIAL
 ILD .OHMM   07 120 46 00:   DEEP INDUCTION RESISTIVITY
 ILM .OHMM   07 120 44 00:   INDUCTION LOG MEDIUM RESISTIVITY
 SGRD.OHMM   07 220 05 00:   SHALLOW SHORT GUARD RESISTIVITY
 NEUT.CPS    35 330 30 00:   NEUTRON
~PARAMETER INFORMATION
#MNEM.UNIT          VALUE    DESCRIPTION
#----------   ------------   ------------------------------
 EKB .F         5042.0000:   Kelly bushing
 EGL .F         5032.0000:   Ground level
 EDF .F            0.0000:   Drilling floor
 TD  .F         3038.0000:   Total depth
 DATE.        20-JUL-1980:   Date logged
 CLNT.            A2DTECH:   Client Code
 SL  . 1500' FNL & 2500' FWL:   Surface Location
 PD  .                 GL:   Permanent Datum
 EPD .F              5032:   Elevation Permanent Datum
 LMF .                 KB:   Log Measured From
 DMF .                 KB:   Drilling Measured From
 DD  .F              3000:   Depth driller
 DL  .F              3038:   Depth logger
 BLI .F              3036:   Bottom log interval
 TLI .F               432:   Top log interval
 CS1 .IN            8.625:   Casing size
 CBD1.      8.625" @ 443':   Casing driller 1
 CBL1.F               432:   Casing logger 1
 BS1 .IN            7.875:   Bit size
 BSD1.F              3000:   Depth drilled with bit1
 DFT .     WATER BASE MUD:   Type fluid in hole
 DFD .                9.3:   Density
 DFV .                 45:   Viscosity
 DFPH.                  9:   pH
 DFL .                  8:   Fluid loss
 MSS .                PIT:   Source of sample
 RMS .OHMM           0.85:   Rm
 MST .F                75:   Rm Meas. temp.
 RMF .OHMM           0.68:   Rmf
 MFST.F                75:   Rmf Meas. temp.
 RMC .OHMM           1.02:   Rmc
 MCST.F                75:   Rmc Meas. temp.
 MFSS.               MEAS:   Source Rmf.
 MCSS.               MEAS:   Source Rmc.
 RMB .OHMM           0.57:   Rm. at BHT
 BHT .F               112:   BHT.
 TCS .HRS               3:   Time Circ. stopped
 MRT .F               112:   Maximum recorded temp.
 LUN .               9865:   Logging unit number
 LUL .             CASPER:   Logging unit location
 ENGI.            TOTHILL:   Recorded By
 WITN.           DINSMORE:   Witnessed by
 ORIG.     2.5", 5" PRINT:   Origin of data
 UWI .     49025108450000:   Unique Well ID
 DICO. A2D TECHNOLOGIES, INC.:   Digitizing Company
~OTHER INFORMATION
~A    DEPT     GRD       CALD       RHOB       CORR        SPR        ILD        ILM       SGRD        NEUT  
# ...
 2993.0000    82.0010     7.8600     2.5150     0.0520   -18.7520     3.7040     4.1210     4.6720   363.9300
 2993.5000    81.9450     7.8580     2.5100     0.0510   -18.8350     3.6620     4.1400     4.7980   381.6000
 2994.0000    82.2370     7.8560     2.5060     0.0460   -18.9190     3.6200     4.0290     4.5240   402.2390
 2994.5000    82.6560     7.8540     2.5060     0.0430   -18.9890     3.5780     3.9180     4.2500   356.4680
 2995.0000    83.0760     7.8520     2.5140     0.0500   -19.0590     3.5360     3.9180     4.1400   366.5240
 2995.5000    83.4980     7.8510     2.5250     0.0590   -19.1640     3.4940     3.9180     4.2960   374.1590
 2996.0000    83.7080     7.8490     2.5300     0.0670   -18.9480     3.4440     3.8480     4.1010   382.7440
 2996.5000    83.7090     7.8470     2.5290     0.0660   -18.5210     3.3810     3.7320     3.7760   394.3050
 2997.0000    83.7120     7.8450     2.5290     0.0650   -18.1320     3.3520     3.6390     3.8460   381.9550
 2997.5000    83.7130     7.8430     2.5310     0.0660   -17.7410     3.3220     3.6350     3.8740   390.9760
 2998.0000    83.8970     7.8410     2.5340     0.0670   -17.3470     3.2930     3.6240     3.9440   377.8930
 2998.5000    84.2650     7.8370     2.5330     0.0690   -16.9480     3.2640     3.6130     4.0140   384.9620
 2999.0000    84.5960     7.8300     2.5320     0.0690   -16.7920     3.2340     3.6020     4.0840   407.9910
 2999.5000    84.8610     7.8230     2.5340     0.0690   -16.9880     3.2050     3.5910     4.1540   398.6150
 3000.0000    85.1530     7.8160     2.5320     0.0670   -17.2200     3.1760     3.5800     4.2250   378.4950
 3000.5000    85.4440     7.8090     2.5240     0.0590   -17.4540     3.1470     3.5410     4.2960   357.2930
 3001.0000    85.7400     7.8020     2.5150     0.0530   -17.6860     3.1170     3.4590     4.2480   398.7900
 3001.5000    86.6390     7.7950     2.5070     0.0530   -17.9210     3.0880     3.3770     4.1270   393.1500
 3002.0000    87.6320     7.7880     2.5030     0.0530   -18.1520     3.0590     3.2950     3.8780   378.9750
 3002.5000    88.6270     7.7820     2.5010     0.0530   -18.3820     3.0270     3.2130     3.6280   371.1180
 3003.0000    89.6210     7.7790     2.5010     0.0550   -18.6370     2.9900     3.1410     3.4880   380.3570
 3003.5000    90.6160     7.7760     2.5030     0.0620   -18.7850     2.9490     3.0830     3.4490   375.0940
 3004.0000    91.6110     7.7740     2.5060     0.0680   -18.7690     2.9080     3.0830     3.4100   369.5120
 3004.5000    92.6030     7.7720     2.5080     0.0720   -18.6230     2.8680     3.0830     3.3720   396.6890
 3005.0000    93.5120     7.7690     2.5080     0.0750   -18.4010     2.8270     3.0830     3.3190   383.7430
 3005.5000    93.9150     7.7670     2.5080     0.0790   -18.1810     2.7860     3.0830     3.3640   372.3770
 3006.0000    94.3170     7.7640     2.5080     0.0790   -17.9670     2.7460     3.0830     3.5510   358.9780
 3006.5000    93.8780     7.7620     2.4980     0.0700   -17.7490     2.7050     3.0100     3.7760   390.5720
 3007.0000    93.3650     7.7580     2.4880     0.0600   -17.5280     2.6640     2.9370     3.6630   392.4110
 3007.5000    92.8540     7.7540     2.4780     0.0500   -17.3250     2.6240     2.8650     3.3790   395.7820
 3008.0000    92.6000     7.7510     2.4700     0.0430   -16.9220     2.5830     2.7930     3.0830   392.4630
 3008.5000    92.6630     7.7470     2.4620     0.0380   -16.2310     2.5650     2.7610     3.0270   382.7980
 3009.0000    92.7250     7.7440     2.4520     0.0320   -15.6260     2.5560     2.7360     3.0360   373.2370
 3009.5000    92.7870     7.7400     2.4400     0.0270   -14.9000     2.5290     2.7150     3.0640   386.8350
 3010.0000    92.8400     7.7360     2.4280     0.0250   -15.3470     2.5030     2.6930     3.0920   379.9760
 3010.5000    93.2450     7.7330     2.4260     0.0260   -15.9920     2.4770     2.6720     3.1340   373.4090
 3011.0000    93.7260     7.7290     2.4310     0.0280   -16.6710     2.4500     2.6500     3.1240  -999.2500
 3011.5000    94.2090     7.7260     2.4360     0.0310   -17.1790     2.4240     2.6290     3.0630  -999.2500
 3012.0000    94.6940     7.7250     2.4400     0.0330   -17.4350     2.3980     2.6020     3.0020  -999.2500
 3012.5000    94.9280     7.7470     2.4410     0.0360   -17.7720     2.3710     2.5580     2.9410  -999.2500
 3013.0000    94.9290     7.7700     2.4410     0.0370   -18.1000     2.3450     2.5150     2.9180  -999.2500
 3013.5000    94.9340     7.7720     2.4370     0.0340   -18.4150     2.3190     2.4710     2.9720  -999.2500
 3014.0000    94.7920     7.7540     2.4320     0.0300   -18.7470     2.2920     2.4280     2.9720  -999.2500
 3014.5000    94.5840     7.7360     2.4270     0.0230   -18.6930     2.2660     2.3820     2.7770  -999.2500
 3015.0000    94.3670     7.7170     2.4350     0.0190   -18.6160     2.2540     2.3890     2.5650  -999.2500
 3015.5000    94.6090     7.7020     2.4460     0.0260   -18.5230     2.2540     2.3960     2.6910  -999.2500
 3016.0000    94.9300     7.7150     2.4530     0.0360   -18.4420     2.2540     2.4030     3.0830  -999.2500
 3016.5000    95.2490     7.7480     2.4590     0.0390   -18.3560     2.2540     2.4100     3.0340  -999.2500
 3017.0000    95.4290     7.7560     2.4640     0.0420   -18.2710     2.2540     2.4160     2.7960  -999.2500
 3017.5000    94.7890     7.7470     2.4680     0.0440   -18.1860     2.2540     2.4270     2.8350  -999.2500
 3018.0000    94.1570     7.7570     2.4680     0.0450   -18.1020     2.2540     2.4160     3.0830  -999.2500
 3018.5000    93.5280     7.7850     2.4670     0.0460   -18.0150     2.2440     2.3920     2.9290  -999.2500
 3019.0000    92.8980     7.8140     2.4660     0.0480   -17.9760     2.2030     2.3690     3.5730  -999.2500
 3019.5000    92.2680     7.8090     2.4660     0.0490   -17.9530     2.1610     2.3450     2.9900  -999.2500
 3020.0000    91.6920     7.7940     2.4620     0.0490   -17.9270     2.1200     2.3210     2.0560  -999.2500
 3020.5000  -999.2500     7.7770     2.4580     0.0400   -17.9010     2.0780     2.2980     2.8640  -999.2500
 3021.0000  -999.2500     7.7620     2.4530     0.0340   -17.8760     2.0370     2.2740     2.5870  -999.2500
 3021.5000  -999.2500     7.7710     2.4530     0.0400   -17.8500     2.0190     2.2540     2.3540  -999.2500
 3022.0000  -999.2500     7.7810     2.4610     0.0490   -17.8240     2.0650     2.2540     2.2960  -999.2500
 3022.5000  -999.2500     7.7900     2.4660     0.0570   -17.7980     2.1060     2.2540     2.5180  -999.2500
 3023.0000  -999.2500     7.7990     2.4650     0.0570   -17.7730     2.1330     2.3460     2.9340  -999.2500
 3023.5000  -999.2500     7.8010     2.4640     0.0560   -17.7470     2.1330     2.4270     3.1410  -999.2500
 3024.0000  -999.2500     7.8010     2.4700     0.0560   -17.7200     2.2230     2.5180     2.8840  -999.2500
 3024.5000  -999.2500     7.8010     2.4780     0.0550   -17.6990     2.3540     2.6240     2.7610  -999.2500
 3025.0000  -999.2500     7.8010     2.4850     0.0550   -17.6620     2.4850     2.8480     3.1080  -999.2500
 3025.5000  -999.2500     7.8010     2.4920     0.0560   -17.6520     2.6150     3.0720     3.4340  -999.2500
 3026.0000  -999.2500     7.8010     2.4920     0.0550   -17.6200     2.7460     3.2960     3.7600  -999.2500
 3026.5000  -999.2500     7.8010     2.4900     0.0510   -17.5140     2.8760     3.5200     4.2170  -999.2500
 3027.0000  -999.2500     7.7940     2.4900     0.0480   -17.1580     3.0070     3.7440     3.7760  -999.2500
 3027.5000  -999.2500     7.7850     2.4950     0.0450   -17.2640     3.1410     3.9680     4.1800  -999.2500
 3028.0000  -999.2500     7.7770     2.5030     0.0490   -17.2890     3.3810     4.0650     5.4580  -999.2500
 3028.5000  -999.2500     7.7680     2.5140     0.0540   -17.3430     3.3760     4.0190     4.9780  -999.2500
 3029.0000  -999.2500     7.7600     2.5260     0.0620   -17.3940     3.3610     3.8920     5.0700  -999.2500
