~VERSION INFORMATION
 VERS.                2.0:   CWLS LOG ASCII STANDARD - VERSION 2.0
 WRAP.                 NO:   ONE LINE PER DEPTH STEP
~WELL INFORMATION
#MNEM.UNIT      DATA TYPE    INFORMATION
#----------   ------------   ------------------------------
 STRT.F           10.0000:   START DEPTH
 STOP.F         5812.0000:   STOP DEPTH
 STEP.F            0.5000:   STEP LENGTH
 NULL.          -999.2500:   NO VALUE
 COMP. LAWRENCE - ALLSISON:   COMPANY
 WELL. LAWRENCE "X" #11-11:   WELL
 FLD .              NPR 3:   FIELD
 LOC .      S11 T38N R78W:   LOCATION
 CNTY.            NATRONA:   COUNTY
 STAT.            WYOMING:   STATE
 CTRY. UNITED STATES OF AMERICA:   COUNTRY
 SRVC.      DRESSER ATLAS:   SERVICE COMPANY
 DATE.        12-NOV-1982:   LOGDATE
 API .     49025109160000:   API NUMBER
~CURVE INFORMATION
#MNEM.UNIT       API CODE    CURVE DESCRIPTION
#----------   ------------   ------------------------------
 DEPT.F                  :   
 TEND.LBS    45 635 01 00:   TENSION FROM DENSITY LOG
 CALD.IN     45 280 60 00:   CALIPER FROM DENSITY LOG
 CORR.G/C3   45 356 01 00:   DENSITY CORRECTION
 RHOB.G/C3   45 350 01 00:   BULK DENSITY
 CN  .DEC    42 890 03 00:   COMPENSATED NEUTRON POROSITY SANDSTONE
 AC  .US/F   60 520 00 00:   ACOUSTIC
 TENS.LBS    60 635 01 00:   TENSION FROM SONIC
 GRR .GAPI   11 310 01 00:   GAMMA RAY FROM RESISTIVITY
 RD  .OHMM   11 220 10 00:   RESISTIVITY DEEP
 RMLL.OHMM   11 270 04 00:   RESISTIVITY MICROLATEROLOG
 RS  .OHMM   11 220 09 00:   RESISTIVITY SHALLOW
 SPR .MV     11 010 01 00:   SPONTANEOUS POTENTIAL FROM RESISTIVITY
 TENR.LBS    11 635 01 00:   TENSION FROM RESISTIVITY
~PARAMETER INFORMATION
#MNEM.UNIT          VALUE    DESCRIPTION
#----------   ------------   ------------------------------
 EKB .F         5160.0000:   Kelly bushing
 EGL .F         5150.0000:   Ground level
 EDF .F            0.0000:   Drilling floor
 TD  .F         5800.0000:   Total depth
 CLNT.            A2DTECH:   Client Code
 SL  . 660' FNL & 660' FWL:   Surface Location
 PD  .                 GL:   Permanent Datum
 EPD .F              5150:   Elevation Permanent Datum
 LMF .                 KB:   Log Measured From
 DMF .                 KB:   Drilling Measured From
 DAPD.F                10:   Feet Above Permanent Datum
 DATE.        12-NOV-1982:   Date Logged [DD-MMM-YYYY]
 DD  .F              5800:   Depth driller
 DL  .F              5795:   Depth logger
 BLI .F              5702:   Bottom log interval
 TLI .F                 0:   Top log interval
 CS1 .IN            9.625:   Casing size
 CBD1.      9.625" @ 664':   Casing driller 1
 CBL1.F               660:   Casing logger 1
 BS1 .IN             8.75:   Bit size
 BSD1.F              5800:   Depth drilled with bit1
 DFT .                KCL:   Type fluid in hole
 DFD .                8.6:   Density
 DFV .                 45:   Viscosity
 DFPH.                8.5:   pH
 DFL .                7.8:   Fluid loss
 MSS .           FLOWLINE:   Source of sample
 RMS .OHMM           0.32:   Rm
 MST .F                92:   Rm Meas. temp.
 RMF .OHMM           0.26:   Rmf
 MFST.F                90:   Rmf Meas. temp.
 MFSS.               MEAS:   Source Rmf.
 RMB .OHMM           0.19:   Rm. at BHT
 BHT .F               160:   BHT.
 TCS .HRS               3:   Time Circ. stopped
 MRT .F               160:   Maximum recorded temp.
 LUN .               6270:   Logging unit number
 LUL .              WLSTN:   Logging unit location
 ENGI.            QUICKEL:   Recorded By
 WITN.             STRONG:   Witnessed by
 ORIG.        2" 5" PRINT:   Origin of data
 UWI .     49025109160000:   Unique Well ID
 DICO. A2D TECHNIOLOGIES,INC.:   Digitizing Company
 RMC .OHMM           0.40:   Rmc
 MCST.F                92:   Rmc Meas. temp.
 MCSS.               CALC:   Source Rmc.
~OTHER INFORMATION
~A  DEPTH     TEND       CALD       CORR       RHOB         CN         AC       TENS        GRR         RD       RMLL         RS        SPR       TENR
# ...
 3728.0000   -72.4569     9.6868     0.0266     2.3879     0.3827    99.4636   -45.4649   162.7100     2.3660     0.5709     1.8135   -46.8337   -69.6273
 3728.5000   -64.7433     9.7158     0.0280     2.3299     0.4242   101.5811   -48.9974   189.5759     2.0874     0.5076     1.4732   -47.1235   -87.0267
 3729.0000   -49.5333     9.7148    -0.0126     2.2997     0.4236   104.7545   -48.6285   203.3995     1.8015     0.5643     1.3372   -47.4162   -90.6811
 3729.5000   -45.5679     9.7137     0.0534     2.3230     0.4080   106.3441   -52.1608   211.2222     1.8652     0.5916     1.4334   -47.0997   -82.9666
 3730.0000   -56.5967     9.7129     0.1195     2.3350     0.3247   105.4450   -55.5556   210.5498     2.1577     0.6387     1.6813   -46.7861   -90.3491
 3730.5000   -71.7581     9.6822     0.1616     2.3349     0.3061   102.8771   -66.5118   202.2764     2.5485     0.7339     1.8917   -46.3218   -97.7686
 3731.0000   -56.1058     9.6664     0.1735     2.3379     0.3064    99.1938   -69.9924   178.8233     2.8281     1.0602     2.1287   -46.1590   -74.9939
 3731.5000   -37.1478     9.6504     0.1509     2.3493     0.3215    97.4444   -69.6696   138.5949     2.8879     1.0978     2.2039   -45.8455   -59.7861
 3732.0000   -44.4267     9.6495     0.0967     2.4010     0.3444    97.3239   -69.3694   130.1983     2.8093     0.7982     2.1567   -45.5320   -74.6988
 3732.5000   -55.5081     9.6487     0.0319     2.4032     0.3733    98.2363   -69.0113   136.8549     2.7519     0.6177     2.1295   -45.5201   -89.6115
 3733.0000   -59.0387     9.6478     0.0484     2.3963     0.3836    98.8455   -68.7161   144.1240     2.7333     0.6762     2.1446   -46.1116   -93.2291
 3733.5000   -58.7671     9.6318     0.0634     2.3987     0.3863    99.3794   -72.2485   147.7676     2.7148     0.9241     2.2052   -46.7059   -85.5145
 3734.0000   -58.5457     9.6310     0.0573     2.4075     0.3884    99.9132   -75.7072   150.0661     2.6593     1.3537     2.2675   -47.2944   -81.6019
 3734.5000   -58.2780     9.6152     0.0147     2.4097     0.3903   100.5224   -75.3382   150.9812     2.6038     1.3079     2.2058   -47.6261   -81.4544
 3735.0000   -54.3125     9.5994     0.0210     2.3743     0.3953   101.1317   -75.0431   151.2934     2.4774     1.0749     2.0727   -48.3234   -85.1088
 3735.5000   -54.0952     9.5834     0.0285     2.3237     0.4099   102.0426   -70.9943   143.4974     2.2842     0.8732     1.8813   -48.4653   -88.7263
 3736.0000   -53.8777     9.5526     0.0299     2.2349     0.4806   104.6880   -55.6840   139.9056     2.0733     0.8000     1.7195   -48.9030   -88.5419
 3736.5000   -57.4085     9.5518     0.0103     2.1604     0.4629   110.0484   -36.6202   139.3139     1.9754     0.7676     1.6960   -49.0449   -88.3944
 3737.0000   -64.6927     9.5510    -0.0692     2.0460     0.4205   111.4872   -32.5712   139.9293     2.0172     0.8173     1.7199   -48.7283   -88.2469
 3737.5000   -64.4678     9.5798    -0.0921     2.0022     0.3977   110.8647   -36.0360   140.5418     2.2697     0.9723     1.8182   -48.1131   -88.0994
 3738.0000   -52.9539     9.6387     0.0462     2.0052     0.3854   108.1158   -35.7348   140.5536     2.5187     1.1095     1.9762   -47.7996   -87.9518
 3738.5000   -75.2253     9.6977     0.1423     2.1278     0.3740    97.4038   -35.4355   141.4664     2.7565     1.1813     2.3057   -47.1844   -87.4856
 3739.0000   -71.2599     9.6968     0.1347     2.2797     0.3529    96.2785   -42.6520   145.9827     2.8541     1.1981     2.4675   -47.0217   -83.8855
 3739.5000   -67.2943     9.6509     0.0543     2.3474     0.3231    95.9828   -49.7905   150.1988     2.9144     1.2068     2.5198   -46.5573   -83.7073
 3740.0000   -67.0769     9.6351     0.0007     2.3518     0.3111    95.6871   -57.0767   151.7121     3.0176     1.2584     2.5730   -46.5454   -87.3617
 3740.5000   -70.6146     9.6343     0.0157     2.3616     0.3064    95.0897   -64.2891   150.2224     3.1901     1.4065     2.7013   -46.0810   -87.9834
 3741.0000   -77.8866     9.6335     0.0352     2.3863     0.2736    91.1740   -67.7477   148.1322     3.3734     1.9626     3.0819   -45.9183   -90.8317
 3741.5000   -81.4173     9.6625     0.0622     2.4562     0.2399    89.9733   -71.2063   136.8752     3.6787     2.1634     3.4200   -45.9064   -90.6473
 3742.0000   -81.1456     9.6914     0.1324     2.4434     0.1593    76.0275   -70.8375   114.6195     4.7374     2.4860     5.2564   -45.8944   -90.4997
 3742.5000   -80.9283     9.6905     0.2590     2.4162     0.1331    70.3773   -63.0348    53.6329     7.5381     6.8450    10.7339   -45.8824   -94.1542
 3743.0000   -84.4590     9.7046     0.1943     2.3909     0.1157    66.8387   -55.2322    38.5729    21.6177    17.8301    24.4895   -45.8703   -93.9698
 3743.5000   -91.7379     9.7187     0.0889     2.4026     0.1112    64.9593   -21.1532    31.3776    34.1598    34.9570    35.1195   -45.8559   -97.5903
 3744.0000  -106.5130     9.7478     0.0423     2.4183     0.1221    65.6801    -5.8431    26.5846    37.9058    39.3335    33.9280   -45.8440   -97.4397
 3744.5000  -110.0449     9.7467     0.0407     2.4521     0.1341    67.9082    -5.5480    39.2090    30.5827    30.0885    27.5629   -45.9830   -93.5241
 3745.0000  -109.8201     9.7758     0.0331     2.4740     0.1444    70.3330   -12.7603    62.6443    22.7047    17.3623    20.9759   -46.1249   -93.3735
 3745.5000   -90.8141     9.7832     0.0119     2.4761     0.1598    74.1850   -27.6189    75.8694    15.9469    12.7996    15.3738   -46.4117   -85.6651
 3746.0000   -64.3599     9.8039    -0.0002     2.4602     0.2089    77.9617   -42.5877   100.2055    13.1359     8.3285    13.0258   -46.3998   -81.7525
 3746.5000   -45.4019     9.8225    -0.0017     2.4504     0.2101    78.6463   -41.8919    96.9141    12.9568     6.4007    12.6901   -46.9912   -81.6050
 3747.0000   -33.9401     9.8384    -0.0065     2.4481     0.2086    78.6523   -37.7823    96.3224    12.9586     6.1411    12.6923   -47.2810   -85.2594
 3747.5000   -33.7227     9.8610    -0.0049     2.4442     0.2081    79.2615   -41.2408    99.3402    13.0505     6.7228    12.9607   -47.5737   -88.8769
 3748.0000   -33.5054     9.8600     0.0086     2.4141     0.2098    81.6807   -52.2070   108.3610    13.1467     9.2517    13.2348   -47.5589   -84.9275
 3748.5000   -33.2834     9.8591     0.0190     2.3832     0.2494    82.0637   -63.1732   109.5741    13.5251    10.2688    13.4213   -47.5470   -84.7799
 3749.0000   -36.7644     9.8583    -0.0126     2.3204     0.3057    81.9942   -70.4593   109.5859    14.6888    10.4150    13.1469   -47.3843   -84.6324
 3749.5000   -40.3495     9.8574    -0.0232     2.2701     0.3466    80.3410   -73.9179   104.7930    15.9648    11.6405    13.0575   -47.2215   -80.7198
 3750.0000   -47.5741     9.8439     0.0022     2.2912     0.3581    78.8386   -73.5458    95.4955    16.4158    11.8063    13.2415   -47.3605   -80.5723
 3750.5000   -58.6554     9.8443     0.0126     2.3491     0.3339    77.7660   -73.0757    90.0504    15.7493    11.0182    13.0615   -46.6807   -69.1265
 3751.0000   -58.3837     9.8448     0.0157     2.4303     0.2435    76.0779   -72.5801    88.0117    14.9628    10.9078    12.7945   -46.6735   -74.1364
 3751.5000   -58.1663     9.8453     0.0307     2.4860     0.2038    75.8398   -49.5808    91.0766    13.1002    10.4643    12.1903   -46.6676   -80.1322
 3752.0000   -57.9460     9.8457     0.0518     2.4980     0.2083    76.3751   -37.8377   103.1149    10.2222     8.7394    11.2190   -46.6618   -76.1838
 3752.5000   -61.4253     9.8461     0.0547     2.4988     0.2222    77.0597   -41.1195   112.1502     9.3434     6.9053     8.3818   -46.6566   -83.5672
 3753.0000   -61.2080     9.8466     0.0472     2.4972     0.2385    77.2165   -40.5235   117.5819     8.5995     6.3108     7.7678   -46.4994   -87.2223
 3753.5000   -61.0087     9.8470     0.0321     2.4949     0.2352    77.2224   -47.6732   123.6143     8.4238     6.5902     7.7198   -46.6456   -94.5691
