~VERSION INFORMATION
 VERS.                2.0:   CWLS LOG ASCII STANDARD - VERSION 2.0
 WRAP.                 NO:   ONE LINE PER DEPTH STEP
~WELL INFORMATION
#MNEM.UNIT      DATA TYPE    INFORMATION
#----------   ------------   ------------------------------
 STRT.F           36.0000:   START DEPTH
 STOP.F         3488.0000:   STOP DEPTH
 STEP.F            0.5000:   STEP LENGTH
 NULL.          -999.2500:   NO VALUE
 COMP. LAWRENCE - ALLISON  & ASSOCIATE:   COMPANY
 WELL. LAWRENCE "STX" #76-23:   WELL
 FLD .              NPR 3:   FIELD
 LOC .      S23 T38N R78W:   LOCATION
 CNTY.            NATRONA:   COUNTY
 STAT.            WYOMING:   STATE
 CTRY. UNITED STATES OF AMERICA:   COUNTRY
 SRVC.       SCHLUMBERGER:   SERVICE COMPANY
 DATE.        07-MAY-1982:   LOGDATE
 API .     49025108920000:   API NUMBER
~CURVE INFORMATION
#MNEM.UNIT       API CODE    CURVE DESCRIPTION
#----------   ------------   ------------------------------
 DEPT.F                  :   
 CORR.G/C3   45 356 01 00:   DENSITY CORRECTION
 CALD.IN     45 280 60 00:   CALIPER FROM DENSITY LOG
 GRD .GAPI   45 310 01 00:   GAMMA RAY FROM DENSITY LOG
 RHOB.G/C3   45 350 01 00:   BULK DENSITY
 SFL .OHMM   07 220 01 00:   SHALLOW FOCUSED LOG RESISTIVITY
 ILD .OHMM   07 120 46 00:   DEEP INDUCTION RESISTIVITY
 ILM .OHMM   07 120 44 00:   INDUCTION LOG MEDIUM RESISTIVITY
 TENR.LBS    07 635 01 00:   TENSION
 SPR .MV     07 010 01 00:   SPONTANEOUS POTENTIAL
 NPHI.DEC    42 890 03 00:   NEUTRON POROSITY SANDSTONE
 TEND.LBS    45 635 01 00:   TENSION FROM DENSITY LOG
~PARAMETER INFORMATION
#MNEM.UNIT          VALUE    DESCRIPTION
#----------   ------------   ------------------------------
 EKB .F         5441.0000:   Kelly bushing
 EGL .F         5431.0000:   Ground level
 EDF .F            0.0000:   Drilling floor
 EPD .F            0.0000:   Permanent datum
 TD  .F         3788.0000:   Total depth
 DATE.        07-MAY-1982:   Date logged
 CLNT.            A2DTECH:   Client Code
 SL  . 1327' FSL & 1190' FEL:   Surface Location
 PD  .                 GL:   Permanent Datum
 DAPD.F                10:   Feet Above Permanent Datum
 DD  .F              3788:   Depth driller
 DL  .F              3478:   Depth logger
 BLI .F              3471:   Bottom log interval
 TLI .F              1615:   Top log interval
 CS1 .IN            9.625:   Casing size
 CBD1.     9.625" @ 1603':   Casing driller 1
 CBL1.F              1615:   Casing logger 1
 BS1 .IN            7.875:   Bit size
 BSD1.F              3788:   Depth drilled with bit1
 DFT .                AIR:   Type fluid in hole
 TCS .HRS            1230:   Time Circ. stopped
 TLAB.HRS            1500:   Time logger at bottom
 MRT .F               125:   Maximum recorded temp.
 LUN .               8035:   Logging unit number
 LUL .               CSPR:   Logging unit location
 ENGI.              PENNY:   Recorded By
 WITN.    JENNINGS/STRONG:   Witnessed by
 ORIG.       2.5"5" PRINT:   Origin of data
 UWI .     49025108920000:   Unique Well ID
 DICO. A2D TECHNOLOGIES, INC.:   Digitizing Company
~OTHER INFORMATION
~A   DEPT       CORR     CALD        GRD         RHOB      SFL        ILD        ILM       TENR        SPR        NPHI      TEND   
# ...
 2750.5000     0.2280    10.6840   144.2490     2.5510  -999.2500     7.3170     7.3170  2202.0200  -999.2500  -999.2500  -999.2500
 2751.0000     0.2370    10.6130   144.7240     2.5910  -999.2500     7.3270     7.3270  2202.0200  -999.2500  -999.2500  -999.2500
 2751.5000     0.2140    10.6330   145.6540     2.6320  -999.2500     7.4650     7.4650  2202.0200  -999.2500  -999.2500  -999.2500
 2752.0000     0.1890    10.6590   146.6210     2.6430  -999.2500     7.4550     7.4550  2202.0200  -999.2500  -999.2500  -999.2500
 2752.5000     0.1720    10.6840   147.4100     2.6500  -999.2500     7.5350     7.5350  2202.0200  -999.2500  -999.2500  -999.2500
 2753.0000     0.1560    10.7090   146.9700     2.6380  -999.2500     7.5910     7.5910  2202.0200  -999.2500  -999.2500  -999.2500
 2753.5000     0.1380    10.6980   145.8250     2.6140  -999.2500     7.6480     7.6470  2202.0200  -999.2500  -999.2500  -999.2500
 2754.0000     0.1130    10.6850   144.5990     2.5810  -999.2500     7.7040     7.7040  2202.0200  -999.2500  -999.2500  -999.2500
 2754.5000     0.0810    10.6720   144.9830     2.5470  -999.2500     7.7610     7.7610  2202.0200  -999.2500  -999.2500  -999.2500
 2755.0000     0.0490    10.6600   147.0870     2.5160  -999.2500     7.8190     7.8190  2202.0200  -999.2500  -999.2500  -999.2500
 2755.5000     0.0220    10.6470   146.2570     2.5040  -999.2500     7.8880     7.8880  2202.0200  -999.2500  -999.2500  -999.2500
 2756.0000     0.0540    10.6340   143.4380     2.5240  -999.2500     7.8660     7.8660  2202.0200  -999.2500  -999.2500  -999.2500
 2756.5000     0.0900    10.6480   140.6360     2.5660  -999.2500     7.8090     7.8090  2202.0200  -999.2500  -999.2500  -999.2500
 2757.0000     0.1270    10.6760   140.3240     2.5900  -999.2500     7.7510     7.7510  2202.0200  -999.2500  -999.2500  -999.2500
 2757.5000     0.1600    10.7410   142.1400     2.5930  -999.2500     7.6940     7.6940  2202.0200  -999.2500  -999.2500  -999.2500
 2758.0000     0.1590    10.8500   142.8820     2.5550  -999.2500     7.6360     7.6360  2202.0200  -999.2500  -999.2500  -999.2500
 2758.5000     0.1550    10.9610   142.0470     2.5240  -999.2500     7.5790     7.5790  2202.0200  -999.2500  -999.2500  -999.2500
 2759.0000     0.1480    10.9630   141.1600     2.4940  -999.2500     7.5210     7.5210  2202.0200  -999.2500  -999.2500  -999.2500
 2759.5000     0.1290    10.8650   141.4350     2.4630  -999.2500     7.4640     7.4640  2202.0200  -999.2500  -999.2500  -999.2500
 2760.0000     0.1100    10.7690   143.6330     2.4430  -999.2500     7.4060     7.4060  2202.0200  -999.2500  -999.2500  -999.2500
 2760.5000     0.0920    10.6740   145.8710     2.4900  -999.2500     7.3490     7.3490  2202.0200  -999.2500  -999.2500  -999.2500
 2761.0000     0.1170    10.6850   146.4440     2.5400  -999.2500     7.3230     7.3230  2202.0200  -999.2500  -999.2500  -999.2500
 2761.5000     0.1560    10.7010   146.0700     2.5700  -999.2500     7.3760     7.3760  2202.0200  -999.2500  -999.2500  -999.2500
 2762.0000     0.1750    10.7170   145.6800     2.5600  -999.2500     7.4220     7.4220  2202.0200  -999.2500  -999.2500  -999.2500
 2762.5000     0.1570    10.7240   145.3730     2.5350  -999.2500     7.4690     7.4690  2202.0200  -999.2500  -999.2500  -999.2500
 2763.0000     0.1130    10.6900   145.5700     2.5110  -999.2500     7.5150     7.5150  2202.0200  -999.2500  -999.2500  -999.2500
 2763.5000     0.0690    10.6560   144.9630     2.4960  -999.2500     7.5620     7.5620  2202.0200  -999.2500  -999.2500  -999.2500
 2764.0000     0.0530    10.6220   143.3010     2.5360  -999.2500     7.6080     7.6080  2202.0200  -999.2500  -999.2500  -999.2500
 2764.5000     0.0860    10.5880   141.8170     2.5730  -999.2500     7.6550     7.6550  2202.0200  -999.2500  -999.2500  -999.2500
 2765.0000     0.1070    10.5550   142.7550     2.6060  -999.2500     7.7010     7.7010  2202.0200  -999.2500  -999.2500  -999.2500
 2765.5000     0.1050    10.5210   143.7160     2.6000  -999.2500     7.7430     7.7430  2202.0200  -999.2500  -999.2500  -999.2500
 2766.0000     0.1010    10.4910   142.3850     2.5880  -999.2500     7.6700     7.6700  2202.0200  -999.2500  -999.2500  -999.2500
 2766.5000     0.1390    10.5530   140.7410     2.5930  -999.2500     7.5650     7.5650  2202.0200  -999.2500  -999.2500  -999.2500
 2767.0000     0.1890    10.6240   140.8340     2.6020  -999.2500     7.4600     7.4600  2202.0200  -999.2500  -999.2500  -999.2500
 2767.5000     0.1880    10.6960   141.1520     2.5590  -999.2500     7.3560     7.3560  2202.0200  -999.2500  -999.2500  -999.2500
 2768.0000     0.1820    10.7010   141.4970     2.4560  -999.2500     7.2510     7.2510  2202.0200  -999.2500  -999.2500  -999.2500
 2768.5000     0.2010    10.6570   142.2120     2.3170  -999.2500     7.1470     7.1470  2202.0200  -999.2500  -999.2500  -999.2500
 2769.0000     0.2160    10.9370   146.7640     2.1020  -999.2500     7.0420     7.0420  2202.0200  -999.2500  -999.2500  -999.2500
 2769.5000     0.2300    11.2370   151.1440     2.1280  -999.2500     6.9370     6.9370  2202.0200  -999.2500  -999.2500  -999.2500
 2770.0000  -999.2500    11.2110   152.6620     2.2000  -999.2500     6.8330     6.8330  2202.0200  -999.2500  -999.2500  -999.2500
 2770.5000  -999.2500    11.0210   151.9180     2.3140  -999.2500     6.7280     6.7280  2202.0200  -999.2500  -999.2500  -999.2500
 2771.0000  -999.2500    11.2000   153.1590     2.2730  -999.2500     6.6720     6.6720  2202.0200  -999.2500  -999.2500  -999.2500
 2771.5000  -999.2500    11.4250   148.4050     2.0970  -999.2500     6.6720     6.6720  2202.0200  -999.2500  -999.2500  -999.2500
 2772.0000  -999.2500    11.4440   146.3040     1.9230  -999.2500     6.7100     6.7100  2202.0200  -999.2500  -999.2500  -999.2500
 2772.5000  -999.2500    11.3150   144.0530     1.9230  -999.2500     6.7520     6.7520  2202.0200  -999.2500  -999.2500  -999.2500
 2773.0000  -999.2500    11.1880   147.1590     2.0190  -999.2500     6.7940     6.7940  2202.0200  -999.2500  -999.2500  -999.2500
 2773.5000  -999.2500    11.0630   150.6540     2.1100  -999.2500     6.8370     6.8370  2202.0200  -999.2500  -999.2500  -999.2500
 2774.0000  -999.2500    10.8810   150.0840     2.3100  -999.2500     6.8790     6.8790  2202.0200  -999.2500  -999.2500  -999.2500
 2774.5000  -999.2500    10.9950   148.4450     2.2690  -999.2500     6.9210     6.9210  2202.0200  -999.2500  -999.2500  -999.2500
 2775.0000  -999.2500    11.2540   149.2740     2.1830  -999.2500     6.9640     6.9640  2202.0200  -999.2500  -999.2500  -999.2500
 2775.5000  -999.2500    11.5190   150.8960     2.0970  -999.2500     7.0060     7.0060  2202.0200  -999.2500  -999.2500  -999.2500
 2776.0000  -999.2500    11.5740   152.4520     2.0350  -999.2500     7.0550     7.0550  2202.0200  -999.2500  -999.2500  -999.2500
 2776.5000  -999.2500    11.6540   153.9960     2.0760  -999.2500     7.0270     7.0270  2202.0200  -999.2500  -999.2500  -999.2500
 2777.0000  -999.2500    11.5910   155.4220     2.1330  -999.2500     6.9930     6.9930  2202.0200  -999.2500  -999.2500  -999.2500
 2777.5000  -999.2500    11.3440   156.7990     2.1910  -999.2500     6.9600     6.9600  2202.0200  -999.2500  -999.2500  -999.2500
 2778.0000  -999.2500    11.4770   156.7200     2.2370  -999.2500     6.9260     6.9260  2202.0200  -999.2500  -999.2500  -999.2500
 2778.5000  -999.2500    11.7290   153.9750     2.2150  -999.2500     6.8930     6.8930  2202.0200  -999.2500  -999.2500  -999.2500
 2779.0000  -999.2500    11.8680   152.4900     2.1790  -999.2500     6.8590     6.8590  2202.0200  -999.2500  -999.2500  -999.2500
 2779.5000  -999.2500    11.8890   153.6210     2.1720  -999.2500     6.8260     6.8260  2202.0200  -999.2500  -999.2500  -999.2500
 2780.0000  -999.2500    11.7690   154.7140     2.1690  -999.2500     6.7920     6.7920  2202.0200  -999.2500  -999.2500  -999.2500
 2780.5000  -999.2500    11.8900   155.8220     2.1380  -999.2500     6.7580     6.7580  2202.0200  -999.2500  -999.2500  -999.2500
