~VERSION INFORMATION
 VERS.                2.0:   CWLS LOG ASCII STANDARD - VERSION 2.0
 WRAP.                 NO:   ONE LINE PER DEPTH STEP
~WELL INFORMATION
#MNEM.UNIT      DATA TYPE    INFORMATION
#----------   ------------   ------------------------------
 STRT.F           85.5000:   START DEPTH
 STOP.F         2750.0000:   STOP DEPTH
 STEP.F            0.5000:   STEP LENGTH
 NULL.          -999.2500:   NO VALUE
 COMP.          INTEX OIL:   COMPANY
 WELL. INTEX NPR 3 "AX" #74-20:   WELL
 FLD .             TEAPOT:   FIELD
 LOC .      S20 T39N R78W:   LOCATION
 CNTY.            NATRONA:   COUNTY
 STAT.            WYOMING:   STATE
 CTRY. UNITED STATES OF AMERICA:   COUNTRY
 SRVC.       SCHLUMBERGER:   SERVICE COMPANY
 DATE.        08-MAY-1966:   LOGDATE
 API .     49025095210000:   API NUMBER
~CURVE INFORMATION
#MNEM.UNIT       API CODE    CURVE DESCRIPTION
#----------   ------------   ------------------------------
 DEPT.F                  :   
 CALD.IN     45 280 60 00:   CALIPER FROM DENSITY LOG
 GRD .GAPI   45 310 01 00:   GAMMA RAY FROM DENSITY LOG
 RHOB.G/C3   45 350 01 00:   BULK DENSITY
 CORR.G/C3   45 356 01 00:   DENSITY CORRECTION
 SPR .MV     05 010 01 00:   SPONTANEOUS POTENTIAL FROM RES.
 ILD .OHMM   05 120 46 00:   INDUCTION LOG DEEP
 SN  .OHMM   05 040 00 00:   SHORT NORMAL
~PARAMETER INFORMATION
#MNEM.UNIT          VALUE    DESCRIPTION
#----------   ------------   ------------------------------
 EKB .F         5018.3000:   Kelly bushing
 EGL .F         5008.0000:   Ground level
 EDF .F            0.0000:   Drilling floor
 EPD .F         5008.0000:   Permanent datum
 TD  .F         2750.0000:   Total depth
 DATE.        08-MAY-1966:   Date logged
 CLNT.            A2DTECH:   Client Code
 DAPD.F              10.3:   Feet Above Permanent Datum
 DD  .F              2750:   Depth driller
 DL  .F              2749:   Depth logger
 BLI .F              2748:   Bottom log interval
 TLI .F                87:   Top log interval
 CS1 .IN            10.75:   Casing size
 CBD1.       10.75" @ 30':   Casing driller 1
 BS1 .IN            7.875:   Bit size
 BSD1.F              2750:   Depth drilled with bit1
 DFT .           OIL EMUL:   Type fluid in hole
 DFD .               10.1:   Density
 DFV .                 54:   Viscosity
 MSS .         CIRCULATED:   Source of sample
 RMS .OHMM           1.90:   Rm
 MST .F                72:   Rm Meas. temp.
 RMF .OHMM           1.15:   Rmf
 MFST.F                72:   Rmf Meas. temp.
 MFSS.                 FP:   Source Rmf.
 RMB .OHMM           1.23:   Rm. at BHT
 BHT .F               111:   BHT.
 TCS .HRS             1.5:   Time Circ. stopped
 MRT .F               111:   Maximum recorded temp.
 LUN .               4507:   Logging unit number
 LUL .               CSPR:   Logging unit location
 ENGI.               HAUG:   Recorded By
 WITN.             TUTTLE:   Witnessed by
 ORIG.        2" 5" PRINT:   Origin of data
 UWI .     49025095210000:   Unique Well ID
 DICO. A2D TECHNOLOGIES, INC.:   Digitizing Company
~OTHER INFORMATION
~A   DEPT     CALD        GRD       RHOB       CORR        SPR        ILD         SN   
# ...
 2315.0000     8.7160    80.3520     2.5110     0.0260   -50.7780    16.0810    22.0930
 2315.5000     8.7060    84.8710     2.4980     0.0340   -50.7410    15.8320    21.9330
 2316.0000     8.6950    89.0450     2.4850     0.0300   -50.7050    15.4990    21.8050
 2316.5000     8.6840    90.9320     2.4920     0.0280   -50.6680    15.0990    21.7080
 2317.0000     8.6730    89.0270     2.4860     0.0290   -50.6320    14.7240    21.4560
 2317.5000     8.6620    87.7610     2.4620     0.0280   -50.5960    14.3520    21.1140
 2318.0000     8.6550    86.0790     2.4700     0.0290   -50.5590    13.9410    20.7800
 2318.5000     8.6520    86.5680     2.4580     0.0190   -50.5230    13.7180    20.4640
 2319.0000     8.6490    87.0420     2.4680     0.0050   -50.4870    13.7450    20.0960
 2319.5000     8.6450    85.7840     2.4930     0.0130   -50.4500    13.7360    20.0620
 2320.0000     8.6420    84.8380     2.5160     0.0330   -50.4140    13.7380    20.0580
 2320.5000     8.6380    83.5870     2.5200     0.0400   -50.3780    13.7390    20.0710
 2321.0000     8.6350    82.5660     2.5090     0.0280   -50.3410    13.7350    19.9310
 2321.5000     8.6320    81.0620     2.5000     0.0250   -50.3060    13.7410    19.7060
 2322.0000     8.6280    83.3940     2.4990     0.0330   -50.2690    13.7430    20.0780
 2322.5000     8.6250    87.0260     2.5130     0.0410   -50.2340    13.9770    20.4920
 2323.0000     8.6210    84.1340     2.5180     0.0430   -50.2050    14.2850    20.6700
 2323.5000     8.6190    85.5250     2.5100     0.0370   -50.2650    14.5880    20.6520
 2324.0000     8.6150    89.6500     2.5150     0.0430   -50.3310    14.8980    20.6410
 2324.5000     8.6090    93.5930     2.5220     0.0410   -50.3980    15.1790    20.8250
 2325.0000     8.6050    92.0340     2.5100     0.0290   -50.4600    15.5800    21.2920
 2325.5000     8.5990    89.2050     2.4990     0.0200   -50.5410    16.0730    21.7350
 2326.0000     8.5940    86.2080     2.4910     0.0110   -50.5600    16.5360    22.1950
 2326.5000     8.5900    84.5810     2.5110     0.0180   -50.9200    17.0050    22.6320
 2327.0000     8.5800    85.3070     2.4890     0.0330   -51.5770    17.4740    22.9830
 2327.5000     8.5870    83.9760     2.4700     0.0310   -52.1900    17.9440    23.2140
 2328.0000     8.5080    80.9460     2.4450     0.0390   -52.9460    18.4080    23.3500
 2328.5000     8.3770    77.9590     2.4390     0.0550   -53.9070    18.8800    22.6410
 2329.0000     8.2380    75.9820     2.4370     0.0670   -54.8950    19.2120    22.7320
 2329.5000     8.2250    75.8750     2.4500     0.0720   -55.7090    19.4480    22.8790
 2330.0000     8.2220    75.8120     2.4510     0.0800   -56.0830    19.4590    23.0620
 2330.5000     8.2220    73.7290     2.4280     0.0730   -56.4040    19.4480    23.2050
 2331.0000     8.2180    70.8610     2.4150     0.0670   -56.7510    19.1920    23.2060
 2331.5000     8.2170    68.0940     2.4320     0.0740   -56.8290    18.9320    23.0460
 2332.0000     8.2140    65.9600     2.4260     0.0760   -56.6570    18.6600    22.9160
 2332.5000     8.2110    67.5470     2.4170     0.0660   -56.5270    18.3960    22.6360
 2333.0000     8.2090    66.7610     2.4160     0.0550   -56.0480    18.1290    22.1210
 2333.5000     8.2070    66.0220     2.4230     0.0510   -55.4400    17.8610    21.6560
 2334.0000     8.2040    70.4070     2.4430     0.0610   -54.7860    17.5910    21.1020
 2334.5000     8.2020    74.5380     2.4700     0.0710   -54.6230    17.3360    21.1480
 2335.0000     8.2000    79.6510     2.4750     0.0670   -54.9100    17.0290    21.2640
 2335.5000     8.1970    79.0890     2.4640     0.0500   -55.1680    16.9830    21.4020
 2336.0000     8.1950    76.6720     2.4480     0.0350   -55.2910    17.2480    21.5120
 2336.5000     8.1930    74.2210     2.4340     0.0160   -55.1480    17.4460    21.6220
 2337.0000     8.1900    72.3400     2.4210     0.0160   -55.0310    17.0660    21.4440
 2337.5000     8.1880    73.1760     2.4320     0.0270   -54.9080    16.6660    21.2550
 2338.0000     8.1850    75.3460     2.4560     0.0390   -54.7840    16.2240    21.0580
 2338.5000     8.1850    77.5200     2.4620     0.0350   -54.6570    15.8310    20.8690
 2339.0000     8.1850    79.6230     2.4510     0.0280   -54.5560    15.3640    20.6750
 2339.5000     8.1850    81.6030     2.4690     0.0340   -54.3280    15.3110    20.4840
 2340.0000     8.1850    80.1400     2.4950     0.0480   -53.8630    15.4030    20.2860
 2340.5000     8.1850    80.1420     2.5100     0.0620   -53.4210    15.5900    20.1040
 2341.0000     8.1850    81.7060     2.4960     0.0560   -52.9820    15.7430    19.8710
 2341.5000     8.1850    80.0190     2.4760     0.0480   -52.5790    15.9120    20.0570
 2342.0000     8.1850    78.3050     2.5130     0.0400   -52.5700    16.0750    20.7010
 2342.5000     8.1800    79.6450     2.5080     0.0590   -52.6030    16.2370    21.3360
 2343.0000     8.1680    81.2290     2.4820     0.0570   -53.2140    16.4110    21.8100
 2343.5000     8.1570    82.7580     2.5000     0.0640   -53.7860    16.5510    21.6600
 2344.0000     8.1450    80.1530     2.5340     0.0970   -54.4230    16.6510    21.5340
 2344.5000     8.1330    77.5250     2.5090     0.1110   -54.9880    16.7570    21.3850
 2345.0000     8.1210    75.7110     2.4920     0.0870   -55.6340    16.8650    21.2500
 2345.5000     8.1090    80.3500     2.5030     0.0710   -55.3430    16.9760    21.0990
 2346.0000     8.0980    84.0840     2.4920     0.0600   -54.9110    17.0640    21.1590
 2346.5000     8.0860    88.0010     2.4710     0.0450   -54.4540    17.3600    21.8120
 2347.0000     8.0730    87.1220     2.4770     0.0450   -54.1750    18.0730    22.5010
 2347.5000     8.0670    85.4750     2.4660     0.0450   -54.3080    18.7510    23.2090
 2348.0000     8.0660    82.4940     2.4570     0.0430   -54.4470    19.4490    23.9000
 2348.5000     8.0630    79.9160     2.4890     0.0590   -54.5170    20.1220    24.5880
 2349.0000     8.0600    76.6930     2.4660     0.0520   -54.2120    20.8730    25.0010
 2349.5000     8.0570    75.3450     2.4720     0.0550   -53.9180    21.2350    25.4490
 2350.0000     8.0550    74.3050     2.4810     0.0430   -53.6040    21.0710    25.4360
 2350.5000     8.0520    77.5260     2.4680     0.0280   -53.2950    20.9820    25.0910
 2351.0000     8.0490    77.0850     2.4920     0.0370   -53.0090    20.8700    24.7730
 2351.5000     8.0470    74.9290     2.5400     0.0570   -52.6480    20.7570    24.6100
 2352.0000     8.0440    72.6090     2.5270     0.0760   -52.8520    20.6550    24.9270
 2352.5000     8.0410    74.0290     2.4950     0.0510   -53.4530    20.5400    25.2660
 2353.0000     8.0390    76.1530     2.5040     0.0570   -53.9900    20.4270    25.3500
 2353.5000     8.0360    78.3410     2.4670     0.0720   -53.8470    20.1070    25.2160
 2354.0000     8.0330    80.0240     2.4570     0.0550   -53.4310    19.8270    25.1130
 2354.5000     8.0310    78.9900     2.4810     0.0710   -53.0540    19.5310    24.9910
 2355.0000     8.0280    76.0230     2.4790     0.0780   -52.6610    19.2450    24.7330
 2355.5000     8.0280    73.4160     2.4680     0.0740   -52.8680    18.9560    24.4670
 2356.0000     8.0280    70.3110     2.4890     0.0790   -53.2940    18.6570    24.1700
 2356.5000     8.0280    71.3660     2.4930     0.0880   -53.6970    18.3050    23.9610
 2357.0000     8.0280    73.1900     2.4810     0.0790   -53.5240    17.8580    23.8870
 2357.5000     8.0280    74.9030     2.4640     0.0630   -53.3120    17.3940    23.6720
 2358.0000     8.0280    76.9980     2.4250     0.0470   -53.0770    16.9400    23.2750
 2358.5000     8.0280    75.9150     2.4430     0.0380   -52.8630    16.4690    22.8720
 2359.0000     8.0280    73.0250     2.4980     0.0490   -52.6350    16.0240    22.4770
 2359.5000     8.0280    70.1840     2.5750     0.0590   -52.4170    15.5510    22.0580
 2360.0000     8.0280    72.1860     2.5560     0.0750   -52.1920    15.5260    21.8710
