~VERSION INFORMATION
 VERS.                2.0:   CWLS LOG ASCII STANDARD - VERSION 2.0
 WRAP.                 NO:   ONE LINE PER DEPTH STEP
~WELL INFORMATION
#MNEM.UNIT      DATA TYPE    INFORMATION
#----------   ------------   ------------------------------
 STRT.F            5.5000:   START DEPTH
 STOP.F         3261.0000:   STOP DEPTH
 STEP.F            0.5000:   STEP LENGTH
 NULL.          -999.2500:   NO VALUE
 COMP. LAWRENCE ALLISON & ASSOCIATES:   COMPANY
 WELL. LAWRENCE "X" #12-14:   WELL
 FLD .              NPR 3:   FIELD
 LOC .      S14 T38N R78W:   LOCATION
 CNTY.            NATRONA:   COUNTY
 STAT.            WYOMING:   STATE
 CTRY. UNITED STATES OF AMERICA:   COUNTRY
 SRVC.      DRESSER ATLAS:   SERVICE COMPANY
 DATE.        18-AUG-1986:   LOGDATE
 API .     49025111080000:   API NUMBER
~CURVE INFORMATION
#MNEM.UNIT       API CODE    CURVE DESCRIPTION
#----------   ------------   ------------------------------
 DEPT.F                  :   
 RILM.OHMM   07 120 44 00:   INDUCTION LOG MEDIUM RESISTIVITY
 GRR .GAPI   07 310 01 00:   GAMMA RAY FROM RESISTIVITY
 SPR .MV     07 010 01 00:   SPONTANEOUS POTENTIAL
 NPHI.DEC    42 890 03 00:   NEUTRON POROSITY SANDSTONE
 CALD.IN     45 280 60 00:   CALIPER FROM DENSITY LOG
 TEND.LBS    45 635 01 00:   TENSION FORM DENSITY LOG
 DRHO.G/C3   45 356 01 00:   DENSITY CORRECTION
 DEN .G/C3   45 350 01 00:   BULK DENSITY
 RILD.OHMM   07 120 46 00:   DEEP INDUCTION RESISTIVITY
 RFOC.OHMM   07 220 04 00:   RESISTIVITY FOCUSED LOG RES.
~PARAMETER INFORMATION
#MNEM.UNIT          VALUE    DESCRIPTION
#----------   ------------   ------------------------------
 EKB .F         5245.0000:   Kelly bushing
 EGL .F         5234.0000:   Ground level
 TD  .F         3250.0000:   Total depth
 CLNT.            A2DTECH:   Client Code
 SL  . 901' FNL & 485' FWL:   Surface Location
 PD  .                 GL:   Permanent Datum
 EPD .F              5234:   Elevation Permanent Datum
 LMF .                 KB:   Log Measured From
 DMF .                 KB:   Drilling Measured From
 DAPD.F                11:   Feet Above Permanent Datum
 DATE.        18-AUG-1986:   Date Logged [DD-MMM-YYYY]
 DD  .F              3250:   Depth driller
 DL  .F              3246:   Depth logger
 BLI .F              3244:   Bottom log interval
 TLI .F                 0:   Top log interval
 CS1 .IN            8.625:   Casing size
 CBD1.      8.625" @ 733':   Casing driller 1
 CBL1.F               735:   Casing logger 1
 BS1 .IN            7.875:   Bit size
 BSD1.F              3250:   Depth drilled with bit1
 DFT .            KCL-GEL:   Type fluid in hole
 DFD .                8.8:   Density
 DFV .                 36:   Viscosity
 DFPH.                8.5:   pH
 DFL .               12.8:   Fluid loss
 MSS .           FLOWLINE:   Source of sample
 RMS .OHMM          0.292:   Rm
 MST .F                73:   Rm Meas. temp.
 RMF .OHMM          0.224:   Rmf
 MFST.F                73:   Rmf Meas. temp.
 MFSS.               MEAS:   Source Rmf.
 RMC .OHMM          0.365:   Rmc
 MCST.F                73:   Rmc Meas. temp.
 MCSS.               CALC:   Source Rmc.
 RMB .OHMM          0.154:   Rm. at BHT
 BHT .F               138:   BHT.
 TCS .HRS               5:   Time Circ. stopped
 MRT .F               138:   Maximum recorded temp.
 LUN .            HL-6214:   Logging unit number
 LUL .           GILLETTE:   Logging unit location
 ENGI.             RAUTIO:   Recorded By
 WITN.             STRONG:   Witnessed by
 ORIG.        2" 5" PRINT:   Origin of data
 UWI .     49025111080000:   Unique Well ID
 DICO. A2D TECHNOLOGIES, INC.:   Digitizing Company
~OTHER INFORMATION
~A    DEPT    RILM         GRR       SPR       NPHI       CALD       TEND       DRHO        DEN       RILD       RFOC   
# ...
 2618.5000     5.3744   129.2513   -42.6431     0.2769     9.6555   -49.7746     0.0370     2.5485     5.0924     6.1773
 2619.0000     5.3379   130.1636   -42.6355     0.2775     9.6551   -57.3833     0.0188     2.5478     5.0571     6.1779
 2619.5000     5.3386   130.2138   -42.6268     0.2830     9.6548   -64.9740     0.0113     2.5477     5.0924     6.2215
 2620.0000     5.3393   127.7714   -42.6195     0.2944     9.6545   -65.0460     0.0067     2.5492     5.1280     6.2219
 2620.5000     5.3775   126.8765   -42.6123     0.2981     9.6542   -65.1180     0.0052     2.5583     5.1999     6.1791
 2621.0000     5.4537   129.1385   -42.7574     0.2962     9.6539   -65.1899     0.0051     2.5673     5.3097     6.1343
 2621.5000     5.5695   133.8238   -42.8991     0.2938     9.6536   -65.2632     0.0098     2.5583     5.4225     6.0102
 2622.0000     5.6483   135.3364   -42.8916     0.2914     9.6533   -65.3384     0.0307     2.5462     5.6263     6.0949
 2622.5000     5.8901   131.7328   -42.8826     0.2884     9.6530   -65.4237     0.0322     2.5461     5.8941     6.5351
 2623.0000     6.1421   128.4283   -42.8754     0.2808     9.6527   -65.4957     0.0292     2.5499     6.1029     7.0071
 2623.5000     6.7719   123.3165   -42.8681     0.2684     9.6524   -65.5676     0.0352     2.5537     6.3191     7.6719
 2624.0000     6.8203   120.5901   -42.8609     0.2572     9.6521   -73.1584     0.0442     2.5560     6.5429     8.0006
 2624.5000     6.8212   120.3219   -42.8536     0.2551     9.6518   -65.7115     0.0412     2.5567     6.7276     8.0566
 2625.0000     6.9661   121.2364   -42.8464     0.2569     9.6515   -58.2647     0.0366     2.5551     6.8696     8.0571
 2625.5000     7.2642   122.1487   -42.8389     0.2548     9.6512   -58.3546     0.0381     2.5521     7.0705     7.8910
 2626.0000     7.4185   122.7598   -42.8301     0.2509     9.6509   -65.9454     0.0456     2.5430     7.3138     7.6746
 2626.5000     7.4195   122.1640   -42.9752     0.2463     9.6506   -66.0173     0.0531     2.5324     7.5203     7.7828
 2627.0000     7.4748   121.5725   -42.9662     0.2472     9.6503   -66.0902     0.0561     2.5347     7.6791     8.0033
 2627.5000     7.6313   120.6776   -43.1113     0.2521     9.6500   -51.1236     0.0380     2.5430     7.7327     8.4866
 2628.0000     7.6857   119.7827   -43.2530     0.2545     9.6800   -66.2512     0.0183     2.5505     7.7327     9.2656
 2628.5000     7.6867   119.7936   -43.2345     0.2587     9.6796   -66.3231    -0.0104     2.5528     7.7867     9.6618
 2629.0000     7.6562   119.8023   -43.2384     0.2681     9.6946   -43.8386    -0.0195     2.5452     7.7327     9.7298
 2629.5000     7.4776   120.4134   -43.0787     0.2720     9.6791   -28.8722    -0.0120     2.5245     7.7327     8.5838
 2630.0000     7.2733   121.9281   -43.0714     0.2805     9.6940   -29.9447     0.0034     2.4976     7.5203     7.7866
 2630.5000     7.1237   125.5513   -42.9136     0.2859     9.6936   -36.5537     0.0468     2.4809     7.3649     7.7331
 2631.0000     7.0196   129.1747   -42.9063     0.2904     9.6933   -36.6256     0.0921     2.4673     7.2127     7.7337
 2631.5000     6.8823   128.2818   -42.8991     0.2895     9.6947   -36.6976     0.0951     2.4749     7.1130     7.7342
 2632.0000     6.7880   126.4833   -42.7410     0.2762     9.7079   -36.7696     0.0256     2.4937     6.9176     7.7347
 2632.5000     6.6948   123.4799   -42.7322     0.2496     9.7076   -36.8421     0.0105     2.5134     6.8173     7.7353
 2633.0000     6.5576   121.6792   -42.7249     0.2421     9.6921   -36.9314     0.0101     2.5330     6.7276     7.7358
 2633.5000     6.4678   121.9913   -42.7177     0.2402     9.7070   -37.0034    -0.0032     2.5390     6.6346     7.6798
 2634.0000     6.3792   122.9037   -42.7104     0.2532     9.6915   -29.5385    -0.0107     2.5299     6.5429     7.3687
 2634.5000     6.3358   124.1535   -42.7032     0.2617     9.6912   -29.6285    -0.0047     2.5246     6.4975     7.0183
 2635.0000     6.3369   125.6341   -42.6958     0.2623     9.6990   -37.2193     0.0224     2.5216     6.4524     7.0189
 2635.5000     6.2935   126.8477   -42.6868     0.2637     9.7058   -45.6713     0.0435     2.5208     6.4077     7.0194
 2636.0000     6.2946   127.1576   -42.6796     0.2714     9.7055   -67.4563     0.0513     2.5201     6.4077     7.0689
 2636.5000     6.2516   126.5639   -42.6723     0.2720     9.7052   -90.0847     0.0525     2.5200     6.4077     7.1686
 2637.0000     6.2526   125.3678   -42.6651     0.2756     9.6896   -97.6754     0.0585     2.5261     6.4077     7.3206
 2637.5000     6.2971   123.8705   -42.6578     0.2810     9.6894   -75.1910     0.0826     2.5306     6.3632     7.3723
 2638.0000     6.3420   121.9843   -42.6506     0.2856     9.6891   -60.2253     0.1671     2.5241     6.3632     7.3216
 2638.5000     6.3430   121.1771   -42.6431     0.2901     9.6888   -52.7785     0.1973     2.4981     6.3632     7.2206
 2639.0000     6.3882   124.8024   -42.6343     0.2919     9.6879   -52.8684     0.1127     2.5260     6.3632     7.1212
 2639.5000     6.4787   128.4256   -42.6270     0.2865     9.6730   -52.9404     0.0191     2.5275     6.4551     6.9260
 2640.0000     6.5704   130.5427   -42.6198     0.2846     9.6727   -53.0123     0.0055     2.5464     6.5429     7.0369
 2640.5000     6.6172   129.6479   -42.6125     0.2840     9.6876   -60.6015     0.0100     2.5683     6.5429     7.4269
 2641.0000     6.5721   127.2232   -42.6053     0.2798     9.7025   -60.6767     0.0236     2.5635     6.5886     7.5316
 2641.5000     6.5274   123.3422   -42.7486     0.2689     9.7021   -60.7649     0.0389     2.5577     6.6346     7.3763
 2642.0000     6.6730   122.7463   -42.7395     0.2617     9.7018   -60.8369     0.0492     2.5607     6.7276     7.2748
 2642.5000     6.8555   124.8656   -42.7323     0.2592     9.7015   -60.9089     0.0401     2.5690     6.7276     7.4289
 2643.0000     6.9043   123.9707   -42.5744     0.2556     9.7012   -60.9808     0.0249     2.5674     6.8220     7.6394
 2643.5000     6.9535   122.1722   -42.5672     0.2604     9.7009   -61.0527     0.0219     2.5423     6.8696     7.6934
 2644.0000     6.9059   122.1246   -42.5599     0.2665     9.7006   -53.6059     0.0339     2.5304     6.9176     7.6404
 2644.5000     6.9071   122.4910   -42.5527     0.2610     9.7003   -53.6959     0.0493     2.5296     6.9659     7.5878
 2645.0000     6.8601   122.2005   -42.5452     0.2521     9.6848   -53.7678     0.0460     2.5281     6.9176     7.3287
 2645.5000     6.8086   121.0023   -42.5364     0.2477     9.6845   -53.8397     0.0339     2.5243     6.8696     7.5363
 2646.0000     6.6737   120.7098   -42.6815     0.2492     9.6842   -53.9117     0.0217     2.5228     6.7746     7.7527
 2646.5000     6.6281   121.0219   -42.8231     0.2474     9.6839   -53.9850     0.0217     2.5196     6.7746     7.8046
 2647.0000     6.6292   123.4402   -42.8158     0.2471     9.6836   -46.5548     0.0217     2.5152     6.7746     7.6437
 2647.5000     6.6764   126.1598   -42.8086     0.2477     9.6985   -31.5712     0.0088     2.5099     6.7276     7.3313
 2648.0000     6.6773   128.6270   -42.9519     0.2557     9.6981   -24.1243    -0.0086     2.5061     6.6810     6.8383
 2648.5000     6.5859   130.6975   -42.9428     0.2713     9.6978   -24.2142    -0.0026     2.5023     6.6346     6.5133
 2649.0000     6.4480   130.4050   -43.0880     0.2767     9.6672   -24.2862     0.0185     2.4970     6.5886     6.3790
 2649.5000     6.2743   127.4016   -42.9283     0.2658     9.6670   -31.8797     0.0276     2.4929     6.4975     7.1817
 2650.0000     6.0607   126.2056   -42.7705     0.2613     9.6515   -39.4857     0.0079     2.4864     6.3632     7.8084
 2650.5000     5.8950   127.1179   -42.7632     0.2619     9.6360   -47.0764    -0.0042     2.4856     6.2256     7.2834
 2651.0000     5.7339   131.0423   -42.7560     0.2749     9.6357   -54.6672     0.0139     2.4924     5.8126     6.5156
 2651.5000     5.6162   133.5484   -42.7485     0.2859     9.6354   -54.7391     0.0290     2.5060     5.6138     6.5160
