~VERSION INFORMATION
 VERS.                2.0:   CWLS LOG ASCII STANDARD - VERSION 2.0
 WRAP.                 NO:   ONE LINE PER DEPTH STEP
~WELL INFORMATION
#MNEM.UNIT      DATA TYPE    INFORMATION
#----------   ------------   ------------------------------
 STRT.F            5.0000:   START DEPTH
 STOP.F         4012.0000:   STOP DEPTH
 STEP.F            0.5000:   STEP LENGTH
 NULL.          -999.2500:   NO VALUE
 COMP.   LAWRENCE ALLISON:   COMPANY
 WELL. LAWRENCE "X" 51 #1-15:   WELL
 FLD .                NPR:   FIELD
 LOC .      S15 T38N R78W:   LOCATION
 CNTY.            NATRONA:   COUNTY
 STAT.            WYOMING:   STATE
 CTRY. UNITED STATES OF AMERICA:   COUNTRY
 SRVC.      DRESSER ATLAS:   SERVICE COMPANY
 DATE.        03-JUN-1985:   LOGDATE
 API .     49025110270000:   API NUMBER
~CURVE INFORMATION
#MNEM.UNIT       API CODE    CURVE DESCRIPTION
#----------   ------------   ------------------------------
 DEPT.F                  :   
 NPHI.DEC    42 890 03 00:   NEUTRON POROSITY SANDSTONE
 RHOB.G/C3   45 350 01 00:   BULK DENSITY
 CORR.G/C3   45 356 01 00:   DENSITY CORRECTION
 TEND.LBS    45 635 01 00:   TENSION FROM DENSITY LOG
 CALD.IN     45 280 60 00:   CALIPER FROM DENSITY LOG
 GRR .GAPI   07 310 01 00:   GAMMA RAY FROM RESISTIVITY
 SPR .MV     07 010 01 00:   SPONTANEOUS POTENTIAL
 RSFL.OHMM   07 220 01 00:   SPHERICALLY FOCUSED LOG RES.
 RILD.OHMM   07 120 46 00:   DEEP INDUCTION RESISTIVITY
 RILM.OHMM   07 120 44 00:   INDUCTION LOG MEDIUM RESISTIVITY
 TENR.LBS    07 635 01 00:   TENSION
~PARAMETER INFORMATION
#MNEM.UNIT          VALUE    DESCRIPTION
#----------   ------------   ------------------------------
 EKB .F         5235.0000:   Kelly bushing
 EGL .F         5222.0000:   Ground level
 EDF .F            0.0000:   Drilling floor
 TD  .F         4010.0000:   Total depth
 DATE.        03-JUN-1985:   Date logged
 CLNT.            A2DTECH:   Client Code
 SL  . 202' FNL & 2478' FEL:   Surface Location
 PD  .                 GL:   Permanent Datum
 EPD .F              5222:   Elevation Permanent Datum
 LMF .                 KB:   Log Measured From
 DMF .                 KB:   Drilling Measured From
 DAPD.F                13:   Feet Above Permanent Datum
 DD  .F              4010:   Depth driller
 DL  .F              4005:   Depth logger
 BLI .F              4003:   Bottom log interval
 CS1 .IN            8.625:   Casing size
 CBD1.      8.625" @ 605':   Casing driller 1
 CBL1.F               608:   Casing logger 1
 BS1 .IN            7.875:   Bit size
 BSD1.F              4010:   Depth drilled with bit1
 DFT .            KCL/GEL:   Type fluid in hole
 DFD .                  9:   Density
 DFV .                 45:   Viscosity
 DFPH.                  8:   pH
 DFL .                9.8:   Fluid loss
 MSS .           FLOWLINE:   Source of sample
 RMS .OHMM            .40:   Rm
 MST .F                65:   Rm Meas. temp.
 RMF .OHMM            .32:   Rmf
 MFST.F                65:   Rmf Meas. temp.
 RMC .OHMM            .50:   Rmc
 MCST.F                65:   Rmc Meas. temp.
 MFSS.               MEAS:   Source Rmf.
 MCSS.               CALC:   Source Rmc.
 RMB .OHMM            .20:   Rm. at BHT
 BHT .F               130:   BHT.
 TCS .HRS               3:   Time Circ. stopped
 MRT .F               130:   Maximum recorded temp.
 LUN .               6274:   Logging unit number
 LUL .               GLTE:   Logging unit location
 ENGI.             RAUTIO:   Recorded By
 WITN.             STRONG:   Witnessed by
 ORIG.     2.5", 5" PRINT:   Origin of data
 UWI .     49025110270000:   Unique Well ID
 DICO. A2D TECHNOLOGIES, INC.:   Digitizing Company
~OTHER INFORMATION
~A    DEPT    NPHI       RHOB       CORR       TEND       CALD        GRR        SPR       RSFL       RILD       RILM       TENR   
# ...
 1499.5000  -999.2500  -999.2500  -999.2500  -999.2500  -999.2500    93.4840   -83.6110     7.8530     7.7540     7.7810   -83.0370
 1500.0000  -999.2500  -999.2500  -999.2500  -999.2500  -999.2500    92.7990   -83.5410     8.3450     7.7830     7.6840   -82.9190
 1500.5000  -999.2500  -999.2500  -999.2500  -999.2500  -999.2500    95.1660   -83.4710     8.5320     7.8130     7.6390   -82.8010
 1501.0000  -999.2500  -999.2500  -999.2500  -999.2500  -999.2500    95.8960   -83.4010     8.2730     7.8420     7.6390   -82.6830
 1501.5000  -999.2500  -999.2500  -999.2500  -999.2500  -999.2500    96.6610   -83.3320     7.9920     7.8720     7.6390   -82.5640
 1502.0000  -999.2500  -999.2500  -999.2500  -999.2500  -999.2500    97.4630   -83.2600     7.8530     7.9020     7.6880   -82.4460
 1502.5000  -999.2500  -999.2500  -999.2500  -999.2500  -999.2500    95.0370   -83.3870     8.2820     7.9280     7.8190   -82.3280
 1503.0000  -999.2500  -999.2500  -999.2500  -999.2500  -999.2500    93.2310   -83.6390     8.4530     7.9380     7.9500   -82.2100
 1503.5000  -999.2500  -999.2500  -999.2500  -999.2500  -999.2500    91.3850   -83.8920     8.4030     7.9480     7.9990   -82.0910
 1504.0000  -999.2500  -999.2500  -999.2500  -999.2500  -999.2500    88.6310   -84.1470     8.3760     7.9580     7.9990   -81.9730
 1504.5000  -999.2500  -999.2500  -999.2500  -999.2500  -999.2500    85.7840   -84.4010     8.5130     7.9680     8.0730   -81.8550
 1505.0000  -999.2500  -999.2500  -999.2500  -999.2500  -999.2500    85.7180   -84.3020     8.7190     7.9780     8.0730   -81.7370
 1505.5000  -999.2500  -999.2500  -999.2500  -999.2500  -999.2500    86.5650   -84.1270     8.9250     7.9880     8.1040   -81.6180
 1506.0000  -999.2500  -999.2500  -999.2500  -999.2500  -999.2500    89.4110   -83.9520     9.1840     7.9990     8.1480   -81.5000
 1506.5000  -999.2500  -999.2500  -999.2500  -999.2500  -999.2500    94.0290   -83.7760     9.0860     7.9990     8.0660   -81.3820
 1507.0000  -999.2500  -999.2500  -999.2500  -999.2500  -999.2500    97.1780   -83.5990     8.9790     7.9270     7.9560   -81.2630
 1507.5000  -999.2500  -999.2500  -999.2500  -999.2500  -999.2500    99.0650   -83.4490     8.7680     7.8740     7.8460   -81.1450
 1508.0000  -999.2500  -999.2500  -999.2500  -999.2500  -999.2500    99.1310   -83.7770     8.5570     7.8210     7.7100   -81.0270
 1508.5000  -999.2500  -999.2500  -999.2500  -999.2500  -999.2500    99.2220   -84.1220     8.3460     7.7810     7.7100   -80.9090
 1509.0000  -999.2500  -999.2500  -999.2500  -999.2500  -999.2500    99.3060   -84.2110     8.1480     7.7810     7.6230   -80.7900
 1509.5000  -999.2500  -999.2500  -999.2500  -999.2500  -999.2500    99.4120   -84.1840     8.4170     7.8270     7.5690   -80.6720
 1510.0000  -999.2500  -999.2500  -999.2500  -999.2500  -999.2500   100.2330   -84.1540     8.4530     7.8960     7.6680   -80.5540
 1510.5000  -999.2500  -999.2500  -999.2500  -999.2500  -999.2500   100.9460   -84.1250     8.1340     7.9660     7.7680   -80.4360
 1511.0000  -999.2500  -999.2500  -999.2500  -999.2500  -999.2500   100.4400   -84.0960     8.0730     8.0350     7.8680   -80.3170
 1511.5000  -999.2500  -999.2500  -999.2500  -999.2500  -999.2500   100.0580   -84.0670     8.0990     8.1040     7.9680   -80.1990
 1512.0000  -999.2500  -999.2500  -999.2500  -999.2500  -999.2500    93.9090   -84.0390     8.1480     8.1590     8.0670   -80.0810
 1512.5000  -999.2500  -999.2500  -999.2500  -999.2500  -999.2500    91.2790   -83.9350     8.5800     8.2230     8.1480   -79.9630
 1513.0000  -999.2500  -999.2500  -999.2500  -999.2500  -999.2500    89.9820   -83.7910     9.0220     8.2230     8.0730   -79.8440
 1513.5000  -999.2500  -999.2500  -999.2500  -999.2500  -999.2500    87.8670   -83.6460     9.4630     8.0060     8.0120   -79.7260
 1514.0000  -999.2500  -999.2500  -999.2500  -999.2500  -999.2500    87.7870   -83.5010     9.7060     7.8520     7.9380   -79.6080
 1514.5000  -999.2500  -999.2500  -999.2500  -999.2500  -999.2500    92.9390   -83.3560     9.2310     7.7100     7.8650   -79.4890
 1515.0000  -999.2500  -999.2500  -999.2500  -999.2500  -999.2500    98.0380   -83.2360     8.9040     7.4820     7.7910   -79.3710
 1515.5000  -999.2500  -999.2500  -999.2500  -999.2500  -999.2500   100.3870   -83.2710     8.5770     7.2950     7.7170   -79.2530
 1516.0000  -999.2500  -999.2500  -999.2500  -999.2500  -999.2500   101.8030   -83.3050     8.2490     7.3900     7.6390   -79.1350
 1516.5000  -999.2500  -999.2500  -999.2500  -999.2500  -999.2500   103.8550   -83.3370     7.9220     7.4740     7.6730   -79.0160
 1517.0000  -999.2500  -999.2500  -999.2500  -999.2500  -999.2500   103.8420   -83.3690     7.7810     7.5570     7.7180   -78.8980
 1517.5000  -999.2500  -999.2500  -999.2500  -999.2500  -999.2500   102.7310   -83.4000     7.7810     7.6400     7.7640   -78.7800
 1518.0000  -999.2500  -999.2500  -999.2500  -999.2500  -999.2500   100.6330   -83.4530     8.2290     7.7230     7.8090   -78.6620
 1518.5000  -999.2500  -999.2500  -999.2500  -999.2500  -999.2500    97.3630   -83.8620     8.6780     7.8060     7.8530   -78.5430
 1519.0000  -999.2500  -999.2500  -999.2500  -999.2500  -999.2500    95.2720   -84.2620     9.1000     7.8900     7.9190   -78.4250
 1519.5000  -999.2500  -999.2500  -999.2500  -999.2500  -999.2500    94.1530   -84.6580     8.8780     7.9730     7.9980   -78.3070
 1520.0000  -999.2500  -999.2500  -999.2500  -999.2500  -999.2500    93.9720   -85.0580     8.6710     8.0330     8.0760   -78.1890
 1520.5000  -999.2500  -999.2500  -999.2500  -999.2500  -999.2500    97.2580   -85.1910     8.4530     8.0830     8.1550   -78.0700
 1521.0000  -999.2500  -999.2500  -999.2500  -999.2500  -999.2500    99.8740   -85.0500     8.4530     8.1320     8.2230   -77.9520
 1521.5000  -999.2500  -999.2500  -999.2500  -999.2500  -999.2500   100.0400   -84.9090     8.4920     8.1820     8.2280   -77.8340
 1522.0000  -999.2500  -999.2500  -999.2500  -999.2500  -999.2500    99.7910   -84.7680     8.7360     8.2230     8.2420   -77.7150
 1522.5000  -999.2500  -999.2500  -999.2500  -999.2500  -999.2500    94.2530   -84.6270     8.9810     8.2420     8.2570   -77.5970
 1523.0000  -999.2500  -999.2500  -999.2500  -999.2500  -999.2500    91.9570   -84.4860     9.2690     8.2670     8.2710   -77.4790
 1523.5000  -999.2500  -999.2500  -999.2500  -999.2500  -999.2500    91.5890   -84.3450     9.2390     8.2910     8.2860   -77.3610
 1524.0000  -999.2500  -999.2500  -999.2500  -999.2500  -999.2500    91.8030   -84.2200     9.1910     8.3160     8.2990   -77.2420
 1524.5000  -999.2500  -999.2500  -999.2500  -999.2500  -999.2500    92.1890   -84.2060     9.1840     8.3400     8.2410   -77.1240
 1525.0000  -999.2500  -999.2500  -999.2500  -999.2500  -999.2500    92.6120   -84.1890     9.1000     8.3650     8.1550   -77.0060
 1525.5000  -999.2500  -999.2500  -999.2500  -999.2500  -999.2500    93.0240   -84.1710     8.9610     8.3890     8.0680   -76.8880
 1526.0000  -999.2500  -999.2500  -999.2500  -999.2500  -999.2500    93.5870   -84.1540     8.8350     8.4140     7.9820   -76.7690
 1526.5000  -999.2500  -999.2500  -999.2500  -999.2500  -999.2500    96.9450   -84.1360     8.7090     8.4380     7.9260   -76.6510
 1527.0000  -999.2500  -999.2500  -999.2500  -999.2500  -999.2500    99.3470   -84.1190     8.5320     8.4530     7.9260   -76.5330
 1527.5000  -999.2500  -999.2500  -999.2500  -999.2500  -999.2500    98.8540   -84.1010     8.6210     8.3110     7.9260   -76.4150
 1528.0000  -999.2500  -999.2500  -999.2500  -999.2500  -999.2500    98.4090   -84.0840     8.7740     8.2070     7.9260   -76.2960
 1528.5000  -999.2500  -999.2500  -999.2500  -999.2500  -999.2500    98.8970   -84.0660     8.9260     8.1480     7.9260   -76.1780
 1529.0000  -999.2500  -999.2500  -999.2500  -999.2500  -999.2500   100.1380   -84.0480     9.0790     8.1480     7.9260   -76.0600
 1529.5000  -999.2500  -999.2500  -999.2500  -999.2500  -999.2500   101.3500   -84.0330     9.1000     8.1480     7.9260   -75.9410
