~VERSION INFORMATION
 VERS.                2.0:   CWLS LOG ASCII STANDARD - VERSION 2.0
 WRAP.                 NO:   ONE LINE PER DEPTH STEP
~WELL INFORMATION
#MNEM.UNIT      DATA TYPE    INFORMATION
#----------   ------------   ------------------------------
 STRT.F          211.5000:   START DEPTH
 STOP.F         3103.0000:   STOP DEPTH
 STEP.F            0.5000:   STEP LENGTH
 NULL.          -999.2500:   NO VALUE
 COMP.    FENIX & SCISSON:   COMPANY
 WELL. FENIX NPR 3 "AX" #38-10:   WELL
 FLD .  TEAPOT DOME - NPR:   FIELD
 LOC .      S10 T38N R78W:   LOCATION
 CNTY.            NATRONA:   COUNTY
 STAT.            WYOMING:   STATE
 CTRY. UNITED STATES OF AMERICA:   COUNTRY
 SRVC.           BIRDWELL:   SERVICE COMPANY
 DATE.        01-JUL-1978:   LOGDATE
 API .     49025106550000:   API NUMBER
~CURVE INFORMATION
#MNEM.UNIT       API CODE    CURVE DESCRIPTION
#----------   ------------   ------------------------------
 DEPT.F                  :   
 CALD.IN     45 280 60 00:   CALIPER FROM DENSITY LOG
 GRD .GAPI   45 310 01 00:   GAMMA RAY FROM DENSITY LOG
 RHOB.G/C3   45 350 01 00:   BULK DENSITY
 CORR.G/C3   45 356 01 00:   DENSITY CORRECTION
 NPOR.DEC    42 890 03 00:   ALPHA PROCESSED NEUTRON POROSITY
 SPR .MV     05 010 01 00:   SPONTANEOUS POTENTIAL
 SN  .OHMM   05 040 00 00:   SHORT NORMAL
 ILD .OHMM   05 120 46 00:   DEEP INDUCTION RESISTIVITY
~PARAMETER INFORMATION
#MNEM.UNIT          VALUE    DESCRIPTION
#----------   ------------   ------------------------------
 EKB .F         5240.0000:   Kelly bushing
 EGL .F         5230.0000:   Ground level
 TD  .F         3103.0000:   Total depth
 DATE.        01-JUL-1978:   Date logged
 CLNT.            A2DTECH:   Client Code
 SL  . 200' FSL & 2100' FWL:   Surface Location
 PD  .                 GL:   Permanent Datum
 EPD .F              5230:   Elevation Permanent Datum
 LMF .                 KB:   Log Measured From
 DMF .                 KB:   Drilling Measured From
 DAPD.F                10:   Feet Above Permanent Datum
 DD  .F              3100:   Depth driller
 DL  .F              3103:   Depth logger
 BLI .F              3096:   Bottom log interval
 TLI .F               228:   Top log interval
 CS1 .IN            8.625:   Casing size
 CBD1.      8.625" @ 224':   Casing driller 1
 CBL1.F               228:   Casing logger 1
 BS1 .IN            7.875:   Bit size
 BSD1.F              3100:   Depth drilled with bit1
 DFT .            MUD/GEL:   Type fluid in hole
 DFD .                8.7:   Density
 DFV .                 31:   Viscosity
 DFPH.               10.5:   pH
 DFL .                  7:   Fluid loss
 MSS .           FLOWLINE:   Source of sample
 BHT .F               109:   BHT.
 TCS .HRS             4.5:   Time Circ. stopped
 MRT .F               109:   Maximum recorded temp.
 LUN .               2958:   Logging unit number
 LUL .               CASP:   Logging unit location
 ENGI.             MILLER:   Recorded By
 ORIG.      2.5" 5" PRINT:   Origin of data
 UWI .     49025106550000:   Unique Well ID
 DICO. A2D TECHNOLOGIES, INC.:   Digitizing Company
~OTHER INFORMATION
~A   DEPT     CALD         GRD      RHOB       CORR       NPOR        SPR         SN        ILD   
# ...
 3046.5000     8.3497    47.9055     2.3785     0.1134     0.2337   -25.0345    13.9748    13.4437
 3047.0000     8.3493    47.5069     2.3012     0.0956     0.2298   -25.8277    14.2322    13.6911
 3047.5000     8.3490    45.7261     2.2992     0.0200     0.2305   -25.8296    14.7626    14.1995
 3048.0000     8.2499    42.7619     2.3062     0.0180     0.2401   -26.0298    15.1730    14.3289
 3048.5000     8.1903    42.1818     2.3061     0.0180     0.2401   -26.0317    15.3114    14.8615
 3049.0000     8.1308    42.9681     2.3021     0.0178     0.2440   -26.2315    15.4511    14.8602
 3049.5000     8.1303    46.6974     2.2971     0.0178     0.2456   -26.0356    15.7357    14.9951
 3050.0000     8.1299    47.0882     2.2951     0.0198     0.2496   -26.0376    15.7345    15.1315
 3050.5000     8.0951    47.0840     2.2961     0.0198     0.2630   -26.0397    15.7327    15.1300
 3051.0000     8.0893    46.6974     2.2901     0.0196     0.2670   -26.0377    15.7363    15.1340
 3051.5000     8.0888    46.2993     2.2871     0.0196     0.2686   -25.8399    15.9018    15.2744
 3052.0000     8.0685    41.3410     2.2901     0.0216     0.2718   -25.6421    16.0690    15.4161
 3052.5000     8.0680    39.3615     2.3087     0.0236     0.2725   -25.2465    16.1802    15.4175
 3053.0000     8.0674    37.9741     2.3087     0.0236     0.2701   -24.6531    16.1811    15.4189
 3053.5000     8.0274    37.9682     2.3059     0.0254     0.2670   -24.0597    15.8882    15.2799
 3054.0000     7.9873    37.9624     2.3119     0.0294     0.2630   -23.2685    15.3675    14.4655
 3054.5000     7.9868    38.3513     2.3148     0.0314     0.2622   -22.2795    14.8640    14.0752
 3055.0000     7.9665    40.5167     2.3237     0.0372     0.2590   -21.8838    14.3687    13.5708
 3055.5000     7.9659    43.0771     2.3317     0.0472     0.2566   -21.0926    14.1086    12.9653
 3056.0000     7.9654    44.2557     2.3426     0.0590     0.2494   -20.1036    13.6017    12.5007
 3056.5000     7.9649    44.4474     2.3445     0.0650     0.2510   -20.4992    13.3557    12.2752
 3057.0000     7.9643    44.6391     2.3445     0.0668     0.2518   -20.1036    12.9944    12.0538
 3057.5000     7.9638    45.0271     2.3564     0.0748     0.2526   -20.1036    12.6429    11.8363
 3058.0000     7.9632    45.0213     2.3703     0.0788     0.2613   -20.1036    12.4144    11.5172
 3058.5000     7.9627    45.6079     2.3425     0.0708     0.2621   -20.1036    12.1899    11.3094
 3059.0000     7.9622    45.7996     2.3355     0.0468     0.2621   -20.1036    11.9694    11.2079
 3059.5000     8.0207    45.9914     2.3414     0.0448     0.2628   -20.1036    11.8612    11.1062
 3060.0000     8.0597    45.7883     2.3513     0.0468     0.2628   -19.9058    11.7540    11.0063
 3060.5000     8.0592    45.9800     2.3543     0.0468     0.2644   -19.3124    11.5414    11.0071
 3061.0000     8.1179    46.7641     2.3592     0.0506     0.2779   -19.1146    11.5425    11.0081
 3061.5000     8.1766    49.5227     2.3602     0.0526     0.2819   -19.3124    11.4381    11.0089
 3062.0000     8.0773    50.8992     2.3533     0.0586     0.2842   -19.3124    11.5446    11.0103
 3062.5000     8.0768    51.6835     2.3431     0.0644     0.2842   -20.3014    11.9770    11.0113
 3063.0000     7.9972    51.4979     2.3371     0.0684     0.2842   -20.6970    11.9781    11.0121
 3063.5000     7.9769    47.4433     2.3391     0.0782     0.2882   -21.0926    12.2009    11.0134
 3064.0000     7.9567    39.8351     2.3490     0.0942     0.2929   -21.6860    12.2020    11.0144
 3064.5000     7.9560    40.9966     2.3569     0.1080     0.2993   -22.0816    12.3158    11.2188
 3065.0000     7.9752    41.7807     2.3688     0.1120     0.3048   -22.2795    12.3173    11.2196
 3065.5000     7.9747    41.7749     2.3283     0.1080     0.3080   -21.8838    12.3180    11.2206
 3066.0000     7.9544    41.7680     2.3104     0.0602     0.2976   -21.8838    12.0952    11.1194
 3066.5000     7.9539    42.1572     2.3124     0.0482     0.2929   -20.4992    11.8762    11.0194
 3067.0000     7.9533    42.1701     2.3183     0.0462     0.2905   -19.5102    11.5552    10.9200
 3067.5000     7.9528    55.5767     2.3193     0.0422     0.2857   -18.7190    11.3462    10.8216
 3068.0000     7.9522    65.6450     2.3361     0.0382     0.2777   -17.3344    11.0393    10.6264
 3068.5000     7.9714    73.5566     2.3560     0.0382     0.2706   -15.3564    10.9393    10.5306
 3069.0000     7.9709    72.5484     2.3639     0.0342     0.2658   -14.5652    10.8406    10.4358
 3069.5000     7.9108    70.5681     2.3629     0.0322     0.2658   -14.7630    10.9413    10.4368
 3070.0000     7.9302    64.0437     2.3549     0.0360     0.2817   -14.7630    11.1452    10.4375
 3070.5000     7.9889    58.3092     2.3529     0.0380     0.2896   -16.7410    11.2489    10.6314
 3071.0000     8.0279    50.9941     2.3430     0.0380     0.2904   -18.7190    11.3534    10.7300
 3071.5000     8.0669    47.4329     2.3271     0.0360     0.2880   -19.9058    11.4592    10.9291
 3072.0000     8.0466    45.4519     2.3181     0.0320     0.2824   -19.9058    11.4603    11.1319
 3072.5000     8.1054    44.4573     2.3171     0.0318     0.2824   -20.3014    11.5669    11.3384
 3073.0000     8.1444    44.4516     2.3101     0.0298     0.2824   -20.3014    11.6745    11.4436
 3073.5000     8.0253    45.8287     2.3012     0.0258     0.2816   -20.3014    11.6756    11.4446
 3074.0000     7.9654    48.1937     2.2813     0.0218     0.2808   -21.0926    11.6766    11.3413
 3074.5000     7.9651    48.2067     2.2723     0.0258     0.2784   -21.2904    11.5711    11.1369
 3075.0000     8.0038    44.2312     2.2584     0.0316     0.2720   -21.0926    11.5721    10.6400
 3075.5000     8.0427    42.0522     2.2574     0.0376     0.2680   -20.4992    11.4673     9.8903
 3076.0000     8.0423    41.8676     2.2653     0.0436     0.2545   -20.3014    11.3640     9.2777
 3076.5000     8.0021    44.0340     2.2891     0.0594     0.2466   -18.7190    10.9557     9.1720
 3077.0000     7.9818    51.5187     2.3556     0.0950     0.2426   -15.9498    10.0885     8.5546
 3077.5000     7.9617    57.6394     2.4053     0.1248     0.2442   -13.3784     9.3758     7.9789
 3078.0000     7.9412    62.3936     2.4487     0.1228     0.2426   -12.3893     8.7936     7.4418
 3078.5000     7.9408    62.9811     2.4448     0.1188     0.2568   -11.5981     8.1723     6.8638
 3079.0000     7.9402    63.3534     2.4040     0.0770     0.2608   -10.4113     7.6650     6.6784
 3079.5000     7.9594    64.3361     2.3980     0.0392     0.2664    -9.6201     7.3221     6.5426
 3080.0000     8.0379    67.8877     2.4111     0.0254     0.2695    -9.2245     7.1240     6.4096
 3080.5000     8.1165    68.4753     2.4308     0.0252     0.2687    -7.8399     7.0596     6.0964
 3081.0000     8.1355    68.4701     2.4387     0.0252     0.2639    -7.6421     6.9958     5.9865
 3081.5000     8.1351    69.6506     2.4369     0.0292     0.2639    -7.4443     6.8693     5.7719
 3082.0000     8.1147    72.2145     2.4547     0.0410     0.2663    -6.8509     6.5021     5.6163
 3082.5000     8.1339    82.6848     2.4647     0.0530     0.2583    -6.8509     5.9876     5.6166
 3083.0000     8.1727    88.8242     2.4696     0.0628     0.2671    -6.6531     5.9336     5.4653
 3083.5000     8.1329    87.4192     2.4726     0.0668     0.2742    -6.6531     5.8262     5.3667
 3084.0000     8.0532    86.2276     2.4894     0.0826     0.2726    -6.4553     5.8267     5.2699
 3084.5000     8.0131    85.4498     2.5053     0.0906     0.2694    -6.6531     5.8271     5.2224
 3085.0000     8.0128    91.9508     2.5212     0.1024     0.2630    -6.8509     5.8815     5.2193
 3085.5000     8.0517    95.5197     2.5279     0.1024     0.2599    -6.6531     5.9362     5.1286
 3086.0000     8.0510    91.5619     2.5199     0.0824     0.2598    -6.6531     5.9367     4.9901
 3086.5000     8.1295    84.6369     2.5092     0.0704     0.2598    -6.6531     5.7761     4.8999
