~VERSION INFORMATION
 VERS.                2.0:   CWLS LOG ASCII STANDARD - VERSION 2.0
 WRAP.                 NO:   ONE LINE PER DEPTH STEP
~WELL INFORMATION
#MNEM.UNIT      DATA TYPE    INFORMATION
#----------   ------------   ------------------------------
 STRT.F           85.5000:   START DEPTH
 STOP.F         2750.0000:   STOP DEPTH
 STEP.F            0.5000:   STEP LENGTH
 NULL.          -999.2500:   NO VALUE
 COMP.          INTEX OIL:   COMPANY
 WELL. INTEX NPR 3 "AX" #74-20:   WELL
 FLD .             TEAPOT:   FIELD
 LOC .      S20 T39N R78W:   LOCATION
 CNTY.            NATRONA:   COUNTY
 STAT.            WYOMING:   STATE
 CTRY. UNITED STATES OF AMERICA:   COUNTRY
 SRVC.       SCHLUMBERGER:   SERVICE COMPANY
 DATE.        08-MAY-1966:   LOGDATE
 API .     49025095210000:   API NUMBER
~CURVE INFORMATION
#MNEM.UNIT       API CODE    CURVE DESCRIPTION
#----------   ------------   ------------------------------
 DEPT.F                  :   
 CALD.IN     45 280 60 00:   CALIPER FROM DENSITY LOG
 GRD .GAPI   45 310 01 00:   GAMMA RAY FROM DENSITY LOG
 RHOB.G/C3   45 350 01 00:   BULK DENSITY
 CORR.G/C3   45 356 01 00:   DENSITY CORRECTION
 SPR .MV     05 010 01 00:   SPONTANEOUS POTENTIAL FROM RES.
 ILD .OHMM   05 120 46 00:   INDUCTION LOG DEEP
 SN  .OHMM   05 040 00 00:   SHORT NORMAL
~PARAMETER INFORMATION
#MNEM.UNIT          VALUE    DESCRIPTION
#----------   ------------   ------------------------------
 EKB .F         5018.3000:   Kelly bushing
 EGL .F         5008.0000:   Ground level
 EDF .F            0.0000:   Drilling floor
 EPD .F         5008.0000:   Permanent datum
 TD  .F         2750.0000:   Total depth
 DATE.        08-MAY-1966:   Date logged
 CLNT.            A2DTECH:   Client Code
 DAPD.F              10.3:   Feet Above Permanent Datum
 DD  .F              2750:   Depth driller
 DL  .F              2749:   Depth logger
 BLI .F              2748:   Bottom log interval
 TLI .F                87:   Top log interval
 CS1 .IN            10.75:   Casing size
 CBD1.       10.75" @ 30':   Casing driller 1
 BS1 .IN            7.875:   Bit size
 BSD1.F              2750:   Depth drilled with bit1
 DFT .           OIL EMUL:   Type fluid in hole
 DFD .               10.1:   Density
 DFV .                 54:   Viscosity
 MSS .         CIRCULATED:   Source of sample
 RMS .OHMM           1.90:   Rm
 MST .F                72:   Rm Meas. temp.
 RMF .OHMM           1.15:   Rmf
 MFST.F                72:   Rmf Meas. temp.
 MFSS.                 FP:   Source Rmf.
 RMB .OHMM           1.23:   Rm. at BHT
 BHT .F               111:   BHT.
 TCS .HRS             1.5:   Time Circ. stopped
 MRT .F               111:   Maximum recorded temp.
 LUN .               4507:   Logging unit number
 LUL .               CSPR:   Logging unit location
 ENGI.               HAUG:   Recorded By
 WITN.             TUTTLE:   Witnessed by
 ORIG.        2" 5" PRINT:   Origin of data
 UWI .     49025095210000:   Unique Well ID
 DICO. A2D TECHNOLOGIES, INC.:   Digitizing Company
~OTHER INFORMATION
~A   DEPT     CALD        GRD       RHOB       CORR        SPR        ILD         SN   
# ...
 2178.5000     8.9140   108.7900     2.6040     0.0350   -53.6210     6.8960    10.0910
 2179.0000     8.9040   105.4930     2.5970     0.0330   -53.5760     6.7990    10.0340
 2179.5000     8.8940   102.0540     2.5800     0.0320   -53.5300     6.7000     9.9740
 2180.0000     8.8870   100.5960     2.5840     0.0430   -53.4850     6.6010     9.8150
 2180.5000     8.8800   101.9130     2.5980     0.0570   -53.4380     6.5020     9.6520
 2181.0000     8.8730   103.3270     2.6080     0.0620   -53.3930     6.4240     9.4920
 2181.5000     8.8660   104.8810     2.5970     0.0570   -53.3540     6.4420     9.3090
 2182.0000     8.8590   105.4040     2.5760     0.0440   -53.4130     6.4870     9.2940
 2182.5000     8.8520   104.8350     2.5810     0.0350   -53.4770     6.5310     9.4100
 2183.0000     8.8450   104.3550     2.5760     0.0380   -53.5430     6.5760     9.5150
 2183.5000     8.8380   106.0120     2.5720     0.0270   -53.6090     6.6210     9.6520
 2184.0000     8.8300   108.3170     2.5600     0.0160   -53.6740     6.6650     9.7820
 2184.5000     8.8240   110.6770     2.5540     0.0180   -53.7330     6.7110     9.9150
 2185.0000     8.8160   112.7430     2.5680     0.0240   -53.6960     6.7540    10.0450
 2185.5000     8.8280   116.3260     2.5790     0.0320   -53.6540     6.8010    10.1630
 2186.0000     8.8450   116.2330     2.5940     0.0320   -53.6090     6.8190    10.0970
 2186.5000     8.8610   112.6410     2.5890     0.0260   -53.5670     6.8170    10.0220
 2187.0000     8.8770   109.3050     2.5840     0.0320   -53.5240     6.8180     9.9410
 2187.5000     8.8940   106.7040     2.5860     0.0440   -53.4810     6.8170     9.8660
 2188.0000     8.9100   107.4870     2.5880     0.0400   -53.4370     6.8200     9.7870
 2188.5000     8.9270   107.6240     2.5680     0.0340   -53.3940     6.7840     9.7100
 2189.0000     8.9300   104.0090     2.5740     0.0270   -53.3510     6.6940     9.6300
 2189.5000     8.9230   103.0820     2.5850     0.0260   -53.3080     6.6080     9.5460
 2190.0000     8.9170   105.5780     2.5900     0.0270   -53.2650     6.5210     9.4550
 2190.5000     8.9110   106.6550     2.5860     0.0250   -53.2210     6.4350     9.3630
 2191.0000     8.9050   106.2330     2.5860     0.0310   -53.1780     6.3440     9.2680
 2191.5000     8.8980   105.2380     2.5780     0.0150   -53.1350     6.2710     9.1780
 2192.0000     8.8930   103.7710     2.5530     0.0230   -53.0920     6.0890     9.0840
 2192.5000     8.8790   104.7530     2.5650     0.0530   -53.0480     5.8320     8.9840
 2193.0000     8.8680   105.4270     2.5790     0.0450   -53.0050     5.5690     8.7630
 2193.5000     8.8560   106.2170     2.5760     0.0220   -52.9620     5.4240     8.5420
 2194.0000     8.8440   109.1680     2.5790     0.0370   -52.9190     5.4460     8.3030
 2194.5000     8.8320   112.4090     2.5880     0.0650   -52.8750     5.4960     8.0900
 2195.0000     8.8200   114.1300     2.5760     0.0570   -52.8320     5.5430     7.8380
 2195.5000     8.8090   113.5780     2.5770     0.0460   -52.7890     5.5960     8.0000
 2196.0000     8.7970   111.5600     2.5720     0.0330   -52.7460     5.6380     8.2550
 2196.5000     8.7850   112.4830     2.5640     0.0210   -52.7020     5.7080     8.4950
 2197.0000     8.7750   115.0840     2.5590     0.0110   -52.6590     5.7680     8.7660
 2197.5000     8.7650   112.4660     2.5640     0.0140   -52.6160     5.8290     8.7670
 2198.0000     8.7560   110.0100     2.5730     0.0190   -52.5730     5.8930     8.7330
 2198.5000     8.7470   113.1100     2.5690     0.0230   -52.5290     5.9500     8.6930
 2199.0000     8.7380   116.1100     2.5620     0.0260   -52.4860     6.0180     8.6610
 2199.5000     8.7350   114.2320     2.5590     0.0190   -52.4430     5.9490     8.6240
 2200.0000     8.7460   110.4640     2.5700     0.0200   -52.4000     5.8500     8.5900
 2200.5000     8.7660   111.7660     2.5830     0.0260   -52.3570     5.7520     8.5550
 2201.0000     8.7840   112.1530     2.5850     0.0320   -52.3140     5.6530     8.5200
 2201.5000     8.8030   113.0150     2.5750     0.0380   -52.2700     5.5580     8.4850
 2202.0000     8.8210   114.1540     2.5840     0.0400   -52.2290     5.4570     8.4520
 2202.5000     8.8400   112.2400     2.5980     0.0360   -52.1800     5.4370     8.4130
 2203.0000     8.8540   109.8550     2.5850     0.0280   -52.1940     5.4440     8.4260
 2203.5000     8.8540   107.6220     2.5750     0.0250   -52.2580     5.5570     8.4780
 2204.0000     8.8540   110.6280     2.5580     0.0150   -52.3140     5.6550     8.5350
 2204.5000     8.8540   117.7210     2.5390     0.0080   -52.3710     5.9410     8.5600
 2205.0000     8.8520   120.6960     2.5400     0.0160   -52.4300     6.1880     8.8000
 2205.5000     8.8270   120.4490     2.5570     0.0220   -52.4860     6.4520     9.2180
 2206.0000     8.8070   119.3340     2.5790     0.0280   -52.5430     6.7060     9.6040
 2206.5000     8.7840   115.4970     2.5970     0.0340   -52.5400     6.9630    10.0000
 2207.0000     8.7630   112.3340     2.5960     0.0400   -52.5120     7.2230    10.3850
 2207.5000     8.7400   108.8740     2.6070     0.0480   -52.4860     7.4760    10.8000
 2208.0000     8.7190   105.1380     2.6160     0.0530   -52.4590     7.7340    10.9510
 2208.5000     8.6990   101.5540     2.6300     0.0560   -52.4330     7.7970    10.8650
 2209.0000     8.6990   101.4890     2.6240     0.0540   -52.4070     7.7730    10.8120
 2209.5000     8.7010   103.3180     2.6050     0.0410   -52.3800     7.7570    10.7500
 2210.0000     8.7040   104.9450     2.5870     0.0330   -52.3540     7.7400    10.6870
 2210.5000     8.7060   106.5090     2.6080     0.0430   -52.3270     7.7220    10.6270
 2211.0000     8.7080   106.1250     2.5990     0.0510   -52.3010     7.7050    10.5750
 2211.5000     8.7110   106.7480     2.5830     0.0420   -52.2740     7.6870    10.5740
 2212.0000     8.7130   109.7440     2.5910     0.0350   -52.2480     7.6700    10.5730
 2212.5000     8.7150   112.9580     2.5760     0.0260   -52.2210     7.6530    10.5740
 2213.0000     8.7170   111.6960     2.5750     0.0310   -52.1950     7.6330    10.5730
 2213.5000     8.7200   114.2490     2.5870     0.0440   -52.1680     7.6210    10.5730
 2214.0000     8.7220   114.9300     2.6000     0.0480   -52.1660     7.5610    10.5720
 2214.5000     8.7240   114.0750     2.6090     0.0390   -52.1650     7.4530    10.5740
 2215.0000     8.7270   111.4160     2.6160     0.0440   -52.1660     7.3510    10.5710
 2215.5000     8.7290   108.1650     2.6030     0.0490   -52.1650     7.2470    10.5670
 2216.0000     8.7310   104.1740     2.5890     0.0480   -52.1650     7.1450    10.4410
 2216.5000     8.7340   100.2760     2.5730     0.0340   -52.1660     7.0390    10.2900
 2217.0000     8.7360   102.3200     2.5790     0.0290   -52.1650     6.9390    10.1370
 2217.5000     8.7480   106.9140     2.5800     0.0340   -52.1630     6.8270     9.9890
 2218.0000     8.7630   110.3700     2.5800     0.0400   -52.1230     6.8330     9.8350
 2218.5000     8.7780   113.9430     2.5930     0.0430   -52.0740     6.8640     9.7820
 2219.0000     8.7920   117.2190     2.6040     0.0450   -52.0250     6.8970     9.8490
 2219.5000     8.8070   118.8820     2.6020     0.0460   -51.9760     6.9270     9.9230
 2220.0000     8.8220   113.4290     2.6040     0.0490   -51.9270     6.9590    10.0000
 2220.5000     8.8360   108.5140     2.6110     0.0560   -51.8780     6.9900    10.0740
 2221.0000     8.8530   102.3170     2.6200     0.0630   -51.8290     7.0210    10.1510
 2221.5000     8.8540   102.8370     2.6310     0.0720   -51.7800     7.0520    10.1840
 2222.0000     8.8490   105.2970     2.6260     0.0580   -51.7310     7.0840    10.1950
 2222.5000     8.8440   107.8550     2.6050     0.0360   -51.6820     7.1150    10.2110
 2223.0000     8.8390   110.1520     2.6170     0.0540   -51.6330     7.1470    10.2260
 2223.5000     8.8340   112.8380     2.5920     0.0330   -51.5840     7.1780    10.2410
