~VERSION INFORMATION
 VERS.                2.0:   CWLS LOG ASCII STANDARD - VERSION 2.0
 WRAP.                 NO:   ONE LINE PER DEPTH STEP
~WELL INFORMATION
#MNEM.UNIT      DATA TYPE    INFORMATION
#----------   ------------   ------------------------------
 STRT.F            0.0000:   START DEPTH
 STOP.F         5670.0000:   STOP DEPTH
 STEP.F            0.5000:   STEP LENGTH
 NULL.          -999.2500:   NO VALUE
 COMP.          INTEX OIL:   COMPANY
 WELL.    INTEX TP #71-15:   WELL
 FLD .             TEAPOT:   FIELD
 LOC .      S15 T38N R78W:   LOCATION
 CNTY.            NATRONA:   COUNTY
 STAT.            WYOMING:   STATE
 CTRY. UNITED STATES OF AMERICA:   COUNTRY
 SRVC.       SCHLUMBERGER:   SERVICE COMPANY
 DATE.        05-AUG-1966:   LOGDATE
 API .     49025097110000:   API NUMBER
~CURVE INFORMATION
#MNEM.UNIT       API CODE    CURVE DESCRIPTION
#----------   ------------   ------------------------------
 DEPT.F                  :   
 GRD .GAPI   45 310 01 00:   GAMMA RAY FROM DENSITY LOG
 CALD.IN     45 280 60 00:   CALIPER FROM DENSITY LOG
 CORR.G/C3   45 356 01 00:   DENSITY CORRECTION
 RHOB.G/C3   45 350 01 00:   BULK DENSITY
 SPR .MV     05 010 01 00:   SPONTANEOUS POTENTIAL FROM RES.
 ASN .OHMM   05 041 16 00:   AMPLIFIED SHORT NORMAL 16"
 ILD .OHMM   05 120 46 00:   INDUCTION LOG DEEP RESISTIVITY
~PARAMETER INFORMATION
#MNEM.UNIT          VALUE    DESCRIPTION
#----------   ------------   ------------------------------
 EKB .F         5247.5500:   Kelly bushing
 EGL .F         5236.1000:   Ground level
 EDF .F            0.0000:   Drilling floor
 EPD .F         5236.1000:   Permanent datum
 TD  .F         5670.0000:   Total depth
 CLNT.            A2DTECH:   Client Code
 SL  . 610' FNL & 710' FEL:   Surface Location
 PD  .                 GL:   Permanent Datum
 LMF .                 KB:   Log Measured From
 DMF .                 KB:   Drilling Measured From
 DAPD.F             11.45:   Feet Above Permanent Datum
 DATE.        05-AUG-1966:   Date Logged [DD-MMM-YYYY]
 DD  .F              5665:   Depth driller
 DL  .F              5670:   Depth logger
 BLI .F              5669:   Bottom log interval
 TLI .F              5551:   Top log interval
 CS1 .IN            10.75:   Casing size
 CBD1.    10.75" @ 567.9':   Casing driller 1
 CBL1.F               569:   Casing logger 1
 BS1 .IN           8.9375:   Bit size
 BSD1.F              5665:   Depth drilled with bit1
 DFT .            DEXTRID:   Type fluid in hole
 DFD .                9.4:   Density
 DFV .                 59:   Viscosity
 DFPH.                7.5:   pH
 DFL .                8.2:   Fluid loss
 MSS .           FLOWLINE:   Source of sample
 RMS .OHMM           1.80:   Rm
 MST .F                72:   Rm Meas. temp.
 RMF .OHMM           1.00:   Rmf
 MFST.F                82:   Rmf Meas. temp.
 MFSS.               MEAS:   Source Rmf.
 BHT .F               163:   BHT.
 TCS .HRS               3:   Time Circ. stopped
 MRT .F               163:   Maximum recorded temp.
 LUN .               4507:   Logging unit number
 LUL .               CSPR:   Logging unit location
 ENGI.            MANGOLD:   Recorded By
 ORIG.      2.5" 5" PRINT:   Origin of data
 UWI .     49025097110000:   Unique Well ID
 DICO. A2D TECHNOLOGIES, INC.:   Digitizing Company
~OTHER INFORMATION
~A    DEPT      GRD      CALD       CORR       RHOB        SPR        ASN        ILD   
# ...
 2047.5000   120.2943    15.6396     0.1082     1.8628   -73.6803    10.5979     8.3142
 2048.0000   118.5111    15.3393     0.1015     1.7271   -73.6680    10.7633     8.3204
 2048.5000   113.1351    14.9650     0.1199     1.8173   -73.6555    10.9033     8.5591
 2049.0000   110.9028    14.9189     0.1290     1.9061   -73.6404    11.1305     8.8582
 2049.5000   111.3651  -999.2500     0.1048     1.9730   -73.7795    11.2081     9.1638
 2050.0000   114.0730  -999.2500     0.0747     1.8789   -74.0673    11.5097     9.4693
 2050.5000   112.7389  -999.2500     0.1003     1.7983   -74.2045    11.5144     9.5503
 2051.0000   112.2622  -999.2500     0.1376     1.8813   -74.1891    11.5935     9.6298
 2051.5000   113.6635  -999.2500     0.1383     1.9626   -74.1768    11.5979     9.4130
 2052.0000   113.2276  -999.2500     0.1545     2.0776   -74.1644    11.4538     9.2675
 2052.5000   109.6259  -999.2500     0.1456     2.1496   -73.9997    11.3823     8.9762
 2053.0000   108.3140  -999.2500     0.1408     2.1528   -73.9874    11.3129     8.6829
 2053.5000   109.2716  -999.2500     0.1900     2.1342   -73.8274    11.2927     8.3912
 2054.0000   106.4900  -999.2500     0.2259     2.0780   -73.6639    11.0963     8.2477
 2054.5000   102.9644  -999.2500     0.1889     2.0033   -73.6516    11.0270     8.1775
 2055.0000   103.5252    15.9099     0.1845     1.9946   -73.4898    10.8818     8.1852
 2055.5000   104.5686    15.5495     0.1905     2.0553   -73.4775    10.9620     8.1913
 2056.0000   106.2812    15.7898     0.1713     2.1090   -73.4649    11.0411     8.1976
 2056.5000   107.6593    15.9399     0.1906     2.0993   -73.4499    11.0454     8.2052
 2057.0000   108.1392    16.0000     0.1966     2.0544   -73.4395    11.0497     8.2113
 2057.5000   109.5175    15.7297     0.1862     2.0422   -73.4268    10.9782     8.2175
 2058.0000   110.8953    14.8288     0.2026     2.0775   -73.4140    10.9837     8.2237
 2058.5000   112.0424    13.5075     0.2116     2.0997   -73.4007    11.0628     8.2298
 2059.0000   113.6512    13.6577     0.1968     2.0956   -73.3884    10.9176     8.2360
 2059.5000   114.7769    13.6276     0.1758     2.0593   -73.3759    10.8483     8.2421
 2060.0000   113.8949    13.2973     0.1672     2.0311   -73.3608    10.8526     8.2485
 2060.5000   113.4566    12.4072     0.1827     2.0954   -73.3505    10.7811     8.2560
 2061.0000   112.5740    11.9159     0.1932     2.1628   -73.3362    10.5623     8.1858
 2061.5000   111.6890    12.3932     0.1816     2.0014   -73.3239    10.4918     8.0438
 2062.0000   110.3549    13.4714     0.1586     1.9701   -73.3124    10.4215     7.8987
 2062.5000   109.4699    13.6276     0.1259     1.7736   -73.2997    10.3511     7.8315
 2063.0000   108.1359    13.4835     0.1018     1.5967   -73.2119    10.2807     7.8377
 2063.5000   106.3527    12.6326     0.0993     1.5711   -73.1248    10.2861     7.7690
 2064.0000   104.5695    10.5946     0.1034     1.5749   -73.1099    10.2904     7.7757
 2064.5000   102.3372    11.0600     0.1116     1.5857   -73.2502    10.2189     7.7818
 2065.0000   100.5540    13.0874     0.1222     1.6142   -73.2348    10.2244     7.8630
 2065.5000   100.1181    14.4597     0.1269     1.6581   -73.2225    10.2287     7.7942
 2066.0000   101.0299    16.0096     0.1293     1.7119   -73.2108    10.1583     7.7255
 2066.5000   101.4925    16.0099     0.1277     1.7673   -73.1979    10.1637     7.5086
 2067.0000   101.9551    16.0102     0.1247     1.7868   -73.3351    10.1680     7.2154
 2067.5000   101.8899    15.9404     0.1161     1.7943   -73.3197    10.2471     7.0718
 2068.0000   101.4372    15.7405     0.1057     1.8034   -73.3094    10.2514     7.1528
 2068.5000   100.9843    16.1683     0.0910     1.8378   -73.2952    10.1809     7.2368
 2069.0000    99.5031    16.1615     0.0851     1.9333   -73.2829    10.1106     7.3900
 2069.5000    96.9416    16.1228     0.1089     2.0307   -73.2706    10.0402     7.4723
 2070.0000    92.8010    15.9619     0.1092     2.0741   -73.2583    10.2699     7.7030
 2070.5000    88.6617    13.9815     0.0719     2.1026   -73.2459    10.4984     8.0085
 2071.0000    87.2425    11.5259     0.0571     2.1236   -73.3832    10.8764     8.3141
 2071.5000    88.1377    10.9378     0.0527     2.1506   -73.3678    11.1797     8.9939
 2072.0000    89.7657    11.1364     0.0616     2.1910   -73.3555    11.5577     9.8983
 2072.5000    92.2758    12.9505     0.1448     2.3128   -73.3432    12.1600    10.5918
 2073.0000    94.4847    12.0960     0.1882     2.3555   -73.4804    12.7863    11.1097
 2073.5000    95.8452    10.8201     0.2042     2.2624   -73.4681    13.5898    11.3404
 2074.0000    96.3075    10.7291     0.1564     2.2009   -73.6053    14.0425    11.5712
 2074.5000    96.7699    11.2100     0.1821     2.1913   -73.5927    14.4953    11.8019
 2075.0000    97.2322    13.4925     0.1940     2.2008   -73.7302    14.7238    11.9577
 2075.5000    98.1436    14.3337     0.1890     2.2541   -73.8674    14.8776    12.2633
 2076.0000    99.5041    14.2439     0.1867     2.3586   -73.8520    14.8820    12.4949
 2076.5000   103.1102    13.0430     0.2062     2.4184   -73.8397    15.1106    12.5861
 2077.0000   107.1653    11.4517     0.2090     2.4083   -73.8275    15.3401    12.6575
 2077.5000   109.8731    11.0015     0.1824     2.3660   -73.8152    15.5687    12.5873
 2078.0000   111.2337    10.9417     0.2007     2.3717   -73.8027    15.7972    12.2956
 2078.5000   109.8836    11.0321     0.2132     2.3893   -73.9370    16.0258    12.1521
 2079.0000   108.5404    11.3027     0.2212     2.3930   -73.9247    16.0301    12.0070
 2079.5000   107.5962    11.6333     0.2041     2.3760   -73.9124    15.8850    11.7153
 2080.0000   106.2274    11.6637     0.1852     2.3406   -73.9013    15.7398    11.6416
 2080.5000   104.9362    11.4159     0.1518     2.2781   -74.0404    15.5200    11.4282
 2081.0000   104.4835    10.9576     0.0863     2.2238   -74.0250    15.3748    11.3611
 2081.5000   104.1406    10.6405     0.0448     2.2099   -74.0127    15.3044    11.2908
 2082.0000   104.8622    10.5838     0.0370     2.2612   -74.0000    15.3846    11.2237
 2082.5000   108.6387    10.5190     0.0627     2.3806   -73.9851    15.5384    11.3795
 2083.0000   114.7957    10.4642     0.0583     2.3886   -73.9728    15.6174    11.4606
 2083.5000   121.3545    10.3975     0.0732     2.3598   -73.9605    15.8460    11.7661
 2084.0000   123.9160    10.3668     0.1118     2.3748   -73.9492    16.0756    12.0061
 2084.5000   123.7686    10.3450     0.0971     2.3868   -73.9359    16.2294    12.4536
 2085.0000   121.2729    10.3053     0.0674     2.3599   -73.9236    16.4580    12.8340
 2085.5000   117.4247    10.2855     0.0749     2.3468   -73.9113    16.6865    12.9899
 2086.0000   113.2482    10.2558     0.0853     2.3645   -74.1980    16.9151    12.9212
 2086.5000   110.1177    10.2562     0.0855     2.3392   -74.4816    17.0689    12.9274
 2087.0000   108.7814    10.2565     0.1089     2.3373   -74.4693    17.0732    12.7837
 2087.5000   110.1441    10.3018     0.1477     2.3587   -74.4570    17.0652    12.7151
 2088.0000   109.7083    10.4252     0.1906     2.3633   -74.4447    16.7829    12.4840
 2088.5000   103.8832    10.5787     0.2062     2.3469   -74.4324    16.3399    12.1302
 2089.0000   102.5491    10.9484     0.2073     2.2945   -74.1166    15.8958    11.8354
 2089.5000   101.6632    11.2790     0.1901     2.2536   -73.6599    15.5265    11.6186
 2090.0000    99.4318    11.6397     0.1618     2.2052   -73.3461    15.1571    11.4750
 2090.5000    96.7504    11.6700     0.1339     2.1035   -73.3338    15.0120    11.1069
 2091.0000    98.1109    11.6703     0.1497     1.9497   -73.3215    14.9415    10.9633
 2091.5000    98.5733    11.4304     0.1556     1.9961   -73.4618    14.7227    10.7450
 2092.0000    98.1140    11.1904     0.1189     2.1072   -73.4464    14.5776    11.1269
 2092.5000    96.8033    10.9805     0.0744     2.2994   -73.5837    14.6567    11.5822
