~VERSION INFORMATION
 VERS.                2.0:   CWLS LOG ASCII STANDARD - VERSION 2.0
 WRAP.                 NO:   ONE LINE PER DEPTH STEP
~WELL INFORMATION
#MNEM.UNIT      DATA TYPE    INFORMATION
#----------   ------------   ------------------------------
 STRT.F           46.0000:   START DEPTH
 STOP.F         2952.5000:   STOP DEPTH
 STEP.F            0.5000:   STEP LENGTH
 NULL.          -999.2500:   NO VALUE
 COMP.    FENIX & SCISSON:   COMPANY
 WELL. FENIX NPR 3 "SHX" #11-15:   WELL
 FLD .        TEAPOT DOME:   FIELD
 LOC .      S15 T38N R78W:   LOCATION
 CNTY.            NATRONA:   COUNTY
 STAT.            WYOMING:   STATE
 CTRY. UNITED STATES OF AMERICA:   COUNTRY
 SRVC.           BIRDWELL:   SERVICE COMPANY
 DATE.        19-JAN-1979:   LOGDATE
 API .     49025107640000:   API NUMBER
~CURVE INFORMATION
#MNEM.UNIT       API CODE    CURVE DESCRIPTION
#----------   ------------   ------------------------------
 DEPT.F                  :   
 GRD .GAPI   45 310 01 00:   GAMMA RAY FROM DENSITY LOG
 CALD.IN     45 280 60 00:   CALIPER FROM DENSITY LOG
 RHOB.G/C3   45 350 01 00:   BULK DENSITY
 CORR.G/C3   45 356 01 00:   DENSITY CORRECTION
 SPR .MV     07 010 01 00:   SPONTANEOUS POTENTIAL
 SN  .OHMM   01 040 00 00:   SHORT NORMAL
 ILD .OHMM   07 120 46 00:   INDUCTION LOG DEEP RESISTIVITY
~PARAMETER INFORMATION
#MNEM.UNIT          VALUE    DESCRIPTION
#----------   ------------   ------------------------------
 EKB .F         5258.0000:   Kelly bushing
 EGL .F         5248.0000:   Ground level
 EDF .F            0.0000:   Drilling floor
 TD  .F         1300.0000:   Total depth
 DATE.        19-JAN-1979:   Date logged
 CLNT.            A2DTECH:   Client Code
 SL  . 177' FNL & 155' FWL:   Surface Location
 PD  .                 GL:   Permanent Datum
 EPD .F              5248:   Elevation Permanent Datum
 LMF .                 KB:   Log Measured From
 DMF .                 KB:   Drilling Measured From
 DAPD.F                10:   Feet Above Permanent Datum
 DD  .F              1300:   Depth driller
 DL  .F              1283:   Depth logger
 BLI .F              1277:   Bottom log interval
 TLI .F               100:   Top log interval
 CBD1.F                40:   Casing driller 1
 CBL1.F                40:   Casing logger 1
 BS1 .IN            7.875:   Bit size
 BSD1.F              1300:   Depth drilled with bit1
 DFT .           CHEM/GEL:   Type fluid in hole
 DFD .                8.8:   Density
 DFV .                 37:   Viscosity
 DFL .               15.4:   Fluid loss
 MSS .           FLOWLINE:   Source of sample
 RMS .OHMM            .75:   Rm
 MST .F                68:   Rm Meas. temp.
 RMF .OHMM            .75:   Rmf
 MFST.F                64:   Rmf Meas. temp.
 RMC .OHMM            1.3:   Rmc
 MCST.F                68:   Rmc Meas. temp.
 MFSS.               MEAS:   Source Rmf.
 MCSS.               MEAS:   Source Rmc.
 RMB .OHMM            .73:   Rm. at BHT
 BHT .F                70:   BHT.
 TCS .HRS               2:   Time Circ. stopped
 MRT .F                70:   Maximum recorded temp.
 LUN .               3029:   Logging unit number
 LUL .               CSPR:   Logging unit location
 ENGI.            ROLLINS:   Recorded By
 WITN.           DINSMORE:   Witnessed by
 ORIG.           5" PRINT:   Origin of data
 UWI .     49025107640000:   Unique Well ID
 DICO. A2D TECHNOLOGIES, INC.:   Digitizing Company
~OTHER INFORMATION
~A   DEPT      GRD       CALD       RHOB       CORR        SPR           SN        ILD 
# ...
 1365.5000   149.6200    10.5450     2.3470     0.1900  -999.2500  -999.2500  -999.2500
 1366.0000   147.6200    10.4820     2.3800     0.1660  -999.2500  -999.2500  -999.2500
 1366.5000   145.5800    10.4200     2.4070     0.1660  -999.2500  -999.2500  -999.2500
 1367.0000   145.8500    10.3530     2.4070     0.1690  -999.2500  -999.2500  -999.2500
 1367.5000   148.3990    10.3160     2.3960     0.1680  -999.2500  -999.2500  -999.2500
 1368.0000   154.4040    10.3210     2.3940     0.1490  -999.2500  -999.2500  -999.2500
 1368.5000   161.5140    10.3120     2.4020     0.1320  -999.2500  -999.2500  -999.2500
 1369.0000   168.8480    10.2940     2.4120     0.1100  -999.2500  -999.2500  -999.2500
 1369.5000   167.8520    10.2760     2.4210     0.1080  -999.2500  -999.2500  -999.2500
 1370.0000   165.6970    10.2580     2.4280     0.1040  -999.2500  -999.2500  -999.2500
 1370.5000   160.2440    10.2410     2.4260     0.1050  -999.2500  -999.2500  -999.2500
 1371.0000   157.4720    10.2400     2.4250     0.1040  -999.2500  -999.2500  -999.2500
 1371.5000   159.0770    10.2400     2.4250     0.1050  -999.2500  -999.2500  -999.2500
 1372.0000   160.2290    10.2420     2.4250     0.1040  -999.2500  -999.2500  -999.2500
 1372.5000   162.8430    10.2620     2.4330     0.1050  -999.2500  -999.2500  -999.2500
 1373.0000   165.2330    10.2800     2.4380     0.1050  -999.2500  -999.2500  -999.2500
 1373.5000   172.7720    10.2970     2.4390     0.1280  -999.2500  -999.2500  -999.2500
 1374.0000   174.9150    10.3160     2.4380     0.1520  -999.2500  -999.2500  -999.2500
 1374.5000   173.7830    10.3290     2.4360     0.1490  -999.2500  -999.2500  -999.2500
 1375.0000   167.1060    10.3590     2.4210     0.1410  -999.2500  -999.2500  -999.2500
 1375.5000   160.4690    10.3860     2.4050     0.1320  -999.2500  -999.2500  -999.2500
 1376.0000   159.2210    10.4150     2.4010     0.1260  -999.2500  -999.2500  -999.2500
 1376.5000   158.2890    10.4420     2.4150     0.1240  -999.2500  -999.2500  -999.2500
 1377.0000   157.5610    10.4730     2.4330     0.1250  -999.2500  -999.2500  -999.2500
 1377.5000   156.2060    10.4720     2.4370     0.1290  -999.2500  -999.2500  -999.2500
 1378.0000   158.2420    10.4680     2.4360     0.1320  -999.2500  -999.2500  -999.2500
 1378.5000   161.6040    10.4620     2.4320     0.1460  -999.2500  -999.2500  -999.2500
 1379.0000   163.1530    10.4580     2.4260     0.1530  -999.2500  -999.2500  -999.2500
 1379.5000   163.3100    10.4530     2.4180     0.1520  -999.2500  -999.2500  -999.2500
 1380.0000   159.8740    10.4480     2.4090     0.1470  -999.2500  -999.2500  -999.2500
 1380.5000   153.9570    10.4440     2.3900     0.1450  -999.2500  -999.2500  -999.2500
 1381.0000   154.7940    10.4380     2.3550     0.1450  -999.2500  -999.2500  -999.2500
 1381.5000   160.6840    10.4700     2.3370     0.1670  -999.2500  -999.2500  -999.2500
 1382.0000   163.2140    10.5100     2.3400     0.1870  -999.2500  -999.2500  -999.2500
 1382.5000   162.3260    10.5530     2.3520     0.1720  -999.2500  -999.2500  -999.2500
 1383.0000   161.1340    10.5920     2.3730     0.1470  -999.2500  -999.2500  -999.2500
 1383.5000   160.6380    10.6310     2.3720     0.1450  -999.2500  -999.2500  -999.2500
 1384.0000   160.2250    10.6260     2.3550     0.1460  -999.2500  -999.2500  -999.2500
 1384.5000   163.1510    10.6200     2.3360     0.1750  -999.2500  -999.2500  -999.2500
 1385.0000   163.7710    10.6120     2.3230     0.2210  -999.2500  -999.2500  -999.2500
 1385.5000   163.0870    10.6060     2.3210     0.2250  -999.2500  -999.2500  -999.2500
 1386.0000   164.7960    10.5980     2.3200     0.2250  -999.2500  -999.2500  -999.2500
 1386.5000   166.5240    10.6000     2.3220     0.2120  -999.2500  -999.2500  -999.2500
 1387.0000   167.4030    10.6160     2.3460     0.1960  -999.2500  -999.2500  -999.2500
 1387.5000   173.6180    10.6310     2.3710     0.1790  -999.2500  -999.2500  -999.2500
 1388.0000   172.4000    10.6460     2.3740     0.1630  -999.2500  -999.2500  -999.2500
 1388.5000   170.9840    10.6610     2.3750     0.1470  -999.2500  -999.2500  -999.2500
 1389.0000   169.3050    10.6730     2.3720     0.1410  -999.2500  -999.2500  -999.2500
 1389.5000   167.7100    10.6590     2.3670     0.1390  -999.2500  -999.2500  -999.2500
 1390.0000   167.4640    10.6410     2.3610     0.1570  -999.2500  -999.2500  -999.2500
 1390.5000   168.2860    10.6230     2.3580     0.1880  -999.2500  -999.2500  -999.2500
 1391.0000   168.3630    10.6040     2.3590     0.2220  -999.2500  -999.2500  -999.2500
 1391.5000   168.7490    10.6030     2.3650     0.2240  -999.2500  -999.2500  -999.2500
 1392.0000   167.5390    10.6300     2.3760     0.2250  -999.2500  -999.2500  -999.2500
 1392.5000   167.2470    10.6530     2.3800     0.2150  -999.2500  -999.2500  -999.2500
 1393.0000   167.9830    10.6710     2.3770     0.2030  -999.2500  -999.2500  -999.2500
 1393.5000   172.9200    10.6450     2.3660     0.1910  -999.2500  -999.2500  -999.2500
 1394.0000   173.5440    10.6240     2.3640     0.1790  -999.2500  -999.2500  -999.2500
 1394.5000   174.4740    10.6000     2.3600     0.1740  -999.2500  -999.2500  -999.2500
 1395.0000   174.3820    10.5770     2.3560     0.1830  -999.2500  -999.2500  -999.2500
 1395.5000   174.1350    10.5590     2.3220     0.2150  -999.2500  -999.2500  -999.2500
 1396.0000   173.6910    10.5360     2.3130     0.2450  -999.2500  -999.2500  -999.2500
 1396.5000   173.2930    10.5360     2.3170     0.2630  -999.2500  -999.2500  -999.2500
 1397.0000   172.7790    10.5670     2.3260     0.2600  -999.2500  -999.2500  -999.2500
 1397.5000   174.1270    10.5950     2.3310     0.2490  -999.2500  -999.2500  -999.2500
 1398.0000   171.1570    10.6220     2.3290     0.2390  -999.2500  -999.2500  -999.2500
 1398.5000   183.4590    10.6510     2.3280     0.2290  -999.2500  -999.2500  -999.2500
 1399.0000   181.9840    10.6740     2.3260     0.2160  -999.2500  -999.2500  -999.2500
 1399.5000   182.6250    10.6830     2.3270     0.1990  -999.2500  -999.2500  -999.2500
 1400.0000   182.3060    10.6910     2.3270     0.1820  -999.2500  -999.2500  -999.2500
 1400.5000   178.6910    10.7000     2.3470     0.1660  -999.2500  -999.2500  -999.2500
 1401.0000   171.0730    10.7060     2.3480     0.1700  -999.2500  -999.2500  -999.2500
 1401.5000   163.0450    10.7260     2.3400     0.1680  -999.2500  -999.2500  -999.2500
 1402.0000   160.4350    10.7560     2.3260     0.1780  -999.2500  -999.2500  -999.2500
 1402.5000   161.9530    10.7840     2.3250     0.1980  -999.2500  -999.2500  -999.2500
 1403.0000   160.6980    10.6840     2.3250     0.2050  -999.2500  -999.2500  -999.2500
 1403.5000   159.3710    10.5720     2.3160     0.2060  -999.2500  -999.2500  -999.2500
 1404.0000   160.7950    10.4810     2.2890     0.2070  -999.2500  -999.2500  -999.2500
 1404.5000   160.2130    10.4860     2.2680     0.2090  -999.2500  -999.2500  -999.2500
 1405.0000   156.9560    10.6390     2.2550     0.2100  -999.2500  -999.2500  -999.2500
 1405.5000   153.6010    10.8270     2.2400     0.2120  -999.2500  -999.2500  -999.2500
 1406.0000   152.4400    10.9190     2.2290     0.2140  -999.2500  -999.2500  -999.2500
 1406.5000   153.8910    10.8780     2.1960     0.2160  -999.2500  -999.2500  -999.2500
 1407.0000   152.3340    10.7830     2.1520     0.2340  -999.2500  -999.2500  -999.2500
 1407.5000   149.7940    10.6810     2.1120     0.2600  -999.2500  -999.2500  -999.2500
 1408.0000   150.7060    10.6290     2.1070     0.2480  -999.2500  -999.2500  -999.2500
 1408.5000   152.7880    10.6350     2.1940     0.2160  -999.2500  -999.2500  -999.2500
 1409.0000   152.9480    10.6340     2.1960     0.1840  -999.2500  -999.2500  -999.2500
 1409.5000   152.4120    10.6330     2.1210     0.1610  -999.2500  -999.2500  -999.2500
 1410.0000   150.1930    10.6360     1.8970     0.1600  -999.2500  -999.2500  -999.2500
 1410.5000   149.1670    10.6120     1.7540     0.1740  -999.2500  -999.2500  -999.2500
