~VERSION INFORMATION
 VERS.                2.0:   CWLS LOG ASCII STANDARD - VERSION 2.0
 WRAP.                 NO:   ONE LINE PER DEPTH STEP
~WELL INFORMATION
#MNEM.UNIT      DATA TYPE    INFORMATION
#----------   ------------   ------------------------------
 STRT.F          648.0000:   START DEPTH
 STOP.F         3196.0000:   STOP DEPTH
 STEP.F            0.5000:   STEP LENGTH
 NULL.          -999.2500:   NO VALUE
 COMP.    FENIX & SCISSON:   COMPANY
 WELL.   FENIX "AX" #18-2:   WELL
 FLD .             NPR #3:   FIELD
 LOC .       S2 T38N R78W:   LOCATION
 CNTY.            NATRONA:   COUNTY
 STAT.            WYOMING:   STATE
 CTRY. UNITED STATES OF AMERICA:   COUNTRY
 SRVC.              WELEX:   SERVICE COMPANY
 DATE.        05-OCT-1980:   LOGDATE
 API .     49025108500000:   API NUMBER
~CURVE INFORMATION
#MNEM.UNIT       API CODE    CURVE DESCRIPTION
#----------   ------------   ------------------------------
 DEPT.F                  :   
 GRD .GAPI   45 310 01 00:   GAMMA RAY FROM DENSITY LOG
 CALD.IN     45 280 60 00:   CALIPER FROM DENSITY LOG
 CORR.G/C3   45 356 01 00:   DENSITY CORRECTION
 RHOB.G/C3   45 350 01 00:   BULK DENSITY
 SPR .MV     07 010 01 00:   SPONTANEOUS POTENTIAL FROM RES.
 ILD .OHMM   07 120 46 00:   INDUCTION LOG DEEP RESISTIVITY
 ILM .OHMM   07 120 44 00:   INDUCTION LOG MEDIUM RESISTIVITY
 SGRD.OHMM   07 220 05 00:   SHORT GUARD RESISTIVITY
~PARAMETER INFORMATION
#MNEM.UNIT          VALUE    DESCRIPTION
#----------   ------------   ------------------------------
 EKB .F         5162.0000:   Kelly bushing
 EGL .F         5152.0000:   Ground level
 EDF .F            0.0000:   Drilling floor
 TD  .F         3200.0000:   Total depth
 CLNT.            A2DTECH:   Client Code
 PD  .                 GL:   Permanent Datum
 EPD .F              5152:   Elevation Permanent Datum
 LMF .                 KB:   Log Measured From
 DMF .                 KB:   Drilling Measured From
 DAPD.F                10:   Feet Above Permanent Datum
 DATE.        05-OCT-1980:   Date Logged [DD-MMM-YYYY]
 DD  .F              3200:   Depth driller
 DL  .F              3198:   Depth logger
 BLI .F              3196:   Bottom log interval
 TLI .F               646:   Top log interval
 CS1 .IN            8.625:   Casing size
 CBD1.      8.625" @ 647':   Casing driller 1
 CBL1.F               650:   Casing logger 1
 BS1 .IN            7.875:   Bit size
 BSD1.F              3200:   Depth drilled with bit1
 DFT .           CHEM GEL:   Type fluid in hole
 DFD .                8.6:   Density
 DFV .                 38:   Viscosity
 DFPH.                9.5:   pH
 MSS .           FLOWLINE:   Source of sample
 MFSS.               MEAS:   Source Rmf.
 MCSS.               MEAS:   Source Rmc.
 RMB .OHMM           1.24:   Rm. at BHT
 BHT .F               118:   BHT.
 TCS .HRS               5:   Time Circ. stopped
 MRT .F               118:   Maximum recorded temp.
 LUN .               1892:   Logging unit number
 LUL .             CASPER:   Logging unit location
 ORIG.           5" PRINT:   Origin of data
 UWI .     49025108500000:   Unique Well ID
 DICO. A2D TECHNOLOGIES, INC.:   Digitizing Company
 SL  . 313' FSL & 565' FWL:   Surface Location
 RMS .               2.34:   Rm
~OTHER INFORMATION
~A   DEPT       GRD      CALD       CORR       RHOB        SPR        ILD        ILM       SGRD   
# ...
 1660.5000    74.6663    13.0934     0.2335     2.4085   -35.5927     7.3445     7.2341     7.1554
 1661.0000    74.6813    12.6797     0.2156     2.3680   -35.4258     7.4504     7.4461     7.3599
 1661.5000    74.0365    12.5047     0.2037     2.3308   -35.2589     7.5060     7.6561     7.5183
 1662.0000    73.6079    12.3591     0.2023     2.3542   -35.2402     7.5620     7.7677     7.6800
 1662.5000    73.1830    12.2575     0.2040     2.3821   -35.0741     7.6185     7.9355     7.7913
 1663.0000    72.7581    12.1705     0.2072     2.4204   -35.0548     7.5701     7.9408     7.7960
 1663.5000    73.8765    12.1128     0.2121     2.4521   -35.1837     7.5221     7.8373     7.7426
 1664.0000    74.3345    12.0698     0.2196     2.4830   -35.3134     7.4755     7.6819     7.5931
 1664.5000    73.2265    12.0268     0.2243     2.5041   -35.4428     7.4271     7.5815     7.4947
 1665.0000    72.8218    12.0279     0.2290     2.4922   -35.5722     7.3293     7.4828     7.4477
 1665.5000    73.2805    12.0919     0.2322     2.4706   -35.7017     7.2329     7.2803     7.4010
 1666.0000    73.9553    12.2647     0.2323     2.4117   -35.8311     7.1385     7.1396     7.4054
 1666.5000    74.6301    12.3684     0.2294     2.4056   -36.1040     7.1424     7.0953     7.4099
 1667.0000    75.0850    12.5013     0.2266     2.4162   -36.2334     7.0972     7.0524     7.4657
 1667.5000    74.0003    12.6050     0.2238     2.3961   -36.3628     7.1019     7.1552     7.4188
 1668.0000    72.9156    12.7233     0.2086     2.3639   -36.3437     7.1549     7.2096     7.3723
 1668.5000    72.9305    12.7829     0.1954     2.3498   -36.4688     7.1588     7.3147     7.3260
 1669.0000    73.1774    12.7986     0.2002     2.3739   -36.4501     7.1134     7.3703     7.2801
 1669.5000    74.0961    12.7702     0.2063     2.4138   -36.4341     6.8761     7.3245     7.2344
 1670.0000    74.7351    12.5513     0.2110     2.4387   -36.4126     6.8316     7.2758     7.2899
 1670.5000    72.5544    12.3148     0.2067     2.4211   -36.2458     6.8362     7.1841     7.2943
 1671.0000    70.8099    12.1430     0.1887     2.3798   -36.2270     6.8398     7.1395     7.2987
 1671.5000    69.7252    12.0414     0.1708     2.3671   -36.0601     6.7965     7.1950     7.3032
 1672.0000    70.4000    12.0424     0.1704     2.4055   -35.8202     6.8473     7.1998     7.4101
 1672.5000    71.2947    12.1020     0.1847     2.4484   -35.5778     6.8038     7.2046     7.3130
 1673.0000    71.9696    12.1763     0.1957     2.4552   -35.4067     6.8083     7.1107     7.1184
 1673.5000    72.6473    12.2213     0.2107     2.4531   -35.2398     6.7187     6.8742     6.9769
 1674.0000    73.5660    12.2663     0.2214     2.4172   -35.0729     6.6294     6.5999     6.8382
 1674.5000    74.4377    12.2967     0.2185     2.3963   -35.0542     6.4980     6.3341     6.7951
 1675.0000    73.1330    12.3416     0.2157     2.3950   -35.1883     6.5918     6.2972     6.8937
 1675.5000    71.8283    12.3573     0.2159     2.3968   -35.3130     6.6410     7.0867     7.0422
 1676.0000    72.0633    12.2852     0.2190     2.4193   -35.5906     6.4615     6.8510     7.1946
 1676.5000    73.6179    12.1983     0.2313     2.4629   -35.7946     6.3279     6.4429     7.2989
 1677.0000    74.5126    12.1260     0.2420     2.4900   -36.0149     6.2094     6.8131     7.3538
 1677.5000    72.7681    12.0536     0.2497     2.5082   -36.1270     6.2127     6.9112     7.2076
 1678.0000    69.7039    12.0104     0.2561     2.5390   -36.2564     6.2161     6.5006     6.9676
 1678.5000    69.7368    11.9967     0.2651     2.5662   -36.3859     6.2624     6.1557     6.7355
 1679.0000    70.6174    11.9980     0.2713     2.5633   -36.3624     6.2219     6.4709     6.5107
 1679.5000    70.6324    12.0137     0.2775     2.5394   -36.3437     6.2261     6.9311     6.2885
 1680.0000    69.3278    12.0293     0.2822     2.5173   -36.3250     6.1441     6.9848     6.0857
 1680.5000    69.3428    12.0450     0.2869     2.4940   -36.3063     6.1493     6.9403     6.0051
 1681.0000    71.1173    12.0462     0.2916     2.4745   -36.2874     6.2860     6.9461     6.0512
 1681.5000    74.2115    12.0619     0.2857     2.4619   -36.1200     6.3707     6.9989     6.1389
 1682.0000    76.6458    12.0629     0.2678     2.4305   -36.0820     6.5073     7.0521     6.2279
 1682.5000    77.9805    12.0786     0.2483     2.4044   -35.9304     6.6012     7.2543     6.3618
 1683.0000    77.9955    11.9623     0.2410     2.3932   -35.9116     6.6964     7.4623     6.5448
 1683.5000    77.0990    11.8460     0.2457     2.4122   -35.8929     6.8874     7.5190     6.7918
 1684.0000    76.0497    11.7590     0.2473     2.4033   -35.8232     7.0837     7.4136     7.0202
 1684.5000    75.4049    11.6867     0.2113     2.3505   -35.7073     7.0875     7.2750     6.7864
 1685.0000    74.9800    11.6437     0.1798     2.2860   -35.8370     6.9927     7.2799     6.6048
 1685.5000    73.0155    11.5699     0.1573     2.2671   -35.8178     6.9499     7.3860     6.8889
 1686.0000    71.0510    11.4847     0.1620     2.3130   -35.9474     7.2984     7.5455     7.3850
 1686.5000    73.9253    11.3977     0.1758     2.3904   -36.0722     7.5065     7.7085     7.3894
 1687.0000    75.4799    11.3254     0.1925     2.4498   -36.2063     7.6675     7.8750     7.4471
 1687.5000    75.7148    11.2531     0.2034     2.4829   -36.3704     7.7247     7.9898     7.9541
 1688.0000    74.5603    11.2101     0.1929     2.4538   -36.6086     7.7288     7.9402     8.8573
 1688.5000    71.3497    11.1817     0.1704     2.4510   -36.7427     7.7865     7.7756     8.3871
 1689.0000    70.0451    11.1678     0.1872     2.5051   -36.8681     7.8445     7.8432     8.0521
 1689.5000    69.8364    11.1691     0.2009     2.5554   -36.9970     7.7401     7.9575     7.8378
 1690.0000    72.0545    11.1848     0.2101     2.5736   -36.9778     7.5348     7.7997     7.7340
 1690.5000    73.6091    11.2019     0.2163     2.5625   -37.1075     7.3348     7.1848     7.6865
 1691.0000    74.7238    11.3190     0.2180     2.5311   -37.0765     7.3387     7.0412     7.7503
 1691.5000    74.2989    11.5399     0.2197     2.4930   -36.9172     7.3426     7.3449     8.2464
 1692.0000    72.5544    11.7462     0.2183     2.4683   -36.8445     7.3466     7.4520     8.0824
 1692.5000    71.6753    12.2311     0.2170     2.4527   -36.5835     7.3505     7.3035     7.8133
 1693.0000    71.2272    12.4813     0.2172     2.4522   -36.4166     7.3545     7.2589     7.7098
 1693.5000    69.9638    12.2331     0.2324     2.4695   -36.2497     7.3078     7.3659     7.8227
 1694.0000    67.9956    11.7355     0.2461     2.4894   -36.0828     7.2110     7.4219     7.8815
 1694.5000    68.4542    11.4726     0.2569     2.5082   -36.2123     7.1384     7.4783     7.9408
 1695.0000    69.1291    11.4003     0.2691     2.5268   -36.1935     7.0716     7.4833     7.9457
 1695.5000    69.8039    11.3720     0.2843     2.4670   -36.3229     7.0268     7.4356     7.8958
 1696.0000    70.9186    11.3583     0.2694     2.4221   -36.4524     7.0315     7.3399     7.7923
 1696.5000    72.4732    11.3446     0.2711     2.3870   -36.5818     6.9860     7.2942     7.5340
 1697.0000    72.9281    11.3459     0.2662     2.3233   -36.7112     6.9907     7.2487     7.2831
 1697.5000    70.9055    11.3469     0.2373     2.2784   -36.8359     6.9945     7.1489     7.0893
 1698.0000    69.4427    11.3479     0.2037     2.1705   -36.9659     6.9024     6.9656     6.9006
 1698.5000    68.5742    11.3929     0.1918     2.1512   -36.9466     6.8115     6.7339     6.7169
 1699.0000    67.9294    11.5259     0.1995     2.1811   -37.0761     6.8153     6.5539     6.5347
 1699.5000    67.7244    11.6442     0.1997     2.3195   -37.0526     6.6802     6.4685     6.4525
 1700.0000    67.7432    11.7478     0.1953     2.3053   -37.2775     6.6372     6.3848     6.5638
 1700.5000    68.1981    11.8558     0.1909     2.3125   -37.4200     6.6920     6.5272     6.3015
