~VERSION INFORMATION
 VERS.                2.0:   CWLS LOG ASCII STANDARD - VERSION 2.0
 WRAP.                 NO:   ONE LINE PER DEPTH STEP
~WELL INFORMATION
#MNEM.UNIT      DATA TYPE    INFORMATION
#----------   ------------   ------------------------------
 STRT.F          200.0000:   START DEPTH
 STOP.F         3060.0000:   STOP DEPTH
 STEP.F            0.5000:   STEP LENGTH
 NULL.          -999.2500:   NO VALUE
 COMP.    FENIX & SCISSON:   COMPANY
 WELL. FENIX NPR 3 "AX" #58-21:   WELL
 FLD .      NPR - WILDCAT:   FIELD
 LOC .      S21 T39N R78W:   LOCATION
 CNTY.            NATRONA:   COUNTY
 STAT.            WYOMING:   STATE
 CTRY. UNITED STATES OF AMERICA:   COUNTRY
 SRVC.              WELEX:   SERVICE COMPANY
 DATE.        12-JUN-1977:   LOGDATE
 API .     49025103790000:   API NUMBER
~CURVE INFORMATION
#MNEM.UNIT       API CODE    CURVE DESCRIPTION
#----------   ------------   ------------------------------
 DEPT.F                  :   
 CALD.IN     45 280 60 00:   CALIPER FROM DENSITY LOG
 GRD .GAPI   45 310 01 00:   GAMMA RAY FROM DENSITY LOG
 CORR.G/C3   45 356 01 00:   DENSITY CORRECTION
 RHOB.G/C3   45 350 01 00:   BULK DENSITY
 SPR .MV     07 010 01 00:   SPONTANEOUS POTENTIAL
 ILD .OHMM   07 120 46 00:   DEEP INDUCTION RESISTIVITY
 GURD.OHMM   07 220 05 00:   GUARD LOG RESISTIVITY
 ILM .OHMM   07 120 44 00:   INDUCTION LOG MEDIUM RESISTIVITY
 DT  .US/F   60 520 00 00:   DELTA TIME
 SPHI.DEC    60 890 00 00:   SONIC POROSITY
~PARAMETER INFORMATION
#MNEM.UNIT          VALUE    DESCRIPTION
#----------   ------------   ------------------------------
 EKB .F         5016.0000:   Kelly bushing
 EGL .F         5006.0000:   Ground level
 EDF .F            0.0000:   Drilling floor
 EPD .F            0.0000:   Permanent datum
 TD  .F         3062.0000:   Total depth
 DATE.        12-JUN-1977:   Date logged
 CLNT.            A2DTECH:   Client Code
 SL  . 280' FSL & 2160' FEL:   Surface Location
 PD  .                 GL:   Permanent Datum
 DD  .F              3060:   Depth driller
 DL  .F              3062:   Depth logger
 BLI .F              3060:   Bottom log interval
 TLI .F              2450:   Top log interval
 CS1 .IN            8.625:   Casing size
 CBD1.      8.625" @ 200':   Casing driller 1
 CBL1.F               218:   Casing logger 1
 BS1 .IN            7.875:   Bit size
 BSD1.F              3060:   Depth drilled with bit1
 DFT .            KCL/MUD:   Type fluid in hole
 DFD .                8.7:   Density
 DFV .                 33:   Viscosity
 DFPH.                7.5:   pH
 DFL .                 36:   Fluid loss
 MSS .           FLOWLINE:   Source of sample
 TCS .HRS             4.5:   Time Circ. stopped
 MRT .F               110:   Maximum recorded temp.
 LUN .               8611:   Logging unit number
 LUL .           GILLETTE:   Logging unit location
 ENGI.            C. DOAK:   Recorded By
 WITN.            RHOADES:   Witnessed by
 ORIG.           5" PRINT:   Origin of data
 UWI .     49025103790000:   Unique Well ID
 DICO. A2D TECHNOLOGIES, INC.:   Digitizing Company
 DAPD.                 10:   Feet Above Permanent Datum
 RMS .OHMM            1.3:   Rm
 MST .F                84:   Rm Meas. temp.
 RMF .OHMM            .52:   Rmf
 MFST.F                84:   Rmf Meas. temp.
 MFSS.               FANN:   Source Rmf.
 RMC .OHMM           1.43:   Rmc
 MCST.F                84:   Rmc Meas. temp.
 MCSS.                KIT:   Source Rmc.
 RMB .OHMM            .99:   Rm. at BHT
 BHT .F               110:   BHT.
~OTHER INFORMATION
~A   DEPT     CALD         GRD      CORR       RHOB        SPR        ILD       GURD        ILM         DT       SPHI   
# ...
 1171.5000     9.3790    95.1160     0.0390     2.5050   -65.7030     9.7550    11.2030    10.3860  -999.2500  -999.2500
 1172.0000     9.3790    96.0730     0.0360     2.5010   -65.6360     9.7280    11.4030    10.3340  -999.2500  -999.2500
 1172.5000     9.3790    97.6340     0.0330     2.5010   -65.5670     9.7000    11.1300    10.2830  -999.2500  -999.2500
 1173.0000     9.3790    99.1380     0.0270     2.5010   -65.4960     9.6730    10.9910    10.2320  -999.2500  -999.2500
 1173.5000     9.3790   100.5390     0.0290     2.5010   -65.4270     9.6460    11.1240    10.1810  -999.2500  -999.2500
 1174.0000     9.3790   102.2590     0.0330     2.5010   -65.3570     9.6180    11.2520    10.1300  -999.2500  -999.2500
 1174.5000     9.3790   102.1060     0.0360     2.4970   -65.2870     9.5910    11.4030    10.0790  -999.2500  -999.2500
 1175.0000     9.3790   101.4700     0.0370     2.4950   -65.2180     9.5630    11.2010    10.0290  -999.2500  -999.2500
 1175.5000     9.3790   100.7750     0.0320     2.4910   -65.1470     9.5360    10.9510     9.9790  -999.2500  -999.2500
 1176.0000     9.3790   100.1470     0.0270     2.4890   -65.0780     9.5090    10.5930     9.9300  -999.2500  -999.2500
 1176.5000     9.3790    99.4660     0.0220     2.4780   -65.0230     9.4810    10.6400     9.8800  -999.2500  -999.2500
 1177.0000     9.3790    98.7880     0.0170     2.4690   -65.0370     9.4540    10.7220     9.6610  -999.2500  -999.2500
 1177.5000     9.3800    98.4410     0.0120     2.4600   -65.0480     9.4260    10.8040     9.6610  -999.2500  -999.2500
 1178.0000     9.3800    99.4120     0.0100     2.4600   -65.0630     9.3990    10.8850     9.6610  -999.2500  -999.2500
 1178.5000     9.3880   100.4210     0.0100     2.4610   -65.0760     9.3720    10.9910     9.6610  -999.2500  -999.2500
 1179.0000     9.3980   100.6600     0.0120     2.4540   -65.0900     9.3440    10.8790     9.6610  -999.2500  -999.2500
 1179.5000     9.4090   100.3000     0.0150     2.4470   -65.1030     9.3170    10.4000     9.6610  -999.2500  -999.2500
 1180.0000     9.4190    99.9950     0.0180     2.4420   -65.1170     9.2890    10.6210     9.6610  -999.2500  -999.2500
 1180.5000     9.4290    99.7030     0.0210     2.4490   -65.1300     9.2620    10.7180     9.6610  -999.2500  -999.2500
 1181.0000     9.4400    99.4030     0.0240     2.4520   -65.1440     9.2340    10.7900     9.6610  -999.2500  -999.2500
 1181.5000     9.4500    98.9700     0.0260     2.4450   -65.1580     9.2070    10.7420     9.6580  -999.2500  -999.2500
 1182.0000     9.4580    98.5730     0.0210     2.4380   -65.1710     9.1790    10.6350     9.6950  -999.2500  -999.2500
 1182.5000     9.4550    98.0140     0.0170     2.4310   -65.1850     9.1440    10.5280     9.7560  -999.2500  -999.2500
 1183.0000     9.4500    97.2010     0.0130     2.4260   -65.1980     9.1680    10.4000     9.8150  -999.2500  -999.2500
 1183.5000     9.4460    94.8020     0.0090     2.4320   -65.2120     9.2160    10.4640     9.8730  -999.2500  -999.2500
 1184.0000     9.4410    94.5650     0.0040     2.4370   -65.2250     9.2640    10.6250     9.9310  -999.2500  -999.2500
 1184.5000     9.4360    93.8610     0.0000     2.4300   -65.2390     9.3110    10.7900     9.9890  -999.2500  -999.2500
 1185.0000     9.4320    93.7380    -0.0040     2.4210   -65.2530     9.3570    10.7900    10.0470  -999.2500  -999.2500
 1185.5000     9.4270    93.9500    -0.0090     2.4110   -65.2660     9.4040    10.7900    10.1050  -999.2500  -999.2500
 1186.0000     9.4220    94.1150    -0.0140     2.4080   -65.2800     9.4500    10.5930    10.1630  -999.2500  -999.2500
 1186.5000     9.4180    94.2510    -0.0180     2.4150   -65.2930     9.4970    10.7250    10.2210  -999.2500  -999.2500
 1187.0000     9.4130    94.4240    -0.0170     2.4190   -65.3070     9.5440    10.9060    10.2790  -999.2500  -999.2500
 1187.5000     9.4080    94.0290    -0.0140     2.4200   -65.3200     9.5900    11.0860    10.3370  -999.2500  -999.2500
 1188.0000     9.4040    92.7080    -0.0110     2.4210   -65.3340     9.6370    11.2660    10.3960  -999.2500  -999.2500
 1188.5000     9.3990    91.0030    -0.0070     2.4270   -65.3470     9.6840    11.4470    10.4540  -999.2500  -999.2500
 1189.0000     9.3950    89.0920    -0.0040     2.4330   -65.3610     9.7300    11.6150    10.5120  -999.2500  -999.2500
 1189.5000     9.3900    89.1690    -0.0010     2.4480   -65.3740     9.7780    11.5820    10.5700  -999.2500  -999.2500
 1190.0000     9.3850    89.4180     0.0010     2.4670   -65.3890     9.8400    11.4520    10.6280  -999.2500  -999.2500
 1190.5000     9.3810    89.8110     0.0040     2.4770   -65.4010     9.8340    11.3230    10.6860  -999.2500  -999.2500
 1191.0000     9.3760    91.8210     0.0070     2.4710   -65.4130     9.8190    11.1950    10.7440  -999.2500  -999.2500
 1191.5000     9.3710    93.0590     0.0100     2.4710   -65.3840     9.8040    11.1950    10.7900  -999.2500  -999.2500
 1192.0000     9.3670    93.2070     0.0130     2.4780   -65.3560     9.7900    11.1950    10.7190  -999.2500  -999.2500
 1192.5000     9.3620    93.4890     0.0120     2.4840   -65.3250     9.7770    11.1950    10.6290  -999.2500  -999.2500
 1193.0000     9.3580    93.7000     0.0100     2.4910   -65.2960     9.7630    11.6150    10.5390  -999.2500  -999.2500
 1193.5000     9.3530    94.1670     0.0100     2.4980   -65.2670     9.7490    13.2140    10.4500  -999.2500  -999.2500
 1194.0000     9.3480    94.5650     0.0090     2.5030   -65.2370     9.7350    11.6200    10.3600  -999.2500  -999.2500
 1194.5000     9.3440    95.8180     0.0080     2.5070   -65.2070     9.7210    10.7900    10.2710  -999.2500  -999.2500
 1195.0000     9.3400    96.8410     0.0060     2.5050   -65.1780     9.7070    11.1750    10.2100  -999.2500  -999.2500
 1195.5000     9.3410    98.0560     0.0050     2.4870   -65.1480     9.6930    11.6150    10.2100  -999.2500  -999.2500
 1196.0000     9.3420    98.3610     0.0040     2.4690   -65.1190     9.6800    11.5120    10.2100  -999.2500  -999.2500
 1196.5000     9.3440    99.0090     0.0030     2.4700   -65.0890     9.6660    11.1950    10.2100  -999.2500  -999.2500
 1197.0000     9.3450    98.2910     0.0010     2.4720   -65.0600     9.6610    11.1950    10.2100  -999.2500  -999.2500
 1197.5000     9.3460    97.4500     0.0000     2.4680   -65.0290     9.6610    11.1950    10.2100  -999.2500  -999.2500
 1198.0000     9.3470    96.5140    -0.0010     2.4600   -65.0240     9.6610    11.1950    10.2110  -999.2500  -999.2500
 1198.5000     9.3490    95.5360    -0.0030     2.4600   -65.0430     9.6610    10.9840    10.2030  -999.2500  -999.2500
 1199.0000     9.3500    95.9860    -0.0040     2.4630   -65.0620     9.6610    10.7900    10.1850  -999.2500  -999.2500
 1199.5000     9.3510    97.4020    -0.0050     2.4680   -65.0800     9.6610    10.7900    10.1670  -999.2500  -999.2500
 1200.0000     9.3530    98.6080    -0.0060     2.4690   -65.0990     9.6610    10.7900    10.1490  -999.2500  -999.2500
 1200.5000     9.3540    99.4040    -0.0060     2.4670   -65.1170     9.6610    10.7900    10.1320  -999.2500  -999.2500
 1201.0000     9.3550   100.0180    -0.0050     2.4640   -65.1360     9.6610    10.7900    10.1140  -999.2500  -999.2500
 1201.5000     9.3560    99.2370    -0.0040     2.4610   -65.1550     9.6610    10.7520    10.0960  -999.2500  -999.2500
 1202.0000     9.3580    98.7030    -0.0040     2.4570   -65.1730     9.6110    10.6550    10.0790  -999.2500  -999.2500
 1202.5000     9.3590    98.0740    -0.0030     2.4570   -65.1920     9.5240    10.5580    10.0610  -999.2500  -999.2500
 1203.0000     9.3600    97.5010    -0.0020     2.4590   -65.2100     9.4380    10.4000    10.0430  -999.2500  -999.2500
 1203.5000     9.3620    96.7330    -0.0020     2.4560   -65.2290     9.3520    10.4920    10.0260  -999.2500  -999.2500
 1204.0000     9.3630    95.8180    -0.0020     2.4540   -65.2480     9.2660    10.7370    10.0080  -999.2500  -999.2500
 1204.5000     9.3640    95.1890     0.0000     2.4540   -65.2660     9.1800    10.9910     9.9900  -999.2500  -999.2500
