~VERSION INFORMATION
 VERS.                2.0:   CWLS LOG ASCII STANDARD - VERSION 2.0
 WRAP.                 NO:   ONE LINE PER DEPTH STEP
~WELL INFORMATION
#MNEM.UNIT      DATA TYPE    INFORMATION
#----------   ------------   ------------------------------
 STRT.F          200.0000:   START DEPTH
 STOP.F         3150.0000:   STOP DEPTH
 STEP.F            0.5000:   STEP LENGTH
 NULL.          -999.2500:   NO VALUE
 COMP.  FENIX AND SCISSON:   COMPANY
 WELL.  FENIX "AX" #88-10:   WELL
 FLD .              NPR 3:   FIELD
 LOC .      S10 T38N R78W:   LOCATION
 CNTY.            NATRONA:   COUNTY
 STAT.            WYOMING:   STATE
 CTRY. UNITED STATES OF AMERICA:   COUNTRY
 SRVC.              WELEX:   SERVICE COMPANY
 DATE.        13-JUN-1977:   LOGDATE
 API .     49025103780000:   API NUMBER
~CURVE INFORMATION
#MNEM.UNIT       API CODE    CURVE DESCRIPTION
#----------   ------------   ------------------------------
 DEPT.F                  :   
 CALD.IN     45 280 60 00:   CALIPER FROM DENSITY LOG
 GRD .GAPI   45 310 01 00:   GAMMA RAY FROM DENSITY LOG
 RHOB.G/C3   45 350 01 00:   BULK DENSITY
 CORR.G/C3   45 356 01 00:   DENSITY CORRECTION
 SPR .MV     07 010 01 00:   SPONTANEOUS POTENTIAL
 GURD.OHMM   07 220 05 00:   GUARD LOG RESISTIVITY
 ILD .OHMM   07 120 46 00:   INDUCTION LOG DEEP RESISTIVITY
 ILM .OHMM   07 120 44 00:   INDUCTION LOG MEDIUM RESISTIVITY
~PARAMETER INFORMATION
#MNEM.UNIT          VALUE    DESCRIPTION
#----------   ------------   ------------------------------
 EKB .F         5264.0000:   Kelly bushing
 EGL .F         5254.0000:   Ground level
 EDF .F            0.0000:   Drilling floor
 TD  .F         3160.0000:   Total depth
 DATE.        13-JUN-1977:   Date logged
 CLNT.            A2DTECH:   Client Code
 SL  . 430' FSL & 330' FEL:   Surface Location
 PD  .                 GL:   Permanent Datum
 EPD .F              5254:   Elevation Permanent Datum
 LMF .                 KB:   Log Measured From
 DMF .                 KB:   Drilling Measured From
 DAPD.F                10:   Feet Above Permanent Datum
 DD  .F              3160:   Depth driller
 DL  .F              3151:   Depth logger
 BLI .F              3149:   Bottom log interval
 CS1 .IN            8.625:   Casing size
 CBD1.      8.625" @ 208':   Casing driller 1
 BS1 .IN            7.875:   Bit size
 BSD1.F              3160:   Depth drilled with bit1
 DFT .            KCL MUD:   Type fluid in hole
 DFD .                9.1:   Density
 DFV .                 31:   Viscosity
 DFPH.                7.5:   pH
 DFL .                 20:   Fluid loss
 MSS .           FLOWLINE:   Source of sample
 RMS .OHMM            .90:   Rm
 MST .F                60:   Rm Meas. temp.
 RMF .OHMM            .53:   Rmf
 MFST.F                60:   Rmf Meas. temp.
 RMC .OHMM           1.47:   Rmc
 MCST.F                60:   Rmc Meas. temp.
 MFSS.               MEAS:   Source Rmf.
 MCSS.               MEAS:   Source Rmc.
 RMB .OHMM            .46:   Rm. at BHT
 BHT .F               116:   BHT.
 TCS .HRS               8:   Time Circ. stopped
 MRT .F               116:   Maximum recorded temp.
 LUN .               8611:   Logging unit number
 LUL .             CASPER:   Logging unit location
 ENGI.            C. DOAK:   Recorded By
 WITN.         D. RHOADES:   Witnessed by
 ORIG.           5" PRINT:   Origin of data
 UWI .     49025103780000:   Unique Well ID
 DICO. A2D TECHNOLOGIES, INC.:   Digitizing Company
~OTHER INFORMATION
~A   DEPT       CALD       GRD      RHOB       CORR        SPR       GURD        ILD        ILM   
# ...
 1739.0000     9.3756   103.8325     2.5107    -0.0049   -55.1165    11.1413     6.9741     8.0802
 1739.5000     9.3757   103.8335     2.5087    -0.0049   -55.1173    11.2442     6.9741     8.1549
 1740.0000     9.4152   105.4137     2.5126    -0.0049   -55.1182    11.0395     6.9741     8.1549
 1740.5000     9.4152   105.8096     2.5107    -0.0049   -55.1191    11.0395     6.9741     8.1549
 1741.0000     9.4152   106.2054     2.5067    -0.0088   -55.1200    11.2442     7.1036     8.2303
 1741.5000     9.4153   105.4168     2.5186    -0.0088   -54.9231    11.3479     7.1036     8.5389
 1742.0000     9.4153   105.8127     2.5306    -0.0088   -54.9240    11.7727     7.1036     8.6974
 1742.5000     9.4153   105.8137     2.5365    -0.0009   -54.9249    12.4398     7.2356     8.7778
 1743.0000     9.4154   102.2614     2.5346    -0.0028   -54.9258    12.5546     7.2356     8.8590
 1743.5000     9.3957   102.2625     2.5286    -0.0048   -54.9267    12.3260     7.3024     8.8590
 1744.0000     9.4549   103.8427     2.5256    -0.0048   -55.1252    12.1016     7.3699     8.8590
 1744.5000     9.4155   106.6076     2.5206    -0.0048   -55.1261    11.7727     7.4381     8.6178
 1745.0000     9.4155   107.3983     2.5147    -0.0048   -55.1270    11.6650     7.2356     8.3832
 1745.5000     9.3958   107.3993     2.5077    -0.0167   -55.1279    11.1413     7.1693     8.0802
 1746.0000     9.3958   107.0055     2.5037    -0.0167   -55.1288    10.9385     7.1036     7.9046
 1746.5000     9.3761   106.6117     2.4987    -0.0187   -54.9320    11.2442     7.0386     7.9046
 1747.0000     9.3959   105.4283     2.4968    -0.0187   -54.9329    11.2442     6.8469     7.7882
 1747.5000     9.3959   105.8241     2.4908    -0.0187   -54.9338    10.7394     6.7221     7.9329
 1748.0000     9.3762   106.2200     2.4858    -0.0227   -54.9347    10.8385     6.8469     7.9329
 1748.5000     9.3763   107.4057     2.4858    -0.0227   -55.1332    11.1413     6.7842     7.9329
 1749.0000     9.3960   107.4067     2.4908    -0.0286   -55.1341    10.9385     6.7221     7.9329
 1749.5000     9.3961   107.8026     2.5047    -0.0226   -55.1349    11.3479     6.7842     7.9329
 1750.0000     9.3961   107.8037     2.5177    -0.0147   -56.1241    11.8813     6.9102     7.9329
 1750.5000     9.4159   108.9894     2.5207    -0.0167   -55.1367    11.1413     7.0382     7.8602
 1751.0000     9.4357   108.2007     2.5276    -0.0127   -55.1376    10.7394     7.2348     7.6462
 1751.5000     9.4752   106.2274     2.5346    -0.0127   -54.9408    10.8385     7.2348     7.7882
 1752.0000     9.4950   106.2284     2.5376    -0.0027   -55.5347    10.9385     7.2348     7.9329
 1752.5000     9.5345   105.8346     2.5426    -0.0067   -54.9428    12.1016     7.2348     7.9329
 1753.0000     9.5345   106.2305     2.5406    -0.0087   -54.9436    11.9910     7.1687     8.0062
 1753.5000     9.5148   107.0213     2.5406    -0.0106   -54.9445    11.8813     7.1687     8.0062
 1754.0000     9.4754   108.6020     2.5336    -0.0106   -54.9454    12.3260     7.1687     8.1549
 1754.5000     9.5149   108.2082     2.5306    -0.0126   -54.9463    12.5546     7.1687     8.2303
 1755.0000     9.4952   109.3940     2.5227    -0.0126   -54.9472    12.3260     7.1031     8.2303
 1755.5000     9.5149   109.3950     2.5147    -0.0126   -55.1457    12.1016     7.1031     8.2303
 1756.0000     9.5545   110.5808     2.5107    -0.0106   -55.1466    11.3479     7.0382     8.1549
 1756.5000     9.4755   109.0023     2.5058    -0.0106   -55.1474    10.3519     6.9100     7.9329
 1757.0000     9.4163   109.3983     2.5078    -0.0066   -55.1483    10.0705     6.8469     7.9329
 1757.5000     9.4164   110.5841     2.5157    -0.0066   -54.9516    10.8385     6.7843     7.9329
 1758.0000     9.4164   109.7953     2.5247    -0.0066   -55.1501    11.2442     6.6607     8.1549
 1758.5000     9.4757   109.7964     2.5237    -0.0066   -55.1509    11.0395     6.5998     8.0062
 1759.0000     9.4559   109.4026     2.5207    -0.0086   -54.9543    11.3479     6.5998     7.8602
 1759.5000     9.3967   109.7986     2.5197    -0.0086   -54.9551    11.2442     6.5395     7.7169
 1760.0000     9.3770   111.3795     2.5157    -0.0145   -54.9560    10.9385     6.5395     7.5068
 1760.5000     9.3376   112.1702     2.5137    -0.0145   -54.9569    10.2573     6.5395     7.3024
 1761.0000     9.3376   113.7512     2.5147    -0.0145   -55.1553    10.0705     6.4204     7.1036
 1761.5000     9.3179   114.1472     2.5187    -0.0145   -55.1562    10.0705     6.2459     7.1036
 1762.0000     9.3377   114.9383     2.5197    -0.0165   -55.1571    10.0705     6.2459     7.1693
 1762.5000     9.4167   113.7545     2.5257    -0.0165   -55.1579     9.9784     6.1888     7.2356
 1763.0000     9.4562   112.9657     2.5257    -0.0125   -55.1588    10.1635     6.1888     7.6462
 1763.5000     9.6340   113.7568     2.5227    -0.0165   -55.1597    10.2573     6.1888     7.7882
 1764.0000     9.7130   114.5479     2.5177    -0.0165   -55.1606    10.2573     6.1888     7.5068
 1764.5000     9.4761   115.7339     2.5128    -0.0224   -54.9639    10.0705     6.1888     7.3024
 1765.0000     9.4169   118.1050     2.5098    -0.0304   -55.1623     9.9784     6.1888     7.1693
 1765.5000     9.3774   119.2911     2.5118    -0.0284   -55.1633    10.0705     6.1888     7.1036
 1766.0000     9.3972   119.2923     2.5158    -0.0244   -55.3616    10.3519     6.1322     7.1036
 1766.5000     9.3972   118.5035     2.5287    -0.0144   -55.3625     9.9784     6.1322     7.1036
 1767.0000     9.4170   117.7146     2.5377    -0.0065   -55.1659    10.0705     6.1322     7.1036
 1767.5000     9.4170   117.7158     2.5496    -0.0045   -55.1668     9.9784     6.1322     7.1036
 1768.0000     9.4171   115.7426     2.5496    -0.0045   -55.1676     9.9784     6.3617     7.3024
 1768.5000     9.4763   114.9530     2.5447    -0.0025   -55.1685    10.1635     6.3617     7.3699
 1769.0000     9.4764   113.3741     2.5397    -0.0044   -55.1694    10.2573     6.4204     7.5068
 1769.5000     9.4764   112.5852     2.5307    -0.0044   -54.9728    10.4475     6.4797     7.7882
 1770.0000     9.4567   112.9813     2.5108    -0.0044   -54.9737    10.7394     6.6607     7.7169
 1770.5000     9.4370   114.5625     2.5088    -0.0044   -55.3695    10.9385     6.5995     7.7169
 1771.0000     9.4173   115.7487     2.5158    -0.0044   -55.3703    11.1413     6.6605     7.7882
 1771.5000     9.4568   117.7251     2.5218    -0.0024   -55.3712    11.3479     6.7842     7.9329
 1772.0000     9.4568   118.5163     2.5258    -0.0004   -55.3721    11.3479     6.8469     8.0062
 1772.5000     9.4371   120.0977     2.5277    -0.0004   -55.1755    11.3479     6.8469     8.0802
 1773.0000     9.4371   121.2840     2.5297     0.0016   -54.9789    11.2442     6.8469     8.0802
 1773.5000     9.4372   121.2852     2.5327    -0.0004   -54.9798    11.1413     6.8469     8.0802
 1774.0000     9.4570   120.1012     2.5387    -0.0004   -55.1781    11.2442     6.8469     8.0802
 1774.5000     9.4372   119.7073     2.5427     0.0016   -54.9816    11.0395     6.8469     8.0062
 1775.0000     9.4570   119.7085     2.5337     0.0016   -55.1799    10.9385     6.8469     7.9329
 1775.5000     9.4571   120.4998     2.5278    -0.0024   -55.1808    10.7394     6.7843     7.8602
 1776.0000     9.4373   120.1059     2.5238    -0.0023   -55.1817    10.8385     6.7843     7.7882
 1776.5000     9.4176   119.7121     2.5178    -0.0043   -55.1826    10.9385     6.7843     7.7169
 1777.0000     9.4572   118.9231     2.5168    -0.0043   -55.1834    10.8385     6.7843     7.6462
 1777.5000     9.3979   118.9242     2.5168    -0.0043   -55.1843    10.9385     6.7843     7.5068
 1778.0000     9.3980   118.1352     2.5148    -0.0143   -54.9878    10.8385     6.7843     7.4381
 1778.5000     9.3980   118.1364     2.5079    -0.0043   -54.9887    10.8385     6.7843     7.6462
 1779.0000     9.4178   118.9278     2.5009    -0.0103   -54.9895    10.7394     6.7843     8.0062
