~VERSION INFORMATION
 VERS.                2.0:   CWLS LOG ASCII STANDARD - VERSION 2.0
 WRAP.                 NO:   ONE LINE PER DEPTH STEP
~WELL INFORMATION
#MNEM.UNIT      DATA TYPE    INFORMATION
#----------   ------------   ------------------------------
 STRT.F           31.5000:   START DEPTH
 STOP.F         3370.0000:   STOP DEPTH
 STEP.F            0.5000:   STEP LENGTH
 NULL.          -999.2500:   NO VALUE
 COMP. LAWRENCE ALLISON & ASSOC - WEST:   COMPANY
 WELL. LAWRENCE "AX" #46-34:   WELL
 FLD .             NPR #3:   FIELD
 LOC .      S34 T39N R78W:   LOCATION
 CNTY.            NATRONA:   COUNTY
 STAT.            WYOMING:   STATE
 CTRY. UNITED STATES OF AMERICA:   COUNTRY
 SRVC.       SCHLUMBERGER:   SERVICE COMPANY
 DATE.        30-APR-1986:   LOGDATE
 API .     49025111380000:   API NUMBER
~CURVE INFORMATION
#MNEM.UNIT       API CODE    CURVE DESCRIPTION
#----------   ------------   ------------------------------
 DEPT.F                  :   
 TENR.LBS    07 635 01 00:   TENSION FROM RESISTIVITY
 GRR .GAPI   07 310 01 00:   GAMMA RAY FROM RESISTIVITY
 CALR.IN     07 280 01 00:   CALIPER FROM RESISTIVITY
 SPR .MV     07 010 01 00:   SPONTANEOUS POTENTIAL
 TEND.LBS    45 635 01 00:   TENSION FROM DENSITY LOG
 DEN .G/C3   45 350 01 00:   BULK DENSITY
 CORR.G/C3   45 356 01 00:   DENSITY CORRECTION
 CNC .DEC    42 890 03 00:   NEUTRON PORISITY SANDSTONE
 RFOC.OHMM   07 220 04 00:   RESISTIVITY FOCUSED LOG
 RILD.OHMM   07 120 46 00:   RESISTIVITY INDUCTION LOG DEEP
 RILM.OHMM   07 120 44 00:   RESISTIVITY INDUCTION LOG MEDIUM
~PARAMETER INFORMATION
#MNEM.UNIT          VALUE    DESCRIPTION
#----------   ------------   ------------------------------
 EKB .F         5094.0000:   Kelly bushing
 EGL .F         5082.0000:   Ground level
 EDF .F            0.0000:   Drilling floor
 TD  .F         3370.0000:   Total depth
 DATE.        30-APR-1986:   Date logged
 CLNT.            A2DTECH:   Client Code
 SL  . 2462' FWL & 1545' FSL:   Surface Location
 PD  .                 GL:   Permanent Datum
 EPD .F              5082:   Elevation Permanent Datum
 LMF .                 KB:   Log Measured From
 DMF .                 KB:   Drilling Measured From
 DAPD.F                12:   Feet Above Permanent Datum
 DD  .F              3370:   Depth driller
 DL  .F              3369:   Depth logger
 BLI .F              3367:   Bottom log interval
 CS1 .IN            8.625:   Casing size
 CBD1.      8.625" @ 642':   Casing driller 1
 CBL1.F               642:   Casing logger 1
 BS1 .IN            7.875:   Bit size
 BSD1.F              3370:   Depth drilled with bit1
 DFT .        POLYMER/KCL:   Type fluid in hole
 DFD .                8.9:   Density
 DFV .                 36:   Viscosity
 DFPH.                8.5:   pH
 DFL .               10.2:   Fluid loss
 MSS .           FLOWLINE:   Source of sample
 RMS .OHMM           .319:   Rm
 MST .F                79:   Rm Meas. temp.
 RMF .OHMM            .24:   Rmf
 MFST.F                79:   Rmf Meas. temp.
 RMC .OHMM            .40:   Rmc
 MCST.F                79:   Rmc Meas. temp.
 MFSS.               CALC:   Source Rmf.
 MCSS.               CALC:   Source Rmc.
 RMB .OHMM            .21:   Rm. at BHT
 BHT .F               117:   BHT.
 TCS .HRS               4:   Time Circ. stopped
 MRT .F               117:   Maximum recorded temp.
 LUN .            HL-6264:   Logging unit number
 LUL .           GILLETTE:   Logging unit location
 ENGI.     P. M. FAHLSING:   Recorded By
 WITN.             STRONG:   Witnessed by
 ORIG.        2" 5" PRINT:   Origin of data
 UWI .     49025111380000:   Unique Well ID
 DICO. A2D TECHNOLOGIES, INC.:   Digitizing Company
 TLI .                  0:   Top log interval
~OTHER INFORMATION
~A   DEPT     TENR        GRR       CALR        SPR       TEND        DEN       CORR        CNC       RFOC       RILD       RILM   
# ...
 2776.5000   -24.3230    92.6990    10.0280   -65.2370   -53.6250     2.4500     0.0870     0.1850    10.5180    13.9850    12.4760
 2777.0000   -24.3230    85.4780    10.0240   -64.7990   -53.6250     2.4470     0.0810     0.1650    11.2740    16.0940    13.6260
 2777.5000   -24.3230    78.8050    10.0190   -64.3690   -53.6250     2.4710     0.0660     0.1440    16.0580    16.4270    13.2070
 2778.0000   -24.3230    71.6510    10.0150   -63.9270   -53.6250     2.5130     0.0480     0.1290    22.5700    16.8080    12.7270
 2778.5000   -24.3230    64.8780    10.0110   -63.4980   -53.6250     2.5600     0.0400     0.1310    29.0820    17.1900    12.2480
 2779.0000   -24.3230    63.1740    10.0060   -63.0570   -53.6250     2.5800     0.0450     0.1410    32.8010    17.5710    11.7680
 2779.5000   -14.2930    65.6870    10.0020   -62.6250   -58.7410     2.5610     0.0550     0.1580    25.3070    17.8170    11.2890
 2780.0000   -17.3020    68.2250     9.9970   -62.1900   -65.5760     2.5110     0.0640     0.1830    13.1310    16.5390    10.8100
 2780.5000   -21.2290    69.7470     9.9930   -61.6980   -72.4100     2.4560     0.0740     0.2090    12.4340    15.4360    10.3300
 2781.0000   -25.1560    70.6680     9.9880   -61.7050   -73.7660     2.4360     0.0760     0.2180    11.9710    14.3340     9.8580
 2781.5000   -29.0830    73.7560     9.9840   -62.2360   -73.7660     2.4210     0.0670     0.2280    11.7750    13.2310     9.8580
 2782.0000   -33.0110    76.7410     9.9790   -62.6680   -73.7660     2.4130     0.0370     0.2280    11.5810    12.1290     9.8580
 2782.5000   -34.3530    79.5640     9.9740   -63.0760   -54.8080     2.4070     0.0120     0.2240    11.3880    11.7520     9.8580
 2783.0000   -38.9540    82.6130     9.9700   -63.5080   -59.2650     2.4100     0.0080     0.2200    11.4580    11.7520     9.8580
 2783.5000   -45.7610    82.9490     9.9710   -63.9190   -63.7220     2.4140     0.0170     0.2150    11.7360    11.7750     9.9190
 2784.0000   -54.4130    83.4390     9.9730   -64.3030   -68.1790     2.4140     0.0380     0.2110    12.0140    11.8080    10.0420
 2784.5000   -54.4130    83.7710     9.9740   -64.5480   -72.6370     2.4130     0.0500     0.2080    12.3080    11.8410    10.1640
 2785.0000   -54.4130    82.0920     9.9760   -64.7600   -77.0940     2.4140     0.0340     0.2070    12.2830    11.8740    10.2860
 2785.5000   -52.3760    80.5090     9.9770   -64.9690   -81.5510     2.4170     0.0280     0.2060    12.2490    11.9070    10.4090
 2786.0000   -50.6160    79.2070     9.9780   -65.1810   -86.0090     2.4210     0.0340     0.2060    12.2150    11.9410    10.5310
 2786.5000   -48.8550    77.5480     9.9800   -65.3880   -90.4660     2.4240     0.0380     0.2090    12.1950    11.9740    10.6530
 2787.0000   -47.0950    76.7150     9.9810   -65.5030   -93.9070     2.4180     0.0090     0.2150    12.0820    12.0070    10.7760
 2787.5000   -45.3340    77.4750     9.9820   -65.5600   -93.9070     2.4110    -0.0060     0.2200    12.1830    12.0400    10.8980
 2788.0000   -44.3830    78.4770     9.9840   -65.6610   -93.9070     2.4030    -0.0120     0.2150    12.4120    12.0730    11.0210
 2788.5000   -44.3830    79.0350     9.9850   -65.8940   -75.5660     2.4050     0.0130     0.2060    12.6400    12.1060    11.1430
 2789.0000   -48.3060    79.8920     9.9860   -66.2740   -81.9740     2.4150     0.0380     0.2080    12.8900    12.1390    11.2650
 2789.5000   -53.9790    81.7190     9.9880   -66.7490   -88.3810     2.4320     0.0470     0.2110    12.8900    12.1730    11.2110
 2790.0000   -59.6510    83.5980     9.9890   -67.2550   -94.7890     2.4480     0.0520     0.2160    13.3220    12.1140    10.9880
 2790.5000   -65.3240    85.2330     9.9900   -67.7260  -101.1960     2.4650     0.0460     0.2110    14.0090    11.8740    10.7650
 2791.0000   -70.9960    87.0530     9.9920   -68.2340  -107.6030     2.4820     0.0410     0.2030    13.8720    11.6340    10.5420
 2791.5000   -74.4730    88.7380     9.9940   -68.6900  -114.0480     2.4910     0.0350     0.2010    13.7520    11.3940    10.3190
 2792.0000   -74.4730    90.5250     9.9970   -68.9090   -99.4890     2.4870     0.0290     0.2120    13.3250    11.1540    10.2220
 2792.5000   -74.4730    91.7720     9.9990   -69.0640   -93.9070     2.4840     0.0350     0.2220    12.8950    11.0150    10.2010
 2793.0000   -74.4730    91.2710    10.0020   -69.2160   -93.9070     2.4880     0.0520     0.2320    12.6540    10.9880    10.1810
 2793.5000   -74.4730    90.9470    10.0040   -69.3450   -93.9070     2.4920     0.0690     0.2320    12.4220    10.9670    10.1610
 2794.0000   -74.4730    92.8960    10.0070   -69.4900   -93.9070     2.4910     0.0810     0.2190    12.4220    10.9450    10.1400
 2794.5000   -74.4730    92.8650    10.0100   -69.6250  -101.5110     2.4820     0.0730     0.2070    12.4220    10.9230    10.1200
 2795.0000   -74.4730    90.2910    10.0090   -69.7640  -114.0480     2.4820     0.0670     0.1990    12.7780    10.9010    10.1000
 2795.5000   -74.4730    89.1380    10.0080   -69.9040  -114.0480     2.4850     0.0600     0.2010    13.1010    10.8790    10.0790
 2796.0000   -74.4730    89.5410    10.0080   -70.0390  -114.0480     2.4880     0.0300     0.2040    13.4240    10.8570    10.0590
 2796.5000   -74.4730    89.8190    10.0070   -70.0860  -114.0480     2.4900     0.0210     0.2040    13.7470    10.8350     9.9500
 2797.0000   -72.2670    85.8870    10.0060   -70.0380  -107.0110     2.4900     0.0320     0.2040    14.0090    10.8130     9.8580
 2797.5000   -69.4310    83.4940    10.0050   -70.0020   -97.9650     2.4910     0.0440     0.2050    13.0740    10.6150     9.7750
 2798.0000   -66.5940    86.6800    10.0040   -69.9530   -88.9190     2.4910     0.0510     0.2090    12.2880    10.5150     9.6780
 2798.5000   -64.4430    87.4120    10.0030   -69.9180   -84.3730     2.4920     0.0360     0.2140    11.5370    10.3930     9.7930
 2799.0000   -64.4430    85.9990    10.0020   -69.8970   -85.5980     2.4890     0.0410     0.2200    12.1400    10.2700     9.9500
 2799.5000   -64.4430    85.0680    10.0010   -69.7170   -86.8230     2.4830     0.0520     0.2220    12.7170    10.2810     9.8320
 2800.0000   -64.4430    85.5140    10.0010   -69.4340   -88.0470     2.4830     0.0630     0.2190    12.7860    10.3590     9.6950
 2800.5000   -64.4430    87.6900    10.0000   -69.1640   -89.2720     2.4870     0.0750     0.2180    12.3300    10.4360     9.5590
 2801.0000   -64.4430    88.6240     9.9990   -68.8810   -90.4970     2.4880     0.0760     0.2190    11.7520    10.5130     9.4130
 2801.5000   -64.4430    87.7040     9.9980   -68.6100   -91.7210     2.4750     0.0490     0.2180    11.7520    10.5900     9.6290
 2802.0000   -64.4430    86.8760     9.9970   -68.3280   -92.9460     2.4630     0.0500     0.2150    11.9400    10.6670     9.8610
 2802.5000   -64.4430    86.7970     9.9960   -68.0560   -93.9070     2.4610     0.0540     0.2130    12.1390    10.7440    10.0930
 2803.0000   -64.4430    84.8430     9.9950   -67.7770   -93.9070     2.4590     0.0570     0.2130    12.3380    10.8210    10.3250
 2803.5000   -64.4430    81.5170     9.9940   -67.4990   -93.9070     2.4520     0.0570     0.2210    12.5370    10.9140    10.2820
 2804.0000   -64.4430    78.3550     9.9930   -67.5050   -93.9070     2.4440     0.0430     0.2260    12.7360    10.7170    10.0480
 2804.5000   -64.4430    76.7560     9.9930   -67.8910   -93.9070     2.4390     0.0440     0.2190    12.8900    10.4720     9.8140
 2805.0000   -64.4430    79.1760     9.9920   -68.5130   -93.9070     2.4480     0.0480     0.2130    13.0100    10.2260     9.5890
 2805.5000   -64.4430    82.2220     9.9910   -69.2120   -93.1970     2.4600     0.0330     0.2130    12.6140    10.0420     9.1610
 2806.0000   -64.4430    84.4900     9.9900   -69.9540   -91.9080     2.4730     0.0180     0.2170    12.0820     9.5030     8.7490
 2806.5000   -64.4430    87.6410     9.9910   -70.6090   -90.6190     2.4800     0.0040     0.2200    11.9760     9.0720     8.3370
