~VERSION INFORMATION
 VERS.                2.0:   CWLS LOG ASCII STANDARD - VERSION 2.0
 WRAP.                 NO:   ONE LINE PER DEPTH STEP
~WELL INFORMATION
#MNEM.UNIT      DATA TYPE    INFORMATION
#----------   ------------   ------------------------------
 STRT.F            0.0000:   START DEPTH
 STOP.F         3964.0000:   STOP DEPTH
 STEP.F            0.5000:   STEP LENGTH
 NULL.          -999.2500:   NO VALUE
 COMP. LAWRENCE ALLISON & ASSOCIATES:   COMPANY
 WELL. LAWRENCE NPR 3 "X" #43-10:   WELL
 FLD .              N P R:   FIELD
 LOC .      S10 T38N R78W:   LOCATION
 CNTY.            NATRONA:   COUNTY
 STAT.            WYOMING:   STATE
 CTRY. UNITED STATES OF AMERICA:   COUNTRY
 SRVC.      DRESSER ATLAS:   SERVICE COMPANY
 DATE.        07-AUG-1985:   LOGDATE
 API .     49025111390000:   API NUMBER
~CURVE INFORMATION
#MNEM.UNIT       API CODE    CURVE DESCRIPTION
#----------   ------------   ------------------------------
 DEPT.F                  :   
 CNC .DEC    42 890 03 00:   NEUTRON PORISITY SANDSTONE
 RHOB.G/C3   45 350 01 00:   BULK DENSITY
 CORR.G/C3   45 356 01 00:   DENSITY CORRECTION
 TEND.LBS    45 635 01 00:   TENSION FROM DENSITY LOG
 GRR .GAPI   07 310 01 00:   GAMMA RAY FROM RESISTIVITY
 CALR.IN     07 280 01 00:   CALIPER FROM RESISTIVITY
 SPR .MV     07 010 01 00:   SPONTANEOUS POTENTIAL
 TENR.LBS    07 635 01 00:   TENSION FROM RESISTIVITY
 RILD.OHMM   07 120 46 00:   DEEP INDUCTION RESISTIVITY
 RILM.OHMM   07 120 44 00:   INDUCTION LOG MEDIUM RESISTIVITY
 RFOC.OHMM   07 220 04 00:   RESISTIVITY FOCUSED LOG RES.
 DT  .US/F   60 520 00 00:   DELTA TIME
 TENS.LBS    60 635 01 00:   TENSION FROM SONIC
~PARAMETER INFORMATION
#MNEM.UNIT          VALUE    DESCRIPTION
#----------   ------------   ------------------------------
 EKB .F         5223.0000:   Kelly bushing
 EGL .F         5211.0000:   Ground level
 EDF .F            0.0000:   Drilling floor
 EPD .F         5211.0000:   Permanent datum
 TD  .F         3950.0000:   Total depth
 DATE.        07-AUG-1985:   Date logged
 CLNT.            A2DTECH:   Client Code
 SL  . 2016' FNL & 2230' FWL:   Surface Location
 PD  .                 GL:   Permanent Datum
 DD  .F              3950:   Depth driller
 DL  .F              3950:   Depth logger
 BLI .F              3948:   Bottom log interval
 CS1 .IN            8.625:   Casing size
 CBD1.      8.625" @ 518':   Casing driller 1
 CBL1.F               520:   Casing logger 1
 BS1 .IN            7.875:   Bit size
 DFT .            KCL-GEL:   Type fluid in hole
 DFD .                8.9:   Density
 DFV .                 40:   Viscosity
 DFPH.                  9:   pH
 DFL .                 12:   Fluid loss
 MSS .           FLOWLINE:   Source of sample
 RMS .OHMM           .318:   Rm
 MST .F                82:   Rm Meas. temp.
 RMF .OHMM            .24:   Rmf
 MFST.F                82:   Rmf Meas. temp.
 RMC .OHMM            .40:   Rmc
 MCST.F                82:   Rmc Meas. temp.
 MFSS.               CALC:   Source Rmf.
 RMB .OHMM            .19:   Rm. at BHT
 BHT .F               140:   BHT.
 TCS .HRS               4:   Time Circ. stopped
 MRT .F               140:   Maximum recorded temp.
 LUN .               6264:   Logging unit number
 LUL .               GLTE:   Logging unit location
 ENGI.           FAHLSING:   Recorded By
 WITN.             STRONG:   Witnessed by
 ORIG.           5" PRINT:   Origin of data
 UWI .     49025111390000:   Unique Well ID
 DICO. A2D TECHNOLOGIES, INC.:   Digitizing Company
 DAPD.                 12:   Feet Above Permanent Datum
 BSD1.               3950:   Depth drilled with bit1
 MCSS.               CALC:   Source Rmc.
~OTHER INFORMATION
~A    DEPT     CNC       RHOB       CORR       TEND         GRR      CALR        SPR       TENR       RILD       RILM       RFOC         DT       TENS   
# ...
 3484.0000     0.2720     2.2390     0.1790   -34.6130   182.2150     8.2170   -68.0140   -41.7660     5.5540     6.8070     4.4430    84.4380   -82.8220
 3484.5000     0.2470     2.2920     0.0730   -38.5610   155.7980     8.2110   -68.4220   -40.4570     5.9680     8.6770     3.6600    90.5980   -82.5840
 3485.0000     0.2200     2.3520     0.0140   -42.5080   128.9580     8.2030   -68.7920   -39.1480     6.3830    10.2980     4.5590    90.5980   -82.3470
 3485.5000     0.2200     2.4640     0.0240   -46.4550   107.1340     8.1710   -69.4740   -37.8390     6.7590    10.9390    11.2170    86.2720   -82.1090
 3486.0000     0.2310     2.5170     0.0720   -50.4030    96.7000     8.1390   -70.1530   -36.5300     7.3390    11.1450    17.0860    82.4960   -81.8710
 3486.5000     0.2410     2.5440     0.0760   -54.3500    95.6300     8.1250   -70.8560   -35.2210     8.2200    11.2860    19.3690    78.7200   -81.6340
 3487.0000     0.2480     2.5410     0.0550   -56.1630    97.0710     8.1150   -71.2620   -33.9120     9.1890    11.2860    17.9520    77.0390   -81.3960
 3487.5000     0.2550     2.4950     0.0310   -56.1630   104.9600     8.1060   -71.5960   -32.6030    10.1590    11.2650    16.6080    77.1390   -81.1580
 3488.0000     0.2540     2.4400     0.0340   -56.1630   117.7560     8.0960   -71.9340   -31.2940    10.7810    11.1280    14.1140    78.3920   -80.9210
 3488.5000     0.2520     2.4220     0.0350   -56.1630   130.2090     8.1150   -72.3510   -29.9850    10.6230    10.9910    11.2440    81.3720   -80.6830
 3489.0000     0.2500     2.4230     0.0310   -56.1630   130.4530     8.1530   -72.2370   -28.6760    10.4630    10.8610     9.3970    84.3510   -80.4450
 3489.5000     0.2630     2.4260     0.0270   -56.1630   121.9810     8.1920   -72.2070   -27.3670    10.3040    10.7620     9.6950    87.4080   -80.2070
 3490.0000     0.2590     2.4300     0.0290   -56.1630   114.6580     8.2290   -71.9990   -26.8630    10.1450    10.6630    11.1580    87.7070   -79.9700
 3490.5000     0.2520     2.4290     0.0430   -56.1630   108.8880     8.2460   -71.7510   -29.2630     9.9850    10.5630    12.3710    86.7780   -79.7320
 3491.0000     0.2550     2.4280     0.0580   -56.1630   109.1000     8.2640   -71.4950   -31.6620     9.7950    10.3990    13.4350    85.9120   -79.4940
 3491.5000     0.2640     2.4240     0.0770   -56.1630   116.6320     8.2830   -71.2050   -34.0620     9.5860    10.0320    13.8040    85.6130   -79.2570
 3492.0000     0.2720     2.4150     0.0970   -55.1970   127.9420     8.3030   -70.7370   -36.4620     9.3780     9.8370    12.3320    85.9590   -79.0190
 3492.5000     0.2650     2.4080     0.1090   -50.4350   139.4210     8.2940   -70.2720   -38.8620     9.3120    10.0930    10.7740    87.6640   -78.7810
 3493.0000     0.2530     2.4120     0.1090   -45.6740   144.3830     8.2730   -69.9360   -41.2620    10.0020    10.9870     9.7170    89.3690   -78.5440
 3493.5000     0.2400     2.4210     0.0940   -40.9120   139.7660     8.2520   -69.5740   -43.6620    10.8800    11.8800     8.9770    90.8970   -78.3060
 3494.0000     0.2270     2.4330     0.0640   -36.2820   129.3330     8.2310   -69.2140   -46.0620     9.6470    12.5960     8.9770    90.8970   -78.0680
 3494.5000     0.2650     2.4470     0.0510   -36.2820   116.0500     8.2250   -68.8550   -48.4620     8.5430    12.5960    13.3600    87.7010   -77.8310
 3495.0000     0.2610     2.4550     0.0400   -36.2820   109.4890     8.2200   -68.5000   -50.8610     7.2440    10.2510    18.6680    84.5920   -77.5930
 3495.5000     0.2680     2.4370     0.0370   -36.2820   111.8460     8.2140   -68.2850   -53.2610     5.8800     7.8110    23.2610    81.4830   -77.3550
 3496.0000     0.2900     2.4150     0.0760   -36.2820   123.9810     8.2160   -68.4030   -55.6610     4.5470     5.1560    21.0770    78.5340   -77.1180
 3496.5000     0.3120     2.3530     0.1020   -36.2820   155.4330     8.2490   -68.6770   -54.2110     3.2230     3.0030    14.4660    78.4350   -76.8800
 3497.0000     0.3340     2.3410     0.0750   -36.2820   186.3060     8.2830   -69.2180   -51.7420     2.7440     2.4370     7.4580    83.5660   -76.6420
 3497.5000     0.3600     2.3500     0.0380   -44.9300   205.1450     8.3160   -69.7560   -49.2740     2.4700     2.2330     3.5610    88.4550   -76.4050
 3498.0000     0.3430     2.3670     0.0430   -54.9300   221.2680     8.3280   -69.9620   -46.8050     2.2940     2.1320     2.6320    93.4700   -76.1670
 3498.5000     0.2660     2.3800     0.0690   -64.9300   212.2460     8.3280   -70.1040   -44.3370     2.2940     2.2660     2.4020    99.5400   -75.9290
 3499.0000     0.2740     2.3940     0.0500   -57.2770   190.9700     8.3280   -70.2460   -41.8680     2.3250     2.4240     2.6540   100.2690   -75.6920
 3499.5000     0.2440     2.4120     0.0200   -47.2780   163.5060     8.3270   -70.3900   -39.4000     2.4810     2.9370     3.1320    97.0540   -75.4520
 3500.0000     0.2320     2.4280     0.0290   -36.2820   121.9820     8.3040   -70.4320   -36.9310     2.9170     4.3550     5.2090    92.8270   -75.2060
 3500.5000     0.2300     2.4310     0.0530   -38.5290   108.9210     8.2820   -70.4330   -34.4630     3.3090     5.7730    10.0580    88.6000   -74.9610
 3501.0000     0.2330     2.4280     0.0770   -41.0240   107.1110     8.2600   -70.4320   -31.9940     4.5380     7.1910    12.2550    85.4140   -74.7150
 3501.5000     0.2520     2.4230     0.0890   -43.5190   104.1170     8.2490   -70.3680   -29.5260     5.9790     8.4270    11.8910    85.5130   -74.4690
 3502.0000     0.2890     2.4180     0.0810   -46.2230   101.5500     8.2500   -70.1420   -27.0570     7.9380     9.2250    11.3680    86.2740   -74.2240
 3502.5000     0.2840     2.4140     0.0400   -46.2230   104.3910     8.2490   -69.9190   -24.5890     9.0140     9.4390    10.8450    87.1760   -73.9780
 3503.0000     0.2740     2.4090     0.0420   -46.2230   115.1920     8.2500   -69.6980   -22.1200     9.0590     9.5710    10.3020    88.0780   -73.7330
 3503.5000     0.2640     2.4110     0.0610   -46.2230   127.8520     8.2500   -69.4680   -19.6520     9.0070     9.4440     9.3100    88.9800   -73.4870
 3504.0000     0.2590     2.4190     0.0580   -46.2230   129.0520     8.2500   -68.5540   -17.1830     8.9590     9.3020     7.8520    89.9000   -73.2410
 3504.5000     0.2600     2.4220     0.0460   -46.2230   121.2290     8.2490   -68.3040   -18.0750     8.9100     9.1590     7.6830    90.1000   -72.9960
 3505.0000     0.2690     2.4190     0.0520   -44.4260   113.4120     8.2530   -68.5770   -20.5250     8.7480     8.7220     9.7350    89.6840   -72.7500
 3505.5000     0.2770     2.4170     0.0660   -42.5060   113.2920     8.2570   -68.8630   -22.9740     8.5320     8.2450    11.4940    89.2650   -72.5050
 3506.0000     0.2830     2.4140     0.0690   -40.5870   122.0300     8.2620   -69.2850   -25.4240     8.2730     7.7680    11.4940    89.0030   -72.2590
 3506.5000     0.2890     2.4190     0.0630   -38.6680   134.0340     8.2660   -69.8120   -27.8730     7.9670     7.3160    10.1110    89.1740   -72.0140
 3507.0000     0.2950     2.4260     0.0540   -36.7490   144.6210     8.2640   -69.4130   -30.3230     7.6830     6.8770     8.8950    89.4890   -71.7680
 3507.5000     0.2970     2.4320     0.0450   -36.9950   153.7480     8.2450   -69.0170   -32.7730     7.0010     6.4560     8.8950    89.5010   -71.5220
 3508.0000     0.2850     2.4240     0.0500   -37.9370   164.3260     8.2270   -68.6230   -35.2220     6.3650     6.0380     9.1430    89.1030   -71.2770
 3508.5000     0.2810     2.4060     0.0660   -38.8780   178.4970     8.2130   -68.2860   -37.6720     6.0400     5.7320     9.0590    86.3110   -71.0310
 3509.0000     0.2780     2.3880     0.0760   -39.8200   188.6010     8.2350   -68.4130   -40.1210     5.8910     5.6800     7.7950    86.8470   -70.7860
 3509.5000     0.2760     2.3760     0.0730   -40.7610   187.8040     8.2580   -68.5450   -42.5710     6.0090     6.3070     6.3000    87.4080   -70.5400
