~VERSION INFORMATION
 VERS.                2.0:   CWLS LOG ASCII STANDARD - VERSION 2.0
 WRAP.                 NO:   ONE LINE PER DEPTH STEP
~WELL INFORMATION
#MNEM.UNIT      DATA TYPE    INFORMATION
#----------   ------------   ------------------------------
 STRT.F          200.0000:   START DEPTH
 STOP.F         3209.0000:   STOP DEPTH
 STEP.F            0.5000:   STEP LENGTH
 NULL.          -999.2500:   NO VALUE
 COMP.    FENIX & SCISSON:   COMPANY
 WELL. FENIX & SCISSON "AX" #88-3:   WELL
 FLD .             NPR #3:   FIELD
 LOC .       S3 T38N R78W:   LOCATION
 CNTY.            NATRONA:   COUNTY
 STAT.            WYOMING:   STATE
 CTRY. UNITED STATES OF AMERICA:   COUNTRY
 SRVC.              WELEX:   SERVICE COMPANY
 DATE.        27-JUL-1977:   LOGDATE
 API .     49025104060000:   API NUMBER
~CURVE INFORMATION
#MNEM.UNIT       API CODE    CURVE DESCRIPTION
#----------   ------------   ------------------------------
 DEPT.F                  :   
 CALD.IN     45 280 60 00:   CALIPER FROM DENSITY LOG
 GRD .GAPI   45 310 01 00:   GAMMA RAY FROM DENSITY LOG
 RHOB.G/C3   45 350 01 00:   BULK DENSITY
 CORR.G/C3   45 356 01 00:   DENSITY CORRECTION
 NPHI.DEC    42 890 03 00:   NEUTRON POROSITY SANDSTONE
 SPR .MV     07 010 01 00:   SPONTANEOUS POTENTIAL
 SGRD.OHMM   07 220 05 00:   GUARD LOG RESISTIVITY
 FORX.OHMM   07 000 00 00:   
~PARAMETER INFORMATION
#MNEM.UNIT          VALUE    DESCRIPTION
#----------   ------------   ------------------------------
 EKB .F         5134.0000:   Kelly bushing
 EGL .F         5124.0000:   Ground level
 EDF .F            0.0000:   Drilling floor
 TD  .F         3211.0000:   Total depth
 CLNT.            A2DTECH:   Client Code
 SL  . 230' FSL & 380' FEL:   Surface Location
 PD  .                 GL:   Permanent Datum
 EPD .F              5124:   Elevation Permanent Datum
 LMF .                 KB:   Log Measured From
 DMF .                 KB:   Drilling Measured From
 DAPD.F                10:   Feet Above Permanent Datum
 DATE.        27-JUL-1977:   Date Logged [DD-MMM-YYYY]
 DD  .F              3200:   Depth driller
 DL  .F              3211:   Depth logger
 BLI .F              3210:   Bottom log interval
 TLI .F               200:   Top log interval
 CS1 .IN            8.625:   Casing size
 CBD1.      8.625" @ 218':   Casing driller 1
 CBL1.F               218:   Casing logger 1
 BS1 .IN            7.875:   Bit size
 BSD1.F              3200:   Depth drilled with bit1
 DFT .            KCL MUD:   Type fluid in hole
 DFD .                9.2:   Density
 DFV .                 36:   Viscosity
 DFPH.                9.5:   pH
 DFL .                9.6:   Fluid loss
 MSS .           FLOWLINE:   Source of sample
 RMS .OHMM           0.61:   Rm
 MST .F                85:   Rm Meas. temp.
 RMF .OHMM           0.53:   Rmf
 MFST.F                85:   Rmf Meas. temp.
 MFSS.               FANN:   Source Rmf.
 RMC .OHMM           0.48:   Rmc
 MCST.F                85:   Rmc Meas. temp.
 MCSS.                KIT:   Source Rmc.
 RMB .OHMM           0.42:   Rm. at BHT
 BHT .F               122:   BHT.
 TCS .HRS             2.5:   Time Circ. stopped
 MRT .F               122:   Maximum recorded temp.
 LUN .               8611:   Logging unit number
 LUL .             CASPER:   Logging unit location
 ENGI.            C. DOAK:   Recorded By
 WITN.      E. HARRINGTON:   Witnessed by
 ORIG.      2.5" 5" PRINT:   Origin of data
 UWI .     49025104060000:   Unique Well ID
 DICO. A2D TECHNOLOGIES, INC.:   Digitizing Company
~OTHER INFORMATION
~A   DEPT       CALD       GRD        RHOB      CORR        NPHI       SPR      SGRD         FORX 
# ...
 3156.5000     7.8844   238.0479     2.5403     0.0737     0.2321   -73.7533     4.6873     7.3105
 3157.0000     7.8574   266.7943     2.5457     0.0732     0.2202   -73.8094     5.3675     7.7255
 3157.5000     7.8082   295.5408     2.5473     0.0726     0.2164   -73.8655     6.0029     8.2765
 3158.0000     7.7341   257.9224     2.5474     0.0729     0.1998   -73.9214     6.8268    11.1895
 3158.5000     7.6642   174.3049     2.5467     0.0731     0.1844   -73.9776     7.4796    11.2508
 3159.0000     7.6195   160.9924     2.5469     0.0733     0.1758   -74.0333     7.9138    10.1768
 3159.5000     7.5965   156.8787     2.5470     0.0735     0.1685   -74.0892     7.9937     8.8793
 3160.0000     7.6048   151.5781     2.5471     0.0737     0.1621   -74.1461     7.8113     9.1300
 3160.5000     7.6196   133.5179     2.5464     0.0717     0.1592   -74.1997     7.6455    10.3316
 3161.0000     7.6522   126.4368     2.5466     0.0681     0.1603   -74.2588     7.4950    10.3365
 3161.5000     7.6642   122.0264     2.5444     0.0624     0.1631   -74.3208     7.2916     8.7639
 3162.0000     7.6790   118.8029     2.5415     0.0596     0.1656   -74.5110     6.9425     8.6599
 3162.5000     7.6790   118.5211     2.5369     0.0568     0.1680   -74.7039     6.6810     9.4893
 3163.0000     7.6790   121.8566     2.5307     0.0540     0.1703   -74.9026     6.5928    10.2152
 3163.5000     7.6642   125.7565     2.5235     0.0527     0.1739   -75.0979     6.5063     8.5649
 3164.0000     7.6048   127.3311     2.5174     0.0559     0.1762   -75.2936     6.3340     7.4637
 3164.5000     7.5673   128.5118     2.5122     0.0591     0.1786   -75.4912     6.3370     8.4957
 3165.0000     7.5453   129.2758     2.5213     0.0630     0.1691   -75.6856     6.6057     9.5535
 3165.5000     7.5453   130.8681     2.5407     0.0651     0.1661   -75.8786     6.8857    10.5233
 3166.0000     7.5453   132.8112     2.5549     0.0687     0.1662   -76.0043     6.9839     8.7195
 3166.5000     7.5602   135.7960     2.5642     0.0704     0.1669   -76.1285     6.8922     8.5131
 3167.0000     7.5611   140.4726     2.5666     0.0737     0.1697   -76.2498     6.7066     9.3060
 3167.5000     7.5750   146.1643     2.5494     0.0771     0.1730   -76.3728     6.4168     9.8461
 3168.0000     7.5899   151.6449     2.5367     0.0816     0.1754   -76.4953     5.9373     6.4395
 3168.5000     7.6048   157.6202     2.5281     0.0833     0.1788   -76.6175     6.3179     4.3265
 3169.0000     7.6048   160.6812     2.5215     0.0834     0.1879   -76.7404     6.7614     4.7099
 3169.5000     7.6196   162.1543     2.5126     0.0821     0.1944   -76.8623     6.9116     4.5226
 3170.0000     7.6196   162.0706     2.5060     0.0764     0.2021   -76.9847     6.3185     4.3424
 3170.5000     7.6345   161.0570     2.4994     0.0717     0.2115   -77.1094     6.0882     4.2857
 3171.0000     7.6413   159.6139     2.4935     0.0674     0.2369   -77.2262     5.9230     4.1720
 3171.5000     7.6493   158.4676     2.4908     0.0665     0.2735   -77.3567     5.7623     3.8979
 3172.0000     7.6642   157.9148     2.4877     0.0683     0.3340   -77.4718     5.4237     3.2641
 3172.5000     7.6642   158.2521     2.4856     0.0738     0.3428   -77.7624     5.1297     3.1343
 3173.0000     7.6642   160.6667     2.4829     0.0791     0.3428   -78.0056     5.0624     3.0096
 3173.5000     7.6642   164.5648     2.4813     0.0839     0.3428   -78.2656     5.1351     2.8899
 3174.0000     7.6790   169.3533     2.4796     0.0855     0.3477   -78.5172     5.1375     2.9717
 3174.5000     7.6790   175.4421     2.4764     0.0887     0.3560   -78.7696     5.4291     3.0554
 3175.0000     7.6790   182.8409     2.4748     0.0919     0.3679   -79.0272     5.4317     2.8908
 3175.5000     7.6642   192.0372     2.4718     0.0936     0.3729   -79.2730     5.3604     2.8514
 3176.0000     7.6642   200.1561     2.4670     0.0938     0.3780   -79.5346     5.0082     2.8064
 3176.5000     7.6493   203.6912     2.4629     0.0941     0.3738   -79.7950     4.7436     2.5770
 3177.0000     7.6493   214.4143     2.4560     0.0938     0.3669   -79.9663     4.5549     2.3565
 3177.5000     7.6493   229.2917     2.4456     0.0915     0.3545   -80.9735     4.1408     1.9952
 3178.0000     7.6493   242.6855     2.4248     0.0887     0.3438   -82.7851     4.1450     1.6646
 3178.5000     7.6493   256.6727     2.4085     0.0845     0.3403   -84.6206     4.4994     1.8447
 3179.0000     7.6493   290.8380     2.3995     0.0813     0.3403   -86.9751     4.4272     2.2457
 3179.5000     7.6493   327.3771     2.3898     0.0773     0.3391   -87.4926     4.2548     2.2457
 3180.0000     7.6493   360.9193     2.4073     0.0776     0.3382  -100.0221     4.1283     2.1383
 3180.5000     7.6493   395.4273     2.4239     0.0808     0.3343  -999.2500     3.8397     2.0522
 3181.0000     7.6345   388.6367     2.4360     0.0825     0.3535  -999.2500     3.5323     1.9144
 3181.5000     7.6196   347.7278     2.4465     0.0827     0.3655  -999.2500     3.3390     1.8142
 3182.0000     7.6196   274.4747     2.4534     0.0874     0.3891  -999.2500     3.6650     1.8297
 3182.5000     7.6048   214.8714     2.4654     0.0891     0.3995  -999.2500     3.7076     2.7223
 3183.0000     7.6048   199.7292     2.4812     0.0926     0.4252  -999.2500     3.6776     3.5324
 3183.5000     7.6048   156.3510     2.4993     0.0940     0.4549  -999.2500    43.9820     9.4747
 3184.0000     7.5899   119.3206     2.5144     0.0942     0.3478  -999.2500    76.9164    17.5428
 3184.5000     7.5602    88.3748     2.5309     0.0914  -999.2500  -999.2500    31.5990    25.1382
 3185.0000     7.5453    78.2826     2.5423     0.0885  -999.2500  -999.2500    13.5325    21.4910
 3185.5000     7.4859    76.2461     2.5334     0.0842  -999.2500  -999.2500    13.0092    15.1196
 3186.0000     7.4710    81.0345     2.5171     0.0783  -999.2500  -999.2500    14.8823     7.3171
 3186.5000     7.4589    86.7132     2.5134     0.0758  -999.2500  -999.2500    10.3066     6.9300
 3187.0000     7.4346    92.3918     2.5352     0.0776  -999.2500  -999.2500    50.0077     8.5139
 3187.5000     7.4264    96.6124     2.5488     0.0822  -999.2500  -999.2500    37.9696    10.0382
 3188.0000     7.4116    99.7510     2.5579     0.0839  -999.2500  -999.2500    12.4345     8.1791
 3188.5000     7.3819   102.0092     2.5598     0.0842  -999.2500  -999.2500    16.2206     7.5970
 3189.0000     7.3670    95.2351     2.5383     0.0798  -999.2500  -999.2500    24.4668     8.1868
 3189.5000     7.3522    83.7030     2.5148     0.0741  -999.2500  -999.2500     9.2471     7.6489
 3190.0000     7.3356    40.0259     2.5037     0.0683  -999.2500  -999.2500     4.4029     6.8589
 3190.5000     7.3183     0.4396     2.4932     0.0670  -999.2500  -999.2500     4.0793     7.3481
 3191.0000     7.3014  -999.2500     2.4875     0.0687  -999.2500  -999.2500     4.0921     8.0907
 3191.5000     7.2927  -999.2500     2.5041     0.0749  -999.2500  -999.2500     4.2379     7.4564
 3192.0000     7.2779  -999.2500     2.5244     0.0796  -999.2500  -999.2500     4.7907     9.7422
 3192.5000     7.2630  -999.2500     2.5365     0.0813  -999.2500  -999.2500     5.9958    14.0068
 3193.0000     7.2481  -999.2500     2.5463     0.0815  -999.2500  -999.2500     5.2197    10.4972
 3193.5000  -999.2500  -999.2500  -999.2500  -999.2500  -999.2500  -999.2500     4.8214     8.7641
 3194.0000  -999.2500  -999.2500  -999.2500  -999.2500  -999.2500  -999.2500     4.8543     8.3387
 3194.5000  -999.2500  -999.2500  -999.2500  -999.2500  -999.2500  -999.2500     5.5570     8.7820
 3195.0000  -999.2500  -999.2500  -999.2500  -999.2500  -999.2500  -999.2500     6.6241    10.6668
 3195.5000  -999.2500  -999.2500  -999.2500  -999.2500  -999.2500  -999.2500     5.9319    11.2841
 3196.0000  -999.2500  -999.2500  -999.2500  -999.2500  -999.2500  -999.2500     5.5422     9.3210
 3196.5000  -999.2500  -999.2500  -999.2500  -999.2500  -999.2500  -999.2500     5.4690    11.4567
