~VERSION INFORMATION
 VERS.                2.0:   CWLS LOG ASCII STANDARD - VERSION 2.0
 WRAP.                 NO:   ONE LINE PER DEPTH STEP
~WELL INFORMATION
#MNEM.UNIT      DATA TYPE    INFORMATION
#----------   ------------   ------------------------------
 STRT.F          494.0000:   START DEPTH
 STOP.F         4999.5000:   STOP DEPTH
 STEP.F            0.5000:   STEP LENGTH
 NULL.          -999.2500:   NO VALUE
 COMP.    FENIX & SCISSON:   COMPANY
 WELL.  FENIX "LX" #26-23:   WELL
 FLD . MPR #3 (TEAPOT DOME):   FIELD
 LOC .      S23 T38N R78W:   LOCATION
 CNTY.            NATRONA:   COUNTY
 STAT.            WYOMING:   STATE
 CTRY. UNITED STATES OF AMERICA:   COUNTRY
 SRVC.       SCHLUMBERGER:   SERVICE COMPANY
 DATE.        11-AUG-1978:   LOGDATE
 API .     49025107340000:   API NUMBER
~CURVE INFORMATION
#MNEM.UNIT       API CODE    CURVE DESCRIPTION
#----------   ------------   ------------------------------
 DEPT.F                  :   
 NPHI.DEC    42 890 03 00:   NEUTRON POROSITY SANDSTONE
 TEND.LBS    45 635 01 00:   TENSION FORM DENSITY LOG
 GRD .GAPI   45 310 01 00:   GAMMA RAY FROM DENSITY LOG
 CALD.IN     45 280 60 00:   CALIPER FROM DENSITY LOG
 DRHO.G/C3   45 356 01 00:   DENSITY CORRECTION
 RHOB.G/C3   45 350 01 00:   BULK DENSITY
 SPR .MV     07 010 01 00:   SPONTANEOUS POTENTIAL
 TENR.LBS    07 635 01 00:   TENSION FROM RESISTIVITY LOG
 ILD .OHMM   07 120 46 00:   INDUCTION LOG DEEP RESISTIVITY
 ILM .OHMM   07 120 44 00:   INDUCTION LOG MEDIUM RESISTIVITY
 SFL .OHMM   07 220 01 00:   SPHERICALLY FOCUSED LOG RESISITIVITY
~PARAMETER INFORMATION
#MNEM.UNIT          VALUE    DESCRIPTION
#----------   ------------   ------------------------------
 EKB .F         5335.0000:   Kelly bushing
 EGL .F         5325.0000:   Ground level
 EDF .F            0.0000:   Drilling floor
 EPD .F         5325.0000:   Permanent datum
 TD  .F         5000.0000:   Total depth
 CLNT.            A2DTECH:   Client Code
 SL  . 1600' FSL & 903' FWL:   Surface Location
 PD  .                 GL:   Permanent Datum
 LMF .                 KB:   Log Measured From
 DMF .                 KB:   Drilling Measured From
 DAPD.F                10:   Feet Above Permanent Datum
 DATE.        11-AUG-1978:   Date Logged [DD-MMM-YYYY]
 DD  .F              5000:   Depth driller
 DL  .F              4998:   Depth logger
 BLI .F              4992:   Bottom log interval
 TLI .F               525:   Top log interval
 CS1 .IN            9.625:   Casing size
 CBD1.      9.625" @ 521':   Casing driller 1
 CBL1.F               521:   Casing logger 1
 BS1 .IN             8.75:   Bit size
 BSD1.F              5000:   Depth drilled with bit1
 DFD .                9.1:   Density
 MSS .            MUD PIT:   Source of sample
 RMS .OHMM          0.897:   Rm
 MST .F                64:   Rm Meas. temp.
 RMF .OHMM          0.821:   Rmf
 MFST.F                64:   Rmf Meas. temp.
 MFSS.               MEAS:   Source Rmf.
 BHT .F               135:   BHT.
 TCS .HRS              03:   00:   Time Circ. stopped
 TLAB.HRS              09:   00:   Time logger at bottom
 MRT .F               135:   Maximum recorded temp.
 LUL .               CSPR:   Logging unit location
 ENGI.              CRAIG:   Recorded By
 ORIG.           5" PRINT:   Origin of data
 UWI .     49025107340000:   Unique Well ID
 DICO. A2D TECHNOLOGIES, INC.:   Digitizing Company
 DFV .                 40:   Viscosity
 DFPH.                 12:   pH
 DFL .                  4:   Fluid loss
~OTHER INFORMATION
~A  DEPTH     NPHI       TEND        GRD       CALD       DRHO       RHOB        SPR       TENR        ILD        ILM        SFL
# ...
 3483.0000     0.2458  2020.1448   116.3860    10.0947     0.0011     2.5192   -28.7177  1673.7620     5.5522     5.6202     5.7410
 3483.5000     0.2485  2004.9624   117.8983    10.0646    -0.0011     2.5156   -29.1469  1674.8564     5.6654     5.7379     5.7803
 3484.0000     0.2648  1989.7504   117.9389    10.0496    -0.0019     2.5186   -29.9106  1660.0092     5.9877     5.9812     5.9055
 3484.5000     0.2705  1989.6084   110.8768    10.0044     0.0031     2.5200   -30.0956  1661.1033     6.4614     6.3765     6.2805
 3485.0000     0.2581  1989.4736    90.2570     9.8894     0.0162     2.5125   -30.8396  1662.1978     7.0699     7.1116     6.8251
 3485.5000     0.2187  1974.2858    73.7242     9.7381     0.0245     2.4860   -31.5319  1663.0735     8.1764     7.8901     8.0053
 3486.0000     0.1774  1974.1354    50.5749     9.6018     0.0320     2.4628   -32.2407  1663.9489     9.0713     8.9378    12.0191
 3486.5000     0.1690  1973.9680    55.3955     9.5565     0.0388     2.4613   -32.9787  1664.8242    10.0640    10.2300    15.2615
 3487.0000     0.1714  1973.8260    61.4213     9.5415     0.0426     2.4703   -33.1821  1665.9187    11.1654    11.6289    15.1535
 3487.5000     0.1789  1973.6842    64.4373     9.5417     0.0433     2.4770   -33.4938  1666.7944    12.5747    12.6366    14.8393
 3488.0000     0.1873  1973.5068    65.6489     9.5570     0.0350     2.4808   -33.7786  1667.6698    13.3670    13.1724    14.4231
 3488.5000     0.1943  1973.3834    66.8605     9.5571     0.0221     2.4762   -34.2903  1668.5452    13.6468    13.2630    14.0336
 3489.0000     0.1979  1973.2231    70.5599     9.5573     0.0114     2.4657   -34.2685  1669.6396    13.3644    13.1703    14.4268
 3489.5000     0.2006  1973.0813    81.6166     9.5574     0.0061     2.4521   -33.9011  1670.5154    12.9977    12.8985    14.8315
 3490.0000     0.2027  1972.9039    83.4297     9.5576     0.0099     2.4423   -33.5310  1671.3907    12.5535    12.6322    14.7063
 3490.5000     0.2003  1972.7621    81.3330     9.5653     0.0174     2.4416   -33.4943  1672.2661    12.4656    12.5442    13.6418
 3491.0000     0.1943  1972.6316    69.9130     9.5730     0.0220     2.4423   -33.5152  1673.3606    12.5509    12.6306    12.9033
 3491.5000     0.1777  1972.4784    65.6822     9.5732     0.0164     2.4423   -33.3076  1674.2363    12.6373    12.9846    12.9016
 3492.0000     0.1461  1972.3010    68.1278     9.5733     0.0038     2.4498   -33.3037  1675.1117    12.6357    13.6291    13.5731
 3492.5000     0.1310  1972.1592    72.9484     9.5735    -0.0031     2.4909   -33.2645  1675.9871    12.6345    14.4068    19.0247
 3493.0000     0.1259  1972.0300    75.0622     9.5812    -0.0023     2.5243   -33.8520  1677.0815    12.5457    14.7068    24.4217
 3493.5000     0.1250  1971.8754    76.5746     9.5890     0.0082     2.5288   -34.7472  1677.9573    12.5444    14.3035    27.2868
 3494.0000     0.1605  1971.7218    74.0828     9.5891     0.0223     2.5220   -35.6008  1678.8326    12.2851    13.5312    23.7463
 3494.5000     0.1843  1971.5790    68.1728     9.6044     0.0294     2.4663   -36.2318  1684.8853    12.1990    12.8896    15.2273
 3495.0000     0.1958  1971.4285    67.2770     9.6197     0.0278     2.4331   -37.1454  1685.3265    11.9468    12.1934    12.6235
 3495.5000     0.1979  1971.2606    67.2877     9.6274     0.0271     2.4301   -37.2981  1685.7677    11.7810    11.9418    11.8575
 3496.0000     0.2006  1971.1278    67.5970     9.6352     0.0285     2.4331   -37.2110  1686.2087    11.9225    11.7766    11.8556
 3496.5000     0.2024  1970.9774    67.9839     9.6353     0.0315     2.4436   -36.6953  1702.1541    11.8389    11.6138    12.1443
 3497.0000     0.1991  1970.8114    68.8948     9.6203     0.0346     2.4519   -36.1309  1687.0913    11.7561    11.5326    12.3245
 3497.5000     0.1958  1970.6766    70.1055     9.6204     0.0353     2.4526   -35.5660  1687.6428    11.6739    11.5318    12.5710
 3498.0000     0.1934  1970.5264    71.6280     9.6054     0.0338     2.4323   -34.9961  1688.0840    11.4322    11.1593    12.3113
 3498.5000     0.1934  1970.3760    74.3289     9.6056     0.0139     2.4067   -34.4252  1688.5271    11.2693    10.7038    11.8087
 3499.0000     0.1934  1970.2256    78.5381     9.6058     0.0027     2.3961   -33.8842  1673.4625    10.9636    10.4105    11.2484
 3499.5000     0.1946  1970.0667    84.5464     9.6059    -0.0026     2.4056   -33.5518  1674.0142    10.8869    10.3384    10.7146
 3500.0000     0.2000  1969.9248    88.7556     9.6212    -0.0042     2.4239   -33.3737  1674.4552    10.9621    10.4830    10.5662
 3500.5000     0.2105  1969.7744    91.4656     9.6367     0.0004     2.4367   -33.1214  1674.8966    11.1924    10.7038    10.7132
 3501.0000     0.2130  1969.6241    81.8845     9.6066     0.0065     2.4465   -32.7782  1675.3489    11.4393    11.0820    10.9377
 3501.5000     0.2087  1969.4637    79.4970     9.5767     0.0124     2.4487   -32.1591  1675.8893    11.8307    11.3943    11.2445
 3502.0000     0.1949  1969.3219    79.5084     9.5770     0.0147     2.4450   -31.7753  1676.3304    12.0794    11.7153    11.4801
 3502.5000     0.1864  1969.1730    80.1222     9.5773     0.0025     2.4269   -31.1574  1676.7717    12.3329    12.0453    11.8021
 3503.0000     0.1919  1969.0027    77.7347     9.5776    -0.0058     2.4254   -30.4423  1677.2129    12.5048    12.2990    12.1333
 3503.5000     0.1928  1964.3387    73.8480     9.5779    -0.0058     2.4269   -30.2982  1662.2606    12.5039    12.3847    13.3696
 3504.0000     0.1636  1974.8213    70.5610     9.5933    -0.0028     2.4438   -30.1484  1662.7017    12.5903    12.4710    17.5210
 3504.5000     0.1404  1975.3975    75.9724     9.6088     0.0047     2.4886   -30.0816  1663.1431    12.5893    12.3847    19.1729
 3505.0000     0.1367  1975.9735    82.5804     9.6242     0.0123     2.5059   -30.3127  1663.5842    12.5012    12.2990    17.6403
 3505.5000     0.1488  1976.5496    89.1884     9.6397     0.0183     2.5111   -30.4513  1664.0310    12.5004    12.2990    14.3257
 3506.0000     0.1738  1977.1428    89.9431     9.6552     0.0108     2.5006   -31.0245  1664.5769    12.5089    12.3847    12.6436
 3506.5000     0.1925  1977.8456    86.1409     9.6706     0.0100     2.4913   -31.6016  1680.5221    12.4985    12.3847    12.6428
 3507.0000     0.1855  1978.3459    85.0245     9.6709     0.0153     2.4990   -32.1831  1696.4672    12.3252    12.3847    13.0096
 3507.5000     0.1825  1978.9474    89.5364     9.6864     0.0215     2.5096   -32.7671  1696.9086    12.2390    12.3847    13.3621
 3508.0000     0.1904  1979.5737    90.4444     9.6867     0.0281     2.5156   -33.3146  1697.3644    12.0692    12.2138    13.5481
 3508.5000     0.1931  1980.1503    86.8134     9.6718     0.0243     2.5011   -32.6432  1697.9012    11.9018    12.0453    13.6414
 3509.0000     0.1880  1980.7518    85.6723     9.6721     0.0152     2.4809   -31.8623  1698.3423    11.8184    11.7969    13.2671
 3509.5000     0.1852  1981.3534    88.9847     9.6724     0.0084     2.4756   -31.6990  1698.7837    11.7359    11.5537    12.6143
 3510.0000     0.1970  1982.0222    94.0935     9.6728     0.0016     2.4779   -31.6978  1699.2249    11.8170    11.4737    12.1215
 3510.5000     0.1955  1997.6359    95.3161     9.6730    -0.0007     2.4884   -31.6998  1699.7764    11.8160    11.5537    11.9537
 3511.0000     0.1943  2007.6514    95.6182     9.6733     0.0000     2.4974   -31.7006  1700.2175    11.7220    11.5537    12.0361
 3511.5000     0.1937  2028.8721    93.5306     9.6736     0.0015     2.5012   -31.7018  1700.6588    11.4903    11.7153    12.7219
 3512.0000     0.1931  2029.5831    90.2436     9.6816     0.0068     2.5019   -31.6954  1701.1000    11.3309    11.6342    13.4845
 3512.5000     0.1805  2045.1968    88.1559     9.6894     0.0098     2.4951   -31.3522  1701.5504    11.1737    11.4737    14.5117
 3513.0000     0.1711  2045.7142    90.5689     9.7048     0.0053     2.4740   -30.4292  1686.4785    10.9424    11.1593    14.0162
