~VERSION INFORMATION
 VERS.                2.0:   CWLS LOG ASCII STANDARD - VERSION 2.0
 WRAP.                 NO:   ONE LINE PER DEPTH STEP
~WELL INFORMATION
#MNEM.UNIT      DATA TYPE    INFORMATION
#----------   ------------   ------------------------------
 STRT.F            9.0000:   START DEPTH
 STOP.F         2876.0000:   STOP DEPTH
 STEP.F            0.5000:   STEP LENGTH
 NULL.          -999.2500:   NO VALUE
 COMP.    FENIX & SCISSON:   COMPANY
 WELL. FENIX & SCISSON "AX" #82-29:   WELL
 FLD .        TEAPOT DOME:   FIELD
 LOC .      S29 T39N R78W:   LOCATION
 CNTY.            NATRONA:   COUNTY
 STAT.            WYOMING:   STATE
 CTRY. UNITED STATES OF AMERICA:   COUNTRY
 SRVC.           BIRDWELL:   SERVICE COMPANY
 DATE.        12-JAN-1980:   LOGDATE
 API .     49025107980000:   API NUMBER
~CURVE INFORMATION
#MNEM.UNIT       API CODE    CURVE DESCRIPTION
#----------   ------------   ------------------------------
 DEPT.F                  :   
 GRD .GAPI   45 310 01 00:   GAMMA RAY FROM DENSITY LOG
 CALD.IN     45 280 60 00:   CALIPER FROM DENSITY LOG
 CORR.G/C3   45 356 01 00:   DENSITY CORRECTION
 RHOB.G/C3   45 350 01 00:   BULK DENSITY
 SPR .MV     07 010 01 00:   SPONTANEOUS POTENTIAL
 ILD .OHMM   07 120 46 00:   DEEP INDUCTION RESISTIVITY
 SN  .OHMM   07 220 01 00:   SHALLOW FOCUSED LOG RESISTIVITY
~PARAMETER INFORMATION
#MNEM.UNIT          VALUE    DESCRIPTION
#----------   ------------   ------------------------------
 EKB .F         4985.0000:   Kelly bushing
 EGL .F         4973.0000:   Ground level
 EDF .F         4982.0000:   Drilling floor
 TD  .F         2876.0000:   Total depth
 CLNT.            A2DTECH:   Client Code
 SL  . 1821' FEL & 414' FEL:   Surface Location
 DATE.        12-JAN-1980:   Date Logged [DD-MMM-YYYY]
 DD  .F              2870:   Depth driller
 DL  .F              2876:   Depth logger
 BLI .F              2876:   Bottom log interval
 TLI .F               320:   Top log interval
 CS1 .IN            8.625:   Casing size
 CBD1.      8.625" @ 280':   Casing driller 1
 CBL1.IN              320:   Casing logger 1
 BS1 .IN            7.875:   Bit size
 BSD1.F              2870:   Depth drilled with bit1
 DFT .            GEL MUD:   Type fluid in hole
 DFD .                8.7:   Density
 DFV .                 53:   Viscosity
 DFPH.               10.5:   pH
 DFL .               15.4:   Fluid loss
 MSS .            MUD PIT:   Source of sample
 RMS .OHMM            1.8:   Rm
 MST .F                50:   Rm Meas. temp.
 RMF .OHMM            1.4:   Rmf
 MFST.F                60:   Rmf Meas. temp.
 MFSS.               MEAS:   Source Rmf.
 RMC .OHMM            1.9:   Rmc
 MCST.F                60:   Rmc Meas. temp.
 MCSS.               MEAS:   Source Rmc.
 RMB .OHMM           0.65:   Rm. at BHT
 BHT .F               138:   BHT.
 TCS .HRS              11:   Time Circ. stopped
 MRT .F               138:   Maximum recorded temp.
 LUN .               3029:   Logging unit number
 LUL .             CASPEL:   Logging unit location
 ENGI.           T. VOLFF:   Recorded By
 WITN.          MR. AMEND:   Witnessed by
 ORIG.         2.5" PRINT:   Origin of data
 UWI .     49025107980000:   Unique Well ID
 DICO. A2D TECHNOLOGIES,INC.:   Digitizing Company
 PD  .                 GL:   Permanent Datum
 EPD .F              4973:   Elevation Permanent Datum
 LMF .                 DF:   Log Measured From
 DMF .                 KB:   Drilling Measured From
 DAPD.F                 9:   Feet Above Permanent Datum
~OTHER INFORMATION
~A    DEPT      GRD      CALD       CORR       RHOB        SPR        ILD         SN   
# ...
  646.0000   110.9542     8.1891     0.0157     2.5149   -16.1585     9.6847    11.5543
  646.5000   110.9527     8.1882     0.0187     2.5133   -14.9390     9.6843    11.5559
  647.0000   110.9512     8.1873     0.0215     2.5133   -16.5296     9.6840    11.5575
  647.5000   110.9497     8.1863     0.0324     2.5175   -17.8328     9.6836    11.3979
  648.0000   110.9483     8.1855     0.0417     2.5237   -16.8536     9.6833    11.2343
  648.5000   110.9468     8.1846     0.0459     2.5284   -15.5488     9.6829    11.0679
  649.0000   111.5532     8.1837     0.0458     2.5297   -16.1585     9.6826    10.9039
  649.5000   109.8082     8.1827     0.0458     2.5268   -17.3780     9.5474    10.7423
  650.0000   105.3699     8.1818     0.0457     2.5267   -17.9878     9.5471    10.4356
  650.5000   102.1261     8.1809     0.0426     2.5266   -17.6829     9.4139    10.3394
  651.0000   102.6930     8.1798     0.0426     2.5220   -16.4634     9.2825    10.2719
  651.5000   105.2862     8.1790     0.0394     2.5220   -15.8281     9.1530    10.1984
  652.0000   108.0954     8.1478     0.0300     2.5204   -15.8821     9.1527    10.0578
  652.5000   109.5592     8.1469     0.0180     2.5111   -17.1697     9.1523    10.0592
  653.0000   109.4134     8.1460     0.0149     2.5079   -18.4289     9.1520    10.0606
  653.5000   107.8918     8.1451     0.0118     2.5064   -19.6001     9.1517    10.0619
  654.0000   107.2824     8.1443     0.0148     2.5085   -19.9248     9.1514    10.0633
  654.5000   108.8007     8.1433     0.0178     2.5163   -19.0022     9.1511    10.0646
  655.0000   110.3190     8.1424     0.0177     2.5230   -17.3780     9.1507    10.0660
  655.5000   108.1899     8.1415     0.0176     2.5261   -17.6829     9.0230    10.0675
  656.0000   104.5410     8.1406     0.0175     2.5245   -17.6829     9.0227    10.0993
  656.5000   104.5299     8.1397     0.0175     2.5244   -17.3780     9.0224    10.2127
  657.0000   106.0761     8.1388     0.0205     2.5243   -17.0732     9.0220    10.2142
  657.5000   106.9682     8.1379     0.0265     2.5212   -16.1585     9.0217    10.2155
  658.0000   105.6576     8.1671     0.0265     2.5089   -16.7683     9.0214    10.3615
  658.5000   104.4681     8.1662     0.0264     2.5104   -16.7872     8.8955    10.3629
  659.0000   103.5360     8.1956     0.0263     2.5103   -15.2419     9.0208    10.3646
  659.5000   102.9079     8.1948     0.0171     2.5088   -14.3293     9.0205    10.3660
  660.0000   106.6562     8.1939     0.0140     2.5011   -15.0203     9.0202    10.3674
  660.5000   111.1910     8.1930     0.0109     2.4916   -16.2189     9.0199    10.3688
  661.0000   111.8207     8.1921     0.0109     2.4868   -17.1535     9.0196    10.5168
  661.5000   112.3009     8.1912     0.0177     2.4896   -17.8831     9.1466    10.5183
  662.0000   114.2490     8.1861     0.0319     2.5024   -18.7175     9.1462    10.5198
  662.5000   113.0317     8.1591     0.0412     2.4952   -18.4579     9.1997    10.5212
  663.0000   110.2947     8.1582     0.0455     2.4931   -17.0589     9.2747    10.5227
  663.5000   109.0774     8.1573     0.0593     2.4937   -17.3780     9.2744    10.5242
  664.0000   113.6352     8.1438     0.0844     2.5063   -18.2927     9.2740    10.5257
  664.5000   116.9772     8.1106     0.1110     2.5326   -18.9024     9.2737    10.5271
  665.0000   119.1085     8.0939     0.0957     2.5462   -18.5976     9.1443    10.5286
  665.5000   118.7449     8.0626     0.0438     2.5233   -17.3780     9.1440    10.3836
  666.0000   113.8906     8.0921     0.0285     2.5003   -17.3780     9.1437    10.3850
  666.5000   113.2625     8.1517     0.0254     2.5003   -17.0732     9.1434    10.3864
  667.0000   112.5541     8.2115     0.0406     2.5140   -17.0732     9.0158    10.3878
  667.5000   109.2935     8.2712     0.0649     2.5276   -17.0732     8.8900    10.3892
  668.0000   104.1520     8.3006     0.0585     2.5322   -17.3780     8.7659    10.2457
  668.5000   104.1678     8.3300     0.0492     2.5306   -17.3780     8.6435    10.2405
  669.0000   106.1825     8.3291     0.0429     2.5369   -17.3780     8.6432    10.1056
  669.5000   107.9305     8.3282     0.0396     2.5431   -17.3780     8.5952     9.9661
  670.0000   112.4009     8.3273     0.0333     2.5441   -17.3780     8.5223     9.9305
  670.5000   115.4390     8.3264     0.0269     2.5368   -17.2261     8.5220     9.8298
  671.0000   115.5857     8.3559     0.0157     2.5326   -16.5965     8.4030     9.8314
  671.5000   114.2202     8.3548     0.0111     2.5309   -16.1585     8.2858     9.8328
  672.0000   112.3951     8.3539     0.0111     2.5265   -16.0651     8.2855     9.7573
  672.5000   109.3541     8.3530     0.0155     2.5285   -17.3780     8.2852     9.8358
  673.0000   105.7032     8.3520     0.0155     2.5254   -17.0732     8.2849    10.1173
  673.5000   106.9987     8.3511     0.0124     2.5193   -15.8537     8.2847    10.1186
  674.0000   109.0841     8.3806     0.0062     2.5070   -15.8537     8.2844     9.9789
  674.5000   109.9561     8.4100     0.0123     2.4947   -15.2439     8.2841     9.7039
  675.0000   108.2064     8.4394     0.0152     2.4885   -16.5393     8.2838     9.5699
  675.5000   107.2176     8.4385     0.0274     2.4935   -18.3831     8.2835     9.4378
  676.0000   110.8996     8.4376     0.0304     2.5060   -19.5772     8.2832     9.3074
  676.5000   112.4742     8.4670     0.0242     2.5128   -19.8171     8.3270     9.4405
  677.0000   114.0507     8.4660     0.0145     2.5119   -18.6931     8.5182     9.5753
  677.5000   115.1494     8.4652     0.0081     2.4974   -17.3780     8.6381     9.7121
  678.0000   112.9845     8.4543     0.0057     2.4851   -17.3780     8.7597     9.7134
  678.5000   110.2475     8.4330     0.0067     2.4955   -17.3780     8.8830     9.8522
  679.0000   112.9816     8.4321     0.0129     2.5034   -17.0732     9.0081     9.8538
  679.5000   116.9315     8.4312     0.0161     2.5109   -16.7683     9.1350     9.9945
  680.0000   118.1459     8.3998     0.0254     2.5124   -16.4634     9.1347     9.9958
  680.5000   116.3206     8.3989     0.0298     2.5077   -16.1585     9.0072     9.9972
  681.0000   111.7599     8.3678     0.0389     2.5092   -16.1585     8.8807     9.9985
  681.5000   107.1203     8.3366     0.0419     2.5137   -16.4634     8.7576    10.1413
  682.0000   104.7314     8.3054     0.0388     2.5213   -17.3780     8.7754    10.1426
  682.5000   104.4606     8.2136     0.0326     2.5166   -18.2927     9.0060    10.1299
  683.0000   106.5704     8.1824     0.0295     2.5120   -18.5976     9.0421    10.0039
  683.5000   109.3794     8.1815     0.0234     2.5202   -18.5976     9.1325    10.0403
  684.0000   111.6898     8.1806     0.0141     2.5287   -18.5976     9.2611    10.3383
  684.5000   113.5251     8.1797     0.0110     2.5191   -18.5006     9.4574    10.6453
  685.0000   114.3262     8.2092     0.0140     2.5230   -17.8709     9.6582    10.9613
  685.5000   115.1170     8.2491     0.0159     2.5270   -17.9562     9.7941    11.1293
  686.0000   112.6562     8.2982     0.0231     2.5126   -19.0672     9.9321    11.5220
  686.5000   105.9678     8.3276     0.0139     2.5140   -19.9934    10.0719    11.6865
  687.0000   103.2308     8.3570     0.0308     2.5298   -19.8171    10.2138    11.8534
  687.5000   101.7096     8.3559     0.0426     2.5359   -18.5976    10.2135    12.0226
  688.0000   100.7962     8.3247     0.0440     2.5328   -18.2927    10.3573    12.1942
  688.5000   100.4908     8.3238     0.0265     2.5324   -18.9024    10.3652    12.1959
  689.0000   100.4893     8.3230     0.0227     2.5342   -19.5122    10.5028    12.1975
  689.5000   101.1307     8.3221     0.0165     2.5295   -19.8171    10.5315    12.2211
  690.0000   103.3437     8.3212     0.0134     2.5234   -19.5020    10.6503    12.3736
  690.5000   105.8484     8.3203     0.0164     2.5202   -18.5976    10.6499    12.5502
  691.0000   108.3532     8.3528     0.0224     2.5202   -18.2927    10.6495    12.3767
