~VERSION INFORMATION
 VERS.                2.0:   CWLS LOG ASCII STANDARD - VERSION 2.0
 WRAP.                 NO:   ONE LINE PER DEPTH STEP
~WELL INFORMATION
#MNEM.UNIT      DATA TYPE    INFORMATION
#----------   ------------   ------------------------------
 STRT.F           22.5000:   START DEPTH
 STOP.F         4120.0000:   STOP DEPTH
 STEP.F            0.5000:   STEP LENGTH
 NULL.          -999.2500:   NO VALUE
 COMP. LAWRENCE ALLISON & ASSOCIATES:   COMPANY
 WELL. LAWRENCE-ALLISON SHX #37-10:   WELL
 FLD .              N P R:   FIELD
 LOC .      S10 T38N R78W:   LOCATION
 CNTY.            NATRONA:   COUNTY
 STAT.            WYOMING:   STATE
 CTRY. UNITED STATES OF AMERICA:   COUNTRY
 SRVC.      DRESSER ATLAS:   SERVICE COMPANY
 DATE.        29-JUN-1983:   LOGDATE
 API .     49025107370001:   API NUMBER
~CURVE INFORMATION
#MNEM.UNIT       API CODE    CURVE DESCRIPTION
#----------   ------------   ------------------------------
 DEPT.F                  :   
 TEND.LBS    45 635 01 00:   TENSION FROM DENSITY LOG
 CORR.G/C3   45 356 01 00:   DENSITY CORRECTION
 NPHI.DEC    42 890 03 00:   NEUTRON POROSITY SANDSTONE
 CALD.IN     45 280 60 00:   CALIPER FROM DENSITY LOG
 GRR .GAPI   07 310 01 00:   GAMMA RAY FROM RESISTIVITY
 SPR .MV     07 010 01 00:   SPONTANEOUS POTENTIAL
 TENR.LBS    07 635 01 00:   TENSION FROM RESISTIVITY
 RILD.OHMM   07 120 46 00:   DEEP INDUCTION RESISTIVITY
 RILM.OHMM   07 120 44 00:   INDUCTION LOG MEDIUM RESISTIVITY
 RFOC.OHMM   07 220 04 00:   RESISTIVITY FOCUSED LOG RES.
 RHOB.G/C3   45 350 01 00:   BULK DENSITY
~PARAMETER INFORMATION
#MNEM.UNIT          VALUE    DESCRIPTION
#----------   ------------   ------------------------------
 EKB .F         5228.0000:   Kelly bushing
 EGL .F         5218.0000:   Ground level
 EDF .F            0.0000:   Drilling floor
 EPD .F         5218.0000:   Permanent datum
 TD  .F         4125.0000:   Total depth
 DATE.        29-JUN-1983:   Date logged
 CLNT.            A2DTECH:   Client Code
 SL  . 984' FWL & 1620' FEL:   Surface Location
 PD  .                 GL:   Permanent Datum
 DD  .F              4125:   Depth driller
 DL  .F              4107:   Depth logger
 BLI .F              4105:   Bottom log interval
 CS1 .IN              4.5:   Casing size
 CBD1.       4.5" @ 2213':   Casing driller 1
 CBL1.F              2213:   Casing logger 1
 BS1 .IN             6.25:   Bit size
 DFT .                KCL:   Type fluid in hole
 DFD .                8.8:   Density
 DFV .                 45:   Viscosity
 DFPH.                  9:   pH
 DFL .               10.8:   Fluid loss
 MSS .            MUDTANK:   Source of sample
 RMS .OHMM            .44:   Rm
 MST .F               108:   Rm Meas. temp.
 RMF .OHMM            .37:   Rmf
 MFST.F               108:   Rmf Meas. temp.
 RMC .OHMM            .55:   Rmc
 MCST.F               108:   Rmc Meas. temp.
 MFSS.               MEAS:   Source Rmf.
 RMB .OHMM            .36:   Rm. at BHT
 BHT .F               126:   BHT.
 TCS .HRS               2:   Time Circ. stopped
 MRT .F               126:   Maximum recorded temp.
 LUN .               6343:   Logging unit number
 LUL .                 FM:   Logging unit location
 ENGI.          I. GOVETT:   Recorded By
 WITN.          G. STRONG:   Witnessed by
 ORIG.     2.5", 5" PRINT:   Origin of data
 UWI .     49025107370001:   Unique Well ID
 DICO. A2D TECHNOLOGIES, INC.:   Digitizing Company
 DAPD.                 10:   Feet Above Permanent Datum
 BSD1.               4125:   Depth drilled with bit1
 MCSS.               CALC:   Source Rmc.
 TLI .               2213:   Top log interval
~OTHER INFORMATION
~A   DEPT     TEND       CORR       NPHI       CALD         GRR       SPR       TENR       RILD       RILM       RFOC       RHOB   
# ...
 3835.0000     9.9400     0.2800     0.2710     8.2740   109.2500   -27.7760     0.0000     3.5960     4.3960     6.2220     3.0600
 3835.5000     9.9400     0.2620     0.2620     8.1100    87.8430   -27.7160     0.0000     3.6010     3.9900     7.5540     3.0330
 3836.0000     9.9400     0.1830     0.2510     7.9460    74.8930   -27.6560     0.0000     3.6070     3.6780     8.8860     2.9390
 3836.5000     9.9400     0.0890     0.2410     7.8280    73.1990   -27.5960     0.0000     3.6120     3.4580    10.3520     2.7020
 3837.0000     9.9400     0.0660     0.2350     7.8810    93.1530   -27.5370     0.0000     3.6180     3.4540     7.6760     2.5180
 3837.5000     9.9400     0.1110     0.2490     7.9290   114.6440   -27.4770     0.0000     3.6230     3.4510     4.4770     2.2520
 3838.0000     9.9400     0.1000     0.2630     7.9820   134.2420   -27.4140     0.0000     3.5910     3.4470     4.1300     2.1820
 3838.5000     9.9400    -0.0110     0.2690     8.0360   141.1360   -27.3530     0.0000     3.5630     3.4430     3.6560     2.1400
 3839.0000     9.9400     0.0170     0.2630     8.0860   141.6240   -27.2890     0.0000     3.5340     3.4390     3.7140     2.1400
 3839.5000     9.9400     0.0390     0.2500     8.1220   138.2520   -27.2250     0.0000     3.5060     3.4350     3.8290     2.2340
 3840.0000     9.9400     0.0530     0.2380     8.0410   134.3010   -27.1610     0.0000     3.4920     3.4310     4.2930     2.3410
 3840.5000     9.9400     0.0610     0.2320     7.9730   130.3190   -27.0980     0.0000     3.4920     3.4280     4.9050     2.4710
 3841.0000     9.9400     0.0840     0.2560     7.8990   127.8230   -27.0290     0.0000     3.4920     3.3490     5.3340     2.5990
 3841.5000     9.9400     0.1180     0.2660     7.8190   130.5470   -26.7990     0.0000     3.4920     3.2770     5.3340     2.5970
 3842.0000     9.9400     0.1770     0.2630     7.7720   133.6120   -26.5510     0.0000     3.4920     3.2050     4.8220     2.5700
 3842.5000     9.9400     0.2860     0.2640     7.7840   136.7300   -26.3020     0.0000     3.4920     3.1550     4.2540     2.5360
 3843.0000     9.9400     0.3270     0.2680     7.8710   137.4350   -26.0500     0.0000     3.4920     3.2440     3.9840     2.5020
 3843.5000     9.9400     0.2640     0.2660     7.9520   135.8090   -26.0380     0.0000     3.4920     3.3240     3.8410     2.4680
 3844.0000     9.9400     0.2090     0.2670     8.0380   128.6090   -26.0390     0.0000     3.4920     3.3960     3.6560     2.4600
 3844.5000     9.9400     0.2370     0.2760     8.1180   116.8570   -26.0400     0.0000     3.4920     3.3670     3.9470     2.5030
 3845.0000     9.9400     0.3080     0.2850     8.2110   104.8510   -26.0390     0.0000     3.4280     3.3340     4.3630     2.5490
 3845.5000     9.9400     0.3420     0.2900     8.2100   105.1780   -26.0390     0.0000     3.4370     3.3040     4.8200     2.5730
 3846.0000     9.9400     0.3200     0.2920     8.1020   112.6140   -25.9630     0.0000     3.4550     3.2410     4.5080     2.4600
 3846.5000     9.9400     0.1860     0.2870     8.0020   120.2890   -25.8170     0.0000     3.4720     3.1850     4.0600     2.2420
 3847.0000     9.9400     0.1980     0.2810     7.9880   122.3090   -25.6710     0.0000     3.4900     3.1280     3.6560     2.2490
 3847.5000     9.9400     0.2780     0.2750     8.1890   124.1170   -25.5250     0.0000     3.5080     3.0710     3.4690     2.2580
 3848.0000     9.9400     0.3460     0.2730     8.3980   126.4430   -25.3780     0.0000     3.5240     3.0140     3.3650     2.2610
 3848.5000     9.9400     0.2930     0.2780     8.5910   130.4220   -25.2320     0.0000     3.1660     2.9580     3.6770     2.2340
 3849.0000     9.9400     0.1970     0.2850     8.8200   134.2990   -25.0900     0.0000     2.8410     2.6320     3.9160     2.1770
 3849.5000     9.9400     0.2140     0.2910     8.8320   138.1480   -24.9480     0.0000     2.5160     2.3360     4.0830     2.1820
 3850.0000     9.9400     0.2710     0.2980     8.7870   142.0150   -24.8060     0.0000     2.2230     2.0400     3.6780     2.1740
 3850.5000     9.9400     0.3180     0.3540     9.1100   142.8140   -24.6640     0.0000     2.2030     1.7180     3.2690     2.0000
 3851.0000     9.9400     0.3420     0.3820     9.9730   140.6690   -24.5210     0.0000     2.1750     1.7490     2.8600     2.0020
 3851.5000     9.9400     0.2410     0.3800    10.7840   131.8380   -24.3790     0.0000     2.1350     1.8720     2.4510     2.0000
 3852.0000     9.9400     0.1880     0.3750    11.5740   122.0440   -24.2370     0.0000     2.0960     1.9950     2.1830     2.0010
 3852.5000     9.9400     0.2210     0.3550    12.2380   112.2570   -24.0900     0.0000     2.0470     2.1180     2.4900     2.0000
 3853.0000     9.9400     0.2570     0.3410    12.6160   113.5440   -24.1180     0.0000     2.0810     2.2440     2.7590     2.0700
 3853.5000     9.9400     0.2960     0.3220    12.4970   116.6400   -24.1940     0.0000     2.1430     2.2880     3.0270     2.1070
 3854.0000     9.9400     0.3210     0.3020    12.3300   119.6700   -24.2710     0.0000     2.3250     2.3340     3.2440     2.1520
 3854.5000     9.9400     0.3180     0.3000    12.1630   122.3000   -24.3480     0.0000     2.5090     2.3800     3.1240     2.1400
 3855.0000     9.9400     0.3150     0.3110    12.2700   123.5820   -24.4250     0.0000     2.7990     2.4250     2.9980     2.1240
 3855.5000     9.9400     0.3090     0.3180    12.3910   124.8380   -24.5020     0.0000     2.7530     2.4610     3.0540     2.0940
 3856.0000     9.9400     0.2750     0.3280    12.5070   122.5480   -24.5790     0.0000     2.6460     2.3380     3.1650     2.0270
 3856.5000     9.9400     0.2450     0.3850    12.5830   120.1430   -24.6560     0.0000     2.5390     2.2390     3.3340     2.0000
 3857.0000     9.9400     0.2100     0.3940    12.9740   117.7880   -24.7330     0.0000     2.4510     2.1400     3.2470     2.0020
 3857.5000     9.9400     0.1730     0.3710    13.6180   115.1090   -24.8100     0.0000     2.4130     2.0400     3.0570     2.0020
 3858.0000     9.9400     0.0900     0.3660    14.2230   104.7570   -24.8870     0.0000     2.3740     1.9410     2.8680     2.0020
 3858.5000     9.9400     0.0690     0.3610    14.7560    94.4360   -24.9630     0.0000     2.3840     1.8320     2.6980     2.0020
 3859.0000     9.9400     0.0390     0.3360    14.7950    84.2160   -25.0400     0.0000     2.4080     1.9920     2.6980     2.0020
 3859.5000     9.9400     0.0500     0.2900    14.7660    79.2020   -25.1170     0.0000     2.4530     2.1680     2.6880     2.0020
 3860.0000     9.9400     0.1200     0.2970    14.4660    81.6580   -25.1940     0.0000     2.4990     2.3450     2.6730     2.0030
 3860.5000     9.9400     0.1850     0.3090    14.1780    87.9300   -25.2710     0.0000     2.5440     2.5290     2.8890     2.0030
 3861.0000     9.9400     0.2660     0.3140    13.9600    93.9650   -25.3480     0.0000     2.5900     2.8500     3.1780     2.0090
 3861.5000     9.9400     0.2410     0.3240    13.0830    99.9800   -25.4220     0.0000     3.1310     3.1860     3.5890     2.0320
 3862.0000     9.9400     0.2000     0.2730    11.7590   103.1600   -25.6380     0.0000     4.0630     4.0300     3.4530     2.1040
 3862.5000     9.9400     0.1470     0.2110    10.7770   102.0390   -25.8980     0.0000     4.9950     7.1020     3.2190     2.2850
 3863.0000     9.9400     0.1690     0.1600    10.4680   100.8830   -26.1600     0.0000     5.9270    10.1730     3.1260     2.4860
 3863.5000     9.9400     0.2570     0.1340    10.2130    99.5150   -26.4220     0.0000     7.8630    14.5560     6.6520     2.6350
 3864.0000     9.9400     0.3210     0.1310     9.5480    91.8920   -26.6830     0.0000    13.3280    15.6690    13.8830     2.7090
 3864.5000     9.9400     0.2320     0.1300     8.7340    70.8940   -26.9450     0.0000    18.7930    16.0850    21.1140     2.6650
 3865.0000     9.9400     0.1550     0.1330     7.8450    49.6680   -27.2060     0.0000    24.2570    16.4880    27.4050     2.6170
