~VERSION INFORMATION
 VERS.                2.0:   CWLS LOG ASCII STANDARD - VERSION 2.0
 WRAP.                 NO:   ONE LINE PER DEPTH STEP
~WELL INFORMATION
#MNEM.UNIT      DATA TYPE    INFORMATION
#----------   ------------   ------------------------------
 STRT.F           80.0000:   START DEPTH
 STOP.F         2730.0000:   STOP DEPTH
 STEP.F            0.5000:   STEP LENGTH
 NULL.          -999.2500:   NO VALUE
 COMP.          U.S. NAVY:   COMPANY
 WELL. US NPR 3 "AX" #57-20:   WELL
 FLD .             TEAPOT:   FIELD
 LOC .      S20 T39N R78W:   LOCATION
 CNTY.            NATRONA:   COUNTY
 STAT.            WYOMING:   STATE
 CTRY. UNITED STATES OF AMERICA:   COUNTRY
 SRVC.       SCHLUMBERGER:   SERVICE COMPANY
 DATE.        31-JUL-1964:   LOGDATE
 API .     49025066320000:   API NUMBER
~CURVE INFORMATION
#MNEM.UNIT       API CODE    CURVE DESCRIPTION
#----------   ------------   ------------------------------
 DEPT.F                  :   
 SPR .MV     01 010 01 00:   SPONTANEOUS POTENTIAL FROM RES.
 LN  .OHMM   01 060 39 00:   LONG NORMAL 39"
 ASN .OHMM   01 041 16 00:   AMPLIFIED SHORT NORMAL 16"
 LAT .OHMM   01 070 00 00:   LATERAL
 GRN .GAPI   35 310 30 00:   GAMMA RAY
 NEUT.NAPI   35 330 01 00:   NEUTRON
~PARAMETER INFORMATION
#MNEM.UNIT          VALUE    DESCRIPTION
#----------   ------------   ------------------------------
 EKB .F         5019.0000:   Kelly bushing
 EGL .F         5011.0000:   Ground level
 TD  .F         2696.0000:   Total depth
 DATE.        31-JUL-1964:   Date logged
 CLNT.            A2DTECH:   Client Code
 PD  .                 GL:   Permanent Datum
 EPD .F              5011:   Elevation Permanent Datum
 LMF .                 KB:   Log Measured From
 DMF .                 KB:   Drilling Measured From
 DAPD.F                 8:   Feet Above Permanent Datum
 DD  .F              2690:   Depth driller
 DL  .F              2696:   Depth logger
 BLI .F              2695:   Bottom log interval
 TLI .F                82:   Top log interval
 CS1 .IN            12.25:   Casing size
 CBD1.       12.25" @ 15':   Casing driller 1
 BS1 .IN               11:   Bit size
 BSD1.F              2690:   Depth drilled with bit1
 DFT .                GEL:   Type fluid in hole
 MSS .           FLOWLINE:   Source of sample
 RMS .OHMM           2.48:   Rm
 MST .F                83:   Rm Meas. temp.
 RMF .OHMM           1.87:   Rmf
 MFST.F                83:   Rmf Meas. temp.
 MFSS.                 FP:   Source Rmf.
 MCSS.                 FP:   Source Rmc.
 TCS .HRS               4:   Time Circ. stopped
 LUN .               3527:   Logging unit number
 LUL .               CSPR:   Logging unit location
 ENGI.            WINKLER:   Recorded By
 WITN.          GORGENSEN:   Witnessed by
 ORIG.         2.5" PRINT:   Origin of data
 UWI .     49025066320000:   Unique Well ID
 DICO.   A2D TECHNOLOGIES:   Digitizing Company
~OTHER INFORMATION
~A   DEPT      SPR         LN        ASN        LAT        GRN       NEUT   
# ...
 1172.0000   -40.2610     8.4280     8.5750    10.1940  -999.2500  -999.2500
 1172.5000   -40.2340     8.4660     8.5730    10.0450  -999.2500  -999.2500
 1173.0000   -40.2070     8.5060     8.5730     9.8460  -999.2500  -999.2500
 1173.5000   -40.1800     8.5450     8.5030     9.6490  -999.2500  -999.2500
 1174.0000   -40.1530     8.5840     8.4070     9.4540  -999.2500  -999.2500
 1174.5000   -40.1270     8.6240     8.3120     9.2560  -999.2500  -999.2500
 1175.0000   -40.1000     8.6620     8.2190     9.0610  -999.2500  -999.2500
 1175.5000   -40.0740     8.7010     8.1250     8.8620  -999.2500  -999.2500
 1176.0000   -40.0470     8.6740     8.1270     8.6690  -999.2500  -999.2500
 1176.5000   -40.0580     8.6180     8.1960     8.4720  -999.2500  -999.2500
 1177.0000   -40.0870     8.5650     8.2760     8.4120  -999.2500  -999.2500
 1177.5000   -40.1130     8.5120     8.2800     8.4220  -999.2500  -999.2500
 1178.0000   -40.1410     8.4580     8.2530     8.4090  -999.2500  -999.2500
 1178.5000   -40.1680     8.4040     8.2230     8.4940  -999.2500  -999.2500
 1179.0000   -40.1950     8.3510     8.2540     8.6310  -999.2500  -999.2500
 1179.5000   -40.2220     8.2980     8.3420     8.7500  -999.2500  -999.2500
 1180.0000   -40.2490     8.2420     8.3720     8.8740  -999.2500  -999.2500
 1180.5000   -40.2760     8.1940     8.6110     8.9960  -999.2500  -999.2500
 1181.0000   -40.3030     8.1280     8.7450     9.1200  -999.2500  -999.2500
 1181.5000   -40.3300     8.1980     8.7320     9.2420  -999.2500  -999.2500
 1182.0000   -40.3570     8.3450     8.6820     9.3630  -999.2500  -999.2500
 1182.5000   -40.3840     8.4680     8.5870     9.4150  -999.2500  -999.2500
 1183.0000   -40.4120     8.5580     8.5040     9.3370  -999.2500  -999.2500
 1183.5000   -40.4390     8.6250     8.4180     9.2150  -999.2500  -999.2500
 1184.0000   -40.4660     8.6900     8.3340     9.1050  -999.2500  -999.2500
 1184.5000   -40.4930     8.7560     8.2460     8.9920  -999.2500  -999.2500
 1185.0000   -40.5200     8.8220     8.2290     8.8790  -999.2500  -999.2500
 1185.5000   -40.5470     8.8860     8.2490     8.7690  -999.2500  -999.2500
 1186.0000   -40.5740     8.9380     8.2940     8.6560  -999.2500  -999.2500
 1186.5000   -40.6010     8.9830     8.3630     8.6070  -999.2500  -999.2500
 1187.0000   -40.6290     9.0260     8.4240     8.6600  -999.2500  -999.2500
 1187.5000   -40.6560     9.0700     8.4870     8.7450  -999.2500  -999.2500
 1188.0000   -40.6830     9.1140     8.5500     8.8220  -999.2500  -999.2500
 1188.5000   -40.7100     9.1560     8.5910     8.9010  -999.2500  -999.2500
 1189.0000   -40.7370     9.2030     8.6170     8.9790  -999.2500  -999.2500
 1189.5000   -40.7640     9.2390     8.6430     9.0580  -999.2500  -999.2500
 1190.0000   -40.7910     9.3010     8.6700     9.1370  -999.2500  -999.2500
 1190.5000   -40.8180     9.1870     8.6940     9.2150  -999.2500  -999.2500
 1191.0000   -40.8450     8.9410     8.7270     9.2960  -999.2500  -999.2500
 1191.5000   -40.8730     8.7240     8.7230     9.3680  -999.2500  -999.2500
 1192.0000   -40.9000     8.4980     8.8370     9.4780  -999.2500  -999.2500
 1192.5000   -40.9270     8.2700     9.0450     9.6120  -999.2500  -999.2500
 1193.0000   -40.9540     8.0540     9.2460     9.7510  -999.2500  -999.2500
 1193.5000   -40.9810     7.8100     9.3080     9.7730  -999.2500  -999.2500
 1194.0000   -41.0080     7.7710     9.2190     9.6960  -999.2500  -999.2500
 1194.5000   -41.0350     7.8740     9.3180     9.6330  -999.2500  -999.2500
 1195.0000   -41.0620     8.0650     9.5950     9.5970  -999.2500  -999.2500
 1195.5000   -41.0890     8.3640     9.6210     9.6360  -999.2500  -999.2500
 1196.0000   -41.1160     8.6390     9.4630     9.7060  -999.2500  -999.2500
 1196.5000   -41.1440     8.9200     9.3350     9.7670  -999.2500  -999.2500
 1197.0000   -41.1690     9.2040     9.1900     9.8160  -999.2500  -999.2500
 1197.5000   -41.2020     9.4770     9.0980     9.6680  -999.2500  -999.2500
 1198.0000   -41.1780     9.7750     9.0510     9.3760  -999.2500  -999.2500
 1198.5000   -41.1010     9.9090     8.9930     9.1070  -999.2500  -999.2500
 1199.0000   -41.0330     9.8990     8.9690     8.8280  -999.2500  -999.2500
 1199.5000   -40.9620     9.8560     8.9720     8.5570  -999.2500  -999.2500
 1200.0000   -40.8920     9.7500     8.9700     8.3010  -999.2500  -999.2500
 1200.5000   -40.8220     9.6550     8.9710     8.2760  -999.2500  -999.2500
 1201.0000   -40.7520     9.5550     8.9700     8.4340  -999.2500  -999.2500
 1201.5000   -40.6820     9.4610     8.9710     8.5660  -999.2500  -999.2500
 1202.0000   -40.6100     9.3540     8.9690     8.7080  -999.2500  -999.2500
 1202.5000   -40.5450     9.3260     8.9870     8.8480  -999.2500  -999.2500
 1203.0000   -40.4590     9.3920     9.0280     8.9840  -999.2500  -999.2500
 1203.5000   -40.5050     9.4430     9.0680     9.1340  -999.2500  -999.2500
 1204.0000   -40.7130     9.5010     9.0960     9.2180  -999.2500  -999.2500
 1204.5000   -40.8950     9.5570     9.1080     9.1590  -999.2500  -999.2500
 1205.0000   -41.1070     9.6100     9.1190     9.0410  -999.2500  -999.2500
 1205.5000   -41.2210     9.6750     9.1640     8.9230  -999.2500  -999.2500
 1206.0000   -41.2060     9.6700     9.2610     8.8110  -999.2500  -999.2500
 1206.5000   -41.2120     9.5640     9.3540     8.6760  -999.2500  -999.2500
 1207.0000   -41.2100     9.4730     9.4460     8.6630  -999.2500  -999.2500
 1207.5000   -41.2100     9.3640     9.5500     8.8330  -999.2500  -999.2500
 1208.0000   -41.2100     9.3000     9.5970     8.9840  -999.2500  -999.2500
 1208.5000   -41.2110     9.3360     9.5450     9.1390  -999.2500  -999.2500
 1209.0000   -41.2110     9.4120     9.5180     9.3110  -999.2500  -999.2500
 1209.5000   -41.2100     9.4900     9.4960     9.4150  -999.2500  -999.2500
 1210.0000   -41.2120     9.5690     9.4950     9.4020  -999.2500  -999.2500
 1210.5000   -41.1960     9.6470     9.5370     9.4070  -999.2500  -999.2500
 1211.0000   -41.1480     9.7250     9.5760     9.4060  -999.2500  -999.2500
 1211.5000   -41.1000     9.8030     9.5950     9.4040  -999.2500  -999.2500
 1212.0000   -41.0510     9.8810     9.5610     9.4330  -999.2500  -999.2500
 1212.5000   -41.0030     9.9600     9.5300     9.5310  -999.2500  -999.2500
 1213.0000   -40.9550    10.0390     9.4970     9.6270  -999.2500  -999.2500
 1213.5000   -40.9070    10.0980     9.4640     9.7260  -999.2500  -999.2500
 1214.0000   -40.8580    10.0950     9.4310     9.8230  -999.2500  -999.2500
 1214.5000   -40.8100    10.1000     9.4070     9.9230  -999.2500  -999.2500
 1215.0000   -40.7620    10.0980     9.4020     9.9970  -999.2500  -999.2500
 1215.5000   -40.7130    10.0730     9.3740     9.9990  -999.2500  -999.2500
 1216.0000   -40.6650     9.8130     9.3490    10.0000  -999.2500  -999.2500
 1216.5000   -40.6170     9.5880     9.3160     9.9990  -999.2500  -999.2500
 1217.0000   -40.5690     9.3460     9.1960    10.0000  -999.2500  -999.2500
 1217.5000   -40.5200     9.1130     9.0910    10.0000  -999.2500  -999.2500
 1218.0000   -40.4710     8.9190     8.9770    10.0000  -999.2500  -999.2500
 1218.5000   -40.4320     8.9140     8.8690    10.0000  -999.2500  -999.2500
 1219.0000   -40.4300     8.9170     8.7830    10.0000  -999.2500  -999.2500
 1219.5000   -40.4300     8.9970     8.8480    10.0000  -999.2500  -999.2500
 1220.0000   -40.4300     9.0660     8.9100    10.0000  -999.2500  -999.2500
 1220.5000   -40.4300     9.1420     8.9700    10.0010  -999.2500  -999.2500
 1221.0000   -40.4300     9.2140     8.9870    10.0170  -999.2500  -999.2500
 1221.5000   -40.4300     9.2880     9.0040    10.0310  -999.2500  -999.2500
 1222.0000   -40.4300     9.3610     9.0180    10.0470  -999.2500  -999.2500
 1222.5000   -40.4300     9.4340     9.0350    10.0620  -999.2500  -999.2500
 1223.0000   -40.4300     9.5030     9.0490    10.0770  -999.2500  -999.2500
 1223.5000   -40.4300     9.5420     9.0560    10.0920  -999.2500  -999.2500
