~VERSION INFORMATION
 VERS.                2.0:   CWLS LOG ASCII STANDARD - VERSION 2.0
 WRAP.                 NO:   ONE LINE PER DEPTH STEP
~WELL INFORMATION
#MNEM.UNIT      DATA TYPE    INFORMATION
#----------   ------------   ------------------------------
 STRT.F          200.0000:   START DEPTH
 STOP.F         2968.0000:   STOP DEPTH
 STEP.F            0.5000:   STEP LENGTH
 NULL.          -999.2500:   NO VALUE
 COMP. FENIX & SCISSON U.S. NAVY:   COMPANY
 WELL.   FENIX "A" #23-28:   WELL
 FLD .              NPR 3:   FIELD
 LOC .      S28 T39N R78W:   LOCATION
 CNTY.            NATRONA:   COUNTY
 STAT.            WYOMING:   STATE
 CTRY. UNITED STATES OF AMERICA:   COUNTRY
 SRVC.       SCHLUMBERGER:   SERVICE COMPANY
 DATE.        10-JUN-1977:   LOGDATE
 API .     49025103860000:   API NUMBER
~CURVE INFORMATION
#MNEM.UNIT       API CODE    CURVE DESCRIPTION
#----------   ------------   ------------------------------
 DEPT.F                  :   
 SPR .MV     07 010 01 00:   SPONTANEOUS POTENTIAL
 RILM.OHMM   07 120 44 00:   INDUCTION LOG MEDIUM RESISTIVITY
 RILD.OHMM   07 120 46 00:   DEEP INDUCTION RESISTIVITY
 LL8 .None   99 022 08 00:   LATEROLOG
 GRD .GAPI   45 310 01 00:   GAMMA RAY FROM DENSITY LOG
 CALD.IN     45 280 60 00:   CALIPER FROM DENSITY LOG
 RHOB.G/C3   45 350 01 00:   BULK DENSITY
 DRHO.G/C3   45 356 01 00:   DENSITY CORRECTION
~PARAMETER INFORMATION
#MNEM.UNIT          VALUE    DESCRIPTION
#----------   ------------   ------------------------------
 EKB .F         5019.0000:   Kelly bushing
 EGL .F         5009.0000:   Ground level
 EDF .F            0.0000:   Drilling floor
 EPD .F         5009.0000:   Permanent datum
 TD  .F         2971.0000:   Total depth
 DATE.        10-JUN-1977:   Date logged
 CLNT.            A2DTECH:   Client Code
 SL  . 1650' FNL & 990' FWL:   Surface Location
 DAPD.F                10:   Feet Above Permanent Datum
 DD  .F              2970:   Depth driller
 DL  .F              2971:   Depth logger
 BLI .F              2905:   Bottom log interval
 TLI .F               216:   Top log interval
 CS1 .IN            8.625:   Casing size
 CBD1.      9.625" @ 216':   Casing driller 1
 CBL1.F               216:   Casing logger 1
 BS1 .IN            7.875:   Bit size
 BSD1.F              2970:   Depth drilled with bit1
 DFT .            KCL MUD:   Type fluid in hole
 DFD .                8.8:   Density
 DFV .                 32:   Viscosity
 DFPH.                8.5:   pH
 DFL .                7.4:   Fluid loss
 MSS .               CIRC:   Source of sample
 RMS .OHMM           1.87:   Rm
 MST .F                85:   Rm Meas. temp.
 RMF .OHMM           1.69:   Rmf
 MFST.F                85:   Rmf Meas. temp.
 RMC .OHMM           2.80:   Rmc
 MCST.F                85:   Rmc Meas. temp.
 MFSS.               MEAS:   Source Rmf.
 MCSS.               CALC:   Source Rmc.
 RMB .OHMM           1.43:   Rm. at BHT
 BHT .F               111:   BHT.
 TCS .HRS            1600:   Time Circ. stopped
 TLAB.HRS            0945:   Time logger at bottom
 MRT .F               111:   Maximum recorded temp.
 LUN .               7711:   Logging unit number
 LUL .               CSPR:   Logging unit location
 ENGI.             SAYLER:   Recorded By
 WITN.         HARRINGTON:   Witnessed by
 ORIG.           5" PRINT:   Origin of data
 UWI .     49025103860000:   Unique Well ID
 DICO. A2D TECHNOLOGIES, INC.:   Digitizing Company
~OTHER INFORMATION
~A  DEPTH      SPR       RILM       RILD        LL8        GRD       CALD       RHOB       DRHO
# ...
 1293.5000   -77.8650     8.7710     8.4220     9.0160   100.0440     9.6580     2.5950     0.0240
 1294.0000   -77.8470     8.9550     8.7710     9.1740   101.7890     9.6950     2.5850     0.0150
 1294.5000   -77.8290     9.1360     8.4150     9.3040   102.6790     9.7120     2.5790     0.0090
 1295.0000   -77.8110     9.3180     8.1160     9.4410   102.5110     9.7120     2.5830     0.0170
 1295.5000   -77.7920     9.4410     7.8530     9.4410   101.4160     9.7150     2.5760     0.0200
 1296.0000   -77.7740     9.2650     8.0060     9.4410   100.6960     9.7210     2.5620     0.0100
 1296.5000   -77.7560     9.1070     8.1730     9.3730   100.7670     9.7260     2.5540     0.0200
 1297.0000   -77.7370     8.9500     8.2990     9.1260   101.4560     9.7310     2.5530     0.0160
 1297.5000   -77.7190     8.7920     8.1750     8.9340   103.8440     9.7360     2.5520     0.0130
 1298.0000   -77.7010     8.6350     8.0760     9.0920   105.7770     9.7410     2.5640     0.0090
 1298.5000   -77.6830     8.4770     7.9770     9.2690   102.8900     9.7460     2.5760     0.0140
 1299.0000   -77.6640     8.3760     7.8770     9.1000    99.9060     9.7520     2.5720     0.0090
 1299.5000   -77.6460     8.4740     7.7780     9.5290    96.9680     9.7590     2.5810     0.0120
 1300.0000   -77.6280     8.6110     7.7100     9.4070    95.1910     9.7670     2.5870     0.0220
 1300.5000   -77.6090     8.5900     7.8780     9.1710    96.1910     9.7750     2.5810     0.0220
 1301.0000   -77.5910     8.5600     7.9990     8.8520    97.6190     9.7830     2.5770     0.0170
 1301.5000   -77.5730     8.5320     7.8430     8.9340    99.3620     9.7900     2.5910     0.0230
 1302.0000   -77.5540     8.7590     7.6390     9.1240   100.4130     9.7980     2.5820     0.0130
 1302.5000   -77.5360     8.9340     7.7240     9.2690    99.4740     9.8060     2.5730     0.0090
 1303.0000   -77.5180     8.6590     7.8530     9.0160    98.4970     9.8150     2.5770     0.0160
 1303.5000   -77.4990     8.3760     7.7810     9.3070    99.5550     9.8280     2.5830     0.0150
 1304.0000   -77.4810     8.6340     7.8950     9.6170   100.3050     9.8410     2.5890     0.0210
 1304.5000   -77.4660     8.9070     8.0730     9.4310   101.6070     9.8540     2.5890     0.0260
 1305.0000   -77.4470     8.6880     8.0260     9.1000   100.8250     9.8670     2.5850     0.0250
 1305.5000   -77.4280     8.5320     7.9350     9.2690    99.4840     9.8800     2.5830     0.0280
 1306.0000   -77.4090     8.8520     7.8430     9.6170    98.8300     9.8930     2.5890     0.0230
 1306.5000   -77.3900     8.5700     7.7520     9.1000    99.7510     9.9060     2.5880     0.0280
 1307.0000   -77.3710     8.3780     7.6600     9.3610    99.3220     9.9190     2.5950     0.0340
 1307.5000   -77.3520     8.1480     7.4990     9.5290   100.7690     9.9320     2.5880     0.0280
 1308.0000   -77.3330     8.4910     7.5400     9.3330   101.3280     9.9450     2.5820     0.0200
 1308.5000   -77.3140     8.8520     7.5910     9.1510    99.8720     9.9580     2.5770     0.0130
 1309.0000   -77.2950     8.4540     7.6420     8.9680    99.9960     9.9710     2.5930     0.0240
 1309.5000   -77.2760     8.2230     7.6930     8.7710    98.8930     9.9840     2.6060     0.0350
 1310.0000   -77.2560     8.6590     7.7440     8.9750   100.3440     9.9900     2.5960     0.0300
 1310.5000   -77.2370     9.0160     7.7970     9.2610   101.9450     9.9950     2.5830     0.0230
 1311.0000   -77.2180     9.1370     7.8530     9.3550   102.7330    10.0010     2.5820     0.0180
 1311.5000   -77.1990     9.2690     7.9090     9.4410   101.8060    10.0060     2.5720     0.0140
 1312.0000   -77.1800     9.1340     7.9650     9.3810   100.4280    10.0120     2.5800     0.0210
 1312.5000   -77.1610     8.9220     8.0220     9.2690   101.9810    10.0170     2.5900     0.0300
 1313.0000   -77.1420     8.7090     8.0780     9.0640   103.9760    10.0230     2.5740     0.0250
 1313.5000   -77.1230     8.5320     8.1340     8.9610   105.6260    10.0280     2.5660     0.0180
 1314.0000   -77.1040     8.7990     8.1840     9.2530   106.4690    10.0340     2.5660     0.0140
 1314.5000   -77.0840     9.0770     8.2500     9.4860   106.2610    10.0390     2.5740     0.0210
 1315.0000   -77.0670     9.4410     8.3150     9.7200   105.8410    10.0450     2.5680     0.0150
 1315.5000   -77.0500     9.2740     8.3760     9.8860   106.8540    10.0540     2.5620     0.0070
 1316.0000   -77.0330     9.0340     8.3150     9.5270   107.9490    10.0740     2.5560     0.0040
 1316.5000   -77.0160     8.8240     8.2450     9.2780   107.3890    10.0810     2.5640     0.0100
 1317.0000   -76.9990     8.7120     8.1750     8.9340   106.6910    10.0880     2.5710     0.0150
 1317.5000   -76.9810     8.6000     8.0930     9.0690   104.9010    10.0860     2.5670     0.0150
 1318.0000   -76.9640     8.4970     7.9590     9.4410   103.1290    10.0800     2.5620     0.0200
 1318.5000   -76.9470     8.2230     7.8250     9.3480   101.3550    10.0740     2.5560     0.0070
 1319.0000   -76.9300     8.2600     7.7240     9.0960    99.6850    10.0680     2.5530     0.0090
 1319.5000   -76.9130     8.3260     7.8950     8.7710    99.8930    10.0620     2.5500     0.0090
 1320.0000   -76.8950     8.3920     8.0730     8.8320   101.6680    10.0550     2.5500     0.0010
 1320.5000   -76.8780     8.4530     8.1340     8.9520   103.8790    10.0500     2.5480     0.0090
 1321.0000   -76.8610     8.5920     8.2570     9.1580   105.4030    10.0530     2.5540     0.0060
 1321.5000   -76.8440     8.7200     8.3760     9.6930   104.3110    10.0570     2.5650     0.0150
 1322.0000   -76.8270     8.8470     8.3760    10.2280   103.2900    10.0620     2.5740     0.0100
 1322.5000   -76.8090     8.9750     8.3760    10.5450   102.4090    10.0660     2.5640     0.0050
 1323.0000   -76.7920     9.1030     8.3820    10.1560   102.5870    10.0680     2.5540     0.0090
 1323.5000   -76.7750     9.1800     8.4130     9.8860   102.7320    10.0590     2.5490     0.0120
 1324.0000   -76.7580     9.1410     8.4530    10.0720   102.6100    10.0490     2.5480     0.0090
 1324.5000   -76.7410     9.1000     8.3880    10.1630   101.7530    10.0390     2.5530     0.0030
 1325.0000   -76.7230     9.2490     8.2650     9.7960   101.8940    10.0300     2.5480     0.0090
 1325.5000   -76.7060     9.5290     8.1420     9.9750   102.0320    10.0200     2.5400     0.0110
 1326.0000   -76.6890     9.3940     8.0190    10.1630   102.3700    10.0110     2.5520     0.0070
 1326.5000   -76.6770     9.1060     7.9260     9.7680   103.5650    10.0010     2.5670     0.0140
 1327.0000   -76.6620     8.8190     7.9260     9.3960   104.9170     9.9910     2.5820     0.0210
 1327.5000   -76.6470     8.5320     7.9260     9.1000   106.2740    10.0070     2.5910     0.0240
 1328.0000   -76.6330     8.8100     7.9260     9.4100   107.4620    10.0300     2.5800     0.0140
 1328.5000   -76.6180     9.0890     7.9600     9.7200   105.1730     9.8760     2.5700     0.0100
 1329.0000   -76.6030     9.4410     7.9950     9.8700   102.7820     9.7090     2.5670     0.0100
 1329.5000   -76.5890     9.3650     8.0300     9.9780   100.3380     9.6580     2.5580     0.0070
 1330.0000   -76.5740     9.2230     8.0650     9.6700   100.3320     9.6480     2.5530     0.0030
 1330.5000   -76.5590     9.0800     8.1000     9.2400   102.8960     9.6320     2.5600     0.0090
 1331.0000   -76.5440     8.9370     8.1480     9.1000   104.2730     9.6270     2.5630     0.0100
 1331.5000   -76.5300     8.7940     8.0200     9.4080   104.3670     9.6210     2.5670     0.0110
 1332.0000   -76.5150     8.7310     7.8250     9.6510   102.1560     9.6150     2.5620     0.0160
 1332.5000   -76.5000     8.5530     7.6940     9.7960   100.7780     9.6100     2.5640     0.0130
 1333.0000   -76.4850     8.3750     7.6550     9.5480    99.8870     9.6040     2.5660     0.0210
 1333.5000   -76.4710     8.2990     7.5840     9.3500    98.8610     9.5980     2.5600     0.0180
