~VERSION INFORMATION
 VERS.                2.0:   CWLS LOG ASCII STANDARD - VERSION 2.0
 WRAP.                 NO:   ONE LINE PER DEPTH STEP
~WELL INFORMATION
#MNEM.UNIT      DATA TYPE    INFORMATION
#----------   ------------   ------------------------------
 STRT.F           57.0000:   START DEPTH
 STOP.F         5817.0000:   STOP DEPTH
 STEP.F            0.5000:   STEP LENGTH
 NULL.          -999.2500:   NO VALUE
 COMP. DEPARTMENT OF ENERGY:   COMPANY
 WELL. DEPARTMENT NPR 371 "X" #1-4:   WELL
 FLD .              NPR-3:   FIELD
 LOC .       S4 T38N R78W:   LOCATION
 CNTY.            NATRONA:   COUNTY
 STAT.            WYOMING:   STATE
 CTRY. UNITED STATES OF AMERICA:   COUNTRY
 SRVC.       SCHLUMBERGER:   SERVICE COMPANY
 DATE.        25-AUG-2002:   LOGDATE
 API .     49025230480000:   API NUMBER
~CURVE INFORMATION
#MNEM.UNIT       API CODE    CURVE DESCRIPTION
#----------   ------------   ------------------------------
 DEPT.F                  :   
 HCAL.IN     07 280 01 00:   HRLT CALIPER
 RLA1.OHMM   06 120 01 00:   HRLT RESISTIVITY 1
 RLA2.OHMM   06 120 02 00:   HRLT RESISTIVITY 2
 RLA3.OHMM   06 120 03 00:   HRLT RESISTIVITY 3
 RXOZ.OHMM   06 270 04 00:   STAN RES. MICROCFL RESISTIVITY
 TENR.LBS    06 635 01 00:   TENSION FROM RESITIVITY
 GRR .GAPI   07 310 01 00:   GAMMA RAY FROM RESISTIVITY
 SPHI.DEC    60 890 22 00:   SONIC POROSITY SANDSTONE
 DT  .US/F   60 520 00 00:   DELTA TIME
 TENS.LBS    60 635 01 00:   TENSION FROM SONIC
 RT  .OHMM   06 120 00 00:   HRLT TRUE RESISTIVITY
~PARAMETER INFORMATION
#MNEM.UNIT          VALUE    DESCRIPTION
#----------   ------------   ------------------------------
 EKB .F         5196.0000:   Kelly bushing
 EGL .F         5186.0000:   Ground level
 EDF .F         5194.0000:   Drilling floor
 TD  .F         5803.0000:   Total depth
 CLNT.            A2DTECH:   Client Code
 SL  . 794' FEL & 333' FNL:   Surface Location
 PD  .                 GL:   Permanent Datum
 EPD .F              5186:   Elevation Permanent Datum
 LMF .                 KB:   Log Measured From
 DMF .                 KB:   Drilling Measured From
 DAPD.F                10:   Feet Above Permanent Datum
 DATE.        25-AUG-2002:   Date Logged [DD-MMM-YYYY]
 DD  .F              5800:   Depth driller
 DL  .F              5803:   Depth logger
 BLI .F              5803:   Bottom log interval
 TLI .F               656:   Top log interval
 CS1 .IN            9.625:   Casing size
 CBD1.      9.625" @ 660':   Casing driller 1
 CBL1.F               656:   Casing logger 1
 BS1 .IN            8.750:   Bit size
 BSD1.F              5800:   Depth drilled with bit1
 DFT .           GEL CHEM:   Type fluid in hole
 DFD .                  9:   Density
 DFV .                 36:   Viscosity
 DFPH.                8.5:   pH
 DFL .                7.6:   Fluid loss
 MSS .           FLOWLINE:   Source of sample
 RMS .OHMM          0.846:   Rm
 MST .F                90:   Rm Meas. temp.
 RMF .OHMM          0.670:   Rmf
 MFST.F                90:   Rmf Meas. temp.
 MFSS.               MEAS:   Source Rmf.
 RMC .OHMM          1.075:   Rmc
 MCST.F                90:   Rmc Meas. temp.
 MCSS.               CALC:   Source Rmc.
 TCS .HRS            0300:   Time Circ. stopped
 TLAB.HRS            0915:   Time logger at bottom
 MRT .F               156:   Maximum recorded temp.
 LUN .               2211:   Logging unit number
 LUL .             CASPER:   Logging unit location
 ENGI.        J.L. FLORES:   Recorded By
 WITN.        STEVE HARDY:   Witnessed by
 ORIG.        2" 5" PRINT:   Origin of data
 UWI .     49025230480000:   Unique Well ID
 DICO. A2D TECHNOLOGIES, INC.:   Digitizing Company
~OTHER INFORMATION
~A   DEPT     HCAL       RLA1       RLA2       RLA3       RXOZ       TENR         GRR      SPHI         DT       TENS         RT   
# ...
 3046.0000    10.5079     5.7011     8.4888     8.5456     5.7439  2024.1323   106.1998     0.1985    78.7443  1539.7592     8.6010
 3046.5000    10.1457     5.9856     8.9741     9.3494     5.9883  2025.9484   110.0339     0.1921    77.8451  1539.2283     9.2199
 3047.0000    10.1000     6.4605    10.8972    11.9068     6.6448  2028.2192   107.7594     0.1882    77.2401  1538.8125    10.8918
 3047.5000    10.1597     9.0100    14.5811    15.2684     8.1238  1979.8303    97.3414     0.1870    77.0077  1538.4037    14.3782
 3048.0000    10.0837     7.9558    12.6966    11.1154     8.6008  1982.1012    89.8646     0.1870    76.9364  1537.9518    14.8867
 3048.5000     9.1645     4.0931     7.4737     6.1818     4.3572  1984.3721    90.8741     0.1888    76.9358  1537.5001     8.6640
 3049.0000     9.7813     3.3490     8.0935     6.7166     3.5649  2035.9404    88.6034     0.2091    79.5320  1537.0453    11.3581
 3049.5000     9.5549     4.6383    19.3835    19.0540     4.4498  2037.8109    78.6295     0.2366    83.3541  1536.5963    22.5817
 3050.0000     9.0120    15.5926    26.1165    23.4425    20.1390  1989.8224    55.5129     0.2411    84.2598  1529.0562    24.8876
 3050.5000     8.9813    27.8703    26.9437    29.2428    24.4483  1992.0933    54.6024     0.2329    82.5219  1510.1108    29.1974
 3051.0000     8.8904    30.9143    33.5165    33.5764    31.1538  1994.3641    53.6913     0.2060    79.4228  1520.4331    34.0165
 3051.5000     8.8597    35.0095    33.7496    30.0697    34.8042  1996.1813    52.5535     0.1800    75.9471  1520.1539    35.4348
 3052.0000     8.9493    28.4486    29.3814    27.3031    32.2514  1998.0100    52.0962     0.1713    74.4348  1519.8749    31.2810
 3052.5000     8.9488    25.1176    25.4020    24.7906    30.5133  2000.2692    51.6383     0.1692    74.5093  1534.6559    24.3761
 3053.0000     8.8880    22.9565    24.0320    22.6657    29.0694  2002.0853    50.5012     0.1702    74.5075  1534.3070    22.9036
 3053.5000     8.7970    22.6401    24.5368    24.4577    27.8863  2004.3562    38.4873     0.1713    75.3366  1518.9678    22.5898
 3054.0000     8.7662    26.1762    26.4805    26.5741    28.0801  2006.1732    36.6698     0.1758    76.2415  1518.6188    27.0521
 3054.5000     8.7657    29.2361    27.7968    28.5628    28.4717  2007.9894    36.2139     0.1822    76.3156  1503.2794    27.8143
 3055.0000     8.7650    30.0541    29.6588    30.0081    29.2714  2010.2603    36.4357     0.1851    76.6387  1503.0004    28.5979
 3055.5000     8.7494    31.5426    30.9151    32.1285    30.3027  2012.0774    34.1643     0.1891    77.2947  1502.6514    30.4409
 3056.0000     8.7036    31.9798    31.3530    32.3516    31.3703  2000.9968    32.3468     0.1912    77.1419  1502.3723    31.2986
 3056.5000     8.7030    31.1049    31.3417    31.9069    30.0936  1975.7362    31.2097     0.1893    77.1405  1502.0933    31.3006
 3057.0000     8.7174    30.4644    31.1234    31.6869    29.0694  1868.7277    39.3620     0.1893    77.2898  1501.8071    31.0864
 3057.5000     8.7470    29.8366    30.9067    31.6869    28.0801  1821.2473    44.5687     0.1905    77.4398  1501.4652    30.4492
 3058.0000     8.7766    29.4249    30.4791    31.2482    27.3129  1823.0643    45.9248     0.1945    78.0423  1501.1862    30.4511
 3058.5000     8.8210    29.2203    30.2668    30.8218    27.3129  1874.6317    46.1472     0.1987    78.8713  1500.9036    29.6209
 3059.0000     8.8807    28.8167    29.6426    30.6093    25.8711  1876.9026    44.7822     0.2014    78.9458  1500.5581    29.0133
 3059.5000     8.8952    28.8148    29.2326    30.6093    25.5098  1828.5146    44.3256     0.1990    78.4909  1500.2791    28.6158
 3060.0000     8.8945    28.8130    29.0290    30.8218    25.8579  1831.2393    44.5474     0.1938    77.4317  1500.0000    28.6181
 3060.5000     8.8789    29.2123    29.4320    31.0984    26.3906  1882.8076    44.0887     0.1884    76.9772  1499.6510    28.6199
 3061.0000     8.8934    29.6168    29.8405    31.4684    27.6886  1884.6238    45.8966     0.1848    76.6737  1499.3976    28.8208
 3061.5000     8.9379    30.0273    30.4645    31.9069    28.4585  1936.6459    58.8079     0.1808    76.1241  1499.0929    29.2254
 3062.0000     8.9223    30.2337    30.6743    32.5762    28.4494  1888.2579    65.3740     0.1760    75.4620  1498.7439    29.6352
 3062.5000     8.8916    30.4415    30.8849    33.4905    29.4236  1840.7776    62.1970     0.1705    74.7054  1498.4648    29.8432
 3063.0000     8.8834    31.0771    32.6422    36.3902    89.7120  1843.0485    54.4890     0.1642    73.7042  1498.1927    30.2621
 3063.5000     8.9355    45.1407    64.7881    47.9949   204.3082  1844.8645    56.9766     0.1542    71.9832  1497.8915    33.5795
 3064.0000     8.9952    89.5031    95.4733    59.8913   217.4162  1847.1354    66.7157     0.1247    68.3564  1497.5903    74.5120
 3064.5000     9.0624   102.0627   103.7412    62.4303   133.1148  1848.9525    72.3755     0.1116    65.6359  1512.3390    89.8515
 3065.0000     9.1897    40.4045    41.0118    22.2644    49.0313  1850.7686    73.9582     0.1034    65.7853  1512.0482    35.9966
 3065.5000     9.3548    27.8125    27.8262    17.4754    36.8996  1802.8345    67.6083     0.1113    67.9742  1511.6877    28.2454
 3066.0000     9.3918    26.3141    25.2534    18.3829    35.8826  1805.1053    58.9932     0.1276    69.1057  1511.4458    26.3559
 3066.5000     9.4439    33.9832    39.6078    59.8913    73.1945  1707.4199    57.1764     0.1309    68.6508  1511.1445    31.5621
 3067.0000     9.5187    62.4455    73.3526    67.8357    88.2761  1709.6908    55.3589     0.1022    66.6856  1510.8435    67.6503
 3067.5000     9.5483    81.2059    75.9333    61.9997   102.6633  1811.0094    56.0345     0.0826    61.6993  1510.5421    69.0771
 3068.0000     9.5325    93.8893    83.0798    60.7259   135.4192  1863.0315    55.3499     0.0659    59.5073  1510.2411    72.0146
 3068.5000     9.5319   101.3028   102.9660    64.1824   162.0810  1914.5999    51.7197     0.0599    59.2793  1509.8967    96.3517
 3069.0000     9.5314    96.5101    41.2737    40.3705   174.8666  1916.4159    49.6763     0.0575    59.5045  1494.5574    61.4127
 3069.5000     9.4554    33.7351    23.3899    21.6566    61.4316  1868.4818    53.0703     0.0683    60.5258  1494.2771    32.4628
 3070.0000     9.3494    27.2245    17.8526    18.5984    27.6894  1870.7527    57.3713     0.0998    65.3170  1493.9293    24.0987
 3070.5000     9.2284    23.7068    22.1262    18.0906    22.6457  1873.0236    60.7653     0.1375    69.5452  1493.6503    23.6043
 3071.0000     9.1072    25.2270    26.4895    22.7315    24.5998  1874.8406    60.3073     0.1647    74.0898  1493.3734    27.6854
 3071.5000     9.0765    26.4764    28.5839    25.2177    28.2448  1926.4080    60.0766     0.1867    77.0949  1493.0222    27.3061
 3072.0000     9.0609    27.2172    30.2103    26.8382    31.3703  1928.6788    53.9540     0.1884    77.2449  1507.8732    27.3083
 3072.5000     9.0301    27.9782    31.4899    27.0246    31.8078  1930.4960    53.7233     0.1882    77.0921  1507.5244    27.8838
 3073.0000     8.9994    27.5922    29.7904    27.2122    30.7197  1882.5618    56.2109     0.1895    77.3170  1522.3053    28.2747
 3073.5000     8.9837    25.0447    26.2975    25.9255    29.4637  1884.8326    59.3797     0.1913    77.3914  1521.9565    27.1253
 3074.0000     8.9831    22.8898    24.1989    22.8582    25.3052  1886.6488    57.1083     0.1888    77.2386  1521.6775    25.6640
 3074.5000     8.9674    21.6566    21.0674    20.9201    22.0358  1888.9197    57.5567     0.1867    77.0103  1506.3252    23.9472
 3075.0000     8.9217    21.5064    21.5082    20.4903    20.8464  1890.7367    60.7254     0.1858    76.8578  1505.9893    21.4351
 3075.5000     8.9286    23.3648    22.5750    22.8893    24.9375  1892.5529    60.4933     0.1864    76.7809  1505.7102    22.6589
 3076.0000     8.9807    22.1060    21.2096    20.2087    27.8431  1944.5750    60.2626     0.1867    76.9306  1505.4218    21.4382
