~VERSION INFORMATION
 VERS.                2.0:   CWLS LOG ASCII STANDARD - VERSION 2.0
 WRAP.                 NO:   ONE LINE PER DEPTH STEP
~WELL INFORMATION
#MNEM.UNIT      DATA TYPE    INFORMATION
#----------   ------------   ------------------------------
 STRT.F          250.5000:   START DEPTH
 STOP.F         2849.5000:   STOP DEPTH
 STEP.F            0.5000:   STEP LENGTH
 NULL.          -999.2500:   NO VALUE
 COMP. FENIX & SCISSON U.S. NAVY:   COMPANY
 WELL.   FENIX "A" #25-21:   WELL
 FLD .           N P R #3:   FIELD
 LOC .      S21 T39N R78W:   LOCATION
 CNTY.            NATRONA:   COUNTY
 STAT.            WYOMING:   STATE
 CTRY. UNITED STATES OF AMERICA:   COUNTRY
 SRVC.       SCHLUMBERGER:   SERVICE COMPANY
 DATE.        14-MAR-1977:   LOGDATE
 API .     49025103140000:   API NUMBER
~CURVE INFORMATION
#MNEM.UNIT       API CODE    CURVE DESCRIPTION
#----------   ------------   ------------------------------
 DEPT.F                  :   
 CALD.IN     45 280 60 00:   CALIPER FROM DENSITY LOG
 GRD .GAPI   45 310 01 00:   GAMMA RAY FROM DENSITY LOG
 RHOB.G/C3   45 350 01 00:   BULK DENSITY
 CORR.G/C3   45 356 01 00:   DENSITY CORRECTION
 SPR .MV     07 010 01 00:   SPONTANEOUS POTENTIAL
 LL8 .OHMM   07 220 08 00:   LATEROLOG-8 RES.
 ILM .OHMM   07 120 44 00:   INDUCTION LOG MEDIUM RESISTIVITY
 ILD .OHMM   07 120 46 00:   DEEP INDUCTION RESISTIVITY
~PARAMETER INFORMATION
#MNEM.UNIT          VALUE    DESCRIPTION
#----------   ------------   ------------------------------
 EKB .F         4963.0000:   Kelly bushing
 EGL .F         4953.0000:   Ground level
 EDF .F            0.0000:   Drilling floor
 TD  .F         2848.0000:   Total depth
 DATE.        14-MAR-1977:   Date logged
 CLNT.            A2DTECH:   Client Code
 SL  . 990' FWL & 2310' FSL:   Surface Location
 PD  .                 GL:   Permanent Datum
 DD  .F              2847:   Depth driller
 DL  .F              2848:   Depth logger
 BLI .F              2842:   Bottom log interval
 CS1 .IN            8.625:   Casing size
 CBD1.      8.625" @ 259':   Casing driller 1
 CBL1.F               261:   Casing logger 1
 BS1 .IN            7.875:   Bit size
 DFT .                KCL:   Type fluid in hole
 DFD .                9.2:   Density
 DFV .                 37:   Viscosity
 DFPH.                8.5:   pH
 DFL .                8.6:   Fluid loss
 MSS .           FLOWLINE:   Source of sample
 RMS .OHMM          0.226:   Rm
 MST .F                72:   Rm Meas. temp.
 RMF .OHMM          0.190:   Rmf
 MFST.F                72:   Rmf Meas. temp.
 MFSS.               MEAS:   Source Rmf.
 RMB .OHMM           .139:   Rm. at BHT
 BHT .F               117:   BHT.
 TCS .HRS            1800:   Time Circ. stopped
 MRT .F               117:   Maximum recorded temp.
 LUN .               5642:   Logging unit number
 LUL .               CSPR:   Logging unit location
 ENGI.         JIM MARTIN:   Recorded By
 WITN.               JAPP:   Witnessed by
 ORIG.           5" PRINT:   Origin of data
 UWI .     49025103140000:   Unique Well ID
 DICO. A2D TECHNOLOGIES, INC.:   Digitizing Company
 DAPD.                 10:   Feet Above Permanent Datum
 BSD1.               2847:   Depth drilled with bit1
 EPD .               4953:   Elevation Permanent Datum
 LMF .                 KB:   Log Measured From
 DMF .                 KB:   Drilling Measured From
 TLI .                261:   Top log interval
 TLAB.               2400:   Time logger at bottom
~OTHER INFORMATION
~A   DEPT     CALD         GRD      RHOB       CORR        SPR        LL8        ILM        ILD   
  250.5000  -999.2500    31.8410  -999.2500  -999.2500  -999.2500  -999.2500  -999.2500  -999.2500
  251.0000  -999.2500    33.8540  -999.2500  -999.2500  -999.2500  -999.2500  -999.2500  -999.2500
  251.5000  -999.2500    34.9120  -999.2500  -999.2500  -999.2500  -999.2500  -999.2500  -999.2500
  252.0000  -999.2500    34.0510  -999.2500  -999.2500  -999.2500  -999.2500  -999.2500  -999.2500
  252.5000  -999.2500    33.3740  -999.2500  -999.2500  -999.2500  -999.2500  -999.2500  -999.2500
  253.0000  -999.2500    33.3090  -999.2500  -999.2500  -999.2500  -999.2500  -999.2500  -999.2500
  253.5000  -999.2500    33.1010  -999.2500  -999.2500  -999.2500  -999.2500  -999.2500  -999.2500
  254.0000  -999.2500    32.4380  -999.2500  -999.2500  -999.2500  -999.2500  -999.2500  -999.2500
  254.5000  -999.2500    31.9150  -999.2500  -999.2500  -999.2500  -999.2500  -999.2500  -999.2500
  255.0000  -999.2500    31.9260  -999.2500  -999.2500  -999.2500  -999.2500  -999.2500  -999.2500
  255.5000  -999.2500    31.5000  -999.2500  -999.2500  -999.2500  -999.2500  -999.2500  -999.2500
  256.0000  -999.2500    30.4970  -999.2500  -999.2500  -999.2500  -999.2500  -999.2500  -999.2500
  256.5000  -999.2500    29.6550  -999.2500  -999.2500  -999.2500  -999.2500  -999.2500  -999.2500
  257.0000  -999.2500    31.9480  -999.2500  -999.2500  -999.2500  -999.2500  -999.2500  -999.2500
  257.5000  -999.2500    34.3400  -999.2500  -999.2500  -999.2500  -999.2500  -999.2500  -999.2500
  258.0000  -999.2500    36.6690  -999.2500  -999.2500  -999.2500  -999.2500  -999.2500  -999.2500
  258.5000  -999.2500    35.3580  -999.2500  -999.2500  -999.2500  -999.2500  -999.2500  -999.2500
  259.0000  -999.2500    35.6200  -999.2500  -999.2500  -999.2500  -999.2500  -999.2500  -999.2500
  259.5000  -999.2500    39.0540  -999.2500  -999.2500  -999.2500  -999.2500  -999.2500  -999.2500
  260.0000  -999.2500    42.4380  -999.2500  -999.2500  -999.2500  -999.2500  -999.2500  -999.2500
  260.5000  -999.2500    45.5850     2.1020  -999.2500  -999.2500  -999.2500  -999.2500  -999.2500
  261.0000  -999.2500    52.4930     2.3420  -999.2500  -999.2500  -999.2500  -999.2500  -999.2500
  261.5000     8.8510    60.8840     2.5750  -999.2500  -999.2500  -999.2500  -999.2500  -999.2500
  262.0000     9.1050    69.4800     2.4220     0.1680    -4.2460  -999.2500  -999.2500  -999.2500
  262.5000     9.2570    72.2580     2.3560     0.1560   -10.1330  -999.2500  -999.2500  -999.2500
  263.0000     9.3500    73.8200     2.3490     0.1610   -16.0210  -999.2500  -999.2500  -999.2500
  263.5000     9.4490    77.8840     2.3430     0.1520   -21.9080  -999.2500  -999.2500  -999.2500
  264.0000     9.6210    82.0380     2.3450     0.1130   -26.2720  -999.2500  -999.2500  -999.2500
  264.5000     9.8170    84.6400     2.3670     0.0820   -30.5850  -999.2500  -999.2500  -999.2500
  265.0000    10.0110    89.0960     2.4120     0.0880   -32.8800  -999.2500     9.1190  -999.2500
  265.5000    10.1380    92.7460     2.4310     0.0590   -35.1830     9.2930    11.1140  -999.2500
  266.0000     9.8980    94.7070     2.4530     0.0380   -37.4680     9.9110    13.1100  -999.2500
  266.5000     9.7020    89.3410     2.5120     0.0450   -39.7500    10.6000    15.1050  -999.2500
  267.0000     9.6750    89.6980     2.5080     0.0510   -42.0340    10.3540    16.9470  -999.2500
  267.5000     9.6760    91.1760     2.5050     0.0520   -44.3190    10.0130    13.9680  -999.2500
  268.0000     9.6870    92.4010     2.4960     0.0420   -46.6010     9.5780    10.4070  -999.2500
  268.5000     9.6980    93.1020     2.4780     0.0280   -48.8590     8.8390     9.7310  -999.2500
  269.0000     9.7080    91.5230     2.4560     0.0140   -51.0920     7.6600     8.7300  -999.2500
  269.5000     9.7190    88.5610     2.4610     0.0070   -52.2580     6.9420     9.1020    14.6930
  270.0000     9.7290    89.4180     2.4690     0.0020   -53.4590     8.4440    10.2400    12.0750
  270.5000     9.7400    91.7400     2.4750     0.0060   -54.6610     9.1490    11.4100    11.2510
  271.0000     9.7510    94.0680     2.4680     0.0100   -55.8600     8.7700    10.4350    10.6960
  271.5000     9.7610    95.4720     2.4520     0.0070   -57.0630     8.4660     9.4320    10.2150
  272.0000     9.7720    95.5550     2.4410     0.0060   -58.0560     8.2680     8.5780     9.6230
  272.5000     9.7820    95.6490     2.4500     0.0120   -58.8950     8.2680     8.6010     9.2280
  273.0000     9.7930    95.7240     2.4630     0.0170   -59.1490     8.2680     8.6200     9.1880
  273.5000     9.8040    95.3080     2.4510     0.0150   -59.3760     8.2680     8.6400     9.1480
  274.0000     9.8120    92.9460     2.4700     0.0150   -59.6150     8.1170     8.6550     9.1090
  274.5000     9.8370    91.4460     2.4930     0.0310   -59.4210     7.8240     8.2940     9.0650
  275.0000     9.8770    92.6300     2.4940     0.0480   -58.5080     7.5090     7.9680     8.7370
  275.5000     9.9170    91.0810     2.4950     0.0730   -57.5330     6.8630     7.6430     8.3750
  276.0000     9.9570    90.9640     2.4710     0.0800   -56.6310     5.9110     5.4150     8.0430
  276.5000     9.9850    92.4930     2.4160     0.0400   -56.2400     5.0310     5.6810     5.5670
  277.0000     9.9440    90.1760     2.4290     0.0250   -55.8290     6.1490     6.2360     7.6770
  277.5000     9.8980    90.5510     2.4540     0.0300   -55.4170     7.1870     6.7920     8.3070
  278.0000     9.8530    92.7980     2.4790     0.0360   -55.0070     7.8740     7.3470     8.7810
  278.5000     9.8420    95.0780     2.4860     0.0370   -54.7160     8.1410     7.7500     9.2550
  279.0000     9.8260    95.9380     2.4720     0.0280   -54.6290     8.4310     8.3170     9.7280
  279.5000     9.8100    95.5390     2.4570     0.0200   -54.5450     8.7960     8.8830    10.2020
  280.0000     9.7940    95.2400     2.4700     0.0180   -54.8670     9.1610     9.4500    10.6760
  280.5000     9.7780    95.5330     2.4900     0.0130   -55.4440     9.5260    10.0160    11.1500
  281.0000     9.7620    95.8030     2.4980     0.0140   -55.9750     9.7970    10.1500    11.6220
  281.5000     9.7460    95.3650     2.4780     0.0000   -56.7090     9.9910    10.2150    11.6980
  282.0000     9.7300    94.7650     2.4620    -0.0090   -57.5010    10.0310    10.2800    11.7750
  282.5000     9.7140    95.1140     2.4390    -0.0120   -58.2960     9.9500    10.3450    11.8370
  283.0000     9.6980    95.5280     2.4470    -0.0050   -59.0950     9.8680    10.4090    11.7300
  283.5000     9.6820    93.1010     2.4590     0.0020   -59.6850     9.7870    10.5030    11.6390
  284.0000     9.6660    91.7080     2.4910     0.0260   -60.2760     9.7050    10.4070    11.5480
  284.5000     9.6500    94.8110     2.5070     0.0470   -60.8680     9.6230    10.2760    11.4570
  285.0000     9.6340    94.9540     2.4990     0.0380   -61.4610     9.5420    10.1400    11.3660
  285.5000     9.6180    92.8080     2.4940     0.0250   -62.0540     9.4600    10.0030    11.2020
  286.0000     9.6020    90.9840     2.4940     0.0210   -62.6470     9.4050     9.9390    11.0580
  286.5000     9.5860    92.3960     2.4970     0.0330   -63.2430     9.4590     9.9390    10.8970
  287.0000     9.5720    92.9980     2.4960     0.0250   -63.8440     9.5000     9.9620    10.9800
  287.5000     9.5660    90.5820     2.4900     0.0150   -64.1330     9.5410    10.0360    11.0970
  288.0000     9.5590    88.3200     2.4840     0.0130   -64.4130     9.5820    10.1100    11.2130
  288.5000     9.5520    89.3710     2.4790     0.0130   -64.6700     9.6220    10.1840    11.3300
  289.0000     9.5460    91.2380     2.4780     0.0170   -64.7850     9.6630    10.2570    11.4470
  289.5000     9.5390    92.5000     2.4830     0.0120   -64.8980     9.5800    10.3110    11.5630
  290.0000     9.5320    92.3260     2.4660     0.0070   -65.0120     9.5800    10.2400    11.6800
  290.5000     9.5260    91.6880     2.4510     0.0020   -65.1260     9.4230    10.1740    11.7970
