~VERSION INFORMATION
 VERS.                2.0:   CWLS LOG ASCII STANDARD - VERSION 2.0
 WRAP.                 NO:   ONE LINE PER DEPTH STEP
~WELL INFORMATION
#MNEM.UNIT      DATA TYPE    INFORMATION
#----------   ------------   ------------------------------
 STRT.F            0.5000:   START DEPTH
 STOP.F         4149.0000:   STOP DEPTH
 STEP.F            0.5000:   STEP LENGTH
 NULL.          -999.2500:   NO VALUE
 COMP. LAWRENCE ALLISON & ASSOSCIATES:   COMPANY
 WELL. LAWRENCE "X" #34-3:   WELL
 FLD .             NPR #3:   FIELD
 LOC .       S3 T38N R78W:   LOCATION
 CNTY.            NATRONA:   COUNTY
 STAT.            WYOMING:   STATE
 CTRY. UNITED STATES OF AMERICA:   COUNTRY
 SRVC.      DRESSER ATLAS:   SERVICE COMPANY
 DATE.        19-NOV-1983:   LOGDATE
 API .     49025109500000:   API NUMBER
~CURVE INFORMATION
#MNEM.UNIT       API CODE    CURVE DESCRIPTION
#----------   ------------   ------------------------------
 DEPT.F                  :   
 CALD.IN     45 280 60 00:   CALIPER FROM DENSITY LOG
 TEND.LBS    45 635 01 00:   TENSION FORM DENSITY LOG
 DEN .G/C3   45 350 01 00:   BULK DENSITY
 CNC .DEC    42 890 01 00:   NEUTRON POROSITY LIMESTONE
 CORR.G/C3   45 356 01 00:   DENSITY CORRECTION
 TENR.LBS    06 635 01 00:   TENSION FROM RESISTIVITY
 GRR .GAPI   07 310 01 00:   GAMMA RAY FROM RESISTIVITY
 RFOC.OHMM   07 220 04 00:   RESISTIVITY FOCUSED LOG RES.
 RILD.OHMM   07 120 46 00:   DEEP INDUCTION RESISTIVITY
 RILM.OHMM   07 120 44 00:   INDUCTION LOG MEDIUM RESISTIVITY
 SPR .MV     07 010 01 00:   SPONTANEOUS POTENTIAL
 TENS.LBS    60 635 01 00:   TENSION FROM SONIC
 DT  .US/F   60 520 00 00:   DELTA TIME
~PARAMETER INFORMATION
#MNEM.UNIT          VALUE    DESCRIPTION
#----------   ------------   ------------------------------
 EKB .F         5187.0000:   Kelly bushing
 EGL .F         5174.0000:   Ground level
 TD  .F         4140.0000:   Total depth
 CLNT.            A2DTECH:   Client Code
 SL  . 1621' FWL & 1958' FNL:   Surface Location
 PD  .                 GL:   Permanent Datum
 EPD .F              5174:   Elevation Permanent Datum
 LMF .                 KB:   Log Measured From
 DMF .                 KB:   Drilling Measured From
 DAPD.F                13:   Feet Above Permanent Datum
 DATE.        19-NOV-1983:   Date Logged [DD-MMM-YYYY]
 DD  .F              4136:   Depth driller
 DL  .F              4140:   Depth logger
 BLI .F              4138:   Bottom log interval
 TLI .F                 0:   Top log interval
 CS1 .IN            8.625:   Casing size
 CBD1.      8.625" @ 615':   Casing driller 1
 CBL1.F               615:   Casing logger 1
 BS1 .IN            7.875:   Bit size
 BSD1.F              4136:   Depth drilled with bit1
 DFT .            GEL-KCL:   Type fluid in hole
 DFD .                  9:   Density
 DFV .                 45:   Viscosity
 DFPH.                8.5:   pH
 DFL .                 12:   Fluid loss
 MSS .           FLOWLINE:   Source of sample
 RMS .OHMM          0.768:   Rm
 MST .F                74:   Rm Meas. temp.
 RMF .OHMM          0.576:   Rmf
 MFST.F                74:   Rmf Meas. temp.
 MFSS.               CALC:   Source Rmf.
 RMC .OHMM           0.96:   Rmc
 MCST.F                74:   Rmc Meas. temp.
 MCSS.               CALC:   Source Rmc.
 RMB .OHMM          0.418:   Rm. at BHT
 BHT .F               136:   BHT.
 TCS .HRS               4:   Time Circ. stopped
 MRT .F               136:   Maximum recorded temp.
 LUN .               6307:   Logging unit number
 LUL .               GLTE:   Logging unit location
 ENGI.           FAHLSING:   Recorded By
 WITN.           JENNINGS:   Witnessed by
 ORIG.      2.5" 5" PRINT:   Origin of data
 UWI .     49025109500000:   Unique Well ID
 DICO. A2D TECHNOLOGIES, INC.:   Digitizing Company
~OTHER INFORMATION
~A    DEPT    CALD       TEND        DEN        CNC       CORR       TENR         GRR      RFOC       RILD       RILM        SPR       TENS         DT   
# ...
 1560.5000     9.7855     0.0000     2.6103     0.2316     0.0762   -17.0539    98.2420     6.3299     6.4786     6.3716   -85.9355  -999.2500  -999.2500
 1561.0000     9.7695     0.0000     2.6073     0.2438     0.0973    -8.9147    98.6860     6.4229     6.6018     6.3973   -86.3839  -999.2500  -999.2500
 1561.5000     9.7565     0.0000     2.6011     0.2552     0.1184    -8.5271    99.3633     6.5484     6.7450     6.5088   -86.8322  -999.2500  -999.2500
 1562.0000     9.7570     0.0000     2.5969     0.2577     0.1155    -8.1395    99.8141     6.6425     6.8045     6.6018   -87.2806  -999.2500  -999.2500
 1562.5000     9.7525     0.0000     2.5958     0.2460     0.1067    -7.6804   101.1754     6.7380     6.8912     6.6964   -87.2713  -999.2500  -999.2500
 1563.0000     9.7280     0.0000     2.5959     0.2413     0.0948    -7.2988   102.7643     6.8837     6.9905     6.7922   -86.9557  -999.2500  -999.2500
 1563.5000     9.7285     0.0000     2.5959     0.2350     0.0800    -6.9172   104.1255     6.9826     7.1421     6.9387   -86.9468  -999.2500  -999.2500
 1564.0000     9.7290     0.0000     2.5960     0.2290     0.0652    -6.5358   102.3001     7.1384     7.2450     7.0380   -86.9378  -999.2500  -999.2500
 1564.5000     9.7593     0.0000     2.5955     0.2252     0.0683    -6.1542    99.7919     7.1940     7.3041     7.1898   -87.0814  -999.2500  -999.2500
 1565.0000     9.7597     0.0000     2.5946     0.2237     0.0804   -13.5245    98.6494     7.2880     7.3493     7.2927   -87.5297  -999.2500  -999.2500
 1565.5000     9.7601     0.0000     2.5947     0.2234     0.0805   -13.1430    96.8240     7.1848     7.4021     7.2922   -87.8279  -999.2500  -999.2500
 1566.0000     9.7606     0.0000     2.5953     0.2318     0.0777   -12.7615    95.4110     7.0830     7.2450     7.1870   -87.8168  -999.2500  -999.2500
 1566.5000     9.7909     0.0000     2.5969     0.2402     0.0808   -12.3799    94.9941     6.9826     7.0912     6.9811   -87.3505  -999.2500  -999.2500
 1567.0000     9.7913     0.0000     2.5993     0.2415     0.0870   -11.9983    97.7200     6.8837     6.9407     6.7728   -86.8841  -999.2500  -999.2500
 1567.5000     9.7918     0.0000     2.6031     0.2420     0.1005   -11.6168    99.5365     6.7862     6.7450     6.5966   -86.3922  -999.2500  -999.2500
 1568.0000     9.7922     0.0000     2.6107     0.2388     0.1740   -11.2352   101.1254     6.6901     6.6492     6.4104   -85.9496  -999.2500  -999.2500
 1568.5000     9.7927     0.0000     2.6183     0.2315     0.1673   -10.8527   102.0314     6.5484     6.5081     6.4100   -85.6358  -999.2500  -999.2500
 1569.0000     9.7931     0.0000     2.6214     0.2330     0.1496   -10.4651   103.1650     6.5018     6.4617     6.4095   -85.6269  -999.2500  -999.2500
 1569.5000     9.7936     0.0000     2.6189     0.2369     0.1338   -10.0775   104.0722     6.5018     6.4617     6.4325   -86.0753  -999.2500  -999.2500
 1570.0000     9.8239     0.0000     2.6072     0.2397     0.1132    -9.6136    99.9695     6.5018     6.4617     6.5008   -86.2210  -999.2500  -999.2500
 1570.5000     9.8243     0.0000     2.5938     0.2409     0.0993    -9.2321    99.2822     6.5052     6.4617     6.5469   -85.9050  -999.2500  -999.2500
 1571.0000     9.8248     0.0000     2.5849     0.2422     0.0903    -8.8505   100.6707     6.5953     6.5173     6.5935   -85.5912  -999.2500  -999.2500
 1571.5000     9.7954     0.0000     2.5804     0.2440     0.0851    -0.7170   102.2323     6.5953     6.5702     6.7356   -85.5822  -999.2500  -999.2500
 1572.0000     9.8257     0.0000     2.5790     0.2488     0.0958    -0.3355   102.4555     6.6901     6.7450     6.8270   -85.9323  -999.2500  -999.2500
 1572.5000     9.8261     0.0000     2.5656     0.2470     0.0974    -7.8012   102.4500     6.7862     6.7995     6.9298   -86.1742  -999.2500  -999.2500
 1573.0000     9.8266     0.0000     2.5552     0.2351     0.0797     0.4277   102.2179     6.8837     6.9407     6.9829   -86.1630  -999.2500  -999.2500
 1573.5000     9.8270     0.0000     2.5549     0.2309     0.0617     0.8092   100.3925     6.9826     7.0851     7.0846   -86.3265  -999.2500  -999.2500
 1574.0000     9.8275     0.0000     2.5732     0.2315     0.0670     1.1908    97.6567     7.0830     7.2450     7.2833   -86.6025  -999.2500  -999.2500
 1574.5000     9.8280     0.0000     2.5853     0.2303     0.0781     1.5723    97.8798     7.1848     7.3530     7.3875   -86.8266  -999.2500  -999.2500
 1575.0000     9.8284     0.0000     2.5883     0.2274     0.0831     1.9539    98.7859     7.2880     7.4641     7.4932   -87.0442  -999.2500  -999.2500
 1575.5000     9.8289     0.0000     2.5884     0.2286     0.0832     2.3354   100.6023     7.3402     7.5626     7.5464   -87.3401  -999.2500  -999.2500
 1576.0000     9.8293     0.0000     2.5884     0.2352     0.0734    -5.0387   101.0531     7.3928     7.4552     7.4389   -87.6341  -999.2500  -999.2500
 1576.5000     9.8596     0.0000     2.5885     0.2370     0.0521     3.1008    97.2939     7.3928     7.2970     7.3854   -87.9299  -999.2500  -999.2500
 1577.0000     9.8601     0.0000     2.5886     0.2352     0.0552    11.2403    95.1251     7.1848     7.1421     7.2802   -88.0733  -999.2500  -999.2500
 1577.5000     9.8605     0.0000     2.5871     0.2292     0.0660    19.3798    95.8035     7.0326     7.0244     7.1765   -87.9116  -999.2500  -999.2500
 1578.0000     9.8609     0.0000     2.5827     0.2269     0.0766    19.8424   101.7171     6.7862     6.8421     6.9739   -87.4435  -999.2500  -999.2500
 1578.5000     9.8614     0.0000     2.5828     0.2341     0.0810    20.2240   103.7612     6.5953     6.5548     6.7771   -87.2276  -999.2500  -999.2500
 1579.0000     9.8917     0.0000     2.5828     0.2389     0.0812    20.6056   103.9855     6.4097     6.4157     6.5390   -86.6634  -999.2500  -999.2500
 1579.5000     9.8921     0.0000     2.5829     0.2413     0.0873    28.7391   104.6639     6.3189     6.2795     6.4000   -86.3496  -999.2500  -999.2500
 1580.0000     9.8926     0.0000     2.5829     0.2413     0.0874    29.1206   104.4307     6.2294     6.1903     6.3088   -85.7310  -999.2500  -999.2500
 1580.5000     9.8930     0.0000     2.5799     0.2413     0.0876    37.2541   102.3777     6.2294     6.1903     6.3083   -85.4172  -999.2500  -999.2500
 1581.0000     9.8935     0.0000     2.5767     0.2413     0.0817    37.6357   100.0971     6.3189     6.1903     6.3078   -85.1034  -999.2500  -999.2500
 1581.5000     9.8939     0.0000     2.5724     0.2389     0.0759    38.0172    98.9546     6.3189     6.1903     6.3073   -85.0944  -999.2500  -999.2500
 1582.0000     9.8943     0.0000     2.5697     0.2168     0.0640    30.6469   102.3633     6.3189     6.1903     6.3069   -85.0854  -999.2500  -999.2500
 1582.5000     9.8649     0.0000     2.5698     0.2187     0.0552    31.0284   104.4074     6.3189     6.1903     6.3065   -85.1269  -999.2500  -999.2500
 1583.0000     9.8654     0.0000     2.5716     0.2270     0.0553    23.6581   105.0869     6.3189     6.1903     6.3060   -85.6752  -999.2500  -999.2500
 1583.5000     9.8658     0.0000     2.5751     0.2318     0.0854    24.0396   101.4395     6.2740     6.1903     6.3056   -85.9734  -999.2500  -999.2500
 1584.0000     9.8663     0.0000     2.5827     0.2313     0.1125    24.4211    93.9237     6.2740     6.1903     6.3052   -86.1147  -999.2500  -999.2500
 1584.5000     9.8667     0.0000     2.5865     0.2247     0.1066    24.8062    94.6021     6.3189     6.1904     6.3047   -86.2604  -999.2500  -999.2500
 1585.0000     9.8672     0.0000     2.5826     0.2211     0.0978    17.4323   100.5157     6.3189     6.2795     6.3359   -86.2493  -999.2500  -999.2500
 1585.5000     9.8676     0.0000     2.5751     0.2182     0.0889    10.0619   106.8845     6.3189     6.3246     6.3945   -86.5457  -999.2500  -999.2500
 1586.0000     9.8681     0.0000     2.5732     0.2176     0.0771     2.6916   104.6039     6.3848     6.3699     6.3940   -86.5363  -999.2500  -999.2500
