~VERSION INFORMATION
 VERS.                2.0:   CWLS LOG ASCII STANDARD - VERSION 2.0
 WRAP.                 NO:   ONE LINE PER DEPTH STEP
~WELL INFORMATION
#MNEM.UNIT      DATA TYPE    INFORMATION
#----------   ------------   ------------------------------
 STRT.F           12.0000:   START DEPTH
 STOP.F          900.0000:   STOP DEPTH
 STEP.F            0.5000:   STEP LENGTH
 NULL.          -999.2500:   NO VALUE
 COMP. FLUOR DANIEL - NPSOR:   COMPANY
 WELL. FLUOR NPR "X" #82-34:   WELL
 FLD .              NPR 3:   FIELD
 LOC .      S34 T39N R78W:   LOCATION
 CNTY.            NATRONA:   COUNTY
 STAT.            WYOMING:   STATE
 CTRY. UNITED STATES OF AMERICA:   COUNTRY
 SRVC.      WESTERN ATLAS:   SERVICE COMPANY
 DATE.        06-SEP-1994:   LOGDATE
 API .     49025226350000:   API NUMBER
~CURVE INFORMATION
#MNEM.UNIT       API CODE    CURVE DESCRIPTION
#----------   ------------   ------------------------------
 DEPT.F                  :   
 RILD.OHMM   07 120 46 00:   INDUCTION LOG DEEP RESISTIVITY
 TENR.LBS    07 635 01 00:   TENSION
 RILM.OHMM   07 120 44 00:   INDUCTION LOG MEDIUM RESISTIVITY
 GRR .GAPI   07 310 01 00:   GAMMA RAY FROM RESISTIVITY
~PARAMETER INFORMATION
#MNEM.UNIT          VALUE    DESCRIPTION
#----------   ------------   ------------------------------
 EKB .F         5084.0000:   Kelly bushing
 EGL .F         5074.0000:   Ground level
 EDF .F         5083.0000:   Drilling floor
 EPD .F            0.0000:   Permanent datum
 TD  .F          918.0000:   Total depth
 DATE.        06-SEP-1994:   Date logged
 CLNT.            A2DTECH:   Client Code
 SL  . 990' FNL & 330' FEL:   Surface Location
 PD  .                 GL:   Permanent Datum
 DAPD.F                10:   Feet Above Permanent Datum
 DD  .F               918:   Depth driller
 DL  .F               807:   Depth logger
 BLI .F               889:   Bottom log interval
 CS1 .IN            9.625:   Casing size
 CBD1.       9.625" @ 54':   Casing driller 1
 CBL1.F                54:   Casing logger 1
 BS1 .IN             8.75:   Bit size
 BSD1.F               918:   Depth drilled with bit1
 DFT .                AIR:   Type fluid in hole
 LUN .            HL-6321:   Logging unit number
 LUL .       ROCK SPRINGS:   Logging unit location
 ENGI.           VERCIMAK:   Recorded By
 WITN.          G. STRONG:   Witnessed by
 ORIG.           5" PRINT:   Origin of data
 UWI .     49025226350000:   Unique Well ID
 DICO. A2D TECHNOLOGIES, INC.:   Digitizing Company
~OTHER INFORMATION
~A   DEPT     RILD       TENR       RILM         GRR  
# ...
  523.0000     6.8020   -62.0850     7.1110   132.8440
  523.5000     6.7810   -61.7480     7.0950   131.8020
  524.0000     6.7600   -61.4110     7.0790   133.1440
  524.5000     6.7390   -61.0740     7.0630   134.5610
  525.0000     6.7180   -60.7370     7.0470   132.0940
  525.5000     6.6970   -60.4000     7.0310   131.3680
  526.0000     6.6760   -60.0630     7.0150   133.2340
  526.5000     6.6550   -59.7260     6.9990   133.3070
  527.0000     6.6340   -59.3890     6.9830   130.8860
  527.5000     6.6130   -59.0520     6.9670   132.3290
  528.0000     6.5930   -58.7150     6.9510   136.0980
  528.5000     6.5720   -58.3780     6.9350   136.2850
  529.0000     6.5540   -58.0410     6.9190   136.8050
  529.5000     6.6540   -57.7040     7.0160   138.2740
  530.0000     6.7830   -57.3670     7.1480   136.9680
  530.5000     6.9130   -57.0300     7.2790   134.5490
  531.0000     7.0430   -56.6930     7.4110   133.4400
  531.5000     7.1730   -56.3560     7.5430   132.8000
  532.0000     7.3020   -56.0190     7.6750   132.2830
  532.5000     7.4320   -55.6820     7.8070   131.9910
  533.0000     7.5620   -55.3450     7.9390   131.8660
  533.5000     7.6920   -55.0080     8.0700   130.2360
  534.0000     7.8220   -54.6710     8.2020   127.6720
  534.5000     7.9510   -54.3340     8.3340   126.8660
  535.0000     8.0810   -53.9970     8.4660   126.9210
  535.5000     8.2110   -53.6600     8.5980   125.9840
  536.0000     8.3410   -53.3230     8.7300   125.0740
  536.5000     8.4700   -52.9860     8.8610   124.8420
  537.0000     8.6000   -52.6490     8.9930   125.4440
  537.5000     8.7300   -52.3120     9.1250   126.0790
  538.0000     8.8600   -51.9750     9.2570   123.2070
  538.5000     8.9900   -51.6380     9.3890   122.3180
  539.0000     9.1190   -51.3010     9.5210   121.1840
  539.5000     9.2010   -50.9640     9.6530   120.2590
  540.0000     9.2010   -50.6270     9.7070   119.2590
  540.5000     9.2010   -50.2900     9.6230   118.2590
  541.0000     9.2010   -49.9530     9.5200   117.2430
  541.5000     9.2010   -49.6160     9.4160   116.7690
  542.0000     9.1440   -49.2790     9.3120   117.8650
  542.5000     9.0910   -48.9420     9.2080   119.3480
  543.0000     9.0380   -48.6050     9.1040   120.9730
  543.5000     8.9850   -48.2680     9.0000   120.7510
  544.0000     8.9320   -47.9310     8.8970   119.1240
  544.5000     8.8780   -47.5940     8.7930   117.5990
  545.0000     8.8250   -47.2570     8.6890   116.2130
  545.5000     8.7720   -46.9200     8.5670   114.6080
  546.0000     8.7210   -46.5830     8.5670   115.7770
  546.5000     8.7910   -46.2460     8.6180   116.5360
  547.0000     8.8580   -45.9090     8.8200   115.7200
  547.5000     8.9260   -45.5720     9.0220   114.7480
  548.0000     8.9930   -45.2350     9.2010   115.1170
  548.5000     9.0380   -44.8980     9.1370   116.4500
  549.0000     8.9460   -44.5610     9.0490   117.2930
  549.5000     8.8480   -44.2240     8.9610   113.3490
  550.0000     8.7500   -43.8870     8.8730   112.0330
  550.5000     8.6520   -43.5500     8.7850   112.0130
  551.0000     8.5540   -43.2130     8.6980   110.5010
  551.5000     8.4560   -42.8760     8.6100   108.6540
  552.0000     8.3580   -42.5390     8.5220   109.8080
  552.5000     8.2610   -42.2020     8.4340   113.1940
  553.0000     8.1630   -41.8650     8.3460   116.1670
  553.5000     8.0650   -41.5280     8.2580   118.8990
  554.0000     7.9670   -41.1910     8.1700   117.8990
  554.5000     7.8690   -40.8540     8.0820   116.9540
  555.0000     7.7710   -40.5170     7.9950   117.3100
  555.5000     7.6730   -40.1800     7.9070   117.4880
  556.0000     7.5600   -39.8430     7.8190   115.5130
  556.5000     7.5310   -39.5060     7.7310   113.5510
  557.0000     7.4970   -39.1690     7.6430   112.2660
  557.5000     7.4620   -38.8320     7.5600   112.8140
  558.0000     7.4280   -38.4950     7.5380   113.3400
  558.5000     7.3930   -38.1580     7.5030   113.8700
  559.0000     7.3590   -37.8210     7.4690   112.0540
  559.5000     7.3240   -37.4840     7.4340   109.2970
  560.0000     7.2900   -37.1470     7.4000   107.5700
  560.5000     7.2550   -36.8100     7.3660   111.7140
  561.0000     7.2210   -36.4730     7.3310   116.7360
  561.5000     7.1860   -36.1360     7.2970   120.2390
  562.0000     7.1520   -35.7990     7.2620   116.7620
  562.5000     7.1180   -35.4620     7.2280   110.2620
  563.0000     7.0830   -35.1250     7.1940   109.8030
  563.5000     7.0490   -34.7880     7.1590   109.7780
  564.0000     7.0140   -34.4510     7.1250   109.7230
  564.5000     6.9800   -34.1140     7.0900   109.7790
  565.0000     6.9450   -33.7770     7.0560   109.7530
  565.5000     6.9150   -33.4400     6.9540   109.6930
  566.0000     6.7910   -33.1030     6.7900   110.5300
  566.5000     6.6810   -32.7660     6.6260   113.2700
  567.0000     6.5710   -32.4290     6.4620   116.2110
  567.5000     6.4610   -32.0920     6.2980   119.3280
  568.0000     6.3500   -31.7550     6.1350   120.1840
  568.5000     6.2400   -31.4180     5.9950   118.4120
  569.0000     6.2130   -31.0810     5.8890   118.7250
  569.5000     6.1030   -30.7440     5.9220   118.9860
  570.0000     6.1550   -30.4070     5.9820   115.1170
  570.5000     6.2000   -30.0700     6.0420   110.6680
  571.0000     6.2460   -29.7330     6.1030   111.7720
  571.5000     6.2910   -29.3960     6.1630   113.3340
  572.0000     6.3360   -29.0590     6.2230   118.2270
  572.5000     6.3820   -28.7220     6.2830   122.9350
  573.0000     6.4270   -28.3850     6.3430   123.4750
  573.5000     6.4720   -28.0480     6.4030   124.3100
  574.0000     6.5180   -27.7110     6.4640   124.7400
  574.5000     6.5630   -27.3740     6.5240   127.2000
  575.0000     6.6080   -27.0370     6.5840   128.7540
  575.5000     6.6530   -26.7000     6.6440   126.4670
  576.0000     6.6990   -26.3630     6.7040   122.5430
  576.5000     6.7440   -26.0260     6.7650   124.6740
  577.0000     6.7890   -25.6890     6.8250   126.9910
  577.5000     6.8350   -25.3520     6.8850   127.6830
  578.0000     6.8800   -25.0150     6.9450   127.6010
  578.5000     6.9150   -24.6780     7.0390   120.6160
  579.0000     6.8940   -24.3410     7.0290   122.3440
  579.5000     6.8690   -24.0040     7.0050   126.2090
  580.0000     6.8440   -23.6670     6.9810   130.3960
  580.5000     6.8190   -23.3300     6.9560   131.1080
  581.0000     6.7940   -22.9930     6.9320   129.8410
  581.5000     6.7690   -22.6560     6.9080   128.7610
  582.0000     6.7430   -22.3190     6.8840   127.7670
  582.5000     6.7180   -21.9820     6.8590   128.0920
  583.0000     6.6930   -21.6450     6.8350   129.2120
  583.5000     6.6680   -21.3080     6.8110   129.9030
  584.0000     6.6430   -20.9710     6.7870   125.8130
  584.5000     6.6180   -20.6340     6.7620   121.6760
  585.0000     6.5930   -20.2970     6.7380   121.4440
  585.5000     6.5680   -19.9600     6.7140   122.0910
  586.0000     6.5430   -19.6230     6.6900   123.2940
  586.5000     6.5170   -19.2860     6.6650   124.3440
  587.0000     6.4920   -18.9490     6.6410   125.4320
  587.5000     6.4670   -18.6120     6.6170   126.2010
  588.0000     6.4420   -18.2750     6.5930   126.8710
  588.5000     6.4170   -17.9380     6.5680   127.7260
  589.0000     6.3910   -17.6010     6.5440   128.8020
  589.5000     6.3660   -17.2640     6.5200   130.0340
  590.0000     6.3420   -16.9270     6.4960   131.1430
  590.5000     6.3250   -16.5900     6.4710   132.2700
  591.0000     6.2740   -16.2530     6.4470   130.3940
  591.5000     6.2180   -15.9160     6.4230   128.3240
  592.0000     6.1630   -15.5790     6.3990   125.8540
  592.5000     6.1080   -15.2420     6.3740   123.5990
  593.0000     6.0530   -14.9050     6.3500   116.9930
  593.5000     5.9950   -14.5680     6.3250   109.8300
  594.0000     5.8920   -14.2310     6.1310   106.1550
  594.5000     5.7060   -13.8940     5.9270   112.5890
  595.0000     5.5200   -13.5570     5.7230   117.8900
  595.5000     5.3340   -13.2200     5.5190   123.8070
