~VERSION INFORMATION
 VERS.                2.0:   CWLS LOG ASCII STANDARD - VERSION 2.0
 WRAP.                 NO:   ONE LINE PER DEPTH STEP
~WELL INFORMATION
#MNEM.UNIT      DATA TYPE    INFORMATION
#----------   ------------   ------------------------------
 STRT.F          794.0000:   START DEPTH
 STOP.F         2828.0000:   STOP DEPTH
 STEP.F            0.5000:   STEP LENGTH
 NULL.          -999.2500:   NO VALUE
 COMP.           U S NAVY:   COMPANY
 WELL. U S NAVY NPR 3 "A" #10-33:   WELL
 FLD .        TEAPOT DOME:   FIELD
 LOC .      S33 T39N R78W:   LOCATION
 CNTY.            NATRONA:   COUNTY
 STAT.            WYOMING:   STATE
 CTRY. UNITED STATES OF AMERICA:   COUNTRY
 SRVC.         MCCULLOUGH:   SERVICE COMPANY
 DATE.        25-JUL-1968:   LOGDATE
 API .     49025102180000:   API NUMBER
~CURVE INFORMATION
#MNEM.UNIT       API CODE    CURVE DESCRIPTION
#----------   ------------   ------------------------------
 DEPT.F                  :   
 GRN .GAPI   35 310 01 00:   GAMMA RAY
 NEUT.NAPI   35 330 01 00:   NEUTRON
 TEMP.DEG    99 000 00 00:   TEMPERATURE AT TOOL
~PARAMETER INFORMATION
#MNEM.UNIT          VALUE    DESCRIPTION
#----------   ------------   ------------------------------
 EKB .F            0.0000:   Kelly bushing
 EGL .F            0.0000:   Ground level
 EDF .F            0.0000:   Drilling floor
 EPD .F            0.0000:   Permanent datum
 TD  .F         2829.0000:   Total depth
 DATE.        25-JUL-1968:   Date logged
 CLNT.            A2DTECH:   Client Code
 DL  .F              2829:   Depth logger
 BLI .F              2825:   Bottom log interval
 TLI .F               800:   Top log interval
 DFT .                DRY:   Type fluid in hole
 TCS .HRS               2:   Time Circ. stopped
 ENGI.           KIMBERRY:   Recorded By
 ORIG.        2" 5" PRINT:   Origin of data
 UWI .     49025102180000:   Unique Well ID
 DICO. A2D TECHNOLOGIES, INC.:   Digitizing Company
~OTHER INFORMATION
~A   DEPT       GRN      NEUT       TEMP   
# ...
 2341.0000    70.3500   559.4420  -999.2500
 2341.5000    66.8020   550.4530  -999.2500
 2342.0000    66.1110   542.1930  -999.2500
 2342.5000    69.0550   561.4280  -999.2500
 2343.0000    71.2350   563.4810  -999.2500
 2343.5000    71.6870   559.6240  -999.2500
 2344.0000    72.2590   551.1920  -999.2500
 2344.5000    74.4240   565.6070  -999.2500
 2345.0000    77.6460   548.1340  -999.2500
 2345.5000    78.3360   558.5870  -999.2500
 2346.0000    78.4690   551.1130  -999.2500
 2346.5000    77.4030   558.7690  -999.2500
 2347.0000    74.3490   570.1260  -999.2500
 2347.5000    73.2690   570.4270  -999.2500
 2348.0000    70.7550   547.8780  -999.2500
 2348.5000    71.9620   546.4600  -999.2500
 2349.0000    70.8260   530.1610  -999.2500
 2349.5000    69.4940   515.4400  -999.2500
 2350.0000    70.4530   514.7690  -999.2500
 2350.5000    72.9770   516.4290  -999.2500
 2351.0000    74.3880   515.2640  -999.2500
 2351.5000    75.3860   508.4790  -999.2500
 2352.0000    76.2490   511.0610  -999.2500
 2352.5000    76.8290   520.5400  -999.2500
 2353.0000    75.8900   525.3210  -999.2500
 2353.5000    75.4150   539.5040  -999.2500
 2354.0000    75.1750   540.5400  -999.2500
 2354.5000    78.3580   538.6330  -999.2500
 2355.0000    77.1860   533.9230  -999.2500
 2355.5000    77.8960   528.2150  -999.2500
 2356.0000    77.2330   540.9670  -999.2500
 2356.5000    76.0300   554.2040  -999.2500
 2357.0000    76.5540   568.8720  -999.2500
 2357.5000    79.9960   572.7250  -999.2500
 2358.0000    80.6450   573.8300  -999.2500
 2358.5000    80.5800   545.7110  -999.2500
 2359.0000    78.6730   534.6180  -999.2500
 2359.5000    77.9080   544.7120  -999.2500
 2360.0000    77.8830   531.3370  -999.2500
 2360.5000    76.9160   549.8900  -999.2500
 2361.0000    77.6370   538.6020  -999.2500
 2361.5000    78.4530   543.2980  -999.2500
 2362.0000    78.3050   542.8380  -999.2500
 2362.5000    75.8490   534.7440  -999.2500
 2363.0000    75.8230   544.0890  -999.2500
 2363.5000    75.3780   553.0440  -999.2500
 2364.0000    74.4170   556.4040  -999.2500
 2364.5000    76.9090   530.1940  -999.2500
 2365.0000    75.4510   537.9020  -999.2500
 2365.5000    75.4750   527.8820  -999.2500
 2366.0000    76.0360   521.6510  -999.2500
 2366.5000    79.9690   516.0040  -999.2500
 2367.0000    80.7480   521.8410  -999.2500
 2367.5000    80.9000   529.4210  -999.2500
 2368.0000    79.1620   537.0130  -999.2500
 2368.5000    75.4960   544.6990  -999.2500
 2369.0000    75.3570   549.6370  -999.2500
 2369.5000    75.4960   539.1750  -999.2500
 2370.0000    75.0700   528.3950  -999.2500
 2370.5000    74.5280   521.6800  -999.2500
 2371.0000    74.9580   527.9290  -999.2500
 2371.5000    74.6070   532.3730  -999.2500
 2372.0000    73.5670   521.1070  -999.2500
 2372.5000    74.3500   496.5190  -999.2500
 2373.0000    75.1090   493.2520  -999.2500
 2373.5000    74.6330   501.1250  -999.2500
 2374.0000    72.0410   511.0350  -999.2500
 2374.5000    70.3920   519.6730  -999.2500
 2375.0000    70.6460   524.3550  -999.2500
 2375.5000    71.0750   529.0470  -999.2500
 2376.0000    70.8600   534.2670  -999.2500
 2376.5000    75.9420   554.2120  -999.2500
 2377.0000    75.8360   567.0800  -999.2500
 2377.5000    73.2680   574.6490  -999.2500
 2378.0000    72.4660   566.1350  -999.2500
 2378.5000    72.1480   578.0590  -999.2500
 2379.0000    71.7810   565.5430  -999.2500
 2379.5000    71.5390   566.6780  -999.2500
 2380.0000    70.0890   567.8080  -999.2500
 2380.5000    72.4360   542.5640  -999.2500
 2381.0000    72.6840   547.2010  -999.2500
 2381.5000    73.7570   561.1080  -999.2500
 2382.0000    73.4350   575.8090  -999.2500
 2382.5000    72.9130   583.4400  -999.2500
 2383.0000    73.8850   583.6180  -999.2500
 2383.5000    76.1900   590.8460  -999.2500
 2384.0000    80.1910   596.1350  -999.2500
 2384.5000    80.7540   570.5680  -999.2500
 2385.0000    82.0690   573.9900  -999.2500
 2385.5000    79.2210   545.5680  -999.2500
 2386.0000    77.4800   551.6050  -999.2500
 2386.5000    77.8170   541.8070  -999.2500
 2387.0000    77.2410   546.2800  -999.2500
 2387.5000    75.0300   536.6640  -999.2500
 2388.0000    73.2070   546.9710  -999.2500
 2388.5000    77.1730   534.0650  -999.2500
 2389.0000    79.9750   530.5870  -999.2500
 2389.5000    78.5640   527.6900  -999.2500
 2390.0000    78.6600   526.9310  -999.2500
 2390.5000    77.1890   537.9340  -999.2500
 2391.0000    75.0400   538.3170  -999.2500
 2391.5000    75.8340   542.7940  -999.2500
 2392.0000    77.9320   546.9340  -999.2500
 2392.5000    83.0130   540.3500  -999.2500
 2393.0000    81.2810   547.2200  -999.2500
 2393.5000    78.5220   556.9890  -999.2500
 2394.0000    78.2760   580.2970  -999.2500
 2394.5000    74.2500   588.6150  -999.2500
 2395.0000    73.7710   572.8560  -999.2500
 2395.5000    73.8780   599.1560  -999.2500
 2396.0000    73.7840   604.1280  -999.2500
 2396.5000    76.5930   611.6420  -999.2500
 2397.0000    77.2480   569.2120  -999.2500
 2397.5000    77.1540   562.2740  -999.2500
 2398.0000    74.9920   546.7600  -999.2500
 2398.5000    74.0460   555.1500  -999.2500
 2399.0000    74.3000   565.0780  -999.2500
 2399.5000    76.0370   551.3610  -999.2500
 2400.0000    74.6420   548.0620  -999.2500
 2400.5000    75.0760   546.1100  -999.2500
 2401.0000    74.0370   540.6040  -999.2500
 2401.5000    73.0980   531.6590  -999.2500
 2402.0000    72.8770   515.2870  -999.2500
 2402.5000    73.4060   526.3720  -999.2500
 2403.0000    74.2020   520.1530  -999.2500
 2403.5000    74.1880   514.9320  -999.2500
 2404.0000    74.5750   522.2410  -999.2500
 2404.5000    74.0330   532.6500  -999.2500
 2405.0000    73.4830   513.4940  -999.2500
 2405.5000    74.0500   511.1040  -999.2500
 2406.0000    74.7480   507.3890  -999.2500
 2406.5000    74.6620   488.3650  -999.2500
 2407.0000    74.5530   490.8200  -999.2500
 2407.5000    74.6870   518.9530  -999.2500
 2408.0000    76.0620   527.7340  -999.2500
 2408.5000    77.8460   534.8970  -999.2500
 2409.0000    78.6640   539.5570  -999.2500
 2409.5000    78.0970   536.7680  -999.2500
 2410.0000    79.2260   558.5580  -999.2500
 2410.5000    79.5880   564.3100  -999.2500
 2411.0000    77.8840   578.9390  -999.2500
 2411.5000    75.2440   588.2730  -999.2500
 2412.0000    72.1290   601.1430  -999.2500
 2412.5000    71.6500   629.2580  -999.2500
 2413.0000    73.2030   651.9410  -999.2500
 2413.5000    75.3730   634.2690  -999.2500
 2414.0000    80.8630   595.5010  -999.2500
 2414.5000    81.0640   601.9530  -999.2500
 2415.0000    82.5510   591.1020  -999.2500
 2415.5000    80.0460   588.5140  -999.2500
 2416.0000    76.2500   592.9180  -999.2500
 2416.5000    72.5890   575.0900  -999.2500
 2417.0000    71.2690   581.6110  -999.2500
 2417.5000    70.2050   599.1100  -999.2500
 2418.0000    70.3010   588.8930  -999.2500
 2418.5000    71.3460   591.5970  -999.2500
 2419.0000    68.3970   573.8340  -999.2500
 2419.5000    70.1120   559.6540  -999.2500
 2420.0000    70.8520   550.5950  -999.2500
 2420.5000    71.5060   552.6870  -999.2500
 2421.0000    77.3000   559.5220  -999.2500
 2421.5000    79.1500   561.1010  -999.2500
 2422.0000    79.8730   550.6410  -999.2500
 2422.5000    78.7810   557.5200  -999.2500
 2423.0000    78.5300   564.5920  -999.2500
 2423.5000    77.9980   556.2710  -999.2500
 2424.0000    78.9270   542.2430  -999.2500
 2424.5000    76.7060   549.5840  -999.2500
 2425.0000    74.8220   566.6620  -999.2500
 2425.5000    74.4610   584.9820  -999.2500
 2426.0000    72.3420   553.6280  -999.2500
 2426.5000    71.0240   543.8860  -999.2500
 2427.0000    70.5330   549.7200  -999.2500
 2427.5000    72.6220   544.8840  -999.2500
 2428.0000    71.6600   536.6900  -999.2500
 2428.5000    71.4350   540.3020  -999.2500
 2429.0000    68.7200   544.2810  -999.2500
 2429.5000    67.6920   563.1560  -999.2500
 2430.0000    66.3180   549.2190  -999.2500
 2430.5000    66.7180   554.8030  -999.2500
 2431.0000    67.2680   561.3550  -999.2500
 2431.5000    69.1860   550.6570  -999.2500
