~VERSION INFORMATION
 VERS.                2.0:   CWLS LOG ASCII STANDARD - VERSION 2.0
 WRAP.                 NO:   ONE LINE PER DEPTH STEP
~WELL INFORMATION
#MNEM.UNIT      DATA TYPE    INFORMATION
#----------   ------------   ------------------------------
 STRT.F         3288.0000:   START DEPTH
 STOP.F         4421.0000:   STOP DEPTH
 STEP.F            0.5000:   STEP LENGTH
 NULL.          -999.2500:   NO VALUE
 COMP.       FLUOR DANIEL:   COMPANY
 WELL. FLUOR 22 "X" #2-10:   WELL
 FLD . TEA POT DOME NAVAL PETROLEUM DO:   FIELD
 LOC .      S10 T38N R78W:   LOCATION
 CNTY.            NATRONA:   COUNTY
 STAT.            WYOMING:   STATE
 CTRY. UNITED STATES OF AMERICA:   COUNTRY
 SRVC.        HALLIBURTON:   SERVICE COMPANY
 DATE.        13-DEC-1996:   LOGDATE
 API .     49025228330000:   API NUMBER
~CURVE INFORMATION
#MNEM.UNIT       API CODE    CURVE DESCRIPTION
#----------   ------------   ------------------------------
 DEPT.F                  :   
 NPHI.DEC    42 890 03 00:   NEUTRON POROSITY SANDSTONE
 GRD .GAPI   45 310 01 00:   GAMMA RAY FROM DENSITY LOG
 CALD.IN     45 280 60 00:   CALIPER FROM DENSITY LOG
 PE  .B/E    45 358 01 00:   PHOTOELECTRIC FACTOR
 CORR.G/C3   45 356 01 00:   DENSITY CORRECTION
 TEND.LBS    45 635 01 00:   TENSION FORM DENSITY LOG
 RHOB.G/C3   45 350 01 00:   BULK DENSITY
 TENR.LBS    07 635 01 00:   TENSION FROM RESISTIVITY
 ILD .OHMM   07 120 46 00:   DEEP INDUCTION RESISTIVITY
 ILM .OHMM   07 120 44 00:   INDUCTION LOG MEDIUM RESISTIVITY
 SFL .OHMM   07 220 01 00:   SHALLOW FOCUSED LOG RESISTIVITY
~PARAMETER INFORMATION
#MNEM.UNIT          VALUE    DESCRIPTION
#----------   ------------   ------------------------------
 EKB .F         5268.0000:   Kelly bushing
 EGL .F         5258.0000:   Ground level
 EDF .F         5267.0000:   Drilling floor
 TD  .F         4435.0000:   Total depth
 CLNT.            A2DTECH:   Client Code
 SL  . 569' FNL & 1440' FWL:   Surface Location
 PD  .                 GL:   Permanent Datum
 EPD .F              5258:   Elevation Permanent Datum
 LMF .                 KB:   Log Measured From
 DMF .                 KB:   Drilling Measured From
 DAPD.F                10:   Feet Above Permanent Datum
 DATE.        13-DEC-1996:   Date Logged [DD-MMM-YYYY]
 DD  .F              4435:   Depth driller
 DL  .F              4412:   Depth logger
 BLI .F              4403:   Bottom log interval
 TLI .F              3308:   Top log interval
 CS1 .IN            9.625:   Casing size
 CBD1.     9.625" @ 3307':   Casing driller 1
 CBL1.F              3308:   Casing logger 1
 BS1 .IN              8.5:   Bit size
 BSD1.F              4435:   Depth drilled with bit1
 DFT .           POLY-KCL:   Type fluid in hole
 DFD .                  9:   Density
 DFV .                 50:   Viscosity
 DFPH.                  9:   pH
 DFL .                  7:   Fluid loss
 MSS .           MUD TANK:   Source of sample
 RMS .OHMM           0.47:   Rm
 MST .F                56:   Rm Meas. temp.
 RMF .OHMM           0.36:   Rmf
 MFST.F                61:   Rmf Meas. temp.
 MFSS.               MEAS:   Source Rmf.
 RMC .OHMM           0.48:   Rmc
 MCST.F                68:   Rmc Meas. temp.
 MCSS.               MEAS:   Source Rmc.
 RMB .OHMM           0.20:   Rm. at BHT
 BHT .F               138:   BHT.
 TCS .HRS              20:   Time Circ. stopped
 TLAB.HRS            0108:   Time logger at bottom
 MRT .F               138:   Maximum recorded temp.
 LUN .              52546:   Logging unit number
 LUL .              VERNI:   Logging unit location
 ENGI.        JOHN SAVAGE:   Recorded By
 WITN.          STEBBINGS:   Witnessed by
 ORIG.         2.5" PRINT:   Origin of data
 UWI .     49025228330000:   Unique Well ID
 DICO. A2D TECHNOLOGIES, INC.:   Digitizing Company
~OTHER INFORMATION
~A  DEPT        NPHI       GRD      CALD         PE       CORR       TEND       RHOB       TENR        ILD        ILM        SFL   
# ...
 3471.0000     0.2037   104.2779     9.3350     2.8868     0.0734  2868.0432     2.5236  2969.7058     6.0601     6.2941     7.0117
 3471.5000     0.2131   104.5661     9.3349     2.8573     0.0734  2947.7703     2.5196  2970.9370     5.3699     5.9611     5.8461
 3472.0000     0.2199   105.5465     9.3347     2.8580     0.0719  2907.5469     2.5170  2971.9143     4.6861     5.2776     5.9232
 3472.5000     0.2204   107.2799     9.3346     2.8588     0.0734  2832.8276     2.5146  2943.3823     4.8115     4.6270     6.0834
 3473.0000     0.2180   108.4834     9.3344     2.8293     0.0729  2809.7751     2.5170  2944.4575     5.0752     4.9454     6.3329
 3473.5000     0.2198   107.2682     9.3343     2.8301     0.0712  2918.3936     2.5207  2945.4414     5.3533     5.1454     6.4170
 3474.0000     0.2303   106.6582     9.3341     2.8308     0.0696  2915.9548     2.5238  2946.4705     5.0699     5.1414     6.1601
 3474.5000     0.2501   107.8608     9.3340     2.8316     0.0659  2855.2400     2.5208  2954.1807     4.7243     4.7228     5.5869
 3475.0000     0.2549   110.2719     9.3640     2.8323     0.0614  2885.1599     2.5102  2977.9409     4.2142     4.2805     5.2233
 3475.5000     0.2622   113.3311     9.3639     2.8210     0.0553  2945.2913     2.4875  2978.9707     3.7752     3.9962     4.9902
 3476.0000     0.2676   114.6657     9.3637     2.8036     0.0478  2975.2266     2.4709  2963.9324     3.4700     3.7412     4.4222
 3476.5000     0.2689   117.9041     9.3636     2.7883     0.0402  2944.7078     2.4525  2951.6177     3.4681     3.5852     4.1163
 3477.0000     0.2695   122.4375     9.3634     2.7447     0.0372  2911.9412     2.4415  2923.2351     3.4663     3.5089     4.0998
 3477.5000     0.2657   125.3485     9.3545     2.7154     0.0372  2850.2024     2.4317  2924.3296     3.5586     3.6019     4.1539
 3478.0000     0.2538   125.9456     9.3329     2.6858     0.0389  2817.5178     2.4412  2895.8823     3.7536     3.7475     4.2662
 3478.5000     0.2376   125.9396     9.3328     2.6866     0.0405  2792.4839     2.4568  2867.4609     3.9064     3.8990     4.6248
 3479.0000     0.2371   125.3281     9.3326     2.6874     0.0433  2852.6150     2.4795  2868.5293     4.0653     4.1116     5.1508
 3479.5000     0.2393   124.7180     9.3324     2.6881     0.0453  2882.5352     2.4840  2869.5588     4.1183     4.1641     5.2901
 3480.0000     0.2441   125.3164     9.3323     2.7190     0.0485  2882.1753     2.4832  2870.5881     4.0466     4.0180     4.9751
 3480.5000     0.2483   125.9148     9.3322     2.7500     0.0516  2851.6616     2.4878  2871.6177     3.8460     3.7680     4.5427
 3481.0000     0.2477   128.3259     9.3320     2.7508     0.0516  2851.3025     2.4908  2872.8357     4.0562     3.8222     4.3743
 3481.5000     0.2344   128.9245     9.3319     2.7817     0.0464  2851.0110     2.4969  2903.2251     4.4313     4.1542     4.4578
 3482.0000     0.2175   127.6781     9.3317     2.8127     0.0419  2911.1423     2.5015  2904.2024     4.9309     4.6808     4.6500
 3482.5000     0.2090   123.8386     9.3316     2.8136     0.0374  2910.8506     2.5017  2934.5913     5.3013     5.2092     6.2922
 3483.0000     0.2117   116.9006     9.3314     2.7539     0.0328  2880.3477     2.4939  2935.5884     5.2985     5.4933     6.7375
 3483.5000     0.2159   112.8922     9.3371     2.7546     0.0283  2880.0559     2.4879  2940.9143     5.2250     5.3432     6.7627
 3484.0000     0.2175   111.3716     9.3613     2.7251     0.0283  2909.9756     2.4883  2967.0588     5.0155     4.9212     6.0366
 3484.5000     0.2167   111.3656     9.3715     2.7259     0.0315  2939.8953     2.4945  2968.0884     5.0130     4.7902     6.0346
 3485.0000     0.2148   112.5276     9.3912     2.7266     0.0361  2934.0425     2.5004  2969.1179     5.0171     5.0514     6.2147
 3485.5000     0.2151   114.0966     9.4213     2.6971     0.0374  2871.1541     2.5046  2970.1470     5.0890     5.1853     6.5397
 3486.0000     0.2212   113.7632     9.4211     2.7281     0.0355  2848.3381     2.5015  3000.7446     5.1419     5.2506     6.5373
 3486.5000     0.2254   113.1532     9.4210     2.6986     0.0339  2860.0840     2.4949  3001.7219     5.1659     5.2083     6.4137
 3487.0000     0.2260   111.3346     9.4208     2.6994     0.0329  2892.1504     2.4903  3002.6992     5.2399     5.1713     6.2735
 3487.5000     0.2242   110.7246     9.4207     2.7002     0.0337  2877.6436     2.4890  3003.6763     5.2733     5.0982     6.1869
 3488.0000     0.2182   109.5103     9.3903     2.7009     0.0345  2847.0735     2.4942  3004.7058     5.3415     5.0943     6.1849
 3488.5000     0.2119   108.2960     9.3902     2.7017     0.0375  2846.7817     2.5002  3005.7351     5.5588     5.3003     6.2669
 3489.0000     0.1980   106.4449     9.3895     2.7024     0.0375  2876.7019     2.5124  3006.7646     6.3623     5.8437     6.6127
 3489.5000     0.1872   104.5822     9.3597     2.7033     0.0406  2936.8330     2.5184  2995.2539     7.0688     6.6705     7.3647
 3490.0000     0.1857   102.7188     9.3595     2.7343     0.0436  2936.5413     2.5215  2979.4119     7.7513     7.8143     8.7146
 3490.5000     0.1837   100.2518     9.3594     2.7350     0.0467  2906.0383     2.5185  2951.0295     7.8741     7.4167     9.5129
 3491.0000     0.1861    99.8077     9.3592     2.7357     0.0482  2845.3171     2.5185  2922.7708     7.1598     6.6903     9.4291
 3491.5000     0.1892   101.5167     9.3709     2.7667     0.0497  2851.9868     2.5185  2894.3362     7.2532     6.2714     9.0419
 3492.0000     0.1922   104.9186     9.3891     2.7976     0.0498  2905.1631     2.5185  2895.3137     7.2494     6.3631     8.5933
 3492.5000     0.1928   107.7235     9.3890     2.8285     0.0498  2844.4109     2.5201  2896.3237     7.5444     6.8932     8.5270
 3493.0000     0.1916   106.4280     9.3888     2.8273     0.0498  2844.1086     2.5216  2897.3530     7.8514     7.4675     8.4837
 3493.5000     0.1777   102.7967     9.3886     2.7696     0.0504  2843.8064     2.5247  2927.7944     8.1878     8.0896     8.8352
 3494.0000     0.1644    98.5613     9.3885     2.7704     0.0528  2813.2930     2.5277  2958.2351     8.7763     8.5633     9.6190
 3494.5000     0.1608    96.7428     9.3884     2.7711     0.0544  2843.2024     2.5206  2959.2649     9.2141     8.9959    12.4287
 3495.0000     0.1663    95.5285     9.3580     2.7719     0.0529  2903.2673     2.5126  2989.9014     8.9638     8.8322    12.4247
 3495.5000     0.1761    94.3142     9.3276     2.8029     0.0529  2902.9756     2.5127  2990.8787     8.8391     8.5098    12.2114
 3496.0000     0.1795    94.3082     9.2933     2.8338     0.0499  2872.4727     2.5172  2991.8562     9.0910     8.4468    11.7638
 3496.5000     0.1772    94.2097     9.2669     2.8346     0.0484  2841.9692     2.5203  2992.8335     9.7015     9.3344    12.1883
 3497.0000     0.1747    92.4834     9.2733     2.8355     0.0469  2841.6775     2.5248  2993.8103    10.2331     9.9769    12.7211
 3497.5000     0.1744    92.8398     9.3056     2.7758     0.0439  2901.8127     2.5218  2965.3760    10.7939    10.8081    13.0922
 3498.0000     0.1771    95.5652     9.3269     2.7161     0.0423  2931.7288     2.5140  2966.4705    10.0859    10.5128    12.7382
 3498.5000     0.1802    98.4427     9.3134     2.6866     0.0378  2901.2085     2.5066  2957.3027     9.6815     9.4234    11.9026
 3499.0000     0.1832   100.0243     9.2808     2.6874     0.0399  2900.9062     2.5037  2939.1174     9.8260     9.0516    11.5817
 3499.5000     0.1826   100.5536     9.2358     2.7183     0.0447  2900.6042     2.5076  2940.1472    10.2723     9.6347    11.5632
 3500.0000     0.1808   100.0004     9.2356     2.7190     0.0500  2870.0178     2.5139  2941.3396    10.5265    10.1559    11.8911
 3500.5000     0.1814    98.9962     9.2353     2.7497     0.0531  2869.5818     2.5174  2942.3167    10.6775    10.5956    12.5973
 3501.0000     0.1820    97.2752     9.2048     2.7199     0.0498  2869.1455     2.5152  2949.1558    10.8227    10.9732    13.2393
