~VERSION INFORMATION
 VERS.                2.0:   CWLS LOG ASCII STANDARD - VERSION 2.0
 WRAP.                 NO:   ONE LINE PER DEPTH STEP
~WELL INFORMATION
#MNEM.UNIT      DATA TYPE    INFORMATION
#----------   ------------   ------------------------------
 STRT.F           48.0000:   START DEPTH
 STOP.F         3235.5000:   STOP DEPTH
 STEP.F            0.5000:   STEP LENGTH
 NULL.          -999.2500:   NO VALUE
 COMP.    TESORO PEROLEUM:   COMPANY
 WELL. TESORO P46 T 28 N.P.R. #3-28:   WELL
 FLD .        TEAPOT DOME:   FIELD
 LOC .      S28 T39N R78W:   LOCATION
 CNTY.            NATRONA:   COUNTY
 STAT.            WYOMING:   STATE
 CTRY. UNITED STATES OF AMERICA:   COUNTRY
 SRVC.      DRESSER ATLAS:   SERVICE COMPANY
 DATE.        17-SEP-1975:   LOGDATE
 API .     49025102530000:   API NUMBER
~CURVE INFORMATION
#MNEM.UNIT       API CODE    CURVE DESCRIPTION
#----------   ------------   ------------------------------
 DEPT.F                  :   
 CALD.IN     45 280 60 00:   CALIPER FROM DENSITY LOG
 RHOB.G/C3   45 350 01 00:   BULK DENSITY
 CORR.G/C3   45 356 01 00:   DENSITY CORRECTION
 TEND.LBS    45 635 01 00:   TENSION FORM DENSITY LOG
 NPHI.DEC    42 890 03 00:   NEUTRON POROSITY SANDSTONE
 SPR .MV     07 010 01 00:   SPONTANEOUS POTENTIAL
 ILD .OHMM   07 120 46 00:   DEEP INDUCTION RESISTIVITY
 ILM .OHMM   07 120 44 00:   INDUCTION LOG MEDIUM RESISTIVITY
 SFL .OHMM   07 220 01 00:   SHALLOW FOCUSED LOG RESISTIVITY
 GRD .GAPI   45 310 01 00:   GAMMA RAY FROM DENSITY LOG
~PARAMETER INFORMATION
#MNEM.UNIT          VALUE    DESCRIPTION
#----------   ------------   ------------------------------
 EKB .F         5088.0000:   Kelly bushing
 EGL .F         5075.0000:   Ground level
 TD  .F         3218.0000:   Total depth
 CLNT.            A2DTECH:   Client Code
 SL  . 2310' FWL & 1650' FSL:   Surface Location
 PD  .                 GL:   Permanent Datum
 EPD .F              5075:   Elevation Permanent Datum
 LMF .                 KB:   Log Measured From
 DMF .                 KB:   Drilling Measured From
 DAPD.F                13:   Feet Above Permanent Datum
 DATE.        17-SEP-1975:   Date Logged [DD-MMM-YYYY]
 DD  .F              3218:   Depth driller
 DL  .F              3217:   Depth logger
 BLI .F              3215:   Bottom log interval
 TLI .F               395:   Top log interval
 CS1 .IN            8.625:   Casing size
 CBD1.      8.625" @ 393':   Casing driller 1
 CBL1.F               395:   Casing logger 1
 BS1 .IN            7.875:   Bit size
 BSD1.F              3218:   Depth drilled with bit1
 DFT .           CHEM GEL:   Type fluid in hole
 DFD .                9.5:   Density
 DFV .                 60:   Viscosity
 DFPH.                9.5:   pH
 DFL .                 11:   Fluid loss
 MSS .           FLOWLINE:   Source of sample
 RMS .OHMM           0.55:   Rm
 MST .F                60:   Rm Meas. temp.
 RMF .OHMM           0.48:   Rmf
 MFST.F                62:   Rmf Meas. temp.
 MFSS.               MEAS:   Source Rmf.
 RMC .OHMM            1.6:   Rmc
 MCST.F                62:   Rmc Meas. temp.
 MCSS.               MEAS:   Source Rmc.
 RMB .OHMM            0.3:   Rm. at BHT
 BHT .F               112:   BHT.
 TCS .HRS               5:   Time Circ. stopped
 MRT .F               112:   Maximum recorded temp.
 LUN .               6008:   Logging unit number
 LUL .              GLTTE:   Logging unit location
 ENGI.            MILHOAN:   Recorded By
 WITN.               WOLF:   Witnessed by
 ORIG.           5" PRINT:   Origin of data
 UWI .     49025102530000:   Unique Well ID
 DICO. A2DTECHNOLOGIES,INC.:   Digitizing Company
~OTHER INFORMATION
~A   DEPT     CALD       RHOB       CORR       TEND       NPHI         SPR         ILD        ILM        SFL      GRD   
# ...
 2393.0000     8.8663     2.5927     0.0182  1879.1542     0.2793   -26.8680     6.2708     6.1914     7.3053    85.3722
 2393.5000     8.8685     2.5883     0.0139  1877.5649     0.2814   -26.5646     6.4059     6.3678     7.2565    84.4477
 2394.0000     8.8704     2.5838     0.0110  1876.1331     0.2856   -26.4100     6.4987     6.5497     7.1581    83.5319
 2394.5000     8.8723     2.5816     0.0096  1874.6127     0.2871   -26.2554     6.5934     6.5514     7.0609    83.0785
 2395.0000     8.8742     2.5832     0.0098  1873.1119     0.2837   -26.2497     6.6888     6.5532     6.8687    83.3621
 2395.5000     8.8761     2.5894     0.0100  1871.6011     0.2894   -25.9463     6.6920     6.5550     6.5898    83.8769
 2396.0000     8.8780     2.5978     0.0101  1854.7092     0.2882   -25.9405     6.6020     6.4662     6.4552    84.6315
 2396.5000     8.8799     2.6000     0.0103  1862.3369     0.2845   -25.9345     6.4697     6.3785     6.4117    85.1463
 2397.0000     8.8819     2.6023     0.0119  1851.7570     0.2824   -26.0778     6.3393     6.2921     6.4139    85.6626
 2397.5000     8.8838     2.6061     0.0121  1850.2812     0.2842   -26.2208     6.2548     6.2068     6.3711    86.4447
 2398.0000     8.9011     2.6107     0.0122  1848.9425     0.2845   -26.5112     6.2577     6.1232     6.2846    86.6994
 2398.5000     8.9030     2.6130     0.0109  1847.4319     0.2808   -26.6542     6.1743     6.1248     6.2427    86.2547
 2399.0000     8.9199     2.6071     0.0110  1845.8525     0.2781   -26.7987     6.1774     6.1262     6.2444    85.8012
 2399.5000     8.9368     2.6004     0.0112  1844.3768     0.2793   -27.0893     6.2240     6.1281     6.2902    85.3564
 2400.0000     8.9537     2.5952     0.0098  1842.9004     0.2810   -27.0833     6.2704     6.2157     6.3359    84.9205
 2400.5000     8.9556     2.5953     0.0100  1818.0210     0.2807   -27.3752     6.4054     6.3044     6.4265    83.9960
 2401.0000     8.9575     2.5983     0.0101  1809.3676     0.2798   -27.6656     6.5434     6.3945     6.5185    85.4703
 2401.5000     8.9594     2.6007     0.0103  1807.8910     0.2728   -27.6598     6.8251     6.6238     6.7986    87.6642
 2402.0000     8.9655     2.6045     0.0113  1814.1438     0.2701   -27.6540     7.2185     6.9693     7.0415    88.8594
 2402.5000     8.9757     2.6053     0.0121  1825.5579     0.2683   -27.6483     7.6346     7.6158     7.3440    82.8949
 2403.0000     8.9859     2.6078     0.0122  1836.9719     0.2640   -27.6425     7.7991     8.1101     7.8214    79.3226
 2403.5000     8.9961     2.6105     0.0125  1846.6304     0.2566   -27.3391     8.0246     8.3411     8.2766    77.9093
 2404.0000     9.0063     2.6133     0.0156  1860.1116     0.2598   -27.4600     8.2031     8.4603     8.5086    79.6144
 2404.5000     9.0165     2.6162     0.0172  1903.3969     0.2637   -27.4491     8.3150     8.4626     8.6303    80.5999
 2405.0000     9.0270     2.6163     0.0174  1931.9838     0.2679   -27.4403     8.3190     8.5240     8.6573    80.3795
 2405.5000     8.9984     2.6164     0.0182  1960.5698     0.2746   -27.1339     8.5574     8.7061     8.4239    80.1656
 2406.0000     8.9391     2.6165     0.0190  1911.1786     0.2722   -27.1071     8.8027     9.0797     8.4143    80.4379
 2406.5000     8.8811     2.6166     0.0197  1710.4332     0.2722   -26.8167     9.0549     9.2742     8.4030    80.7037
 2407.0000     8.8827     2.6167     0.0205  1728.7026     0.2733   -26.5104     9.1224     9.3415     8.3917    81.2094
 2407.5000     8.8840     2.6167     0.0213  1863.0289     0.2709   -26.5017     9.1903     9.3440     8.4423    81.9550
 2408.0000     8.8700     2.6161     0.0220  1922.2328     0.2697   -26.4929     9.0778     9.4650     8.6856    82.4773
 2408.5000     8.8717     2.6147     0.0224  1950.8196     0.2717   -26.4842     9.0827     9.4051     8.8122    83.0630
 2409.0000     8.8730     2.6125     0.0225  1933.6820     0.2696   -26.4755     8.8398     9.2808     8.9408    85.3977
 2409.5000     8.8593     2.6103     0.0227  1916.9518     0.2722   -26.4668     8.4836     9.0317     8.9353    86.6231
 2410.0000     8.8607     2.6111     0.0198  1885.1147     0.2716   -26.7557     8.1417     8.6677     8.7057    87.1223
 2410.5000     8.8320     2.6121     0.0184  1838.1730     0.2628   -26.8957     8.0886     8.6127     8.4710    84.5160
 2411.0000     8.8333     2.6053     0.0170  1836.2540     0.2556   -27.0358     8.1505     8.5584     8.3572    81.9033
 2411.5000     8.8047     2.6030     0.0156  1880.2400     0.2601   -27.3247     8.0413     8.4992     8.2461    80.9697
 2412.0000     8.7898     2.6016     0.0142  1876.1377     0.2624   -27.1650     7.9911     8.3749     8.2517    80.0362
 2412.5000     8.7773     2.6009     0.0128  1755.7378     0.2630   -27.1563     7.8305     8.1666     8.1419    79.5759
 2413.0000     8.7490     2.5996     0.0114  1708.7950     0.2639   -27.1476     7.8894     7.9485     7.9225    80.0881
 2413.5000     8.7353     2.5989     0.0116  1722.6825     0.2729   -26.9900     7.6252     7.7351     7.7089    81.5533
 2414.0000     8.7213     2.5983     0.0117  1811.2852     0.2849   -26.9813     7.4203     7.6318     7.6064    83.0186
 2414.5000     8.7229     2.5983     0.0118  1930.5065     0.2758   -26.9726     7.3219     7.5309     7.5052    84.4838
 2415.0000     8.7243     2.5984     0.0119  1838.2466     0.2712   -26.9639     7.3259     7.4314     7.5103    85.2294
 2415.5000     8.7256     2.5970     0.0105  1715.7760     0.2703   -26.6575     7.3298     7.4371     7.5144    85.4956
 2416.0000     8.7419     2.5956     0.0107  1759.4679     0.2736   -26.6488     7.3338     7.4416     7.5185    85.0414
 2416.5000     8.7582     2.5927     0.0108  1833.3711     0.2759   -26.6399     7.4404     7.5506     7.5752    85.3137
 2417.0000     8.7595     2.5897     0.0109  1861.9579     0.2789   -26.3333     7.5486     7.6621     7.6323    85.8130
 2417.5000     8.7909     2.5868     0.0095  1884.0696     0.2795   -26.3228     7.5527     7.6668     7.6365    84.4061
 2418.0000     8.8072     2.5869     0.0096  1904.0251     0.2767   -26.1653     7.5569     7.6714     7.7048    82.7529
 2418.5000     8.8238     2.5904     0.0082  1919.8616     0.2743   -26.1565     7.6146     7.6229     7.7275    81.5795
 2419.0000     8.8401     2.5968     0.0068  1930.9866     0.2685   -26.1478     7.6187     7.5735     7.6489    80.8858
 2419.5000     8.8261     2.5992     0.0070  1944.4668     0.2670   -26.1391     7.6760     7.5793     7.6532    80.6654
 2420.0000     8.8276     2.5985     0.0071  1942.4359     0.2700   -26.1304     7.6801     7.5839     7.6583    80.9377
 2420.5000     8.8441     2.6001     0.0072  1925.7047     0.2718   -26.1216     7.6843     7.6949     7.6777    81.1258
 2421.0000     8.8454     2.6021     0.0073  1909.0635     0.2750   -26.1129     7.6884     7.7537     7.8833    81.4694
 2421.5000     8.8467     2.6055     0.0075  1907.4015     0.2718   -26.2530     7.8002     7.8124     7.9983    81.7352
 2422.0000     8.8327     2.6079     0.0076  1905.7241     0.2701   -26.4086     7.8059     7.9277     7.8371    82.0010
 2422.5000     8.8494     2.6079     0.0077  1904.0785     0.2710   -26.5332     7.9180     8.0437     7.5719    82.0270
 2423.0000     8.8507     2.6080     0.0078  1887.3113     0.2665   -26.8221     7.9232     8.0486     7.7912    80.1186
 2423.5000     8.8670     2.6074     0.0079  1870.5439     0.2643   -26.9600     7.9268     8.0535     8.0157    80.6724
 2424.0000     8.8684     2.6059     0.0081  1853.5005     0.2661   -26.8024     7.9318     8.0026     8.0201    81.3917
 2424.5000     8.8697     2.6045     0.0082  1836.7693     0.2676   -26.7937     7.8256     7.9516     8.0244    81.1713
 2425.0000     8.8713     2.6022     0.0083  1835.1447     0.2687   -26.4874     7.7218     7.8786     7.9088    80.7175
 2425.5000     8.8876     2.5987     0.0084  1833.6854     0.2693   -26.4786     7.6194     7.7972     7.7053    79.3106
 2426.0000     8.8889     2.5942     0.0085  1816.7881     0.2726   -26.3211     7.5192     7.6388     7.4977    79.5765
