~VERSION INFORMATION
 VERS.                2.0:   CWLS LOG ASCII STANDARD - VERSION 2.0
 WRAP.                 NO:   ONE LINE PER DEPTH STEP
~WELL INFORMATION
#MNEM.UNIT      DATA TYPE    INFORMATION
#----------   ------------   ------------------------------
 STRT.F          450.0000:   START DEPTH
 STOP.F         3070.0000:   STOP DEPTH
 STEP.F            0.5000:   STEP LENGTH
 NULL.          -999.2500:   NO VALUE
 COMP. LAWRENCE ALLISON & ASSOCIATES:   COMPANY
 WELL. LAWRENCE "X" #86-28:   WELL
 FLD .             NPR #3:   FIELD
 LOC .      S28 T39N R78W:   LOCATION
 CNTY.            NATRONA:   COUNTY
 STAT.            WYOMING:   STATE
 CTRY. UNITED STATES OF AMERICA:   COUNTRY
 SRVC.      WESTERN ATLAS:   SERVICE COMPANY
 DATE.        03-JAN-1988:   LOGDATE
 API .     49025111920000:   API NUMBER
~CURVE INFORMATION
#MNEM.UNIT       API CODE    CURVE DESCRIPTION
#----------   ------------   ------------------------------
 DEPT.F                  :   
 TEND.LBS    45 635 01 00:   TENSION FROM DENSITY LOG
 CALD.IN     45 280 60 00:   CALIPER FROM DENSITY LOG
 NPHI.DEC    42 890 03 00:   NEUTRON POROSITY SANDSTONE
 DEN .G/C3   45 350 01 00:   BULK DENSITY
 CORR.G/C3   45 356 01 00:   DENSITY CORRECTION
 TENR.LBS    07 635 01 00:   TENSION FROM RESISTIVITY
 RFOC.OHMM   07 220 04 00:   RESISTIVITY FOCUSED LOG RES.
 RILD.OHMM   07 120 46 00:   DEEP INDUCTION RESISTIVITY
 RILM.OHMM   07 120 44 00:   INDUCTION LOG MEDIUM RESISTIVITY
 SPR .MV     07 010 01 00:   SPONTANEOUS POTENTIAL
 GRR .GAPI   07 310 01 00:   GAMMA RAY FROM RESISTIVITY
~PARAMETER INFORMATION
#MNEM.UNIT          VALUE    DESCRIPTION
#----------   ------------   ------------------------------
 EKB .F         5072.0000:   Kelly bushing
 EGL .F         5061.0000:   Ground level
 EDF .F         5071.0000:   Drilling floor
 TD  .F         3062.0000:   Total depth
 DATE.        03-JAN-1988:   Date logged
 CLNT.            A2DTECH:   Client Code
 SL  . 1721' FSL & 556' FEL:   Surface Location
 PD  .                 GL:   Permanent Datum
 DD  .F              3060:   Depth driller
 DL  .F              3062:   Depth logger
 BLI .F              3060:   Bottom log interval
 CS1 .IN            8.625:   Casing size
 CBD1.      8.625" @ 480':   Casing driller 1
 CBL1.F               480:   Casing logger 1
 BS1 .IN            7.875:   Bit size
 DFT .        KCL-POLYMER:   Type fluid in hole
 DFD .                8.9:   Density
 DFV .                 36:   Viscosity
 DFPH.                9.5:   pH
 DFL .                8.4:   Fluid loss
 MSS .               TANK:   Source of sample
 RMS .OHMM           0.45:   Rm
 MST .F                80:   Rm Meas. temp.
 RMF .OHMM           0.41:   Rmf
 MFST.F                60:   Rmf Meas. temp.
 RMC .OHMM           0.65:   Rmc
 MCST.F                60:   Rmc Meas. temp.
 MFSS.               MEAS:   Source Rmf.
 RMB .OHMM           0.31:   Rm. at BHT
 BHT .F               110:   BHT.
 TCS .HRS               4:   Time Circ. stopped
 MRT .F               110:   Maximum recorded temp.
 LUN .            HL 6343:   Logging unit number
 LUL .               CODY:   Logging unit location
 ENGI.               RALL:   Recorded By
 WITN.              FIVRS:   Witnessed by
 ORIG.     2.5", 5" PRINT:   Origin of data
 UWI .     49025111920000:   Unique Well ID
 DICO. A2D TECHNOLOGIES, INC.:   Digitizing Company
 DAPD.                 11:   Feet Above Permanent Datum
 BSD1.               3060:   Depth drilled with bit1
 MCSS.               CALC:   Source Rmc.
 EPD .               5061:   Elevation Permanent Datum
 LMF .                 KB:   Log Measured From
 DMF .                 KB:   Drilling Measured From
 TLI .                480:   Top log interval
~OTHER INFORMATION
~A   DEPT     TEND       CALD       NPHI        DEN       CORR       TENR       RFOC       RILD       RILM        SPR         GRR  
# ...
 2707.0000   -18.1450     8.0130     0.2300     2.5380     0.0940   -52.2310     7.4510     6.6090     6.8400    -1.8190   109.4060
 2707.5000   -18.1450     8.0140     0.2260     2.5340     0.1040   -52.2310     7.1640     6.5360     6.8150    -2.1460   109.8400
 2708.0000   -18.1450     8.0160     0.2240     2.5350     0.1050   -52.3210     6.9780     6.4740     6.7840    -2.4810   109.0110
 2708.5000   -18.1450     8.0180     0.2260     2.5380     0.1060   -52.9070     7.6530     6.5170     6.8390    -2.4140   107.9840
 2709.0000   -18.1450     8.0190     0.2290     2.5420     0.1070   -53.4920     8.2580     6.5620     6.9890    -2.2830   107.0890
 2709.5000   -17.3500     8.0210     0.2300     2.5460     0.1080   -54.0780     8.1470     6.6070     7.1380    -2.1510   107.8740
 2710.0000   -16.6190     8.0230     0.2270     2.5570     0.1090   -54.6630     8.0070     6.6520     7.2880    -2.0240   110.9990
 2710.5000   -15.8870     8.0250     0.2250     2.5680     0.1070   -55.2480     7.9550     6.6960     7.5200    -1.9460   114.0110
 2711.0000   -15.1560     8.0260     0.2220     2.5760     0.1010   -55.8340     8.1150     6.7210     7.4940    -2.1760   113.3240
 2711.5000   -14.4240     8.0280     0.2200     2.5720     0.0930   -56.4190     8.2440     6.7700     7.4500    -2.4020   112.2420
 2712.0000   -13.6920     8.0300     0.2190     2.5700     0.1030   -57.0050     8.3740     6.8160     7.5580    -2.6270   109.2420
 2712.5000   -12.9610     8.0310     0.2180     2.5720     0.1230   -57.5900     8.4140     6.9020     7.6590    -2.8530   107.9220
 2713.0000   -12.2290     8.0330     0.2180     2.5730     0.1430   -58.1760     8.4140     7.0820     7.7590    -3.0780   108.9630
 2713.5000   -11.4980     8.0350     0.2180     2.5640     0.1660   -58.7610     8.4140     7.2620     7.8600    -3.3020   111.8770
 2714.0000   -10.7660     8.0360     0.2180     2.5530     0.1920   -59.3470     8.6110     7.3810     7.9610    -3.4010   114.7610
 2714.5000   -10.0350     8.0380     0.2180     2.5410     0.1870   -59.9320     8.8790     7.3120     8.1050    -3.4830   112.1820
 2715.0000    -9.3030     8.0400     0.2200     2.5370     0.1780   -60.5180     9.1460     7.3120     8.0750    -3.5650   108.7350
 2715.5000    -8.5710     8.0410     0.2230     2.5430     0.1750   -61.1030     9.4140     7.3120     7.9960    -3.6490   105.9010
 2716.0000    -7.8400     8.0430     0.2260     2.5580     0.1780   -61.6890     8.9450     7.3120     7.9160    -3.7250   106.8950
 2716.5000    -7.1080     8.0450     0.2250     2.5570     0.1800   -62.2740     8.3110     7.4250     7.8360    -3.9950   107.0430
 2717.0000    -6.3770     8.0460     0.2160     2.5540     0.1830   -62.3730     7.9550     7.6200     7.8070    -4.4220   106.5350
 2717.5000    -5.6450     8.0480     0.2070     2.5530     0.1950   -62.3730     9.0090     7.8150     8.0210    -4.8510   106.0310
 2718.0000    -4.9140     8.0500     0.1980     2.5570     0.2080   -62.3730    10.1650     8.0110     8.1930    -5.2850   104.4530
 2718.5000    -4.1820     8.0510     0.1920     2.5630     0.2180   -62.3730    11.3220     8.2060     8.3650    -5.7290   102.0840
 2719.0000    -3.4500     8.0530     0.1930     2.5670     0.2170   -62.3730    12.5840     8.4020     8.5370    -5.7930    97.3950
 2719.5000    -2.7190     8.0550     0.1960     2.5730     0.2160   -62.3730    12.4670     8.5670     8.9810    -5.8370    92.6700
 2720.0000    -1.9870     8.0560     0.2030     2.5710     0.2130   -62.3730    12.0400     8.5200     9.8200    -5.8850    91.0750
 2720.5000    -1.2560     8.0580     0.2110     2.5650     0.1940   -62.3730    11.3300     8.4720     9.4890    -5.9270    90.5620
 2721.0000    -0.5240     8.0600     0.2170     2.5590     0.1760   -62.3730    10.3440     8.4250     9.1570    -5.7580    92.5970
 2721.5000     0.2070     8.0610     0.2180     2.5640     0.1550   -62.3730     9.3580     8.2520     8.8260    -4.8110    96.5560
 2722.0000     0.9390     8.0630     0.2180     2.5800     0.1420   -62.3730     8.1810     8.0340     8.4950    -3.8750   100.6770
 2722.5000     1.6710     8.0650     0.2150     2.5970     0.1400   -61.3830     8.4560     7.8160     8.1640    -2.9420   101.7740
 2723.0000    15.5240     8.0670     0.2070     2.6010     0.1450   -60.1560     8.7950     7.6780     7.9860    -2.0070   100.0020
 2723.5000    41.1290     8.0680     0.2010     2.5970     0.1490   -58.9300     9.1450     7.5470     7.9180    -1.0670    98.5720
 2724.0000    62.5000     8.0690     0.2000     2.5910     0.1530   -57.7030     9.5070     7.4160     7.8810    -0.1350    98.5810
 2724.5000    42.3390     8.0700     0.2050     2.5780     0.1590   -56.4760     9.8680     7.2850     7.8810    -0.0100    98.1510
 2725.0000    33.9380     8.0710     0.2130     2.5630     0.1650   -55.2500    10.0520     7.1600     7.7710     0.2120    97.6620
 2725.5000    25.4030     8.0720     0.2210     2.5470     0.1720   -54.0230     9.2600     7.1030     7.3880     0.8640    97.0850
 2726.0000    16.8680     8.0740     0.2310     2.5530     0.1790   -52.7960     8.0690     7.0430     6.9780     1.1900    98.2270
 2726.5000     8.3330     8.0750     0.2430     2.5570     0.1810   -52.2310     7.5200     6.8770     6.8720     1.4880   101.1260
 2727.0000     2.0160     8.0760     0.2450     2.5540     0.1760   -52.2310     7.4840     6.6990     6.7290     1.7850   105.3650
 2727.5000     2.0160     8.0770     0.2480     2.5510     0.1710   -52.2310     7.2560     6.5210     6.5860     2.0840   108.6380
 2728.0000     2.0160     8.0780     0.2490     2.5460     0.1630   -52.2310     7.0280     6.3420     6.4430     2.3840   110.2500
 2728.5000     2.0160     8.0790     0.2500     2.5400     0.1560   -52.2310     6.8480     6.1780     6.1690     2.6430   110.0040
 2729.0000     2.0160     8.0810     0.2510     2.5360     0.1490   -52.2310     6.8480     5.9490     5.8630     2.8570   109.9210
 2729.5000     2.0160     8.0820     0.2520     2.5360     0.1400   -52.2310     6.8480     5.7220     5.5570     3.0420   111.7220
 2730.0000     2.0160     8.0830     0.2550     2.5330     0.1270   -52.2310     6.4100     5.4950     5.2690     3.5260   117.2190
 2730.5000     2.0160     8.0840     0.2590     2.5320     0.1160   -52.2310     5.7860     5.0290     4.8820     3.5270   123.0880
 2731.0000     2.0160     8.0850     0.2680     2.5180     0.0940   -52.2310     5.5480     4.4420     4.4470     3.6990   129.2290
 2731.5000     2.0160     8.0870     0.2820     2.5050     0.0830   -52.2310     5.1660     3.8560     4.0120     3.8650   137.6360
 2732.0000     2.0160     8.0880     0.2920     2.4740     0.0820   -52.2310     4.7310     3.2690     3.5770     4.0300   146.9640
 2732.5000     2.0160     8.0890     0.3030     2.4560     0.0850   -52.2310     4.0920     2.6830     3.1420     4.1940   159.9900
 2733.0000     2.0160     8.0900     0.3170     2.4230     0.0830   -52.2310     3.4530     2.1570     2.7070     4.3360   173.1700
 2733.5000     2.0160     8.0910     0.3450     2.3840     0.0820   -52.2310     2.9840     1.9710     2.2720     4.3370   186.7620
 2734.0000     2.0160     8.0920     0.3450     2.3760     0.0800   -52.2310     2.5690     1.7850     1.8370     4.3260   207.9270
 2734.5000     2.0160     8.0940     0.3390     2.3930     0.0700   -52.2310     2.2540     1.5990     1.7320     4.1640   221.3990
 2735.0000     2.0160     8.0950     0.3300     2.4010     0.0590   -52.2310     2.2070     1.4680     1.7140     4.3400   215.7670
 2735.5000     1.2100     8.0960     0.3330     2.3920     0.0540   -53.0500     2.8740     1.4080     1.7350     4.6000   198.3330
 2736.0000    -1.2290     8.0970     0.3380     2.3820     0.0610   -54.9580     3.4260     1.4230     1.7560     4.8680   191.9040
 2736.5000    -3.6670     8.0980     0.3300     2.3840     0.0680   -56.8670     3.1280     1.4620     1.7760     4.9460   195.9180
 2737.0000    -6.1060     8.0990     0.3060     2.4170     0.0740   -58.7750     2.6760     1.5910     2.0170     5.1540   205.3360
