~VERSION INFORMATION
 VERS.                2.0:   CWLS LOG ASCII STANDARD - VERSION 2.0
 WRAP.                 NO:   ONE LINE PER DEPTH STEP
~WELL INFORMATION
#MNEM.UNIT      DATA TYPE    INFORMATION
#----------   ------------   ------------------------------
 STRT.F           10.0000:   START DEPTH
 STOP.F         3180.0000:   STOP DEPTH
 STEP.F            0.5000:   STEP LENGTH
 NULL.          -999.2500:   NO VALUE
 COMP. LAWRENCE - ALLISON WEST:   COMPANY
 WELL. LAWRENCE ALLISON NPR 3 "AX" #17-2:   WELL
 FLD .                NPR:   FIELD
 LOC .       S2 T38N R78W:   LOCATION
 CNTY.            NATRONA:   COUNTY
 STAT.            WYOMING:   STATE
 CTRY. UNITED STATES OF AMERICA:   COUNTRY
 SRVC.      DRESSER ATLAS:   SERVICE COMPANY
 DATE.        16-FEB-1987:   LOGDATE
 API .     49025111210000:   API NUMBER
~CURVE INFORMATION
#MNEM.UNIT       API CODE    CURVE DESCRIPTION
#----------   ------------   ------------------------------
 DEPT.F                  :   
 DEN .LBS    45 350 01 00:   BULK DENSITY
 CORR.G/C3   45 356 01 00:   DENSITY CORRECTION
 TEND.LBS    45 635 01 00:   TENSION FROM DENSITY LOG
 CNC .DEC    42 890 01 00:   NEUTRON PORISITY LIMESTONE
 CALR.IN     07 280 01 00:   CALIPER FROM RESISTIVITY
 SPR .MV     07 010 01 00:   SPONTANEOUS POTENTIAL
 GRR .GAPI   07 310 01 00:   GAMMA RAY FROM RESISTIVITY
 RFOC.OHMM   07 220 04 00:   RESISTIVITY FOCUSED LOG RES.
 ILD .OHMM   07 120 46 00:   DEEP INDUCTION RESISTIVITY
 ILM .OHMM   07 120 44 00:   INDUCTION LOG MEDIUM RESISTIVITY
 TENR.LBS    07 635 01 00:   TENSION FROM RESISTIVITY
~PARAMETER INFORMATION
#MNEM.UNIT          VALUE    DESCRIPTION
#----------   ------------   ------------------------------
 EKB .F         5141.0000:   Kelly bushing
 EGL .F         5129.0000:   Ground level
 EDF .F            0.0000:   Drilling floor
 EPD .F            0.0000:   Permanent datum
 TD  .F         3161.0000:   Total depth
 DATE.        16-FEB-1987:   Date logged
 CLNT.            A2DTECH:   Client Code
 SL  . 1125' FSL & 220' FWL:   Surface Location
 PD  .                 GL:   Permanent Datum
 DAPD.F                12:   Feet Above Permanent Datum
 DD  .F              3161:   Depth driller
 DL  .F              3158:   Depth logger
 BLI .F              3156:   Bottom log interval
 TLI .F                12:   Top log interval
 CS1 .IN            8.625:   Casing size
 CBD1.      8.625" @ 626':   Casing driller 1
 CBL1.F               626:   Casing logger 1
 BS1 .IN            7.875:   Bit size
 BSD1.F              3161:   Depth drilled with bit1
 DFT .        KCL/POLYMER:   Type fluid in hole
 DFD .                8.8:   Density
 DFV .                 39:   Viscosity
 DFPH.                 10:   pH
 DFL .                8.4:   Fluid loss
 MSS .           FLOWLINE:   Source of sample
 RMS .OHMM           .292:   Rm
 MST .F                82:   Rm Meas. temp.
 RMF .OHMM           .231:   Rmf
 MFST.F                82:   Rmf Meas. temp.
 RMC .OHMM           .365:   Rmc
 MCST.F                82:   Rmc Meas. temp.
 MFSS.               MEAS:   Source Rmf.
 MCSS.               CALC:   Source Rmc.
 RMB .OHMM           .203:   Rm. at BHT
 BHT .F               118:   BHT.
 TCS .HRS               3:   Time Circ. stopped
 MRT .F               118:   Maximum recorded temp.
 LUN .            HL-6274:   Logging unit number
 LUL .           GALLETTE:   Logging unit location
 ENGI.            PANASUK:   Recorded By
 WITN.             STRONG:   Witnessed by
 ORIG.           5" PRINT:   Origin of data
 UWI .     49025111210000:   Unique Well ID
 DICO. A2D TECHNOLOGIES, INC.:   Digitizing Company
~OTHER INFORMATION
~A   DEPT      DEN       CORR       TEND        CNC       CALR        SPR          GRR     RFOC        ILD        ILM       TENR   
# ...
  772.5000  -999.2500  -999.2500  -999.2500  -999.2500     9.9337     7.7577    96.6755     7.9092     6.9309     7.5533   -97.7586
  773.0000  -999.2500  -999.2500  -999.2500  -999.2500     9.9933     7.7577    97.8680     7.7644     6.9306     7.3470   -97.7090
  773.5000  -999.2500  -999.2500  -999.2500  -999.2500    10.0131     7.1608    99.8562     7.7641     6.9304     7.2126   -97.6594
  774.0000  -999.2500  -999.2500  -999.2500  -999.2500     9.9932     6.5640   103.0375     7.7637     6.9940     7.1463   -97.6098
  774.5000  -999.2500  -999.2500  -999.2500  -999.2500     9.9733     5.1716    99.0584     7.8352     6.9937     7.1459   -97.5502
  775.0000  -999.2500  -999.2500  -999.2500  -999.2500     9.9732     4.9727    99.4552     7.9074     6.9934     7.1455   -97.5006
  775.5000  -999.2500  -999.2500  -999.2500  -999.2500     9.9533     4.9726   101.8413     7.9802     6.9931     7.1452   -97.4510
  776.0000  -999.2500  -999.2500  -999.2500  -999.2500     9.9135     5.3704   107.4071     7.9798     6.9928     7.0144   -97.4014
  776.5000  -999.2500  -999.2500  -999.2500  -999.2500     9.8516     5.3703   109.3976     7.9063     6.9924     6.3383   -97.3518
  777.0000  -999.2500  -999.2500  -999.2500  -999.2500     9.7742     5.5692   105.0204     7.7616     6.8646     6.1653   -97.3022
  777.5000  -999.2500  -999.2500  -999.2500  -999.2500     9.7940     5.5691   101.8370     7.4119     6.8015     6.0525   -97.2526
  778.0000  -999.2500  -999.2500  -999.2500  -999.2500     9.7940     5.3701   100.2449     7.0130     6.6771     5.9967   -97.2030
  778.5000  -999.2500  -999.2500  -999.2500  -999.2500     9.7741     4.9723    99.8461     7.0437     6.5552     5.9414   -97.1534
  779.0000  -999.2500  -999.2500  -999.2500  -999.2500     9.7740     4.5745   100.2407     7.0316     6.3765     5.9412   -97.1038
  779.5000  -999.2500  -999.2500  -999.2500  -999.2500     9.7939     4.1767    98.6486     7.0195     6.2598     5.9409   -97.0542
  780.0000  -999.2500  -999.2500  -999.2500  -999.2500     9.7938     4.1766    97.4545     7.0074     6.2023     5.9408   -97.0046
  780.5000  -999.2500  -999.2500  -999.2500  -999.2500     9.7938     3.7788    99.4444     6.9897     6.0889     5.9404   -96.9550
  781.0000  -999.2500  -999.2500  -999.2500  -999.2500     9.7938     3.5799   102.2278     6.9896     6.0887     5.8857   -96.9054
  781.5000  -999.2500  -999.2500  -999.2500  -999.2500     9.7738     3.5799   105.0111     6.9892     6.0326     5.8854   -96.8558
  782.0000  -999.2500  -999.2500  -999.2500  -999.2500     9.7937     3.5798   103.8148     6.9889     6.0323     5.8851   -96.8061
  782.5000  -999.2500  -999.2500  -999.2500  -999.2500     9.7738     3.7787    96.6559     6.9886     6.0320     5.8309   -96.7565
  783.0000  -999.2500  -999.2500  -999.2500  -999.2500     9.7538     3.9775    96.6553     6.9243     6.0318     5.7772   -96.7069
  783.5000  -999.2500  -999.2500  -999.2500  -999.2500     9.7538     4.1763    98.2453     6.9240     6.0315     5.7240   -96.6573
  784.0000  -999.2500  -999.2500  -999.2500  -999.2500     9.7140     4.1763   101.0279     6.9876     5.9759     5.7238   -96.6077
  784.5000  -999.2500  -999.2500  -999.2500  -999.2500     9.7140     4.1763    99.0389     6.9233     5.9757     5.7235   -96.5581
  785.0000  -999.2500  -999.2500  -999.2500  -999.2500     9.7139     4.5739    99.4356     6.9230     5.9206     5.7233   -96.5085
  785.5000  -999.2500  -999.2500  -999.2500  -999.2500     9.7139     4.5739   100.6278     6.8593     5.7591     5.6184   -96.4589
  786.0000  -999.2500  -999.2500  -999.2500  -999.2500     9.7138     4.5738   103.8061     6.8590     5.7589     5.6182   -96.4093
  786.5000  -999.2500  -999.2500  -999.2500  -999.2500     9.7138     4.3749   106.9894     6.7958     5.8118     5.6179   -96.3597
  787.0000  -999.2500  -999.2500  -999.2500  -999.2500     9.6939     4.3749   104.9997     6.7955     5.7584     5.6176   -96.3002
  787.5000  -999.2500  -999.2500  -999.2500  -999.2500     9.7138     4.3748   103.0101     6.7952     5.7581     5.5659   -96.2506
  788.0000  -999.2500  -999.2500  -999.2500  -999.2500     9.7336     4.3748   101.8158     6.7949     5.7578     5.5656   -96.2010
  788.5000  -999.2500  -999.2500  -999.2500  -999.2500     9.7534     4.1759   104.2014     6.7323     5.7576     5.5654   -96.1514
  789.0000  -999.2500  -999.2500  -999.2500  -999.2500     9.7932     4.1759   105.3929     6.7942     5.7573     5.5652   -96.1017
  789.5000  -999.2500  -999.2500  -999.2500  -999.2500     9.8236     3.9770   105.3923     6.7939     5.8102     5.5649   -96.0521
  790.0000  -999.2500  -999.2500  -999.2500  -999.2500     9.8329     3.9769   104.1981     6.7936     5.8099     5.5646   -96.0025
  790.5000  -999.2500  -999.2500  -999.2500  -999.2500     9.8328     3.5792    99.8225     6.8561     5.8098     5.5644   -95.9529
  791.0000  -999.2500  -999.2500  -999.2500  -999.2500     9.8129     3.5792    98.2306     6.8558     5.7564     5.5641   -95.9033
  791.5000  -999.2500  -999.2500  -999.2500  -999.2500     9.8129     3.5791    98.6273     6.7927     5.7560     5.5128   -95.8537
  792.0000  -999.2500  -999.2500  -999.2500  -999.2500     9.7731     3.5791   100.2173     6.7924     5.7557     5.5126   -95.8041
  792.5000  -999.2500  -999.2500  -999.2500  -999.2500     9.7929     3.7779   103.7953     6.7299     5.7027     5.5123   -95.7545
  793.0000  -999.2500  -999.2500  -999.2500  -999.2500     9.7792     4.1313   106.1803     6.7296     5.7025     5.5121   -95.7049
  793.5000  -999.2500  -999.2500  -999.2500  -999.2500     9.7729     4.3743   105.3839     6.7292     5.8081     5.5118   -95.6553
  794.0000  -999.2500  -999.2500  -999.2500  -999.2500     9.7729     4.3743   104.1874     6.7289     5.7020     5.5115   -95.6057
  794.5000  -999.2500  -999.2500  -999.2500  -999.2500     9.7729     4.3742   107.3699     6.7286     5.7017     5.5113   -95.5561
  795.0000  -999.2500  -999.2500  -999.2500  -999.2500     9.7920     4.3742   107.3687     6.7283     5.8073     5.5111   -95.5065
  795.5000  -999.2500  -999.2500  -999.2500  -999.2500     9.7728     4.5730   104.9819     6.7280     5.9149     5.6132   -95.4569
  796.0000  -999.2500  -999.2500  -999.2500  -999.2500     9.7728     4.3741   103.3876     6.7277     5.8067     5.6131   -95.4073
  796.5000  -999.2500  -999.2500  -999.2500  -999.2500     9.7728     3.9764   102.9917     6.7896     5.8603     5.7169   -95.3577
  797.0000  -999.2500  -999.2500  -999.2500  -999.2500     9.7329     3.6633   105.3765     6.7893     5.8599     5.7168   -85.3081
  797.5000  -999.2500  -999.2500  -999.2500  -999.2500     9.7130     3.5787   108.9541     6.7890     5.8597     5.7695   -95.2585
  798.0000  -999.2500  -999.2500  -999.2500  -999.2500     9.7130     3.5787   110.9388     6.7887     5.8595     5.7693   -95.2088
  798.5000  -999.2500  -999.2500  -999.2500  -999.2500     9.6961     3.3798   102.9876     6.8511     5.8591     5.7690   -95.1592
  799.0000  -999.2500  -999.2500  -999.2500  -999.2500     9.6930     3.5786    96.6247     6.9140     5.8590     5.8221   -95.1096
  799.5000  -999.2500  -999.2500  -999.2500  -999.2500     9.6930     3.3798    93.8404     6.9138     5.8586     5.8218   -95.0501
  800.0000  -999.2500  -999.2500  -999.2500  -999.2500     9.6929     4.1750    96.2252     6.9730     5.9125     5.8215   -95.0005
  800.5000  -999.2500  -999.2500  -999.2500  -999.2500     9.6757     4.1750   103.3797     7.0327     5.9897     5.8546   -94.9501
  801.0000  -999.2500  -999.2500  -999.2500  -999.2500     9.6731     4.1750   103.7797     7.1489     6.0226     5.8757   -95.1933
  801.5000  -999.2500  -999.2500  -999.2500  -999.2500     9.6731     4.5726    94.6346     6.9780     6.0228     5.8758   -95.2904
  802.0000  -999.2500  -999.2500  -999.2500  -999.2500     9.6731     4.5726    94.6346     6.9783     6.0230     5.8761   -95.3876
  802.5000  -999.2500  -999.2500  -999.2500  -999.2500     9.6929     3.5785    97.4179     6.9785     6.0232     5.8763   -95.4847
