~VERSION INFORMATION
 VERS.                2.0:   CWLS LOG ASCII STANDARD - VERSION 2.0
 WRAP.                 NO:   ONE LINE PER DEPTH STEP
~WELL INFORMATION
#MNEM.UNIT      DATA TYPE    INFORMATION
#----------   ------------   ------------------------------
 STRT.F          484.0000:   START DEPTH
 STOP.F         4096.0000:   STOP DEPTH
 STEP.F            0.5000:   STEP LENGTH
 NULL.          -999.2500:   NO VALUE
 COMP.    FENIX & SCISSON:   COMPANY
 WELL. FENIX NPR "JX" #58-28:   WELL
 FLD .                NPR:   FIELD
 LOC .      S28 T39N R78W:   LOCATION
 CNTY.            NATRONA:   COUNTY
 STAT.            WYOMING:   STATE
 CTRY. UNITED STATES OF AMERICA:   COUNTRY
 SRVC.              WELEX:   SERVICE COMPANY
 DATE.        02-MAY-1978:   LOGDATE
 API .     49025107810000:   API NUMBER
~CURVE INFORMATION
#MNEM.UNIT       API CODE    CURVE DESCRIPTION
#----------   ------------   ------------------------------
 DEPT.F                  :   
 NPHI.DEC    42 890 03 00:   NEUTRON POROSITY SANDSTONE
 RHOB.G/C3   45 350 01 00:   BULK DENSITY
 CORR.G/C3   45 356 01 00:   DENSITY CORRECTION
 CALD.IN     45 280 60 00:   CALIPER FROM DENSITY LOG
 GRD .GAPI   45 310 01 00:   GAMMA RAY FROM DENSITY LOG
 SPR .MV     07 010 01 00:   SPONTANEOUS POTENTIAL
 ILD .OHMM   07 120 46 00:   DEEP INDUCTION RESISTIVITY
 SGRD.OHMM   07 220 05 00:   SHALLOW SHORT GUARD RESISTIVITY
 ILM .OHMM   07 120 44 00:   INDUCTION LOG MEDIUM RESISTIVITY
~PARAMETER INFORMATION
#MNEM.UNIT          VALUE    DESCRIPTION
#----------   ------------   ------------------------------
 EKB .F         5115.0000:   Kelly bushing
 EGL .F         5101.0000:   Ground level
 EDF .F            0.0000:   Drilling floor
 EPD .F         5101.0000:   Permanent datum
 TD  .F         4100.0000:   Total depth
 DATE.        02-MAY-1978:   Date logged
 CLNT.            A2DTECH:   Client Code
 SL  . 525' FSL & 2406' FEL:   Surface Location
 PD  .                 GL:   Permanent Datum
 DAPD.F                14:   Feet Above Permanent Datum
 DD  .F              4100:   Depth driller
 DL  .F              4098:   Depth logger
 BLI .F              4096:   Bottom log interval
 CS1 .IN            8.625:   Casing size
 CBD1.      8.625" @ 501':   Casing driller 1
 CBL1.F               500:   Casing logger 1
 BS1 .IN            7.875:   Bit size
 BSD1.F              4100:   Depth drilled with bit1
 DFT .            CHM GEL:   Type fluid in hole
 DFD .                9.4:   Density
 DFV .                 48:   Viscosity
 DFPH.                9.3:   pH
 DFL .                8.5:   Fluid loss
 MSS .           FLOWLINE:   Source of sample
 RMS .OHMM           1.24:   Rm
 MST .F                70:   Rm Meas. temp.
 RMF .OHMM            .57:   Rmf
 MFST.F                70:   Rmf Meas. temp.
 RMC .OHMM           1.48:   Rmc
 MCST.F                70:   Rmc Meas. temp.
 MFSS.               MEAS:   Source Rmf.
 MCSS.               MEAS:   Source Rmc.
 RMB .OHMM            .87:   Rm. at BHT
 BHT .F               123:   BHT.
 TCS .HRS               4:   Time Circ. stopped
 MRT .F               123:   Maximum recorded temp.
 LUN .               1892:   Logging unit number
 LUL .             CASPER:   Logging unit location
 ENGI.               REIN:   Recorded By
 WITN.           DINSMORE:   Witnessed by
 ORIG.         2.5" PRINT:   Origin of data
 UWI .     49025107810000:   Unique Well ID
 DICO. A2D TECHNOLOGIES, INC.:   Digitizing Company
 TLI .                500:   Top log interval
~OTHER INFORMATION
~A   DEPT       NPHI     RHOB       CORR       CALD         GRD       SPR        ILD       SGRD        ILM   
# ...
 2856.5000     0.1430     2.5140     0.0950     8.0390    52.4070   -21.8170    30.4720    44.1660    32.2110
 2857.0000     0.1490     2.5260     0.1010     8.0510    55.6490   -22.3000    29.6310    31.4640    31.3210
 2857.5000     0.1510     2.4900     0.1000     8.0630    60.8170   -22.7570    28.7890    31.4640    30.4310
 2858.0000     0.1480     2.4810     0.1000     8.0780    62.5460   -23.2510    27.9470    29.2210    29.5420
 2858.5000     0.1450     2.4830     0.1000     8.0920    57.8960   -23.2750    27.1050    30.1170    28.6520
 2859.0000     0.1410     2.4820     0.1000     8.1060    54.1570   -23.2890    26.2640    31.8180    27.7620
 2859.5000     0.1360     2.4720     0.1000     8.1160    49.2890   -23.2790    25.4220    33.5190    26.8720
 2860.0000     0.1340     2.4710     0.0970     8.1130    48.3060   -23.2740    24.5800    35.2200    25.9830
 2860.5000     0.1320     2.4730     0.0910     8.1100    47.3580   -23.2980    24.2870    35.8130    25.6720
 2861.0000     0.1300     2.4720     0.0860     8.1070    47.3470   -23.0970    24.5350    36.0800    25.9340
 2861.5000     0.1260     2.4700     0.0810     8.1040    50.3820   -22.6240    24.8180    36.6250    26.2330
 2862.0000     0.1210     2.4720     0.0760     8.1010    52.1600   -22.6270    25.1010    37.1710    26.5330
 2862.5000     0.1160     2.4750     0.0760     8.0970    52.2050   -23.0140    25.3840    37.7170    26.8320
 2863.0000     0.1100     2.4750     0.0750     8.0940    48.7880   -23.3580    25.6670    38.5630    27.1310
 2863.5000     0.1030     2.4750     0.0740     8.0910    49.8480   -23.7020    25.9500    38.2090    27.4300
 2864.0000     0.0950     2.4810     0.0740     8.0880    51.7670   -24.0530    26.3970    37.4200    27.9030
 2864.5000     0.0880     2.4870     0.0730     8.0850    53.9070   -24.4010    27.2540    36.6320    28.8090
 2865.0000     0.0750     2.4940     0.0730     8.0820    57.1830   -24.6070    28.1110    35.8130    29.7140
 2865.5000     0.0590     2.5040     0.0720     8.0770    60.2700   -24.7550    28.9670    39.8360    30.6200
 2866.0000     0.0430     2.5200     0.0700     8.0920    58.1850   -24.9030    29.8240    44.0220    31.5250
 2866.5000     0.0280     2.5490     0.0640     8.1360    55.8280   -25.0530    30.6810   125.4900    32.4310
 2867.0000     0.0120     2.5840     0.0580     8.1770    52.5930   -25.2040    31.4640   251.2550    33.2590
 2867.5000     0.0020     2.6070     0.0580     8.2180    51.3800   -25.3510    33.9240   377.0200    36.9760
 2868.0000    -0.0020     2.6140     0.0640     8.2610    49.2140   -25.4970    36.1900   513.0670    40.4010
 2868.5000     0.0100     2.6240     0.0690     8.3020    47.1230   -25.6640    38.4560   474.6760    43.8250
 2869.0000     0.0230     2.6250     0.0740     8.3430    46.8050   -25.6070    40.7230   397.8930    47.2500
 2869.5000     0.0350     2.6150     0.0800     8.3880    48.3930   -25.3870    42.9890   321.1100    51.8420
 2870.0000     0.0480     2.6060     0.0850     8.3820    51.6380   -25.1870    45.2550   196.5830    50.5870
 2870.5000     0.0600     2.5840     0.0900     8.3480    54.6330   -24.9880    46.3970   104.8530    48.6810
 2871.0000     0.0730     2.5640     0.0950     8.3170    57.7230   -24.7840    43.5830    71.5320    46.7750
 2871.5000     0.0820     2.5400     0.1000     8.2870    56.9080   -24.5850    41.0440    43.8930    44.8700
 2872.0000     0.0920     2.5100     0.0920     8.2560    52.5810   -24.3800    38.5050    47.4960    42.9640
 2872.5000     0.0980     2.5030     0.0850     8.2250    46.6990   -24.1830    35.9670    52.8100    40.7630
 2873.0000     0.1050     2.5040     0.0840     8.1940    41.3470   -23.9840    33.4280    68.4170    64.7250
 2873.5000     0.1110     2.5050     0.0860     8.1630    37.7210   -23.7580    30.8890    56.2030    54.4100
 2874.0000     0.1180     2.5010     0.0890     8.1320    45.6640   -23.8600    28.6850    41.6130    44.7670
 2874.5000     0.1250     2.4850     0.0920     8.1010    46.1500   -24.2800    28.3330    39.9750    38.0570
 2875.0000     0.1310     2.4790     0.0910     8.0760    46.7610   -24.7000    28.0220    36.4820    36.6380
 2875.5000     0.1310     2.4810     0.0890     8.0670    48.6190   -24.8470    27.7100    36.6670    35.8130
 2876.0000     0.1290     2.4950     0.0870     8.0600    50.8290   -24.6470    27.3990    37.1110    34.9660
 2876.5000     0.1260     2.5000     0.0850     8.0520    51.7340   -24.4770    27.0880    37.8560    33.6490
 2877.0000     0.1240     2.4990     0.0830     8.0440    49.5980   -24.3060    26.7760    37.3990    32.3320
 2877.5000     0.1240     2.4760     0.0810     8.0370    49.0390   -24.1300    26.4650    35.9620    31.0160
 2878.0000     0.1250     2.4680     0.0810     8.0290    53.5680   -24.0960    26.1510    34.5130    29.6990
 2878.5000     0.1260     2.4580     0.0820     8.0210    60.1020   -24.0650    26.1130    35.0290    28.3820
 2879.0000     0.1280     2.4540     0.0840     8.0130    66.0630   -24.3400    25.9380    35.8840    27.1370
 2879.5000     0.1310     2.4530     0.0850     8.0060    72.2810   -25.0410    25.7630    37.1630    27.0140
 2880.0000     0.1350     2.4520     0.0860     7.9980    70.3140   -25.1380    25.5880    33.8400    26.8970
 2880.5000     0.1360     2.4540     0.0880     7.9960    66.8290   -24.6660    25.4130    30.9970    26.7810
 2881.0000     0.1370     2.4510     0.0840     7.9960    56.9840   -24.2580    25.2380    29.5490    26.6640
 2881.5000     0.1380     2.4380     0.0780     7.9980    47.0090   -23.8450    24.9520    28.6850    26.3760
 2882.0000     0.1390     2.4420     0.0790     7.9990    48.8270   -23.6610    24.6360    28.8600    26.0420
 2882.5000     0.1390     2.4530     0.0820     8.0000    50.4190   -23.6840    24.3200    29.0330    25.7080
 2883.0000     0.1390     2.4610     0.0880     8.0010    50.7650   -23.7380    24.0050    29.2210    25.3740
 2883.5000     0.1400     2.4710     0.1000     8.0020    50.9340   -23.1050    23.6890    29.2210    25.0400
 2884.0000     0.1420     2.4760     0.0970     8.0030    54.0820   -22.4630    23.3730    28.9100    24.7060
 2884.5000     0.1430     2.4750     0.0930     8.0040    56.9510   -22.7170    23.0570    28.4960    24.3730
 2885.0000     0.1440     2.4710     0.0880     8.0050    59.8670   -22.8860    22.7410    28.0830    24.0390
 2885.5000     0.1420     2.4620     0.0840     8.0070    60.3210   -23.0450    22.4250    27.6690    23.7050
 2886.0000     0.1440     2.4440     0.0840     8.0080    59.0650   -23.2320    22.1410    27.2560    23.4050
 2886.5000     0.1460     2.4480     0.0840     8.0090    59.1990   -23.4020    22.5760    27.8270    23.1440
 2887.0000     0.1480     2.4540     0.0840     8.0100    60.9100   -23.5760    23.1860    28.7950    22.7790
 2887.5000     0.1490     2.4560     0.0840     8.0110    64.1100   -23.7520    23.7950    29.7620    22.3860
 2888.0000     0.1480     2.4520     0.0840     8.0120    61.5090   -23.9270    24.7400    30.8880    21.9490
 2888.5000     0.1480     2.4480     0.0840     8.0130    60.9150   -24.1000    24.5080    29.8380    21.5120
 2889.0000     0.1480     2.4560     0.0850     8.0140    59.9790   -24.2790    23.9910    28.5850    21.0760
 2889.5000     0.1510     2.4690     0.0920     8.0150    59.3630   -24.4480    23.4750    27.3310    20.6390
 2890.0000     0.1510     2.4800     0.0970     8.0170    61.5290   -24.6210    22.9590    26.0770    20.1860
 2890.5000     0.1520     2.4860     0.0960     8.0180    63.4280   -24.8230    22.4420    24.8240    18.9400
 2891.0000     0.1530     2.4770     0.0920     8.0190    65.3920   -24.7360    21.9260    23.5700    17.6450
 2891.5000     0.1560     2.4580     0.0810     8.0200    67.6320   -24.2630    21.3370    22.1410    16.1680
 2892.0000     0.1570     2.4390     0.0870     8.0210    66.8270   -23.8220    20.7790    21.7800    16.1680
 2892.5000     0.1570     2.4470     0.0930     8.0220    64.8680   -23.3690    20.4250    21.3590    16.0190
