~VERSION INFORMATION
 VERS.                2.0:   CWLS LOG ASCII STANDARD - VERSION 2.0
 WRAP.                 NO:   ONE LINE PER DEPTH STEP
~WELL INFORMATION
#MNEM.UNIT      DATA TYPE    INFORMATION
#----------   ------------   ------------------------------
 STRT.F          387.0000:   START DEPTH
 STOP.F         2921.0000:   STOP DEPTH
 STEP.F            0.5000:   STEP LENGTH
 NULL.          -999.2500:   NO VALUE
 COMP.    FENIX & SCISSON:   COMPANY
 WELL.  FENIX  "A" #21-28:   WELL
 FLD .          N.P.R. #3:   FIELD
 LOC .      S28 T39N R78W:   LOCATION
 CNTY.            NATRONA:   COUNTY
 STAT.            WYOMING:   STATE
 CTRY. UNITED STATES OF AMERICA:   COUNTRY
 SRVC.       SCHLUMBERGER:   SERVICE COMPANY
 DATE.        30-APR-1977:   LOGDATE
 API .     49025103550000:   API NUMBER
~CURVE INFORMATION
#MNEM.UNIT       API CODE    CURVE DESCRIPTION
#----------   ------------   ------------------------------
 DEPT.F                  :   
 SPR .MV     07 010 01 00:   SPONTANEOUS POTENTIAL
 ILD .OHMM   07 120 46 00:   DEEP INDUCTION RESISTIVITY
 ILM .OHMM   07 120 44 00:   INDUCTION LOG MEDIUM RESISTIVITY
 LL8 .OHMM   07 220 08 00:   LATEROLOG-8 RES.
 GRD .GAPI   45 310 01 00:   GAMMA RAY FROM DENSITY LOG
 CALD.IN     45 280 60 00:   CALIPER FROM DENSITY LOG
 CORR.G/C3   45 356 01 00:   DENSITY CORRECTION
 RHOB.G/C3   45 350 01 00:   BULK DENSITY
~PARAMETER INFORMATION
#MNEM.UNIT          VALUE    DESCRIPTION
#----------   ------------   ------------------------------
 EKB .F         4977.0000:   Kelly bushing
 EGL .F         4967.0000:   Ground level
 EDF .F            0.0000:   Drilling floor
 TD  .F         2922.0000:   Total depth
 CLNT.            A2DTECH:   Client Code
 SL  . 330' FNL & 990' FWL:   Surface Location
 DATE.        30-APR-1977:   Date Logged [DD-MMM-YYYY]
 DD  .F              2915:   Depth driller
 DL  .F              2922:   Depth logger
 BLI .F              2916:   Bottom log interval
 TLI .F               394:   Top log interval
 CS1 .              8.625:   Casing size
 CBD1.      8.625" @ 390':   Casing driller 1
 CBL1.IN              394:   Casing logger 1
 BS1 .IN            7.875:   Bit size
 BSD1.F              2915:   Depth drilled with bit1
 DFT .            KCL MUD:   Type fluid in hole
 DFD .                8.9:   Density
 DFV .                 87:   Viscosity
 DFPH.                8.5:   pH
 DFL .                9.6:   Fluid loss
 MSS .                PIT:   Source of sample
 RMS .OHMM           0.25:   Rm
 MST .F                70:   Rm Meas. temp.
 RMF .OHMM           0.22:   Rmf
 MFST.F                70:   Rmf Meas. temp.
 MFSS.               MEAS:   Source Rmf.
 RMC .OHMM           0.38:   Rmc
 MCST.F                70:   Rmc Meas. temp.
 MCSS.               CALC:   Source Rmc.
 RMB .OHMM           0.09:   Rm. at BHT
 BHT .F               109:   BHT.
 TCS .HRS            1800:   Time Circ. stopped
 TLAB.HRS            2200:   Time logger at bottom
 MRT .F               109:   Maximum recorded temp.
 LUN .                711:   Logging unit number
 LUL .             CASPER:   Logging unit location
 ENGI.              SYLER:   Recorded By
 WITN.         PETTINGILL:   Witnessed by
 ORIG.           5" PRINT:   Origin of data
 UWI .     49025103550000:   Unique Well ID
 DICO. A2D TECHNOLOGIES, INC.:   Digitizing Company
 PD  .                 GL:   Permanent Datum
 EPD .F              4967:   Elevation Permanent Datum
 LMF .                 KB:   Log Measured From
 DMF .                 KB:   Drilling Measured From
 DAPD.F                10:   Feet Above Permanent Datum
~OTHER INFORMATION
~A   DEPT      SPR        ILD        ILM        LL8         GRD      CALD       CORR       RHOB   
# ...
  549.0000   -45.7936     7.2537     7.1199     7.2356   124.1467     9.4442     0.0254     2.5267
  549.5000   -45.7681     7.2596     7.1238     7.2913   123.2337     9.4460     0.0239     2.5209
  550.0000   -45.5596     7.3152     7.1277     7.3470   121.0902     9.4318     0.0194     2.5256
  550.5000   -45.3320     7.2167     7.1314     7.3521   117.5166     9.4341     0.0148     2.5215
  551.0000   -45.0897     7.1262     7.1363     7.3573   117.8481     9.4184     0.0063     2.5086
  551.5000   -45.0671     7.1311     7.2403     7.3624   118.9572     9.4176     0.0095     2.4940
  552.0000   -44.8926     7.1360     7.2448     7.3675   120.2218     9.4168     0.0173     2.4924
  552.5000   -44.7180     7.1906     7.2996     7.3728   120.7088     9.4160     0.0237     2.4979
  553.0000   -44.5434     7.2457     7.3041     7.3268   120.1072     9.4159     0.0302     2.5151
  553.5000   -44.2169     7.2507     7.3087     7.3319   118.4169     9.4341     0.0393     2.5345
  554.0000   -43.7384     7.2557     7.3132     7.3370   116.5711     9.4366     0.0262     2.5376
  554.5000   -43.2599     7.2607     7.3177     7.3420   114.8808     9.4391     0.0333     2.5307
  555.0000   -43.0851     7.2657     7.3223     7.3471   115.6789     9.4416     0.0403     2.5308
  555.5000   -42.9103     7.2707     7.2762     7.3522   116.1659     9.4279     0.0274     2.5378
  556.0000   -42.7356     7.2757     7.2808     7.3573   115.2533     9.3998     0.0204     2.5456
  556.5000   -42.7128     7.2807     7.2350     7.3624   115.4292     9.3861     0.0305     2.5309
  557.0000   -42.5380     7.2858     7.1895     7.3675   115.7607     9.3730     0.0228     2.5061
  557.5000   -42.3588     7.2908     7.1443     7.3726   117.1809     9.3599     0.0247     2.5000
  558.0000   -42.1842     7.2959     7.1488     7.3787   118.6010     9.3468     0.0285     2.5086
  558.5000   -41.8577     7.3010     7.1533     7.3837   118.7729     9.3338     0.0309     2.5187
  559.0000   -41.8351     7.3060     7.1577     7.3888   118.9487     9.3051     0.0308     2.5273
  559.5000   -41.5086     7.3111     7.1126     7.3939   119.2800     9.2920     0.0177     2.5180
  560.0000   -41.1820     7.3162     7.1666     7.3990   119.9222     9.2951     0.0133     2.5002
  560.5000   -41.1594     7.3222     7.1711     7.4555   120.5645     9.2814     0.0142     2.5096
  561.0000   -40.9849     7.3273     7.1756     7.5125   120.4294     9.2845     0.0110     2.5182
  561.5000   -40.7862     7.3833     7.1809     7.5700   120.1388     9.2558     0.0097     2.5205
  562.0000   -40.6339     7.4398     7.2353     7.6279   118.9151     9.2421     0.0175     2.5012
  562.5000   -40.4635     7.5490     7.2901     7.7396   117.6914     9.2290     0.0199     2.4881
  563.0000   -40.2847     7.6067     7.3964     7.8531   115.0680     9.2322     0.0177     2.4928
  563.5000   -39.9582     7.6650     7.5042     7.9131   112.6001     9.2347     0.0155     2.4959
  564.0000   -39.7836     7.7236     7.6135     8.0291   113.2426     9.2372     0.0155     2.5006
  564.5000   -39.7610     7.7289     7.6712     7.9795   117.9287     9.2234     0.0156     2.5092
  565.0000   -39.5865     7.7881     7.7830     7.9850   121.0596     9.2266     0.0173     2.5100
  565.5000   -39.4119     7.7935     7.8420     7.9340   121.2304     9.2291     0.0313     2.5016
  566.0000   -39.3893     7.7988     7.8468     7.9408   120.7843     9.2154     0.0360     2.5171
  566.5000   -39.2147     7.8042     7.8517     7.8900   122.0541     9.2185     0.0345     2.5280
  567.0000   -39.0402     7.8096     7.8565     7.8968   122.6966     9.2210     0.0292     2.5289
  567.5000   -39.0176     7.8150     7.8060     7.9022   122.7171     9.2235     0.0185     2.5157
  568.0000   -38.8430     7.8199     7.7046     7.9076   121.6489     9.2416     0.0193     2.5010
  568.5000   -38.8204     7.8262     7.7093     7.9131   120.5807     9.2597     0.0194     2.4957
  569.0000   -38.6459     7.8307     7.7141     7.9185   118.4239     9.2779     0.0218     2.5011
  569.5000   -38.4713     7.8362     7.7725     7.9239   117.8171     9.2960     0.0273     2.5097
  570.0000   -38.4487     7.8416     7.7773     7.9294   118.1906     9.2979     0.0295     2.5214
  570.5000   -38.2742     7.8470     7.8362     7.9348   119.7516     9.2692     0.0244     2.5191
  571.0000   -38.2516     7.8528     7.8956     7.9403   121.1635     9.2718     0.0198     2.5114
  571.5000   -38.2290     7.8586     7.9005     7.9457   124.5863     9.2743     0.0153     2.5006
  572.0000   -38.2064     7.8636     7.9603     7.9512   123.9847     9.2768     0.0107     2.5014
  572.5000   -38.1838     7.8690     7.9653     7.9566   121.5168     9.2793     0.0038     2.4961
  573.0000   -38.1611     7.9292     7.9140     7.9621   117.9603     9.2817     0.0124     2.4946
  573.5000   -38.1383     7.9347     7.8112     7.9677   116.1145     9.2842     0.0156     2.4954
  574.0000   -37.9495     7.8852     7.7073     7.9180   114.8908     9.2867     0.0118     2.4947
  574.5000   -37.6170     7.8362     7.7133     7.9236   114.2892     9.2892     0.0065     2.4947
  575.0000   -37.3101     7.7336     7.7717     7.9291   113.2210     9.2917     0.0081     2.4948
  575.5000   -36.9788     7.7389     7.9397     7.9357   112.7698     9.2942     0.0167     2.5018
  576.0000   -36.8042     7.6907     7.9999     7.7777   113.7285     9.2967     0.0261     2.5228
  576.5000   -36.7816     7.6961     7.7324     7.6759   114.8376     9.2993     0.0277     2.5516
  577.0000   -36.7590     7.7014     7.4739     7.5742   115.9467     9.2861     0.0301     2.5586
  577.5000   -36.5845     7.7071     7.2742     7.5270   116.9003     9.2887     0.0449     2.5579
  578.0000   -36.5638     7.7121     7.1786     7.5335   117.6983     9.2912     0.0396     2.5509
  578.5000   -36.5412     7.6639     7.1830     7.5911   116.0317     9.2780     0.0203     2.5184
  579.0000   -36.5186     7.7239     7.2887     7.5963   112.7513     9.2649     0.0142     2.4944
  579.5000   -36.4960     7.7292     7.4971     7.6544   110.1357     9.2363     0.0283     2.5014
  580.0000   -36.3214     7.7884     7.6628     7.7666   109.6889     9.2231     0.0237     2.5024
  580.5000   -36.1469     7.9026     7.8843     7.8804   110.7987     9.2257     0.0168     2.5000
  581.0000   -35.9723     7.9631     8.1120     8.0515   116.4180     9.2282     0.0099     2.5000
  581.5000   -35.7977     8.1927     8.4710     8.2263   120.7930     9.2307     0.0092     2.5032
  582.0000   -35.4711     8.6062     8.9520     8.5814   121.4304     9.2170     0.0202     2.5087
  582.5000   -35.2963     9.1035     9.4041     9.2676   117.4124     9.2039     0.0210     2.5157
  583.0000   -34.9565     9.6295     9.9344     9.8026   111.9897     9.1915     0.0095     2.5142
  583.5000   -34.6429    10.2568    10.4343    10.2258   109.5218     9.1777     0.0041     2.5182
  584.0000   -34.6201    10.7000    10.9594    10.5937   104.0990     9.1491     0.0221     2.5310
  584.5000   -34.5927    11.0852    11.4314    10.9747   102.8702     9.1366     0.0276     2.5564
  585.0000   -34.5701    11.3260    11.7598    11.2130   106.0062     9.1235     0.0315     2.5609
  585.5000   -34.5475    11.5721    12.0141    11.2987   107.8929     9.1260     0.0354     2.5608
  586.0000   -34.3730    11.8235    12.1892    11.1508   108.8465     9.1285     0.0231     2.5490
  586.5000   -34.1984    11.9140    12.2815    11.0814   107.6228     9.1310     0.0310     2.5432
  587.0000   -34.0239    12.0888    12.3746    11.0891   103.7552     9.1335     0.0319     2.5464
  587.5000   -33.8526    12.1813    12.3822    11.1740   103.4595     9.1360     0.0288     2.5434
  588.0000   -33.8298    12.2745    12.3025    11.3472   105.2287     9.1385     0.0204     2.5341
  588.5000   -33.6550    12.4546    12.6572    11.6646   106.1675     9.1248     0.0174     2.5217
  589.0000   -33.6277    12.4631    12.8573    12.0024   106.9424     9.1280     0.0221     2.5295
