~VERSION INFORMATION
 VERS.                2.0:   CWLS LOG ASCII STANDARD - VERSION 2.0
 WRAP.                 NO:   ONE LINE PER DEPTH STEP
~WELL INFORMATION
#MNEM.UNIT      DATA TYPE    INFORMATION
#----------   ------------   ------------------------------
 STRT.F            0.5000:   START DEPTH
 STOP.F         4149.0000:   STOP DEPTH
 STEP.F            0.5000:   STEP LENGTH
 NULL.          -999.2500:   NO VALUE
 COMP. LAWRENCE ALLISON & ASSOSCIATES:   COMPANY
 WELL. LAWRENCE "X" #34-3:   WELL
 FLD .             NPR #3:   FIELD
 LOC .       S3 T38N R78W:   LOCATION
 CNTY.            NATRONA:   COUNTY
 STAT.            WYOMING:   STATE
 CTRY. UNITED STATES OF AMERICA:   COUNTRY
 SRVC.      DRESSER ATLAS:   SERVICE COMPANY
 DATE.        19-NOV-1983:   LOGDATE
 API .     49025109500000:   API NUMBER
~CURVE INFORMATION
#MNEM.UNIT       API CODE    CURVE DESCRIPTION
#----------   ------------   ------------------------------
 DEPT.F                  :   
 CALD.IN     45 280 60 00:   CALIPER FROM DENSITY LOG
 TEND.LBS    45 635 01 00:   TENSION FORM DENSITY LOG
 DEN .G/C3   45 350 01 00:   BULK DENSITY
 CNC .DEC    42 890 01 00:   NEUTRON POROSITY LIMESTONE
 CORR.G/C3   45 356 01 00:   DENSITY CORRECTION
 TENR.LBS    06 635 01 00:   TENSION FROM RESISTIVITY
 GRR .GAPI   07 310 01 00:   GAMMA RAY FROM RESISTIVITY
 RFOC.OHMM   07 220 04 00:   RESISTIVITY FOCUSED LOG RES.
 RILD.OHMM   07 120 46 00:   DEEP INDUCTION RESISTIVITY
 RILM.OHMM   07 120 44 00:   INDUCTION LOG MEDIUM RESISTIVITY
 SPR .MV     07 010 01 00:   SPONTANEOUS POTENTIAL
 TENS.LBS    60 635 01 00:   TENSION FROM SONIC
 DT  .US/F   60 520 00 00:   DELTA TIME
~PARAMETER INFORMATION
#MNEM.UNIT          VALUE    DESCRIPTION
#----------   ------------   ------------------------------
 EKB .F         5187.0000:   Kelly bushing
 EGL .F         5174.0000:   Ground level
 TD  .F         4140.0000:   Total depth
 CLNT.            A2DTECH:   Client Code
 SL  . 1621' FWL & 1958' FNL:   Surface Location
 PD  .                 GL:   Permanent Datum
 EPD .F              5174:   Elevation Permanent Datum
 LMF .                 KB:   Log Measured From
 DMF .                 KB:   Drilling Measured From
 DAPD.F                13:   Feet Above Permanent Datum
 DATE.        19-NOV-1983:   Date Logged [DD-MMM-YYYY]
 DD  .F              4136:   Depth driller
 DL  .F              4140:   Depth logger
 BLI .F              4138:   Bottom log interval
 TLI .F                 0:   Top log interval
 CS1 .IN            8.625:   Casing size
 CBD1.      8.625" @ 615':   Casing driller 1
 CBL1.F               615:   Casing logger 1
 BS1 .IN            7.875:   Bit size
 BSD1.F              4136:   Depth drilled with bit1
 DFT .            GEL-KCL:   Type fluid in hole
 DFD .                  9:   Density
 DFV .                 45:   Viscosity
 DFPH.                8.5:   pH
 DFL .                 12:   Fluid loss
 MSS .           FLOWLINE:   Source of sample
 RMS .OHMM          0.768:   Rm
 MST .F                74:   Rm Meas. temp.
 RMF .OHMM          0.576:   Rmf
 MFST.F                74:   Rmf Meas. temp.
 MFSS.               CALC:   Source Rmf.
 RMC .OHMM           0.96:   Rmc
 MCST.F                74:   Rmc Meas. temp.
 MCSS.               CALC:   Source Rmc.
 RMB .OHMM          0.418:   Rm. at BHT
 BHT .F               136:   BHT.
 TCS .HRS               4:   Time Circ. stopped
 MRT .F               136:   Maximum recorded temp.
 LUN .               6307:   Logging unit number
 LUL .               GLTE:   Logging unit location
 ENGI.           FAHLSING:   Recorded By
 WITN.           JENNINGS:   Witnessed by
 ORIG.      2.5" 5" PRINT:   Origin of data
 UWI .     49025109500000:   Unique Well ID
 DICO. A2D TECHNOLOGIES, INC.:   Digitizing Company
~OTHER INFORMATION
~A    DEPT    CALD       TEND        DEN        CNC       CORR       TENR         GRR      RFOC       RILD       RILM        SPR       TENS         DT   
# ...
 3406.5000     8.5162     0.0000     2.4929     0.2628     0.0391    -9.4908   162.7063     3.5719     2.6757     2.7995   -86.4390   -63.5309    94.7231
 3407.0000     8.4854     0.0000     2.4867     0.2614     0.0451    -8.7964   162.2359     3.5695     2.6364     2.7403   -86.4520   -63.6087    94.9679
 3407.5000     8.4842     0.0000     2.4742     0.2548     0.0510    -8.1019   164.4869     3.5171     2.5978     2.7001   -86.6165   -63.6865    95.2738
 3408.0000     8.4831     0.0000     2.4702     0.2454     0.0554    -7.4075   172.6609     3.4654     2.5963     2.6792   -86.7811   -63.7643    95.4891
 3408.5000     8.4524     0.0000     2.4708     0.2590     0.0554    -6.6040   179.6968     3.3661     2.5765     2.6375   -87.0980   -63.8421    95.5637
 3409.0000     8.4513     0.0000     2.4737     0.2618     0.0523    -6.0185   178.5385     3.2697     2.5750     2.6201   -87.4150   -63.9199    95.6384
 3409.5000     8.4503     0.0000     2.4760     0.2622     0.0552    -5.3241   175.0882     3.2217     2.5736     2.6184   -87.7320   -63.9977    95.8677
 3410.0000     8.4493     0.0000     2.4789     0.2608     0.0551    -4.5617   170.6975     3.2701     2.5539     2.6169   -87.7441   -64.0625    95.9423
 3410.5000     8.4483     0.0000     2.4804     0.2572     0.0610   -11.7668   166.9866     3.4069     2.5524     2.6155   -87.7562   -62.7696    95.3596
 3411.0000     8.4770     0.0000     2.4825     0.2530     0.0639   -10.9566   163.7716     3.4787     2.5298     2.6140   -87.6159   -48.5866    94.5957
 3411.5000     8.4514     0.0000     2.4810     0.2465     0.0548   -10.1785   161.1334     3.5273     2.4778     2.5942   -87.6280   -48.6719    93.8299
 3412.0000     8.4299     0.0000     2.4555     0.2465     0.0308    -9.5544   160.2027     3.5000     2.4589     2.5926   -87.5359   -46.0181    93.1181
 3412.5000     8.4289     0.0000     2.4495     0.2496     0.0277    -8.8734   161.0930     3.4486     2.4401     2.5912   -87.4997   -33.2145    92.2809
 3413.0000     8.4278     0.0000     2.4479     0.2507     0.0276   -15.8951   162.8889     3.3738     2.3704     2.5714   -87.5122   -33.2812    91.5833
 3413.5000     8.4567     0.0000     2.4479     0.2514     0.0365   -15.2006   166.0602     3.2538     2.3027     2.5518   -87.5244   -33.3701    90.9685
 3414.0000     8.4557     0.0000     2.4448     0.2534     0.0424   -14.4902   169.6818     3.1606     2.2369     2.5144   -87.3836   -33.4479    90.5755
 3414.5000     8.4546     0.0000     2.4313     0.2540     0.0453   -13.8118   172.3930     3.1142     2.1730     2.4601   -87.2439   -33.5156    90.1138
 3415.0000     8.4536     0.0000     2.4028     0.2447     0.0482   -13.1172   173.5159     3.0684     2.1109     2.3888   -86.9535   -35.5488    89.8475
 3415.5000     8.4525     0.0000     2.4013     0.2435     0.0514   -20.1070   168.2555     3.0234     1.9931     2.2861   -86.6577   -41.4844    89.6115
 3416.0000     8.4515     0.0000     2.3983     0.2465     0.0662   -27.1605   167.7800     2.9159     1.8819     2.1570   -86.2156   -33.7396    89.6077
 3416.5000     8.4502     0.0000     2.3967     0.2567     0.0656   -26.4614   170.4912     2.8122     1.7148     1.9557   -85.7703   -33.8369    90.0678
 3417.0000     8.4793     0.0000     2.3907     0.2602     0.0594   -25.7717   177.7547     2.6548     1.5188     1.6024   -85.4776   -41.7272    90.6827
 3417.5000     8.5081     0.0000     2.3727     0.2638     0.0537   -25.0431   181.8316     2.5047     1.4546     1.4296   -85.1848   -49.6094    91.3749
 3418.0000     8.5070     0.0000     2.3681     0.2662     0.0548   -24.3827   186.3638     2.3608     1.4131     1.3500   -85.1969   -49.6875    92.2217
 3418.5000     8.5060     0.0000     2.3711     0.2662     0.0596   -31.4043   188.1646     2.1609     1.3923     1.3115   -84.9011   -57.5856    93.1460
 3419.0000     8.5050     0.0000     2.3771     0.2602     0.0301   -30.7098   184.9458     2.0055     1.4322     1.4071   -84.7608   -65.4688    94.3796
 3419.5000     8.5039     0.0000     2.3998     0.2542     0.0175   -30.0153   183.5717     1.9902     1.4941     1.6208   -84.6219   -65.5537    95.3038
 3420.0000     8.5029     0.0000     2.4609     0.2542     0.0663   -21.4687   184.9172     2.1362     1.5826     1.8406   -84.6356   -65.6250    96.4600
 3420.5000     8.5019     0.0000     2.4639     0.2560     0.1191   -20.9104   182.9042     2.4104     1.7140     2.1200   -84.9525   -73.5156    95.8374
 3421.0000     8.5008     0.0000     2.4684     0.2542     0.0992   -20.1071   169.8490     2.7589     1.9250     2.3736   -85.2695   -73.5937    94.6733
 3421.5000     8.4699     0.0000     2.4748     0.2470     0.0564   -19.5216   158.9031     3.2491     2.1252     2.5831   -85.5865   -65.8649    92.0398
 3422.0000     8.4688     0.0000     2.4881     0.2422     0.0515   -18.8273   147.5020     3.8815     2.3462     2.7324   -86.5132   -65.9427    90.1023
 3422.5000     8.4678     0.0000     2.5145     0.2422     0.0513   -10.3487   140.4256     4.2262     2.5537     2.8497   -88.0497   -66.0205    88.1649
 3423.0000     8.4668     0.0000     2.4937     0.2458     0.0528    -1.9516   139.4950     4.3779     2.7016     2.9720   -88.6716   -66.0938    88.7024
 3423.5000     8.4657     0.0000     2.4758     0.2553     0.0587    -1.2141   140.3852     4.2217     2.8177     2.9703   -88.5313   -58.3441    89.5492
 3424.0000     8.4647     0.0000     2.4679     0.2607     0.0645    -8.3334   144.9173     3.8733     2.9388     2.9686   -88.3902   -58.4479    91.0922
 3424.5000     8.4636     0.0000     2.4707     0.2625     0.0704   -15.3550   149.4495     3.3565     3.0218     2.9669   -88.2506   -63.2491    93.0219
 3425.0000     8.4626     0.0000     2.4798     0.2625     0.0733   -14.6605   153.3005     3.0358     3.1072     2.9688   -88.1098   -66.4095    94.1008
 3425.5000     8.4649     0.0000     2.4888     0.2625     0.0703   -13.9660   153.2557     3.1896     3.1950     3.0486   -87.8175   -66.4873    94.6383
 3426.0000     8.4905     0.0000     2.5053     0.2545     0.0582   -13.2716   151.8938     3.5003     3.1481     3.1346   -87.6930   -58.7500    94.4797
 3426.5000     8.4894     0.0000     2.5381     0.2421     0.0461   -12.5771   140.2639     3.8432     3.0150     3.2230   -87.4428   -58.8304    93.6251
 3427.0000     8.4883     0.0000     2.5498     0.2415     0.0281   -11.8828   139.3332     4.0965     2.8468     3.0869   -86.9392   -51.0938    91.8423
 3427.5000     8.4573     0.0000     2.5503     0.2469     0.0160   -11.0860   140.9063     4.3251     2.6500     2.8334   -86.6463   -51.1719    90.2463
 3428.0000     8.4563     0.0000     2.5112     0.2640     0.0159   -10.4940   147.4870     4.3228     2.3639     2.5279   -86.3495   -51.2513    88.1327
 3428.5000     8.4853     0.0000     2.4303     0.2673     0.0578    -9.6677   168.1783     3.9944     2.0743     2.3038   -85.9020   -38.7787    87.8097
 3429.0000     8.4542     0.0000     2.3508     0.2678     0.1595    -9.0437   184.0914     3.2002     1.7860     1.9979   -85.4632   -35.7813    89.7177
 3429.5000     8.4531     0.0000     2.2687     0.2654     0.1983    -8.4104   212.2957     2.0552     1.7122     1.6961   -85.1704   -35.8597    92.2130
 3430.0000     8.4222     0.0000     2.2572     0.2685     0.1503    -7.7160   217.7383     1.6350     1.7008     1.6245   -84.8776   -32.0351    99.1710
 3430.5000     8.4211     0.0000     2.4119     0.2690     0.0872    -7.0215   211.1172     2.0239     1.7487     1.7932   -84.5849   -20.3906   102.8761
 3431.0000     8.4074     0.0000     2.4598     0.2688     0.0813    -6.3203   196.7571     2.8899     1.9033     1.9515   -84.4445   -20.4687   101.0849
 3431.5000     8.3891     0.0000     2.4807     0.2661     0.0779    -5.5827   174.7908     3.5777     2.0569     2.1541   -84.6121   -20.5469    98.0730
 3432.0000     8.3880     0.0000     2.4627     0.2527     0.0751    -4.9381   151.6484     3.8408     2.2072     2.3777   -84.9291   -20.6250    96.0582
