~VERSION INFORMATION
 VERS.                2.0:   CWLS LOG ASCII STANDARD - VERSION 2.0
 WRAP.                 NO:   ONE LINE PER DEPTH STEP
~WELL INFORMATION
#MNEM.UNIT      DATA TYPE    INFORMATION
#----------   ------------   ------------------------------
 STRT.F          508.0000:   START DEPTH
 STOP.F         3170.0000:   STOP DEPTH
 STEP.F            0.5000:   STEP LENGTH
 NULL.          -999.2500:   NO VALUE
 COMP. FENIX & SCISSON - U.S. NAVY:   COMPANY
 WELL. FENIX NPR-3 "A" #58-34:   WELL
 FLD .                NPR:   FIELD
 LOC .      S34 T39N R78W:   LOCATION
 CNTY.            NATRONA:   COUNTY
 STAT.            WYOMING:   STATE
 CTRY. UNITED STATES OF AMERICA:   COUNTRY
 SRVC.       SCHLUMBERGER:   SERVICE COMPANY
 DATE.        15-MAR-1977:   LOGDATE
 API .     49025103180000:   API NUMBER
~CURVE INFORMATION
#MNEM.UNIT       API CODE    CURVE DESCRIPTION
#----------   ------------   ------------------------------
 DEPT.F                  :   
 CALD.IN     45 280 60 00:   CALIPER FROM DENSITY LOG
 GRD .GAPI   45 310 01 00:   GAMMA RAY FROM DENSITY LOG
 RHOB.G/C3   45 350 01 00:   BULK DENSITY
 CORR.G/C3   45 356 01 00:   DENSITY CORRECTION
 SPR .MV     07 010 01 00:   SPONTANEOUS POTENTIAL
 LL8 .OHMM   07 220 08 00:   LATEROLOG-8 RES.
 ILD .OHMM   07 120 46 00:   DEEP INDUCTION RESISTIVITY
 ILM .OHMM   07 120 44 00:   INDUCTION LOG MEDIUM RESISTIVITY
~PARAMETER INFORMATION
#MNEM.UNIT          VALUE    DESCRIPTION
#----------   ------------   ------------------------------
 EKB .F         5129.0000:   Kelly bushing
 EGL .F         5117.0000:   Ground level
 EDF .F            0.0000:   Drilling floor
 EPD .F            0.0000:   Permanent datum
 TD  .F         3170.0000:   Total depth
 DATE.        15-MAR-1977:   Date logged
 CLNT.            A2DTECH:   Client Code
 SL  . 2310' FEL & 330' FSL:   Surface Location
 PD  .                 GL:   Permanent Datum
 DAPD.F                12:   Feet Above Permanent Datum
 DD  .F              3170:   Depth driller
 DL  .F              3170:   Depth logger
 BLI .F              3169:   Bottom log interval
 TLI .F               508:   Top log interval
 CS1 .IN            8.625:   Casing size
 CBD1.      8.625" @ 524':   Casing driller 1
 CBL1.F               522:   Casing logger 1
 BS1 .IN            7.875:   Bit size
 BSD1.F              3170:   Depth drilled with bit1
 DFT .                KCL:   Type fluid in hole
 DFD .                9.2:   Density
 DFV .                 36:   Viscosity
 DFPH.                  9:   pH
 DFL .                  9:   Fluid loss
 MSS .                PIT:   Source of sample
 RMS .OHMM             .3:   Rm
 MST .F                58:   Rm Meas. temp.
 RMF .OHMM            .29:   Rmf
 MFST.F                58:   Rmf Meas. temp.
 MFSS.               MEAS:   Source Rmf.
 RMB .OHMM            .15:   Rm. at BHT
 BHT .F               120:   BHT.
 TCS .HRS               6:   Time Circ. stopped
 MRT .F               120:   Maximum recorded temp.
 LUN .               7711:   Logging unit number
 LUL .               CSPR:   Logging unit location
 ENGI.             SAYLER:   Recorded By
 WITN.               JAPP:   Witnessed by
 ORIG.           5" PRINT:   Origin of data
 UWI .     49025103180000:   Unique Well ID
 DICO. A2D TECHNOLOGIES, INC.:   Digitizing Company
~OTHER INFORMATION
~A   DEPT       CALD       GRD      RHOB        CORR       SPR        LL8        ILD        ILM   
# ...
 2978.5000     8.9283   150.9329     2.5724     0.0159   -41.1976     8.1872     3.4057     4.6969
 2979.0000     8.9488   148.8753     2.5835     0.0200   -41.4211     8.1860     4.3636     5.1009
 2979.5000     8.9690   147.0973     2.5915     0.0291   -41.6445     8.1102     5.8536     5.3891
 2980.0000     8.9504   145.1225     2.5866     0.0121   -41.8679     7.8174     6.4158     5.7461
 2980.5000     8.9507   143.7425     2.5557     0.0142   -43.4187     7.6045     7.4300     5.9059
 2981.0000     8.9514   146.9228     2.5527     0.0173   -43.8634     7.2631     6.9028     5.9051
 2981.5000     8.9518   149.5069     2.5538     0.0173   -44.3080     6.9371     6.4130     5.9041
 2982.0000     8.9526   154.1488     2.5488     0.0154   -44.9739     6.8729     6.0684     5.7429
 2982.5000     8.9530   154.1524     2.5489     0.0164   -45.1974     6.7473     5.6897     5.5351
 2983.0000     8.9539   154.1597     2.5460     0.0185   -45.6425     6.5635     5.5854     5.3347
 2983.5000     8.9546   155.1573     2.5330     0.0165   -46.0871     6.4435     5.3832     5.1417
 2984.0000     8.9554   155.7559     2.5321     0.0126   -46.3106     6.3839     5.1410     4.9103
 2984.5000     8.9560   162.9034     2.5401     0.0117   -46.3128     6.0417     4.9550     4.6465
 2985.0000     8.9765   167.6653     2.5262     0.0037   -46.0937     5.7706     4.5612     4.3169
 2985.5000     8.9772   177.9878     2.5153     0.0028   -45.6535     5.5117     4.4369     4.0852
 2986.0000     8.9778   182.5530     2.4913     0.0068   -45.4345     5.2644     4.0845     3.4623
 2986.5000     8.9983   197.4310     2.4894     0.0029   -45.2155     5.0282     3.3371     2.9617
 2987.0000     8.9990   222.6438     2.4884     0.0130   -45.2177     4.3826     2.9075     2.7016
 2987.5000     8.9996   233.7918     2.4605     0.0170   -44.9986     3.8197     2.6279     2.5100
 2988.0000     9.0003   245.4443     2.4366     0.0211   -44.5584     2.9829     2.4868     2.3752
 2988.5000     9.0010   248.6240     2.4506     0.0422   -44.1177     2.2254     2.4865     2.4189
 2989.0000     9.0016   252.2022     2.4707     0.0543   -43.6775     2.1847     2.5556     2.5323
 2989.5000     9.0023   249.4350     2.4737     0.0503   -43.6797     2.4605     2.6509     2.7754
 2990.0000     9.0029   222.5551     2.5078     0.0203   -44.1248     3.3278     2.8525     3.3649
 2990.5000     9.0036   163.7732     2.5238     0.0044   -43.4628     6.8562     3.0695     4.1553
 2991.0000     9.0041   158.0246     2.5389     0.0065   -43.0226     7.1108     3.5221     4.6813
 2991.5000     9.0048   159.0226     2.5450     0.0235   -43.2460     7.0450     4.1542     5.0373
 2992.0000     8.9658   159.2271     2.5440     0.0236   -43.4699     7.1741     4.8107     5.6230
 2992.5000     8.9466   161.0174     2.5621     0.0196   -43.6933     7.1731     5.5200     5.7791
 2993.0000     8.9472   163.0073     2.5562     0.0157   -43.9168     7.2380     5.8313     5.8316
 2993.5000     8.9478   165.7908     2.5492     0.0097   -44.1402     7.1710     5.8845     5.8308
 2994.0000     8.9089   169.1696     2.5413     0.0058   -44.5849     7.1700     5.8837     5.7767
 2994.5000     8.9095   174.3327     2.5313     0.0038   -44.5871     7.1037     5.8829     5.6191
 2995.0000     8.9102   178.9034     2.5294     0.0039   -45.0317     7.1027     5.8284     5.5670
 2995.5000     8.9109   178.9087     2.5165    -0.0010   -45.4764     7.2328     5.7744     5.5663
 2996.0000     8.9115   177.7249     2.5095    -0.0010   -46.1423     7.2318     5.8268     5.5655
 2996.5000     8.8130   175.1522     2.5036     0.0011   -46.3657     7.7090     5.8797     5.6160
 2997.0000     8.8136   175.3571     2.5116     0.0021   -46.5891     7.7079     5.9877     5.6670
 2997.5000     8.8143   178.1414     2.5287     0.0032   -46.3701     7.6366     6.0421     5.7712
 2998.0000     8.8150   180.3305     2.5267     0.0023   -45.9299     7.4970     6.1531     5.8236
 2998.5000     8.8153   184.7036     2.5228     0.0003   -45.9321     7.5648     6.1523     5.8764
 2999.0000     8.8163   183.1216     2.5149    -0.0006   -45.9343     7.6333     6.1514     5.8756
 2999.5000     8.8168   179.3569     2.5109     0.0054   -45.7153     7.7023     6.1505     5.8748
 3000.0000     8.8174   174.5995     2.5330     0.0065   -44.8326     7.7012     6.1497     5.8740
 3000.5000     8.7887   174.0161     2.5225     0.0047   -44.6372     8.2518     6.0965     5.8224
 3001.0000     8.7602   180.9759     2.5311     0.0056   -44.3955     8.5132     6.0356     5.8181
 3001.5000     8.7212   183.5651     2.5351     0.0046   -44.3982     8.5116     5.9247     5.7113
 3002.0000     8.6834   184.1724     2.5402     0.0047   -44.4009     8.1296     5.8695     5.6063
 3002.5000     8.6846   184.3827     2.5272     0.0047   -44.6248     7.4175     5.8148     5.5033
 3003.0000     8.6463   183.9954     2.5292     0.0058   -44.4063     6.9561     5.7605     5.3529
 3003.5000     8.6473   183.8088     2.5333     0.0118   -44.1877     6.6439     5.7068     5.2544
 3004.0000     8.5889   180.8489     2.5353     0.0199   -43.9692     6.7652     5.5508     5.1107
 3004.5000     8.5897   175.1061     2.5364     0.0099   -43.9719     7.0805     5.3989     5.1097
 3005.0000     8.5909   173.3320     2.5414     0.0110   -44.1958     7.2099     5.2997     5.1087
 3005.5000     8.5916   173.3463     2.5464     0.0120   -43.9772     7.0779     5.2986     5.1548
 3006.0000     8.5937   175.7371     2.5525     0.0101   -43.9799     6.7601     5.3957     5.2976
 3006.5000     8.5947   179.9163     2.5465     0.0111   -43.9826     6.8836     5.5452     5.7527
 3007.0000     8.6155   179.5290     2.5396     0.0091   -43.9853     7.6804     6.0684     6.3043
 3007.5000     8.5576   175.7729     2.5356     0.0042   -43.9880     7.7507     6.1320     6.6599
 3008.0000     8.5588   173.8004     2.5336     0.0032   -43.7695     8.7815     6.3019     7.0355
 3008.5000     8.5597   171.2326     2.5367     0.0023   -43.3296    10.1939     6.4181     7.3644
 3009.0000     8.5612   170.0539     2.5457     0.0033   -42.6685    10.6699     7.1631     7.6383
 3009.5000     8.4830   168.4783     2.5548     0.0054   -42.2286    10.7661     7.9945     7.7783
 3010.0000     8.4842   166.5106     2.5578     0.0064   -42.4526    10.6657     8.0676     7.8485
 3010.5000     8.4854   165.5256     2.5669     0.0044   -42.6765    10.6638     8.2155     7.9194
 3011.0000     8.4866   166.3313     2.5669     0.0035   -43.3431    10.5647     8.2140     7.9179
 3011.5000     8.4281   167.7322     2.5659     0.0055   -43.5670    10.5628     8.2124     7.9164
 3012.0000     8.5088   170.3286     2.5730     0.0076   -43.3484    10.5609     8.1359     7.8426
 3012.5000     8.4505   171.3280     2.5640     0.0106   -43.1298    10.5590     7.9864     7.7695
 3013.0000     8.4318   171.9352     2.5531     0.0097   -42.9112    10.2712     7.8397     7.6268
 3013.5000     8.3938   173.5347     2.5461     0.0097   -43.1352     9.9002     7.7666     7.4183
 3014.0000     8.3945   175.5310     2.5311     0.0058   -43.3592     9.5425     7.6239     7.2154
 3014.5000     8.3955   177.5320     2.5312     0.0068   -43.3619     9.5408     7.4155     7.0181
 3015.0000     8.4160   177.3384     2.5402     0.0139   -43.3646     9.4521     7.2127     6.8889
 3015.5000     8.4772   174.9714     2.5473     0.0139   -43.1459     9.2790     7.0802     6.8876
 3016.0000     8.4985   171.2130     2.5493     0.0120   -42.7060     9.1090     6.9498     6.8863
 3016.5000     8.4994   174.0030     2.5494     0.0110   -42.7087     8.9421     6.9485     6.8850
 3017.0000     8.5009   176.1978     2.5484     0.0090   -42.7114     8.9405     6.9471     6.8837
 3017.5000     8.5621   176.6066     2.5454     0.0061   -42.7141     9.0210     6.9458     6.8824
 3018.0000     8.6223   179.1982     2.5395     0.0061   -42.4954     9.4417     6.9445     6.8811
 3018.5000     8.6431   179.6070     2.5495     0.0122   -42.4981     9.7920     6.9432     6.8169
