~VERSION INFORMATION
 VERS.                2.0:   CWLS LOG ASCII STANDARD - VERSION 2.0
 WRAP.                 NO:   ONE LINE PER DEPTH STEP
~WELL INFORMATION
#MNEM.UNIT      DATA TYPE    INFORMATION
#----------   ------------   ------------------------------
 STRT.F            7.5000:   START DEPTH
 STOP.F         3140.0000:   STOP DEPTH
 STEP.F            0.5000:   STEP LENGTH
 NULL.          -999.2500:   NO VALUE
 COMP. LAWRENCE ALLISON WEST:   COMPANY
 WELL. LAWRENCE NPR 3 "AX" #51-3:   WELL
 FLD .                NPR:   FIELD
 LOC .       S3 T38N R78W:   LOCATION
 CNTY.            NATRONA:   COUNTY
 STAT.            WYOMING:   STATE
 CTRY. UNITED STATES OF AMERICA:   COUNTRY
 SRVC.      DRESSER ATLAS:   SERVICE COMPANY
 DATE.        09-NOV-1986:   LOGDATE
 API .     49025111180000:   API NUMBER
~CURVE INFORMATION
#MNEM.UNIT       API CODE    CURVE DESCRIPTION
#----------   ------------   ------------------------------
 DEPT.F                  :   
 CALD.IN     45 280 60 00:   CALIPER FROM DENSITY LOG
 DEN .LBS    45 350 01 00:   BULK DENSITY
 CORR.G/C3   45 356 01 00:   DENSITY CORRECTION
 NPOR.DEC    42 890 03 00:   ALPHA PROCESSED NEUTRON POROSITY
 SPR .MV     07 010 01 00:   SPONTANEOUS POTENTIAL
 GRR .GAPI   07 310 01 00:   GAMMA RAY FROM RESISTIVITY
 SFL .OHMM   07 220 01 00:   SHALLOW FOCUSED LOG RESISTIVITY
 ILD .OHMM   07 120 46 00:   DEEP INDUCTION RESISTIVITY
 ILM .OHMM   07 120 44 00:   INDUCTION LOG MEDIUM RESISTIVITY
 TENR.LBS    07 635 01 00:   TENSION FROM RESISTIVITY
~PARAMETER INFORMATION
#MNEM.UNIT          VALUE    DESCRIPTION
#----------   ------------   ------------------------------
 EKB .F         5132.0000:   Kelly bushing
 EGL .F         5120.0000:   Ground level
 TD  .F         3141.0000:   Total depth
 DATE.        09-NOV-1986:   Date logged
 CLNT.            A2DTECH:   Client Code
 SL  . 249' FNL & 2195' FEL:   Surface Location
 PD  .                 GL:   Permanent Datum
 EPD .F              5120:   Elevation Permanent Datum
 LMF .                 KB:   Log Measured From
 DMF .                 KB:   Drilling Measured From
 DAPD.F                12:   Feet Above Permanent Datum
 DD  .F              3141:   Depth driller
 DL  .F              3132:   Depth logger
 BLI .F              3126:   Bottom log interval
 CS1 .IN            8.625:   Casing size
 CBD1.      8.625" @ 690':   Casing driller 1
 CBL1.F               690:   Casing logger 1
 BS1 .IN            7.875:   Bit size
 BSD1.F              3141:   Depth drilled with bit1
 DFT .        KCL/POLYMER:   Type fluid in hole
 DFD .                8.9:   Density
 DFV .                 34:   Viscosity
 DFPH.                9.5:   pH
 DFL .                9.5:   Fluid loss
 MSS .           FLOWLINE:   Source of sample
 RMS .OHMM           .368:   Rm
 MST .F                66:   Rm Meas. temp.
 RMF .OHMM           .296:   Rmf
 MFST.F                66:   Rmf Meas. temp.
 RMC .OHMM           .468:   Rmc
 MCST.F                66:   Rmc Meas. temp.
 MFSS.               MEAS:   Source Rmf.
 MCSS.               CALC:   Source Rmc.
 RMB .OHMM           .282:   Rm. at BHT
 BHT .F               120:   BHT.
 TCS .HRS             3.5:   Time Circ. stopped
 MRT .F               120:   Maximum recorded temp.
 LUN .            HL-6274:   Logging unit number
 LUL .           GILLETTE:   Logging unit location
 ENGI.             RAUTIO:   Recorded By
 WITN.             STRONG:   Witnessed by
 ORIG.        2" 5" PRINT:   Origin of data
 UWI .     49025111180000:   Unique Well ID
 DICO. A2D TECHNOLOGIES, INC.:   Digitizing Company
~OTHER INFORMATION
~A    DEPT    CALD        DEN       CORR       NPOR        SPR         GRR       SFL        ILD        ILM       TENR   
# ...
 1682.5000  -999.2500  -999.2500  -999.2500  -999.2500   -73.9654    97.8368     7.5523     6.9055     6.5920   -51.9547
 1683.0000  -999.2500  -999.2500  -999.2500  -999.2500   -73.7683    97.4284     7.5516     6.9047     6.5911   -51.8545
 1683.5000  -999.2500  -999.2500  -999.2500  -999.2500   -73.9092    99.0273     7.6210     6.9039     6.5903   -51.7544
 1684.0000  -999.2500  -999.2500  -999.2500  -999.2500   -73.9764   102.2321     7.6908     6.9030     6.5895   -41.5752
 1684.5000  -999.2500  -999.2500  -999.2500  -999.2500   -74.1809   104.6327     7.8338     6.9022     6.5887   -61.6330
 1685.0000  -999.2500  -999.2500  -999.2500  -999.2500   -74.1846   103.4214     7.9058     6.9009     6.5879   -61.5329
 1685.5000  -999.2500  -999.2500  -999.2500  -999.2500   -74.1883   102.2100     7.9049     6.9001     6.5871   -51.3536
 1686.0000  -999.2500  -999.2500  -999.2500  -999.2500   -74.3920   102.2031     7.9040     6.8355     6.5255   -71.4118
 1686.5000  -999.2500  -999.2500  -999.2500  -999.2500   -74.5972   102.5977     7.9030     6.8347     6.5247   -41.0740
 1687.0000  -999.2500  -999.2500  -999.2500  -999.2500   -74.8016   103.3938     7.8291     6.8339     6.4636   -40.9737
 1687.5000  -999.2500  -999.2500  -999.2500  -999.2500   -74.8053   106.1933     7.7559     6.8330     6.4628   -40.8534
 1688.0000  -999.2500  -999.2500  -999.2500  -999.2500   -74.8090   105.3875     7.6834     6.8322     6.4621   -60.9120
 1688.5000  -999.2500  -999.2500  -999.2500  -999.2500   -74.6120   104.5776     7.6116     6.8314     6.4613   -60.8119
 1689.0000  -999.2500  -999.2500  -999.2500  -999.2500   -74.4149   104.1693     7.6107     6.8306     6.4605   -60.7117
 1689.5000  -999.2500  -999.2500  -999.2500  -999.2500   -74.2179   106.1699     7.5396     6.8296     6.4596   -60.6316
 1690.0000  -999.2500  -999.2500  -999.2500  -999.2500   -74.0208   110.1783     7.5385     6.8288     6.4588   -60.5314
 1690.5000  -999.2500  -999.2500  -999.2500  -999.2500   -74.0253   107.3608     7.6080     6.8280     6.4580   -60.4038
 1691.0000  -999.2500  -999.2500  -999.2500  -999.2500   -73.8282   101.7312     7.6069     6.8272     6.4573   -80.4705
 1691.5000  -999.2500  -999.2500  -999.2500  -999.2500   -73.8312    98.9136     7.7484     6.8263     6.4565   -80.3705
 1692.0000  -999.2500  -999.2500  -999.2500  -999.2500   -74.4379    98.9067     7.8925     6.8255     6.3368   -80.2904
 1692.5000  -999.2500  -999.2500  -999.2500  -999.2500   -74.2416    99.7028     7.8916     6.7616     6.3953   -80.1833
 1693.0000  -999.2500  -999.2500  -999.2500  -999.2500   -74.2453   101.7036     7.8178     6.6984     6.3945   -80.0761
 1693.5000  -999.2500  -999.2500  -999.2500  -999.2500   -74.2490   106.5152     7.6732     6.6357     6.3938   -79.9690
 1694.0000  -999.2500  -999.2500  -999.2500  -999.2500   -74.0519   106.9099     7.5313     6.6349     6.3930   -79.8619
 1694.5000  -999.2500  -999.2500  -999.2500  -999.2500   -74.0556   106.9031     7.4609     6.6341     6.3922   -79.7547
 1695.0000  -999.2500  -999.2500  -999.2500  -999.2500   -73.8577   106.8962     7.4600     6.6333     6.3915   -79.6100
 1695.5000  -999.2500  -999.2500  -999.2500  -999.2500   -73.8614   107.6925     7.4591     6.6325     6.3316   -79.5500
 1696.0000  -999.2500  -999.2500  -999.2500  -999.2500   -73.8651   108.0872     7.3212     6.6315     6.2722   -79.4499
 1696.5000  -999.2500  -999.2500  -999.2500  -999.2500   -73.8688   106.0725     7.3201     6.6307     6.2715   -79.3498
 1697.0000  -999.2500  -999.2500  -999.2500  -999.2500   -74.0733   104.8609     7.3874     6.6299     6.2707   -69.1695
 1697.5000  -999.2500  -999.2500  -999.2500  -999.2500   -74.6794   104.4511     7.4554     6.6296     6.2700   -58.9890
 1698.0000  -999.2500  -999.2500  -999.2500  -999.2500   -75.0846   104.8458     7.5941     6.6902     6.3277   -58.8888
 1698.5000  -999.2500  -999.2500  -999.2500  -999.2500   -75.2899   106.0437     7.6639     6.6894     6.3859   -58.7887
 1699.0000  -999.2500  -999.2500  -999.2500  -999.2500   -75.0928   106.4384     7.7344     6.7510     6.5048   -58.6885
 1699.5000  -999.2500  -999.2500  -999.2500  -999.2500   -74.8957   105.2267     7.8055     6.8131     6.5647   -58.5883
 1700.0000  -999.2500  -999.2500  -999.2500  -999.2500   -74.2978   106.0231     7.8773     6.8758     6.5640   -58.4681
 1700.5000  -999.2500  -999.2500  -999.2500  -999.2500   -73.9487   106.7443     7.8763     6.8753     6.6208   -58.3660
 1701.0000  -999.2500  -999.2500  -999.2500  -999.2500   -73.4987   106.0149     7.8760     6.8747     6.6241   -58.1739
 1701.5000  -999.2500  -999.2500  -999.2500  -999.2500   -73.2998   101.5933     7.8753     6.8742     6.6853   -58.0267
 1702.0000  -999.2500  -999.2500  -999.2500  -999.2500   -73.5026   100.7861     7.8747     6.8739     6.6848   -57.8795
 1702.5000  -999.2500  -999.2500  -999.2500  -999.2500   -73.9062   101.1838     7.8741     6.8730     6.6842   -57.7323
 1703.0000  -999.2500  -999.2500  -999.2500  -999.2500   -74.1090   108.8103     7.8006     6.8724     6.6218   -57.5850
 1703.5000  -999.2500  -999.2500  -999.2500  -999.2500   -74.1110   110.8143     7.7280     6.8718     6.5601   -57.4378
 1704.0000  -999.2500  -999.2500  -999.2500  -999.2500   -74.3138   110.4087     7.6560     6.8713     6.4990   -57.2907
 1704.5000  -999.2500  -999.2500  -999.2500  -999.2500   -74.3160   107.5928     7.6554     6.8707     6.4384   -57.1435
 1705.0000  -999.2500  -999.2500  -999.2500  -999.2500   -74.3177   109.5968     7.7261     6.8067     6.4379   -56.9963
 1705.5000  -999.2500  -999.2500  -999.2500  -999.2500   -74.3197   109.1913     7.8700     6.7432     6.3779   -56.8490
 1706.0000  -999.2500  -999.2500  -999.2500  -999.2500   -74.9245   105.9745     7.9427     6.7427     6.3774   -66.7518
 1706.5000  -999.2500  -999.2500  -999.2500  -999.2500   -74.5249   103.1593     7.8687     6.6798     6.3769   -66.6340
 1707.0000  -999.2500  -999.2500  -999.2500  -999.2500   -74.7276   104.3601     7.7955     6.6793     6.3763   -66.4867
 1707.5000  -999.2500  -999.2500  -999.2500  -999.2500   -74.5288   105.1594     7.5110     6.6791     6.3758   -66.3100
 1708.0000  -999.2500  -999.2500  -999.2500  -999.2500   -74.5308   105.1554     7.4411     6.6165     6.3164   -66.2216
 1708.5000  -999.2500  -999.2500  -999.2500  -999.2500   -74.5312   104.3483     7.4405     6.6160     6.3159   -66.0154
 1709.0000  -999.2500  -999.2500  -999.2500  -999.2500   -74.3340   103.1395     7.5791     6.6154     6.3154   -65.8682
 1709.5000  -999.2500  -999.2500  -999.2500  -999.2500   -74.1351   102.3307     7.7204     6.6149     6.4929   -75.7996
 1710.0000  -999.2500  -999.2500  -999.2500  -999.2500   -74.1371   103.1316     7.8642     6.6144     6.4927   -75.6522
 1710.5000  -999.2500  -999.2500  -999.2500  -999.2500   -74.1391   103.9308     7.9367     6.6137     6.5528   -75.5049
 1711.0000  -999.2500  -999.2500  -999.2500  -999.2500   -73.9403   104.7300     7.9361     6.6749     6.6132   -75.3575
 1711.5000  -999.2500  -999.2500  -999.2500  -999.2500   -73.9423   105.1277     7.8622     6.7994     6.7366   -75.2102
 1712.0000  -999.2500  -999.2500  -999.2500  -999.2500   -73.9443   103.9197     7.8146     6.9908     6.7988   -75.0628
 1712.5000  -999.2500  -999.2500  -999.2500  -999.2500   -74.3478   100.3013     7.9603     7.1213     6.8617   -64.8374
 1713.0000  -999.2500  -999.2500  -999.2500  -999.2500   -74.5169   100.6990     8.1844     7.1871     6.9251   -64.6901
 1713.5000  -999.2500  -999.2500  -999.2500  -999.2500   -74.3522   104.7110     8.3371     7.2535     6.9246   -64.5429
 1714.0000  -999.2500  -999.2500  -999.2500  -999.2500   -74.1534   108.7231     8.3364     7.3206     6.9886   -64.3957
 1714.5000  -999.2500  -999.2500  -999.2500  -999.2500   -73.9546   107.5143     8.2587     7.3200     6.9880   -64.2190
 1715.0000  -999.2500  -999.2500  -999.2500  -999.2500   -74.1573   102.2895     8.1817     7.3194     6.9874   -53.9942
 1715.5000  -999.2500  -999.2500  -999.2500  -999.2500   -74.1593    99.8744     8.0306     7.2514     7.1178   -43.7695
