~VERSION INFORMATION
 VERS.                2.0:   CWLS LOG ASCII STANDARD - VERSION 2.0
 WRAP.                 NO:   ONE LINE PER DEPTH STEP
~WELL INFORMATION
#MNEM.UNIT      DATA TYPE    INFORMATION
#----------   ------------   ------------------------------
 STRT.F         3288.0000:   START DEPTH
 STOP.F         4421.0000:   STOP DEPTH
 STEP.F            0.5000:   STEP LENGTH
 NULL.          -999.2500:   NO VALUE
 COMP.       FLUOR DANIEL:   COMPANY
 WELL. FLUOR 22 "X" #2-10:   WELL
 FLD . TEA POT DOME NAVAL PETROLEUM DO:   FIELD
 LOC .      S10 T38N R78W:   LOCATION
 CNTY.            NATRONA:   COUNTY
 STAT.            WYOMING:   STATE
 CTRY. UNITED STATES OF AMERICA:   COUNTRY
 SRVC.        HALLIBURTON:   SERVICE COMPANY
 DATE.        13-DEC-1996:   LOGDATE
 API .     49025228330000:   API NUMBER
~CURVE INFORMATION
#MNEM.UNIT       API CODE    CURVE DESCRIPTION
#----------   ------------   ------------------------------
 DEPT.F                  :   
 NPHI.DEC    42 890 03 00:   NEUTRON POROSITY SANDSTONE
 GRD .GAPI   45 310 01 00:   GAMMA RAY FROM DENSITY LOG
 CALD.IN     45 280 60 00:   CALIPER FROM DENSITY LOG
 PE  .B/E    45 358 01 00:   PHOTOELECTRIC FACTOR
 CORR.G/C3   45 356 01 00:   DENSITY CORRECTION
 TEND.LBS    45 635 01 00:   TENSION FORM DENSITY LOG
 RHOB.G/C3   45 350 01 00:   BULK DENSITY
 TENR.LBS    07 635 01 00:   TENSION FROM RESISTIVITY
 ILD .OHMM   07 120 46 00:   DEEP INDUCTION RESISTIVITY
 ILM .OHMM   07 120 44 00:   INDUCTION LOG MEDIUM RESISTIVITY
 SFL .OHMM   07 220 01 00:   SHALLOW FOCUSED LOG RESISTIVITY
~PARAMETER INFORMATION
#MNEM.UNIT          VALUE    DESCRIPTION
#----------   ------------   ------------------------------
 EKB .F         5268.0000:   Kelly bushing
 EGL .F         5258.0000:   Ground level
 EDF .F         5267.0000:   Drilling floor
 TD  .F         4435.0000:   Total depth
 CLNT.            A2DTECH:   Client Code
 SL  . 569' FNL & 1440' FWL:   Surface Location
 PD  .                 GL:   Permanent Datum
 EPD .F              5258:   Elevation Permanent Datum
 LMF .                 KB:   Log Measured From
 DMF .                 KB:   Drilling Measured From
 DAPD.F                10:   Feet Above Permanent Datum
 DATE.        13-DEC-1996:   Date Logged [DD-MMM-YYYY]
 DD  .F              4435:   Depth driller
 DL  .F              4412:   Depth logger
 BLI .F              4403:   Bottom log interval
 TLI .F              3308:   Top log interval
 CS1 .IN            9.625:   Casing size
 CBD1.     9.625" @ 3307':   Casing driller 1
 CBL1.F              3308:   Casing logger 1
 BS1 .IN              8.5:   Bit size
 BSD1.F              4435:   Depth drilled with bit1
 DFT .           POLY-KCL:   Type fluid in hole
 DFD .                  9:   Density
 DFV .                 50:   Viscosity
 DFPH.                  9:   pH
 DFL .                  7:   Fluid loss
 MSS .           MUD TANK:   Source of sample
 RMS .OHMM           0.47:   Rm
 MST .F                56:   Rm Meas. temp.
 RMF .OHMM           0.36:   Rmf
 MFST.F                61:   Rmf Meas. temp.
 MFSS.               MEAS:   Source Rmf.
 RMC .OHMM           0.48:   Rmc
 MCST.F                68:   Rmc Meas. temp.
 MCSS.               MEAS:   Source Rmc.
 RMB .OHMM           0.20:   Rm. at BHT
 BHT .F               138:   BHT.
 TCS .HRS              20:   Time Circ. stopped
 TLAB.HRS            0108:   Time logger at bottom
 MRT .F               138:   Maximum recorded temp.
 LUN .              52546:   Logging unit number
 LUL .              VERNI:   Logging unit location
 ENGI.        JOHN SAVAGE:   Recorded By
 WITN.          STEBBINGS:   Witnessed by
 ORIG.         2.5" PRINT:   Origin of data
 UWI .     49025228330000:   Unique Well ID
 DICO. A2D TECHNOLOGIES, INC.:   Digitizing Company
~OTHER INFORMATION
~A  DEPT        NPHI       GRD      CALD         PE       CORR       TEND       RHOB       TENR        ILD        ILM        SFL   
# ...
 4142.0000     0.3306   141.0771     9.3915     2.7571     0.0333  3410.7041     2.4799  3288.0508     4.6155     4.4410     6.1803
 4142.5000     0.3180   142.6894     9.3912     2.8180     0.0389  3293.0513     2.5032  3260.1365     4.1749     3.8755     5.1885
 4143.0000     0.3039   138.8772     9.4534     2.8487     0.0452  3390.1333     2.5363  3261.5164     3.8204     3.8274     4.7472
 4143.5000     0.2925   133.2003     9.5115     2.8793     0.0515  3248.5322     2.5775  3213.9160     3.9940     3.9473     4.5345
 4144.0000     0.2677   127.7733     9.5414     2.8495     0.0522  2990.9365     2.6159  3007.2910     4.2445     4.1944     4.8677
 4144.5000     0.2465   124.8454     9.5319     2.8198     0.0455  3331.3069     2.5880  2919.5730     4.6474     4.5356     5.1996
 4145.0000     0.2422   124.5317     9.5106     2.7900     0.0409  3472.2979     2.5533  3237.8064     5.2029     5.3525     6.3279
 4145.5000     0.2404   125.7331     9.4801     2.7602     0.0424  3202.4170     2.5428  3326.5100     5.3433     5.4228     7.3541
 4146.0000     0.2428   126.9357     9.4635     2.7607     0.0470  3172.2053     2.5429  3181.9778     5.4141     5.4197     7.3529
 4146.5000     0.2489   126.9299     9.4190     2.7612     0.0470  3353.4744     2.5466  3184.8018     5.3392     5.4169     7.3518
 4147.0000     0.2495   127.5283     9.3583     2.7616     0.0470  3293.0513     2.5497  3176.1157     5.2655     5.4141     7.2526
 4147.5000     0.2482   128.1267     9.3882     2.7764     0.0470  3172.2053     2.5527  3054.1833     5.2634     5.3388     7.1549
 4148.0000     0.2498   128.7251     9.4483     2.7927     0.0467  3111.7825     2.5528  2982.8589     5.2612     5.4086     6.9641
 4148.5000     0.2616   128.7815     9.5084     2.7933     0.0439  3147.6318     2.5482  3100.3594     5.2591     5.4053     6.8682
 4149.0000     0.2642   131.5654     9.5079     2.7937     0.0434  3232.6284     2.5361  3131.7332     5.2899     5.4024     6.7776
 4149.5000     0.2655   134.9046     9.4447     2.7942     0.0409  3187.0967     2.5254  3074.6641     5.3671     5.3995     6.6454
 4150.0000     0.2679   135.9526     9.3817     2.7946     0.0402  3101.7119     2.5179  3046.7510     5.3238     5.3961     6.4210
 4150.5000     0.2726   134.4896     9.3260     2.8252     0.0370  3081.5710     2.5163  3077.1458     5.2506     5.3202     6.1654
 4151.0000     0.2761   132.0360     9.3257     2.8257     0.0333  3126.7039     2.5147  3140.3486     5.1781     5.2455     6.2686
 4151.5000     0.2779   128.6069     9.3375     2.8261     0.0288  3189.5217     2.5131  3201.5359     5.1476     5.1677     6.4161
 4152.0000     0.2785   127.4672     9.3553     2.7963     0.0258  3293.0513     2.5115  3226.6396     4.9320     5.0738     6.5009
 4152.5000     0.2797   127.4614     9.3852     2.7910     0.0242  3232.6284     2.5099  3116.9368     4.7050     4.8519     6.4120
 4153.0000     0.2809   128.0604     9.3848     2.7591     0.0273  3051.3596     2.5062  3010.0930     4.6401     4.5706     6.2403
 4153.5000     0.2828   129.2625     9.3846     2.7272     0.0320  3172.2053     2.5063  3347.6008     4.4542     4.4452     5.9921
 4154.0000     0.2875   131.0693     9.3843     2.7075     0.0383  3413.8972     2.5063  3319.6863     4.3284     4.3240     5.6001
 4154.5000     0.3080   132.8908     9.3840     2.7382     0.0446  3474.3203     2.5063  3204.3098     4.2166     4.3213     5.4408
 4155.0000     0.3112   134.0789     9.3837     2.7387     0.0509  3280.9177     2.5063  3088.9316     4.1583     4.2035     5.3049
 4155.5000     0.3090   134.6772     9.3833     2.7392     0.0551  3172.2053     2.5049  3125.1587     4.1566     4.1389     5.2052
 4156.0000     0.3051   134.0665     9.3830     2.7699     0.0582  3301.9370     2.5017  3208.1633     4.0440     4.0860     5.1614
 4156.5000     0.3060   133.8615     9.3828     2.7703     0.0614  3198.9167     2.4989  3102.8562     3.9882     4.0092     4.7599
 4157.0000     0.3056   132.6001     9.3825     2.7707     0.0636  3183.0742     2.5014  3035.8599     3.9332     3.9458     4.5095
 4157.5000     0.3003   129.5460     9.3822     2.7712     0.0545  3450.1755     2.5122  3115.1179     3.8269     3.8628     4.5083
 4158.0000     0.2800   123.8194     9.3819     2.7716     0.0258  3606.8333     2.5402  3330.2324     3.8973     3.9128     4.5072
 4158.5000     0.2405   110.4702     9.3816     2.8372     0.0136  3413.8972     2.5770  3185.7000     4.3787     4.2404     4.8379
 4159.0000     0.2230    97.7756     9.3813     3.0705     0.0121  3293.0513     2.6349  3099.4766     5.4942     5.3357     6.3582
 4159.5000     0.1986    88.1021     9.3810     3.5996     0.0136  3172.2053     2.7362  3013.2542     6.2123     6.3127     7.8404
 4160.0000     0.1992    88.0963     9.3807     3.9153     0.0167  3139.9717     2.7861  3218.6594     7.3025     7.0783     8.9302
 4160.5000     0.2143    92.9243     9.3804     4.0125     0.0167  3293.9109     2.7514  3161.9031     7.9158     7.8076    13.9256
 4161.0000     0.2367   100.8957     9.3632     3.5815     0.0177  3287.5249     2.6668  2956.2419     7.1956     7.6517    14.8902
 4161.5000     0.2585   110.6704     9.3495     3.1999     0.0305  3172.2053     2.5862  2900.6328     5.8004     6.2475    12.6683
 4162.0000     0.2700   118.4326     9.3492     2.9668     0.0453  3270.5000     2.5550  3136.6956     5.0204     4.6387     8.7382
 4162.5000     0.2842   133.2305     9.3187     2.8965     0.0566  3353.4744     2.5381  3183.8962     4.2215     4.1610     5.7840
 4163.0000     0.3019   138.8035     9.3184     2.9575     0.0684  3353.4744     2.5216  3104.7319     3.7769     3.8322     4.8815
 4163.5000     0.3164   142.5610     9.3483     2.9579     0.0879  3293.0513     2.5136  3198.7263     3.5595     3.6713     4.5649
 4164.0000     0.3293   146.0311     9.3488     2.9583     0.1015  3245.5234     2.5099  3105.0063     3.5104     3.5169     4.3415
 4164.5000     0.3329   148.5327     9.4082     2.9588     0.1061  3172.2053     2.4918  2880.5081     3.4156     3.4148     4.3137
 4165.0000     0.3365   150.2708     9.4436     2.9592     0.1063  3172.2053     2.4813  3073.4429     3.3639     3.2909     4.4302
 4165.5000     0.3389   150.2650     9.4680     2.9294     0.0985  3172.2053     2.4768  3209.6589     3.3114     3.2061     4.4890
 4166.0000     0.3359   150.3885     9.4677     2.8997     0.0772  3202.4170     2.4768  3262.7139     3.2158     3.1611     4.4846
 4166.5000     0.3347   149.0449     9.4547     2.9002     0.0619  3202.4170     2.4798  3002.7090     3.1446     3.0749     4.4109
 4167.0000     0.3353   147.8306     9.4369     2.9308     0.0591  3202.4170     2.4879  3062.2581     3.0594     2.9508     4.2161
 4167.5000     0.3359   145.3883     9.4539     2.9615     0.0591  3202.4170     2.5084  3121.8086     3.0172     2.9575     4.0269
 4168.0000     0.3343   142.8721     9.4665     3.0171     0.0521  3202.4170     2.5310  3181.3579     3.1408     3.0418     3.9721
 4168.5000     0.3282   140.3560     9.4661     3.1125     0.0433  3202.4170     2.5558  3090.0198     3.2305     3.1695     3.9543
 4169.0000     0.3203   137.8405     9.4658     3.2045     0.0447  3202.4170     2.5805  3038.0667     3.5149     3.4138     4.1332
 4169.5000     0.3151   136.1250     9.4655     3.2655     0.0470  3202.4170     2.6041  3107.0894     3.7899     3.5527     4.4195
 4170.0000     0.3171   134.8643     9.4350     3.2356     0.0424  3202.4170     2.6145  3144.8445     4.1604     3.7984     5.4205
 4170.5000     0.3174   134.4955     9.3730     3.1455     0.0379  3202.4170     2.5981  3068.5112     4.2191     4.2291     5.6269
 4171.0000     0.3159   134.8240     9.3099     3.0553     0.0348  3202.4170     2.5526  2956.1860     3.9308     4.0582     5.5501
 4171.5000     0.3157   135.0876     9.2468     2.9651     0.0333  3232.6284     2.5240  2986.5806     3.5329     3.5433     5.0983
 4172.0000     0.3201   135.6858     9.1837     2.9353     0.0348  3232.6284     2.5059  3191.9026     3.3042     3.3501     4.2636
