~VERSION INFORMATION
 VERS.                2.0:   CWLS LOG ASCII STANDARD - VERSION 2.0
 WRAP.                 NO:   ONE LINE PER DEPTH STEP
~WELL INFORMATION
#MNEM.UNIT      DATA TYPE    INFORMATION
#----------   ------------   ------------------------------
 STRT.F            0.0000:   START DEPTH
 STOP.F         4022.0000:   STOP DEPTH
 STEP.F            0.5000:   STEP LENGTH
 NULL.          -999.2500:   NO VALUE
 COMP. LAWRENCE - ALLISON:   COMPANY
 WELL. LAWRENCE NPR 3 "MX" #58-10:   WELL
 FLD .                MPR:   FIELD
 LOC .      S10 T38N R78W:   LOCATION
 CNTY.            NATRONA:   COUNTY
 STAT.            WYOMING:   STATE
 CTRY. UNITED STATES OF AMERICA:   COUNTRY
 SRVC.      DRESSER ATLAS:   SERVICE COMPANY
 DATE.        12-FEB-1984:   LOGDATE
 API .     49025109610000:   API NUMBER
~CURVE INFORMATION
#MNEM.UNIT       API CODE    CURVE DESCRIPTION
#----------   ------------   ------------------------------
 DEPT.F                  :   
 GRR .GAPI   07 310 01 00:   GAMMA RAY FROM RESISTIVITY
 SPR .MV     07 010 01 00:   SPONTANEOUS POTENTIAL
 TENR.LBS    07 635 01 00:   TENSION FROM RESISTIVITY
 ILD .OHMM   07 120 46 00:   DEEP INDUCTION RESISTIVITY
 ILM .OHMM   07 120 44 00:   INDUCTION LOG MEDIUM RESISTIVITY
 SFL .OHMM   07 220 01 00:   SHALLOW FOCUSED LOG RESISTIVITY
 DT  .US/F   60 520 00 00:   DELTA TIME
 TENS.LBS    60 635 01 00:   TENSION FROM SONIC LOG
 CNC .DEC    42 890 03 00:   NEUTRON PORISITY SANDSTONE
 CALD.IN     45 280 60 00:   CALIPER FROM DENSITY LOG
 RHOB.G/C3   45 350 01 00:   BULK DENSITY
 CORR.G/C3   45 356 01 00:   DENSITY CORRECTION
 TEND.LBS    45 635 01 00:   TENSION FROM DENSITY LOG
~PARAMETER INFORMATION
#MNEM.UNIT          VALUE    DESCRIPTION
#----------   ------------   ------------------------------
 EKB .F         5218.0000:   Kelly bushing
 EGL .F         5208.0000:   Ground level
 EDF .F         5217.0000:   Drilling floor
 TD  .F         4014.0000:   Total depth
 DATE.        12-FEB-1984:   Date logged
 CLNT.            A2DTECH:   Client Code
 SL  . 500' FSL & 2150' FEL:   Surface Location
 PD  .                 GL:   Permanent Datum
 EPD .F              5208:   Elevation Permanent Datum
 LMF .                 KB:   Log Measured From
 DMF .                 KB:   Drilling Measured From
 DD  .F              4014:   Depth driller
 DL  .F              4011:   Depth logger
 BLI .F              4009:   Bottom log interval
 CS1 .IN            8.625:   Casing size
 CBD1.      8.625" @ 526':   Casing driller 1
 CBL1.F               525:   Casing logger 1
 BS1 .IN            7.875:   Bit size
 DFT .            GEL/KCL:   Type fluid in hole
 DFD .                8.9:   Density
 DFV .                 48:   Viscosity
 DFPH.                  8:   pH
 DFL .                1.3:   Fluid loss
 MSS .           MUD/TANK:   Source of sample
 RMS .OHMM           .556:   Rm
 MST .F                61:   Rm Meas. temp.
 RMF .OHMM           .423:   Rmf
 MFST.F                61:   Rmf Meas. temp.
 RMC .OHMM           .662:   Rmc
 MCST.F                61:   Rmc Meas. temp.
 MFSS.           MUD/TANK:   Source Rmf.
 RMB .OHMM            .80:   Rm. at BHT
 BHT .F               119:   BHT.
 TCS .HRS               5:   Time Circ. stopped
 MRT .F               119:   Maximum recorded temp.
 LUN .               6302:   Logging unit number
 ENGI.              GETTY:   Recorded By
 ORIG.           5" PRINT:   Origin of data
 UWI .     49025109610000:   Unique Well ID
 DICO. A2D TECHNOLOGIES, INC.:   Digitizing Company
 TLI .F                 0:   Top log interval
~OTHER INFORMATION
~A    DEPT      GRR       SPR       TENR        ILD        ILM        SFL         DT       TENS        CNC       CALD       RHOB       CORR       TEND   
# ...
  988.0000    85.8510   -22.5990  -115.4040    11.5280    11.1900    10.5730  -999.2500  -999.2500     0.2320     9.2470     2.4880    -0.0060   -95.4640
  988.5000    80.7010   -22.8950  -115.4040    11.5280    11.2200    10.7110  -999.2500  -999.2500     0.2330     9.2400     2.4830    -0.0160   -95.4640
  989.0000    81.2670   -23.0220  -115.4040    11.5280    11.2490    10.6000  -999.2500  -999.2500     0.2280     9.2370     2.4790    -0.0190   -95.4640
  989.5000    84.7700   -23.0240  -115.4040    11.5280    11.2790    10.4200  -999.2500  -999.2500     0.2210     9.2370     2.4740    -0.0100   -95.4640
  990.0000    87.5970   -23.0220  -115.4040    11.5280    11.3180    10.3250  -999.2500  -999.2500     0.2150     9.2370     2.4740     0.0220   -95.4640
  990.5000    86.9600   -22.9220  -115.4040    11.5050    11.2870    10.3080  -999.2500  -999.2500     0.2130     9.2370     2.4760     0.0280   -95.4640
  991.0000    85.2830   -22.8160  -115.4040    11.4550    11.2400    10.2930  -999.2500  -999.2500     0.2160     9.2370     2.4780     0.0270   -95.4640
  991.5000    85.9680   -22.7130  -115.4040    11.4050    11.1930    10.2770  -999.2500  -999.2500     0.2210     9.2370     2.4800     0.0170   -95.4640
  992.0000    88.5230   -22.6640  -115.4040    11.3550    11.1460    10.2610  -999.2500  -999.2500     0.2190     9.2370     2.4800     0.0060   -95.4640
  992.5000    91.7700   -22.8670  -115.4040    11.2670    11.0680    10.2450  -999.2500  -999.2500     0.2090     9.2370     2.4800    -0.0050   -95.4640
  993.0000    90.4500   -23.0280  -115.4040    11.0770    10.9030    10.2310  -999.2500  -999.2500     0.2090     9.2370     2.4780    -0.0160   -95.4640
  993.5000    86.3130   -23.1360  -115.4040    10.8870    10.7380    10.2010  -999.2500  -999.2500     0.2210     9.2370     2.4760    -0.0230   -95.4640
  994.0000    82.5060   -23.3140  -117.1240    10.7110    10.5720    10.0910  -999.2500  -999.2500     0.2340     9.2370     2.4740    -0.0230   -95.4640
  994.5000    82.4460   -23.4350  -123.3670    10.6790    10.4200     9.9820  -999.2500  -999.2500     0.2340     9.2370     2.4740    -0.0070   -95.4640
  995.0000    84.7510   -23.4750  -129.6110    10.6500    10.3790     9.8720  -999.2500  -999.2500     0.2200     9.2370     2.4780     0.0210   -95.4640
  995.5000    85.5800   -23.5160  -135.3440    10.6200    10.3400     9.7720  -999.2500  -999.2500     0.2210     9.2370     2.4820     0.0450   -95.4640
  996.0000    83.4780   -23.5550  -121.8340    10.5910    10.3020     9.9370  -999.2500  -999.2500     0.2240     9.2390     2.4860     0.0420   -95.4060
  996.5000    83.2160   -23.5950  -115.4040    10.5610    10.2640    10.0910  -999.2500  -999.2500     0.2270     9.2480     2.4900     0.0270   -95.1210
  997.0000    84.7160   -23.6410  -115.4040    10.5320    10.2250    10.2310  -999.2500  -999.2500     0.2250     9.2570     2.4910     0.0130   -94.8350
  997.5000    86.2740   -23.6930  -115.4040    10.4910    10.1870    10.1220  -999.2500  -999.2500     0.2240     9.2660     2.4910     0.0020   -94.5500
  998.0000    87.0250   -23.7450  -115.4040    10.4380    10.1480    10.0710  -999.2500  -999.2500     0.2330     9.2760     2.4910     0.0120   -94.2650
  998.5000    86.6170   -23.8030  -114.4880    10.3850    10.1100    10.0440  -999.2500  -999.2500     0.2460     9.2810     2.4950     0.0290   -93.9790
  999.0000    86.1680   -23.6520  -112.6300    10.3320    10.0710    10.0440  -999.2500  -999.2500     0.2460     9.2860     2.5000     0.0380   -93.6940
  999.5000    86.6550   -23.4200  -110.7720    10.2790    10.0330     9.9530  -999.2500  -999.2500     0.2440     9.2910     2.5050     0.0320   -93.4090
 1000.0000    88.4250   -23.1870  -108.9150    10.2260     9.9940     9.7020  -999.2500  -999.2500     0.2410     9.2970     2.5060     0.0190   -93.1230
 1000.5000    89.6790   -23.0480  -107.0570    10.1730     9.9530     9.4190  -999.2500  -999.2500     0.2380     9.2970     2.4940     0.0060   -92.8380
 1001.0000    88.4050   -23.1550  -106.4150    10.1140     9.9710     9.3330  -999.2500  -999.2500     0.2410     9.2970     2.4810    -0.0050   -92.5530
 1001.5000    87.0240   -23.2550  -114.1920    10.0440     9.9910     9.3980  -999.2500  -999.2500     0.2470     9.2970     2.4730    -0.0050   -92.2670
 1002.0000    86.2320   -23.3540  -121.9690     9.9740    10.0120     9.5890  -999.2500  -999.2500     0.2510     9.2970     2.4720    -0.0060   -91.9820
 1002.5000    87.1330   -23.3690  -123.0060     9.9040    10.0320     9.7810  -999.2500  -999.2500     0.2470     9.2990     2.4710    -0.0150   -91.6970
 1003.0000    86.9070   -23.2220  -118.7940     9.8340    10.0440     9.8770  -999.2500  -999.2500     0.2350     9.3060     2.4660    -0.0260   -91.4110
 1003.5000    86.3970   -23.0980  -115.4040     9.7640    10.0870     9.9040  -999.2500  -999.2500     0.2230     9.3120     2.4650    -0.0340   -91.1260
 1004.0000    87.3920   -23.0260  -115.4040     9.6940    10.1370     9.9320  -999.2500  -999.2500     0.2210     9.3040     2.4700    -0.0360   -90.8410
 1004.5000    87.6500   -23.2050  -115.4040     9.6240    10.0300     9.9530  -999.2500  -999.2500     0.2350     9.2650     2.4750    -0.0280   -90.5550
 1005.0000    85.9890   -24.1050  -115.4040     9.5540     9.8990     9.9530  -999.2500  -999.2500     0.2460     9.2620     2.4760    -0.0160   -90.2700
 1005.5000    84.0650   -24.3560  -114.3490     9.4840     9.7680     9.9530  -999.2500  -999.2500     0.2490     9.2690     2.4780     0.0010   -89.9850
 1006.0000    82.2990   -24.2860  -110.1360     9.4190     9.5940     9.9530  -999.2500  -999.2500     0.2460     9.2760     2.4850     0.0080   -89.6990
 1006.5000    82.5470   -24.2110  -105.9240     9.3990     9.5990     9.9530  -999.2500  -999.2500     0.2370     9.2830     2.4870     0.0030   -89.4140
 1007.0000    83.4550   -24.1340  -108.6240     9.3800     9.6060     9.9530  -999.2500  -999.2500     0.2270     9.2900     2.4870    -0.0010   -89.1290
 1007.5000    82.6720   -24.0690  -112.2350     9.3610     9.6140     9.9530  -999.2500  -999.2500     0.2230     9.2960     2.4870    -0.0020   -88.8430
 1008.0000    81.3980   -24.2990  -113.6380     9.3420     9.6210     9.9530  -999.2500  -999.2500     0.2280     9.2910     2.4880     0.0020   -88.5580
 1008.5000    82.3510   -25.0280   -99.1950     9.3230     9.6290     9.9530  -999.2500  -999.2500     0.2360     9.2850     2.4880     0.0100   -88.2730
 1009.0000    85.7400   -25.4080   -97.0260     9.3050     9.6360     9.9530  -999.2500  -999.2500     0.2420     9.2800     2.4910     0.0170   -87.9870
 1009.5000    88.8590   -25.1520   -99.1320     9.2860     9.6440     9.9530  -999.2500  -999.2500     0.2420     9.2740     2.5000     0.0310   -87.7020
 1010.0000    90.4610   -24.7240  -101.2380     9.2670     9.6510     9.9530  -999.2500  -999.2500     0.2400     9.2680     2.5060     0.0450   -87.4170
 1010.5000    91.1090   -24.2980  -103.3440     9.2480     9.6590     9.9530  -999.2500  -999.2500     0.2390     9.2630     2.5060     0.0500   -87.1310
 1011.0000    92.2770   -23.8740  -105.4340     9.2720     9.6660     9.9520  -999.2500  -999.2500     0.2370     9.2570     2.4970     0.0230   -86.8460
 1011.5000    93.6730   -23.6970  -107.0770     9.2960     9.6740     9.9510  -999.2500  -999.2500     0.2350     9.2510     2.4970    -0.0080   -86.5610
 1012.0000    94.9770   -23.8890  -108.7080     9.3190     9.6820     9.9590  -999.2500  -999.2500     0.2340     9.2460     2.5100    -0.0080   -86.2750
 1012.5000    94.6290   -24.0780  -110.3380     9.3330     9.5800     9.7360  -999.2500  -999.2500     0.2410     9.2400     2.5200     0.0030   -85.9900
 1013.0000    92.8530   -24.2680  -111.9690     9.3330     9.4580     9.4780  -999.2500  -999.2500     0.2540     9.2260     2.5150     0.0230   -85.7050
 1013.5000    91.0620   -24.4110  -113.6000     9.3780     9.3350     9.2200  -999.2500  -999.2500     0.2650     9.2050     2.5100     0.0280   -84.8400
