~VERSION INFORMATION
 VERS.                2.0:   CWLS LOG ASCII STANDARD - VERSION 2.0
 WRAP.                 NO:   ONE LINE PER DEPTH STEP
~WELL INFORMATION
#MNEM.UNIT      DATA TYPE    INFORMATION
#----------   ------------   ------------------------------
 STRT.F          388.0000:   START DEPTH
 STOP.F         3166.0000:   STOP DEPTH
 STEP.F            0.5000:   STEP LENGTH
 NULL.          -999.2500:   NO VALUE
 COMP.    PENIX & SCISSON:   COMPANY
 WELL. PENIX NPR 3 "AX" #34-28:   WELL
 FLD .                NPR:   FIELD
 LOC .      S28 T39N R78W:   LOCATION
 CNTY.            NATRONA:   COUNTY
 STAT.            WYOMING:   STATE
 CTRY. UNITED STATES OF AMERICA:   COUNTRY
 SRVC.              WELEX:   SERVICE COMPANY
 DATE.        15-DEC-1978:   LOGDATE
 API .     49025107950000:   API NUMBER
~CURVE INFORMATION
#MNEM.UNIT       API CODE    CURVE DESCRIPTION
#----------   ------------   ------------------------------
 DEPT.F                  :   
 CALD.IN     45 280 60 00:   CALIPER FROM DENSITY LOG
 GRD .GAPI   45 310 01 00:   GAMMA RAY FROM DENSITY LOG
 RHOB.G/C3   45 350 01 00:   BULK DENSITY
 CORR.G/C3   45 356 01 00:   DENSITY CORRECTION
 NPHI.DEC    42 890 03 00:   NEUTRON POROSITY SANDSTONE
 SPR .MV     07 010 01 00:   SPONTANEOUS POTENTIAL
 SGRD.OHMM   07 220 05 00:   SHALLOW GUARD
 ILD .OHMM   07 120 46 00:   DEEP INDUCTION RESISTIVITY
 ILM .OHMM   07 120 44 00:   INDUCTION LOG MEDIUM RESISTIVITY
 TENR.LBS    07 635 01 00:   TENSION FROM RESISTIVITY
~PARAMETER INFORMATION
#MNEM.UNIT          VALUE    DESCRIPTION
#----------   ------------   ------------------------------
 EKB .F         5039.0000:   Kelly bushing
 EGL .F         5029.0000:   Ground level
 EDF .F            0.0000:   Drilling floor
 TD  .F         3159.0000:   Total depth
 DATE.        15-DEC-1978:   Date logged
 CLNT.            A2DTECH:   Client Code
 SL  . 2434' FNL & 1651' FWL:   Surface Location
 PD  .                 GL:   Permanent Datum
 EPD .F              5029:   Elevation Permanent Datum
 LMF .                 KB:   Log Measured From
 DMF .                 KB:   Drilling Measured From
 DAPD.F                10:   Feet Above Permanent Datum
 DD  .F              3155:   Depth driller
 DL  .F              3159:   Depth logger
 BLI .F              3157:   Bottom log interval
 TLI .F               350:   Top log interval
 CS1 .IN            8.625:   Casing size
 CBD1.      8.625" @ 383':   Casing driller 1
 CBL1.F               398:   Casing logger 1
 BS1 .IN            7.875:   Bit size
 BSD1.F              3155:   Depth drilled with bit1
 DFT .           CHEM/GEL:   Type fluid in hole
 DFD .                8.5:   Density
 DFV .                 55:   Viscosity
 DFPH.                 10:   pH
 DFL .               10.8:   Fluid loss
 MSS .           FLOWLINE:   Source of sample
 RMS .OHMM           1.65:   Rm
 MST .F                65:   Rm Meas. temp.
 RMF .OHMM           1.32:   Rmf
 MFST.F                65:   Rmf Meas. temp.
 RMC .OHMM           1.98:   Rmc
 MCST.F                65:   Rmc Meas. temp.
 MFSS.               CALC:   Source Rmf.
 RMB .OHMM              1:   Rm. at BHT
 BHT .F               107:   BHT.
 TCS .HRS               8:   Time Circ. stopped
 MRT .F               107:   Maximum recorded temp.
 LUN .               1892:   Logging unit number
 LUL .             CASPER:   Logging unit location
 ENGI.               REIN:   Recorded By
 WITN.              AMEND:   Witnessed by
 ORIG.           5" PRINT:   Origin of data
 UWI .     49025107950000:   Unique Well ID
 DICO. A2D TECHNOLOGIES, INC.:   Digitizing Company
~OTHER INFORMATION
~A   DEPT     CALD         GRD      RHOB       CORR       NPHI        SPR       SGRD        ILD        ILM       TENR   
# ...
 1125.0000     8.8178   107.3163     2.5161     0.0116     0.2615   -16.1769    11.3035    10.1561    10.4566  1199.0139
 1125.5000     8.8416   104.0824     2.5161     0.0197     0.2603   -15.9730    11.2906    10.1576    10.4645  1198.6849
 1126.0000     8.8416   102.0602     2.5050     0.0197     0.2590   -15.9708    11.2778    10.0654    10.4723  1198.2900
 1126.5000     8.8414   104.8840     2.5000     0.0095     0.2566   -15.9686    11.2649    10.1610    10.4802  1197.9611
 1127.0000     8.8616   104.8810     2.4959     0.0034     0.2550   -15.7650    11.2521    10.1619    10.4881  1197.6321
 1127.5000     8.9305   100.4359     2.4909    -0.0047     0.2550   -15.7628    11.2393    10.2594    10.4959  1197.3031
 1128.0000     8.8814   103.2590     2.4888    -0.0047     0.2558   -15.9619    11.2264    10.2612    10.5038  1196.9741
 1128.5000     8.8612   106.0839     2.4878    -0.0108     0.2570   -15.9597    11.2136    10.2616    10.5117  1176.4445
 1129.0000     8.8610   107.2911     2.4878    -0.0088     0.2598   -15.9571    11.2009    10.2634    10.5196  1196.3160
 1129.5000     8.8608   107.2880     2.4898    -0.0028     0.2602   -15.7535    11.4992    10.2656    10.5274  1195.9871
 1130.0000     8.8405   108.0926     2.5019     0.0114     0.2626   -15.7513    11.3946    10.3524    10.5353  1195.5923
 1130.5000     8.8404   106.8781     2.5201     0.0155     0.2639   -15.9505    11.3960    10.1733    10.5432  1195.2633
 1131.0000     8.8403   106.4713     2.5271     0.0175     0.2634   -16.3513    11.2924    10.1752    10.5512  1215.1349
 1131.5000     8.8585   100.8151     2.5140     0.0073     0.2642   -16.3491    11.1898    10.1770    10.5591  1214.8059
 1132.0000     8.8602   100.0045     2.5120     0.0032     0.2675   -16.1454    11.0881    10.0840    10.5645  1214.4769
 1132.5000     8.8601   105.6539     2.5220     0.0154     0.2675   -16.7474    11.0422    10.3230    10.5654  1214.1479
 1133.0000     8.8398   109.2855     2.5331     0.0255     0.2675   -17.1484    10.9966    10.2798    10.5673  1193.6183
 1133.5000     8.8206   110.0900     2.5442     0.0397     0.2662   -17.3478    10.9511    10.2368    10.5696  1193.2893
 1134.0000     8.7991   109.2793     2.5503     0.0498     0.2662   -17.3457    10.9059    10.1939    10.5712  1192.9603
 1134.5000     8.7990   108.8725     2.5563     0.0620     0.2666   -17.3435    10.8608    10.1512    10.5728  1192.5656
 1135.0000     8.7794   107.2543     2.5553     0.0579     0.2674   -17.3414    10.8159    10.1087    10.5737  1192.2365
 1135.5000     8.9804   103.6174     2.5411     0.0396     0.2687   -17.3393    10.7712    10.0664    10.3813  1212.1082
 1136.0000     8.9803   101.1918     2.5119     0.0254     0.2695   -17.3368    10.7267    10.0243    10.4796  1211.7791
 1136.5000     8.8646   103.2076     2.5209     0.0315     0.2703   -17.1330    10.6988     9.9979    10.4812  1191.2495
 1137.0000     8.7984   107.6452     2.5250     0.0375     0.2715   -17.1309    10.7007     9.9997    10.4828  1190.9205
 1137.5000     8.7982   109.6609     2.5270     0.0274     0.2731   -17.3304    10.7017    10.0006    10.4844  1190.5916
 1138.0000     8.7981   111.2727     2.5159     0.0334     0.2747   -17.5300    10.8041    10.0976    10.3898  1190.2625
 1138.5000     8.7980   111.2696     2.5148     0.0172     0.2751   -17.5279    10.8057    10.0991    10.3905  1189.8677
 1139.0000     8.7978   112.0740     2.5017     0.0090     0.2747   -17.7275    10.8070    10.1004    10.3924  1189.5387
 1139.5000     8.7977   112.0696     2.4977    -0.0011     0.2739   -17.7254    10.7088    10.0074    10.3933  1189.2097
 1140.0000     8.7976   112.8752     2.4956    -0.0012     0.2739   -17.7229    10.6115     9.9152    10.2989  1188.8807
 1140.5000     8.7975   114.4870     2.5047     0.0029     0.2751   -17.5191    10.3216     9.6409    10.2051  1188.5518
 1141.0000     8.7973   118.1167     2.5128     0.0150     0.2747   -17.7187    10.1333     9.4627     9.8342  1188.2227
 1141.5000     8.7972   118.9209     2.5249     0.0313     0.2738   -17.7167     9.9484     9.2879     9.6538  1187.8937
 1142.0000     8.7971   116.0912     2.5400     0.0414     0.2722   -17.9164     9.8579     9.2024     9.3900  1207.7653
 1142.5000     8.7970   110.8411     2.5420     0.0454     0.2666   -17.5107     9.8594     9.2038     9.3923  1187.2357
 1143.0000     8.7968   108.4158     2.5410     0.0434     0.2637   -17.7104     9.9529     9.0503     9.3926  1207.0415
 1143.5000     8.7967   110.0275     2.5349     0.0413     0.2621   -18.9189    10.0478     8.8843     9.4824  1186.5118
 1144.0000     8.7966   108.8170     2.5440     0.0413     0.2621   -19.3206    10.3189     8.8854     9.5722  1186.1829
 1144.5000     8.7560   108.4053     2.5480     0.0474     0.2617   -19.7223    10.5973     8.8873     9.7537  1185.8539
 1145.0000     8.7559   107.9998     2.5470     0.0392     0.2629   -19.9222    10.8832     9.0553     9.7543  1185.5249
 1145.5000     8.7357   105.9777     2.5420     0.0311     0.2653   -19.9203    11.1768     9.3127    10.1266  1205.3965
 1146.0000     8.6750   102.7459     2.5379     0.0290     0.2665   -19.9183    11.3455     9.8494    10.3183  1205.0675
 1146.5000     8.6748   100.7245     2.5278     0.0209     0.2673   -20.1183    11.5595     9.9426    10.2252  1204.7385
 1147.0000     8.6748   100.3178     2.5187     0.0026     0.2686   -20.1163    11.5616     9.9435    10.4182  1204.3438
 1147.5000     8.6140   104.3508     2.5157     0.0026     0.2718   -20.1140    11.5147    10.1327    10.5165  1204.0146
 1148.0000     8.5937   107.9807     2.5046     0.0005     0.2742   -19.9101    11.4681    10.2290    10.6168  1223.8864
 1148.5000     8.6138   111.2069     2.5056    -0.0015     0.2758   -19.9082    11.4216    10.2299    10.6181  1183.1561
 1149.0000     8.6239   109.9929     2.5116     0.0005     0.2766   -19.7043    11.0446    10.2324    10.6190  1182.8271
 1149.5000     8.6337   109.5861     2.5176     0.0005     0.2758   -19.5003    10.9438     9.8598    10.6216  1182.4980
 1150.0000     8.6537   110.3903     2.5076     0.0045     0.2734   -19.4983    10.8444     9.7701    10.4286  1182.1691
 1150.5000     8.6738   112.0018     2.5176     0.0065     0.2715   -19.1572    10.7597     9.4147    10.4291  1220.6842
 1151.0000     8.6938   110.7878     2.5277     0.0146     0.2689   -19.0924    10.7470     9.4156    10.3336  1221.8077
 1151.5000     8.6937   114.4167     2.5186     0.0065     0.2673   -19.2936    10.7481     9.4178    10.3347  1201.2216
 1152.0000     8.6936   115.2202     2.5156     0.0065     0.2661   -19.4948    10.7489     9.4181    10.1460  1200.7592
 1152.5000     8.6935   112.7960     2.5236     0.0065     0.2649   -19.8980    10.7201     9.4193    10.1468  1200.3737
 1153.0000     8.6933   105.9319     2.5105     0.0003     0.2637   -20.3011    10.6913     9.5091    10.0550  1220.1904
 1153.5000     8.6932   100.2777     2.5055    -0.0058     0.2669   -20.5022    10.6552     9.5098    10.0560  1199.6034
 1154.0000     8.6931   107.5403     2.5044    -0.0159     0.2689   -20.7034    10.6560     9.4237     9.9642  1179.0160
 1154.5000     8.6831   107.9402     2.5125    -0.0119     0.2745   -21.1064    10.6571     9.4247     9.9658  1198.8326
 1155.0000     8.6731   105.9197     2.5024    -0.0099     0.2754   -20.9036    10.6582     9.4256     9.9663  1198.4471
 1155.5000     8.6725   103.4957     2.4973    -0.0160     0.2753   -21.1047    10.5625     9.4269     9.8780  1218.2644
 1156.0000     8.6724   105.9130     2.5024     0.0002     0.2753   -20.7000    10.4657     9.4283     9.8763  1217.8792
 1156.5000     8.6722   106.7172     2.5125     0.0022     0.2757   -20.6992    10.3701     9.4293     9.8788  1217.4939
 1157.0000     8.6722   109.1356     2.5155     0.0205     0.2757   -20.6984    10.2728     9.5947     9.8799  1217.1086
 1157.5000     8.6720   111.5540     2.5024     0.0245     0.2753   -20.4957    10.1822     9.4322     9.8812  1196.5200
 1158.0000     8.6718   111.9545     2.4892    -0.0039     0.2745   -20.6965    10.1833     9.3456     9.7002  1196.0579
