~VERSION INFORMATION
 VERS.                2.0:   CWLS LOG ASCII STANDARD - VERSION 2.0
 WRAP.                 NO:   ONE LINE PER DEPTH STEP
~WELL INFORMATION
#MNEM.UNIT      DATA TYPE    INFORMATION
#----------   ------------   ------------------------------
 STRT.F            5.0000:   START DEPTH
 STOP.F         5604.0000:   STOP DEPTH
 STEP.F            0.5000:   STEP LENGTH
 NULL.          -999.2500:   NO VALUE
 COMP.   LAWRENCE ALLISON:   COMPANY
 WELL. LAWRENCE 62 TPX #10-10:   WELL
 FLD .           NPR NO 3:   FIELD
 LOC .      S10 T38N R78W:   LOCATION
 CNTY.            NATRONA:   COUNTY
 STAT.            WYOMING:   STATE
 CTRY. UNITED STATES OF AMERICA:   COUNTRY
 SRVC.      DRESSER ATLAS:   SERVICE COMPANY
 DATE.        08-NOV-1985:   LOGDATE
 API .     49025110490000:   API NUMBER
~CURVE INFORMATION
#MNEM.UNIT       API CODE    CURVE DESCRIPTION
#----------   ------------   ------------------------------
 DEPT.F                  :   
 TEND.LBS    45 635 01 00:   TENSION FORM DENSITY LOG
 CNC .DEC    42 890 03 00:   NEUTRON POROSITY SANDSTONE
 CORR.G/C3   45 356 01 00:   DENSITY CORRECTION
 RHOB.G/C3   45 350 01 00:   BULK DENSITY
 TENR.LBS    11 635 01 00:   TENSION FROM RESISTIVITY
 GRR .GAPI   11 310 01 00:   GAMMA RAY FROM RESISTIVITY
 SPR .MV     11 010 01 00:   SPONTANEOUS POTENTIAL FROM RES.
 CALR.IN     11 280 01 00:   CALIPER FROM RESISTIVITY
 RD  .OHMM   11 220 10 00:   RESISTIVITY DEEP
 RS  .OHMM   11 220 09 00:   RESISTIVITY SHALLOW
 RMLL.OHMM   11 270 04 00:   MICRO LATEROLOG
 TENS.LBS    60 635 01 00:   TENSION FROM SONIC
 DT  .US/F   60 520 00 00:   DELTA TIME
~PARAMETER INFORMATION
#MNEM.UNIT          VALUE    DESCRIPTION
#----------   ------------   ------------------------------
 EKB .F         5167.0000:   Kelly bushing
 EGL .F         5155.0000:   Ground level
 EDF .F            0.0000:   Drilling floor
 TD  .F         5600.0000:   Total depth
 CLNT.            A2DTECH:   Client Code
 PD  .                 GL:   Permanent Datum
 EPD .F              5155:   Elevation Permanent Datum
 LMF .                 KB:   Log Measured From
 DMF .                 KB:   Drilling Measured From
 DAPD.F                12:   Feet Above Permanent Datum
 DATE.        08-NOV-1985:   Date Logged [DD-MMM-YYYY]
 DD  .F              5600:   Depth driller
 DL  .F              5600:   Depth logger
 BLI .F              5597:   Bottom log interval
 TLI .F               467:   Top log interval
 CS1 .IN            9.625:   Casing size
 CBD1.      9.625" @ 467':   Casing driller 1
 CBL1.F               465:   Casing logger 1
 BS1 .IN             8.75:   Bit size
 BSD1.F              5600:   Depth drilled with bit1
 DFT .        KCL POLYMER:   Type fluid in hole
 DFD .                9.2:   Density
 DFV .                 38:   Viscosity
 DFPH.                8.5:   pH
 DFL .                8.6:   Fluid loss
 MSS .           FLOWLINE:   Source of sample
 RMS .OHMM           0.28:   Rm
 MST .F                75:   Rm Meas. temp.
 RMF .OHMM           0.21:   Rmf
 MFST.F                75:   Rmf Meas. temp.
 MFSS.               CALC:   Source Rmf.
 RMC .OHMM           0.35:   Rmc
 MCST.F                75:   Rmc Meas. temp.
 MCSS.               CALC:   Source Rmc.
 RMB .OHMM           0.13:   Rm. at BHT
 BHT .F               168:   BHT.
 TCS .HRS               7:   Time Circ. stopped
 MRT .F               168:   Maximum recorded temp.
 LUN .               6274:   Logging unit number
 LUL .               GLTE:   Logging unit location
 ENGI.               MACK:   Recorded By
 WITN.             STRONG:   Witnessed by
 ORIG.      2.5" 5" PRINT:   Origin of data
 UWI .     49025110490000:   Unique Well ID
 DICO. A2D TECHNOLOGIES, INC.:   Digitizing Company
~OTHER INFORMATION
~A  DEPTH     TEND        CNC       CORR       RHOB       TENR        GRR        SPR       CALR         RD         RS       RMLL       TENS         DT
# ...
 5231.0000  -110.3506     0.0405    -0.0254     2.8457   -67.2526    23.5587   -90.4609    10.3940   577.7141   869.9095   595.9630   -54.3549    50.3948
 5231.5000  -109.9916     0.0404    -0.0179     2.7472   -67.9274    24.7981   -90.6184    10.3666   535.7789   879.3912   699.8809   -54.5751    49.2965
 5232.0000  -109.6325     0.0398    -0.0077     2.7396   -68.7597    26.3369   -90.7257    10.3242   344.0482   438.2902  2000.0000   -54.7956    49.0696
 5232.5000  -109.2731     0.0369     0.0081     2.7698   -69.7365    27.5762   -90.5528    10.2983   167.4061   250.0610   925.8380   -55.0158    49.6692
 5233.0000  -108.9140     0.0333    -0.0358     2.8271   -70.5640    26.1210   -90.5348    10.2710    26.6676   245.0135    63.0337   -55.2396    50.5693
 5233.5000   -93.9329     0.0316    -0.0300     2.8806   -71.3922    22.8694   -90.3664    10.2571    18.2274   253.8344    21.8001   -55.4640    50.8683
 5234.0000   -92.8989     0.0335    -0.0067     2.8660   -64.4491    19.3174   -90.3485    10.2297    30.0607   268.4646    18.7245   -48.2469    50.8668
 5234.5000   -78.5817     0.0466    -0.0008     2.7925   -65.4836    21.7553   -90.4853    10.1958   199.8447   349.6110   105.1337   -48.4672    50.7902
 5235.0000   -78.2162     0.0718     0.0050     2.7366   -58.5405    27.7851   -90.6177    10.1749   305.3030   333.2274   228.7000   -41.1474    50.8639
 5235.5000   -77.8507     0.1209     0.0108     2.7073   -59.5758    43.0964   -90.7501    10.1495   158.1586   226.1029  2000.0000   -41.4228    51.5386
 5236.0000   -77.4853     0.1277     0.0225     2.7041   -60.4032    63.1980   -90.8825    10.1287    99.4696   116.2491   183.4773   -41.6433    52.5745
 5236.5000   -77.1198     0.1248     0.0371     2.7072   -53.6672    70.7248   -91.3112    10.0949    72.7974    79.9796    72.9121   -34.3785    54.8412
 5237.0000   -76.7542     0.1135     0.0458     2.7102   -54.4946    73.7675   -91.5984    10.0677    74.3303    78.3761    56.4428   -34.5988    56.8682
 5237.5000   -76.3888     0.0903     0.0487     2.7160   -55.3228    71.4072   -91.8812    10.0404    72.2935    73.1650    43.3912   -34.8192    57.8435
 5238.0000   -76.0233     0.0701     0.0457     2.7410   -56.1511    68.4410   -92.1640    10.0131    68.8626    71.6881    39.1265   -35.0395    58.0674
 5238.5000   -75.6578     0.0546     0.0249     2.7739   -56.9785    64.5719   -92.5926     9.9858    69.8259    87.7196    51.3626   -35.2597    57.5400
 5239.0000   -75.2923     0.0413    -0.0018     2.8185   -50.0354    59.8093   -93.1761     9.9559   100.9011   144.6120    84.1878   -35.4802    56.5618
 5239.5000   -74.9270     0.0332    -0.0622     2.8443   -51.0699    50.3548   -93.4589     9.9134   164.0806   255.5244   113.6020   -35.7035    55.6588
 5240.0000   -74.5614     0.0309    -0.0923     2.8511   -51.8981    39.6607   -93.5958     9.9011   321.8596   629.8524   320.1230   -35.9281    54.5303
 5240.5000   -74.1958     0.0320    -0.0716     2.8455   -44.9550    26.0558   -93.7237     9.8916   584.9158  1160.2170  1058.2642   -36.1963    53.1765
 5241.0000   -73.8303     0.0521    -0.0463     2.8240   -45.9895    21.6996   -93.8561     9.8793  2046.6194  1822.0594  1734.5854   -28.8763    51.7475
 5241.5000   -73.4648     0.0745    -0.0228     2.7944   -39.0464    28.7415   -94.1388     9.8827  2420.2109  1967.5930  1994.7284   -21.6118    50.5439
 5242.0000   -73.0288     0.0782     0.0014     2.7747   -40.0817    39.2947   -94.4261     9.8854  2291.7979  1982.3817  1996.6694   -21.8872    49.8662
 5242.5000   -72.6694     0.0674     0.0160     2.7813   -33.1378    43.5828   -94.7089     9.8724  1969.2703  1969.4976  1998.6123   -22.1074    49.3388
 5243.0000   -72.3103     0.0526     0.0169     2.8146   -34.1731    45.5194   -95.2879     9.8601  1903.5500  1877.4626  1986.7074   -22.3279    48.9617
 5243.5000   -80.3447     0.0401    -0.0309     2.8623   -27.2300    41.1306   -95.7210     9.8478  1682.0376  1704.6798  1934.1564   -22.5481    48.9602
 5244.0000   -91.7215     0.0311    -0.0602     2.8981   -28.2645    34.3614   -96.3046     9.8355  1376.2474  1132.7969  1768.8846   -30.2534    48.9584
 5244.5000  -100.5118     0.0265    -0.0651     2.9060   -29.0927    26.8593   -96.8881     9.8082  4129.4058  1948.2686  1820.4950   -30.4739    49.1075
 5245.0000  -100.1131     0.0259    -0.0428     2.9090   -29.9202    21.4455   -97.3257     9.7666  7205.6157  1952.3154  -999.2500   -30.6941    49.2563
 5245.5000   -99.7541     0.0249    -0.0282     2.9120   -30.7484    18.4932   -97.7544     9.7843 10208.3711  1956.3622  -999.2500   -30.9146    49.3300
 5246.0000   -99.3950     0.0249    -0.0165     2.9142   -31.5434    17.6264   -98.0371     9.7870 11742.0537  1960.4091  -999.2500   -31.1377    49.4788
 5246.5000   -99.0356     0.0254    -0.0019     2.9118   -32.4041    17.3688   -98.3199     9.8047 11274.5771  1964.4559  -999.2500   -31.6081    49.6275
 5247.0000   -98.6765     0.0264     0.0069     2.9039   -25.6429    17.7204   -98.4568     9.8074 10084.4346  1968.5027  -999.2500   -39.0719    49.7760
 5247.5000   -98.3171     0.0289     0.0097     2.8936   -26.4955    18.3610   -98.4343     9.8244  9598.5830  1972.5496  -999.2500   -39.2964    49.8500
 5248.0000   -97.9534     0.0307    -0.0143     2.8833   -19.7431    19.3009   -98.5712     9.7978  8723.2100  1976.5963  -999.2500   -39.5562    49.9984
 5248.5000   -97.5879     0.0334    -0.0436     2.8642   -20.5877    20.5403   -98.3983     9.8005  7741.3706  1980.6432  -999.2500   -39.7764    49.9969
 5249.0000   -97.2224     0.0370    -0.0636     2.8539   -21.4151    22.9773   -98.2300     9.7725  6623.3599  1984.6901  -999.2500   -39.9969    50.0706
 5249.5000   -96.8569     0.0401    -0.0452     2.8457   -22.2393    26.3125   -98.0616     9.7452  5896.6270  1988.7368  -999.2500   -32.6772    50.0691
 5250.0000   -96.4914     0.0478     0.0100     2.8446   -23.0708    28.4501   -97.8932     9.7329  4264.2085  1992.7837  -999.2500   -32.9526    50.0676
 5250.5000   -96.1259     0.0549     0.0411     2.8465   -23.9031    32.0847   -97.7249     9.7206  3370.7778  1996.8306  -999.2500   -40.6579    50.1421
 5251.0000   -95.7604     0.0625     0.0563     2.8451   -32.2997    37.5157   -97.4061     9.6933  2451.4507  2000.0000  -999.2500   -40.8781    49.9910
 5251.5000   -95.3946     0.0767     0.0509     2.8230   -33.1320    44.4437   -97.0874     9.6810  2034.3262  2000.0000  -999.2500   -48.5836    49.8400
 5252.0000   -95.0291     0.0837     0.0283     2.7716   -27.3070    48.6771   -96.7030     9.6394  1688.5535  1416.7080  -999.2500   -48.8024    49.6890
 5252.5000   -94.6638     0.0861     0.0083     2.7496   -28.4285    58.6320   -96.3126     9.6121  1034.5681   901.0745  1654.3616   -49.0269    49.7696
 5253.0000   -88.7867     0.1002     0.0034     2.7421   -29.5004    74.2490   -95.9222     9.6457   588.9492   628.8958   491.1978   -49.2514    50.4014
 5253.5000   -79.3128     0.1026     0.0075     2.7408   -30.5713    82.6567   -95.5318     9.6636   509.2119   468.8709   296.1208   -49.5200    51.3395
 5254.0000   -72.4206     0.1020     0.0092     2.7547   -31.6432    86.9081   -95.1413     9.6815   548.2220   447.5024   139.0220   -49.7402    51.9398
 5254.5000   -63.9619     0.1008     0.0164     2.7733   -24.8828    79.7992   -94.8196     9.6993   604.1851   463.6702   109.1256   -49.9607    51.7888
 5255.0000   -63.5964     0.1002     0.0208     2.7745   -26.2217    73.3745   -94.6450     9.7016   728.6871   713.1494   104.0227   -50.1809    51.3372
 5255.5000   -63.2309     0.1002     0.0253     2.7635   -27.2936    65.9269   -94.1697     9.7045   814.4821   866.6011   116.3920   -50.4011    50.8857
 5256.0000   -62.8655     0.1002     0.0341     2.7374   -28.3644    64.3462   -92.6417     9.7073   911.0767   923.1498   194.7935   -50.6216    50.5093
 5256.5000   -47.8120     0.1025     0.0470     2.7258   -29.4363    67.4333   -90.5122     9.6952   957.4737   963.1541   310.5344   -50.8418    50.2081
