~VERSION INFORMATION
 VERS.                2.0:   CWLS LOG ASCII STANDARD - VERSION 2.0
 WRAP.                 NO:   ONE LINE PER DEPTH STEP
~WELL INFORMATION
#MNEM.UNIT      DATA TYPE    INFORMATION
#----------   ------------   ------------------------------
 STRT.F          200.0000:   START DEPTH
 STOP.F         3150.0000:   STOP DEPTH
 STEP.F            0.5000:   STEP LENGTH
 NULL.          -999.2500:   NO VALUE
 COMP.  FENIX AND SCISSON:   COMPANY
 WELL.  FENIX "AX" #88-10:   WELL
 FLD .              NPR 3:   FIELD
 LOC .      S10 T38N R78W:   LOCATION
 CNTY.            NATRONA:   COUNTY
 STAT.            WYOMING:   STATE
 CTRY. UNITED STATES OF AMERICA:   COUNTRY
 SRVC.              WELEX:   SERVICE COMPANY
 DATE.        13-JUN-1977:   LOGDATE
 API .     49025103780000:   API NUMBER
~CURVE INFORMATION
#MNEM.UNIT       API CODE    CURVE DESCRIPTION
#----------   ------------   ------------------------------
 DEPT.F                  :   
 CALD.IN     45 280 60 00:   CALIPER FROM DENSITY LOG
 GRD .GAPI   45 310 01 00:   GAMMA RAY FROM DENSITY LOG
 RHOB.G/C3   45 350 01 00:   BULK DENSITY
 CORR.G/C3   45 356 01 00:   DENSITY CORRECTION
 SPR .MV     07 010 01 00:   SPONTANEOUS POTENTIAL
 GURD.OHMM   07 220 05 00:   GUARD LOG RESISTIVITY
 ILD .OHMM   07 120 46 00:   INDUCTION LOG DEEP RESISTIVITY
 ILM .OHMM   07 120 44 00:   INDUCTION LOG MEDIUM RESISTIVITY
~PARAMETER INFORMATION
#MNEM.UNIT          VALUE    DESCRIPTION
#----------   ------------   ------------------------------
 EKB .F         5264.0000:   Kelly bushing
 EGL .F         5254.0000:   Ground level
 EDF .F            0.0000:   Drilling floor
 TD  .F         3160.0000:   Total depth
 DATE.        13-JUN-1977:   Date logged
 CLNT.            A2DTECH:   Client Code
 SL  . 430' FSL & 330' FEL:   Surface Location
 PD  .                 GL:   Permanent Datum
 EPD .F              5254:   Elevation Permanent Datum
 LMF .                 KB:   Log Measured From
 DMF .                 KB:   Drilling Measured From
 DAPD.F                10:   Feet Above Permanent Datum
 DD  .F              3160:   Depth driller
 DL  .F              3151:   Depth logger
 BLI .F              3149:   Bottom log interval
 CS1 .IN            8.625:   Casing size
 CBD1.      8.625" @ 208':   Casing driller 1
 BS1 .IN            7.875:   Bit size
 BSD1.F              3160:   Depth drilled with bit1
 DFT .            KCL MUD:   Type fluid in hole
 DFD .                9.1:   Density
 DFV .                 31:   Viscosity
 DFPH.                7.5:   pH
 DFL .                 20:   Fluid loss
 MSS .           FLOWLINE:   Source of sample
 RMS .OHMM            .90:   Rm
 MST .F                60:   Rm Meas. temp.
 RMF .OHMM            .53:   Rmf
 MFST.F                60:   Rmf Meas. temp.
 RMC .OHMM           1.47:   Rmc
 MCST.F                60:   Rmc Meas. temp.
 MFSS.               MEAS:   Source Rmf.
 MCSS.               MEAS:   Source Rmc.
 RMB .OHMM            .46:   Rm. at BHT
 BHT .F               116:   BHT.
 TCS .HRS               8:   Time Circ. stopped
 MRT .F               116:   Maximum recorded temp.
 LUN .               8611:   Logging unit number
 LUL .             CASPER:   Logging unit location
 ENGI.            C. DOAK:   Recorded By
 WITN.         D. RHOADES:   Witnessed by
 ORIG.           5" PRINT:   Origin of data
 UWI .     49025103780000:   Unique Well ID
 DICO. A2D TECHNOLOGIES, INC.:   Digitizing Company
~OTHER INFORMATION
~A   DEPT       CALD       GRD      RHOB       CORR        SPR       GURD        ILD        ILM   
# ...
  767.0000     9.9741   101.2664     2.4653     0.0002   -53.0353    10.2784     7.3874     8.6376
  767.5000     9.9748   100.8842     2.4664     0.0003   -53.0439    10.2759     7.5229     8.7147
  768.0000     9.9755   101.2941     2.4624    -0.0037   -53.4437    10.4637     7.5908     8.7130
  768.5000     9.9762    99.7236     2.4594     0.0004   -53.0564    11.2580     7.6586     8.7903
  769.0000     9.9571    99.7374     2.4615     0.0004   -53.0642    11.2553     7.7269     8.8693
  769.5000     9.9578    98.9591     2.4655     0.0025   -53.2696    11.2525     7.7967     8.9494
  770.0000     9.9586    98.9674     2.4555    -0.0034   -52.6846    11.3535     7.8663     8.9467
  770.5000     9.9593    99.7789     2.4506     0.0006   -52.8900    11.8838     7.9373     8.9444
  771.0000     9.9798   100.1887     2.4496     0.0007   -52.7002    11.9904     8.0086     8.9426
  771.5000     9.9805   100.5986     2.4506     0.0047   -52.3129    11.6619     8.0069     8.9404
  772.0000     9.9812   101.0085     2.4497     0.0028   -52.7159    10.4426     8.0784     9.0207
  772.5000    10.0017   102.6066     2.4427     0.0028   -52.9213    11.2360     8.0768     9.1017
  773.0000    10.0420   103.0165     2.4338     0.0049   -53.1267    11.8694     8.0743     9.3535
  773.5000    10.0427   102.6342     2.4338     0.0010   -53.1345    11.8665     8.0723     9.5247
  774.0000    10.0037   103.0441     2.4418     0.0010   -52.3519    11.5397     8.0702     9.4352
  774.5000    10.0242   102.2658     2.4568     0.0011   -52.1622    11.4325     8.0678     9.2609
  775.0000    10.0447   102.2796     2.4817     0.0111   -51.9724    11.5352     8.0669     9.0899
  775.5000    10.0652   101.5013     2.4847     0.0151   -51.5881    11.6387     8.0633     9.0881
  776.0000    10.0659   101.5151     2.4847     0.0172   -52.3848    11.6359     8.0620     9.0858
  776.5000    10.0666   101.1328     2.4788     0.0152   -52.7878    11.7404     8.0596     9.0831
  777.0000    10.0673   101.1466     2.4748     0.0153   -52.9932    11.7375     8.0571     9.0817
  777.5000    10.0680   101.1605     2.4749     0.0154   -53.0010    11.7347     7.9821     9.0790
  778.0000    10.0687   103.1629     2.4620     0.0154   -52.8112    11.3087     7.9797     8.9927
  778.5000    10.0298   100.7920     2.4500     0.0155   -52.8190    10.8982     7.9050     8.7011
  779.0000    10.0305   101.2019     2.4341     0.0056   -52.8269    10.7960     7.8299     8.6198
  779.5000    10.1500   102.0079     2.4292     0.0036   -53.0323    10.8929     7.7566     8.5405
  780.0000    10.1903   103.2099     2.4302     0.0037   -53.2377    10.8902     7.6129     8.5803
  780.5000    10.2504   102.0355     2.4352    -0.0002   -53.2455    10.8876     7.4730     8.4226
  781.0000    10.2709   101.6532     2.4432     0.0018   -53.6485    10.7849     7.2677     8.2657
  781.5000    10.2914   100.8749     2.4472     0.0019   -53.8539    10.2983     7.0022     8.1880
  782.0000    10.2128   101.2848     2.4512     0.0019   -53.8617    10.5839     7.0651     8.1109
  782.5000    10.0947   100.9025     2.4463     0.0020   -53.4743    10.3871     7.0633     8.0346
  783.0000    10.0467   101.7085     2.4513     0.0040   -53.0885    10.1033     7.0622     7.9594
  783.5000     9.9986   102.5144     2.4563     0.0121   -53.0963    10.0085     6.9950     7.7404
  784.0000     9.9506   102.9243     2.4663     0.0161   -53.8945    10.0060     6.9936     7.5273
  784.5000     9.9026   106.1067     2.4723     0.0261   -53.9024     9.9121     6.9914     7.4565
  785.0000     9.8410   107.3087     2.4902     0.0302   -54.3054     9.8190     6.9900     7.3190
  785.5000     9.8612   107.7186     2.4962     0.0322   -54.1156     9.8151     6.9238     7.3168
  786.0000     9.8421   108.5245     2.4972     0.0402   -53.9258     9.8141     6.7958     7.2479
  786.5000     9.8428   109.7265     2.4983     0.0482   -53.7360     9.9022     6.7944     7.1797
  787.0000     9.8039   110.9286     2.4883     0.0503   -53.3486     9.9916     6.6687     7.0469
  787.5000     9.8046   111.3384     2.4784     0.0504   -53.3565    10.0809     6.5454     6.9809
  788.0000     9.8449   112.1444     2.4595     0.0504   -54.3522    10.0789     6.4834     6.8518
  788.5000     9.8654   111.3716     2.4396     0.0425   -54.5576    10.0754     6.3632     6.7248
  789.0000     9.8858   111.3799     2.4337     0.0366   -54.5655     9.7990     6.2458     6.7230
  789.5000     9.8271   110.9976     2.4367     0.0267   -54.5733     9.1014     6.1306     6.5984
  790.0000     9.7684   111.0114     2.4536     0.0208   -53.9883     8.4550     5.9615     6.4763
  790.5000     9.7691   111.4213     2.4666     0.0208   -53.9961     8.2231     5.9056     6.3566
  791.0000     9.7302   111.4351     2.4577     0.0149   -54.0055     8.2210     5.7430     6.2390
  791.5000     9.6913   112.2411     2.4537     0.0050   -54.4085     8.2189     5.6889     6.1239
  792.0000     9.6722   113.0470     2.4557     0.0051   -55.0091     8.2931     5.5839     6.0093
  792.5000     9.6530   112.6648     2.4598     0.0051   -55.0169     8.2906     5.5316     5.9540
  793.0000     9.6339   113.0746     2.4628     0.0052   -54.8271     8.2880     5.4286     5.8975
  793.5000     9.6544   113.0885     2.4608     0.0052   -54.6373     8.2859     5.3279     5.7887
  794.0000     9.6551   112.3101     2.4558     0.0033   -54.4476     8.2081     5.2780     5.6813
  794.5000     9.6558   111.9306     2.4569     0.0034   -54.8506     8.0573     5.1803     5.6278
  795.0000     9.6764   111.5484     2.4539     0.0034   -55.0560     7.7637     5.0841     5.5239
  795.5000     9.6771   111.5622     2.4470     0.0055   -55.0638     7.2780     4.9900     5.3714
  796.0000     9.7174   111.5760     2.4430     0.0055   -55.8620     7.2096     4.9890     5.2720
  796.5000     9.6983   110.7977     2.4381     0.0056   -55.4746     6.2790     4.8964     5.1745
  797.0000     9.6990   110.4154     2.4391     0.0036   -55.0872     6.7568     4.8953     5.1734
  797.5000     9.7195   110.4293     2.4511     0.0017   -54.6999     7.5429     4.8943     5.1722
  798.0000     9.7400   110.0470     2.4601     0.0018   -54.7077     7.8238     4.9382     5.4139
  798.5000     9.7605   110.0608     2.4680     0.0018   -54.5179     8.1144     5.0746     5.6156
  799.0000     9.7612   110.8668     2.4681     0.0019   -54.5257     8.1868     5.1205     5.6787
  799.5000     9.7619   111.2766     2.4711     0.0039   -54.7327     8.1103     5.2628     5.8337
  800.0000     9.7626   111.2905     2.4721     0.0040   -54.3453     8.1082     5.3592     5.9387
  800.5000     9.7633   109.9184     2.4721     0.0021   -54.3533     8.1058     5.4072     5.9910
  801.0000     9.7634   109.3263     2.4712     0.0001   -54.3550     8.1791     5.4063     5.9900
  801.5000     9.7836   109.7303     2.4652    -0.0018   -54.3598     8.2528     5.4546     6.0426
  802.0000     9.7840   109.7382     2.4593    -0.0018   -54.1670     8.7995     5.5039     6.0963
  802.5000     9.8042   110.5382     2.4553    -0.0037   -53.7766     8.4027     5.5027     6.0950
  803.0000     9.7847   111.3383     2.4533    -0.0037   -53.5839     8.3240     5.5013     6.0935
  803.5000     9.7851   112.1383     2.4534    -0.0036   -53.5887     8.3214     5.5003     6.0924
  804.0000     9.7855   112.5423     2.4484    -0.0036   -53.7911     8.2438     5.5500     6.1465
  804.5000     9.7859   113.3423     2.4435    -0.0035   -53.5983     8.1669     5.6520     6.2542
  805.0000     9.7863   113.7463     2.4475    -0.0015   -53.6031     8.1648     5.6508     6.1958
  805.5000     9.7669   113.7543     2.4525    -0.0014   -53.4104     8.1630     5.7546     6.1375
  806.0000     9.7673   114.1582     2.4575    -0.0014   -53.0201     8.1612     5.7531     6.1364
  806.5000     9.7875   114.9583     2.4645    -0.0013   -53.0250     8.1598     5.7518     6.1351
  807.0000     9.7879   114.1741     2.4585     0.0007   -53.0298     8.3854     5.7506     6.2475
