~VERSION INFORMATION
 VERS.                2.0:   CWLS LOG ASCII STANDARD - VERSION 2.0
 WRAP.                 NO:   ONE LINE PER DEPTH STEP
~WELL INFORMATION
#MNEM.UNIT      DATA TYPE    INFORMATION
#----------   ------------   ------------------------------
 STRT.F          250.5000:   START DEPTH
 STOP.F         2849.5000:   STOP DEPTH
 STEP.F            0.5000:   STEP LENGTH
 NULL.          -999.2500:   NO VALUE
 COMP. FENIX & SCISSON U.S. NAVY:   COMPANY
 WELL.   FENIX "A" #25-21:   WELL
 FLD .           N P R #3:   FIELD
 LOC .      S21 T39N R78W:   LOCATION
 CNTY.            NATRONA:   COUNTY
 STAT.            WYOMING:   STATE
 CTRY. UNITED STATES OF AMERICA:   COUNTRY
 SRVC.       SCHLUMBERGER:   SERVICE COMPANY
 DATE.        14-MAR-1977:   LOGDATE
 API .     49025103140000:   API NUMBER
~CURVE INFORMATION
#MNEM.UNIT       API CODE    CURVE DESCRIPTION
#----------   ------------   ------------------------------
 DEPT.F                  :   
 CALD.IN     45 280 60 00:   CALIPER FROM DENSITY LOG
 GRD .GAPI   45 310 01 00:   GAMMA RAY FROM DENSITY LOG
 RHOB.G/C3   45 350 01 00:   BULK DENSITY
 CORR.G/C3   45 356 01 00:   DENSITY CORRECTION
 SPR .MV     07 010 01 00:   SPONTANEOUS POTENTIAL
 LL8 .OHMM   07 220 08 00:   LATEROLOG-8 RES.
 ILM .OHMM   07 120 44 00:   INDUCTION LOG MEDIUM RESISTIVITY
 ILD .OHMM   07 120 46 00:   DEEP INDUCTION RESISTIVITY
~PARAMETER INFORMATION
#MNEM.UNIT          VALUE    DESCRIPTION
#----------   ------------   ------------------------------
 EKB .F         4963.0000:   Kelly bushing
 EGL .F         4953.0000:   Ground level
 EDF .F            0.0000:   Drilling floor
 TD  .F         2848.0000:   Total depth
 DATE.        14-MAR-1977:   Date logged
 CLNT.            A2DTECH:   Client Code
 SL  . 990' FWL & 2310' FSL:   Surface Location
 PD  .                 GL:   Permanent Datum
 DD  .F              2847:   Depth driller
 DL  .F              2848:   Depth logger
 BLI .F              2842:   Bottom log interval
 CS1 .IN            8.625:   Casing size
 CBD1.      8.625" @ 259':   Casing driller 1
 CBL1.F               261:   Casing logger 1
 BS1 .IN            7.875:   Bit size
 DFT .                KCL:   Type fluid in hole
 DFD .                9.2:   Density
 DFV .                 37:   Viscosity
 DFPH.                8.5:   pH
 DFL .                8.6:   Fluid loss
 MSS .           FLOWLINE:   Source of sample
 RMS .OHMM          0.226:   Rm
 MST .F                72:   Rm Meas. temp.
 RMF .OHMM          0.190:   Rmf
 MFST.F                72:   Rmf Meas. temp.
 MFSS.               MEAS:   Source Rmf.
 RMB .OHMM           .139:   Rm. at BHT
 BHT .F               117:   BHT.
 TCS .HRS            1800:   Time Circ. stopped
 MRT .F               117:   Maximum recorded temp.
 LUN .               5642:   Logging unit number
 LUL .               CSPR:   Logging unit location
 ENGI.         JIM MARTIN:   Recorded By
 WITN.               JAPP:   Witnessed by
 ORIG.           5" PRINT:   Origin of data
 UWI .     49025103140000:   Unique Well ID
 DICO. A2D TECHNOLOGIES, INC.:   Digitizing Company
 DAPD.                 10:   Feet Above Permanent Datum
 BSD1.               2847:   Depth drilled with bit1
 EPD .               4953:   Elevation Permanent Datum
 LMF .                 KB:   Log Measured From
 DMF .                 KB:   Drilling Measured From
 TLI .                261:   Top log interval
 TLAB.               2400:   Time logger at bottom
~OTHER INFORMATION
~A   DEPT     CALD         GRD      RHOB       CORR        SPR        LL8        ILM        ILD   
# ...
  412.5000     9.3790    87.4440     2.5020     0.0290   -58.3120     9.8480    10.7970    11.6940
  413.0000     9.3690    86.4270     2.5050     0.0210   -58.0080     9.8900    10.7970    11.6650
  413.5000     9.3530    85.3840     2.5030     0.0120   -57.6790     9.9250    10.7970    11.6360
  414.0000     9.3380    84.3340     2.5000     0.0080   -57.6450    10.0310    10.7480    11.6070
  414.5000     9.3380    85.0850     2.5060     0.0150   -57.8620     9.9820    10.6660    11.5780
  415.0000     9.3380    86.0890     2.5070     0.0210   -58.0790     9.9340    10.5840    11.5490
  415.5000     9.3390    86.8620     2.4990     0.0120   -58.2980     9.8850    10.5020    11.5200
  416.0000     9.3390    86.4040     2.4920     0.0110   -58.5170     9.8360    10.4200    11.4910
  416.5000     9.3400    89.1810     2.4920     0.0140   -58.7360     9.7870    10.3370    11.4620
  417.0000     9.3410    92.0160     2.4920     0.0110   -58.9480     9.7380    10.2550    11.4330
  417.5000     9.3410    94.8550     2.4870     0.0020   -58.9850     9.6890    10.1730    11.4040
  418.0000     9.3420    97.4740     2.4830    -0.0020   -58.6860     9.6410    10.0910    11.3740
  418.5000     9.3430    94.8430     2.4780     0.0050   -58.4340     9.5800    10.0090    11.3450
  419.0000     9.3430    93.7820     2.4740    -0.0010   -58.1830     9.6100     9.9390    11.3160
  419.5000     9.3440    92.4710     2.4830     0.0040   -57.9320     9.6500    10.0200    11.2870
  420.0000     9.3440    91.6710     2.4920     0.0120   -57.6800     9.6800    10.1060    11.2580
  420.5000     9.3450    90.3240     2.4990     0.0150   -57.4280     9.7150    10.1920    11.2290
  421.0000     9.3460    88.6840     2.5000     0.0100   -57.1760     9.7490    10.2780    11.2000
  421.5000     9.3460    84.3510     2.5020     0.0210   -56.9260     9.7840    10.3640    11.1710
  422.0000     9.3470    80.5070     2.4980     0.0160   -56.7000     9.8190    10.4500    11.1420
  422.5000     9.3470    81.5610     2.4900     0.0240   -56.5790     9.8540    10.5360    11.1130
  423.0000     9.3480    84.5290     2.4820     0.0200   -56.5350     9.8880    10.6220    11.0770
  423.5000     9.3490    87.4940     2.4740     0.0080   -56.5350     9.9230    10.6900    11.0350
  424.0000     9.3490    90.4450     2.4810     0.0020   -56.5350     9.9580    10.6200    10.9930
  424.5000     9.3500    93.1110     2.4880     0.0070   -56.5340     9.9920    10.5510    10.9510
  425.0000     9.3500    90.4670     2.4950     0.0120   -56.6310    10.0310    10.4810    10.9090
  425.5000     9.3510    87.4650     2.5020     0.0190   -56.7880     9.9120    10.4110    10.8970
  426.0000     9.3520    89.3500     2.5060     0.0380   -56.9440     9.7800    10.3410    10.9200
  426.5000     9.3520    92.3970     2.4990     0.0240   -57.0990     9.5800    10.2710    11.0020
  427.0000     9.3530    94.3920     2.4900     0.0110   -57.2570     9.6170    10.2020    11.0830
  427.5000     9.3530    92.7140     2.4820     0.0060   -56.9440     9.6930    10.1320    11.1640
  428.0000     9.3540    91.4020     2.4830     0.0080   -56.4560     9.7690    10.2330    11.2460
  428.5000     9.3550    92.8540     2.4920     0.0140   -56.2670     9.8460    10.3580    11.3270
  429.0000     9.3550    90.7080     2.5040     0.0210   -56.0690     9.9220    10.4820    11.4080
  429.5000     9.3560    88.9710     2.5170     0.0250   -55.8740     9.9980    10.6070    11.4890
  430.0000     9.3560    87.3330     2.5300     0.0460   -55.7710    10.0740    10.7310    11.5710
  430.5000     9.3450    85.7010     2.5370     0.0410   -55.8720    10.1510    10.8560    11.6520
  431.0000     9.3330    85.3400     2.5300     0.0300   -55.8790    10.2270    10.9800    11.7290
  431.5000     9.3210    82.7080     2.5210     0.0180   -55.6510    10.3030    11.0990    11.6690
  432.0000     9.3090    81.2550     2.5140     0.0070   -55.6450    10.4070    11.0120    11.6120
  432.5000     9.2970    80.4320     2.5190     0.0050   -55.8330    10.3440    10.8770    11.5560
  433.0000     9.2860    79.5030     2.5120     0.0070   -56.0210    10.2030    10.7420    11.4990
  433.5000     9.2740    80.9560     2.5040    -0.0010   -56.2110    10.0610    10.6070    11.4420
  434.0000     9.2620    83.5250     2.4960     0.0050   -56.3990     9.9200    10.5030    11.4100
  434.5000     9.2500    86.0190     2.4910     0.0150   -56.5380     9.7780    10.6910    11.6020
  435.0000     9.2380    86.8350     2.4960     0.0100   -56.5350     9.6680    10.9030    11.7580
  435.5000     9.2360    89.6090     2.5050     0.0140   -56.5340     9.9790    11.1160    11.9150
  436.0000     9.2350    93.2760     2.5130     0.0230   -56.3200    10.2340    11.3290    12.0710
  436.5000     9.2330    94.1410     2.5080     0.0180   -56.0740    10.4890    11.5420    12.2280
  437.0000     9.2320    94.2770     2.4970     0.0110   -55.8280    10.7430    11.7550    12.3840
  437.5000     9.2310    92.4430     2.4880     0.0010   -55.5810    10.9980    11.9670    12.6250
  438.0000     9.2290    87.1440     2.4950     0.0140   -55.3370    11.3050    12.1800    12.7580
  438.5000     9.2280    86.0160     2.5040     0.0240   -55.0950    11.1580    12.3950    12.9780
  439.0000     9.2260    86.7660     2.5070     0.0400   -55.1380    10.9730    12.5090    12.9780
  439.5000     9.2250    89.8350     2.5030     0.0420   -55.5270    10.7890    12.2570    12.9780
  440.0000     9.2230    91.4430     2.5010     0.0290   -55.2520    10.6000    12.0440    12.9780
  440.5000     9.2220    89.0060     2.5030     0.0190   -54.9590    10.7210    11.8310    12.8590
  441.0000     9.2210    84.3120     2.5080     0.0310   -54.6660    10.8970    11.6190    12.7070
  441.5000     9.2190    80.4990     2.5120     0.0420   -54.6110    10.8160    11.4060    12.5520
  442.0000     9.2180    80.1650     2.5160     0.0220   -54.7010    10.5990    11.1940    12.3960
  442.5000     9.2160    84.8990     2.5200     0.0320   -54.9840    10.3810    10.9810    12.2400
  443.0000     9.2150    88.5270     2.5110     0.0240   -55.5990    10.1630    10.7680    12.0850
  443.5000     9.2140    92.1120     2.5010     0.0140   -56.2420     9.9460    10.5560    11.9290
  444.0000     9.2120    94.0400     2.4930     0.0160   -56.0420     9.7920    10.5030    11.7730
  444.5000     9.2110    91.7970     2.4930     0.0100   -56.3430    10.0200    10.5960    11.6180
  445.0000     9.2090    89.6390     2.4980     0.0060   -56.2840    10.2020    10.6980    11.5150
  445.5000     9.2080    89.5400     2.5030     0.0180   -56.2340    10.0950    10.5810    11.5700
  446.0000     9.2060    89.8350     2.4980     0.0260   -56.1880     9.9390    10.3630    11.6170
  446.5000     9.2050    93.2490     2.4930     0.0200   -56.1380     9.9660    10.2170    11.6650
  447.0000     9.2040    96.9530     2.5020     0.0280   -55.9970    10.0170    10.3860    11.7130
  447.5000     9.2020    99.9770     2.4960     0.0100   -55.8400    10.0680    10.4660    11.7610
  448.0000     9.2010    97.4210     2.4990     0.0050   -55.5720    10.1230    10.5460    11.8090
  448.5000     9.1990    94.8550     2.5080     0.0150   -54.9760    10.1230    10.6260    11.8560
  449.0000     9.1980    95.1790     2.5160     0.0240   -55.0460    10.1230    10.6870    11.9040
  449.5000     9.2010    95.1970     2.5220     0.0280   -55.1190    10.1230    10.5860    11.9470
  450.0000     9.2040    94.3330     2.5170     0.0240   -54.8780    10.0690    10.4840    11.8800
  450.5000     9.2060    94.1710     2.5150     0.0300   -54.6300     9.9610    10.3830    11.7470
  451.0000     9.2090    97.0560     2.5150     0.0320   -54.3840     9.8530    10.2810    11.6130
  451.5000     9.2120    98.4440     2.5060     0.0190   -54.3580     9.7440    10.1800    11.4800
  452.0000     9.2150    96.9040     2.4960     0.0060   -54.8280     9.6360    10.0780    11.3470
  452.5000     9.2170    96.4980     2.4870     0.0040   -55.3860     9.5280     9.9770    11.2140
