~VERSION INFORMATION
 VERS.                2.0:   CWLS LOG ASCII STANDARD - VERSION 2.0
 WRAP.                 NO:   ONE LINE PER DEPTH STEP
~WELL INFORMATION
#MNEM.UNIT      DATA TYPE    INFORMATION
#----------   ------------   ------------------------------
 STRT.F            0.5000:   START DEPTH
 STOP.F          582.5000:   STOP DEPTH
 STEP.F            0.5000:   STEP LENGTH
 NULL.          -999.2500:   NO VALUE
 COMP.   LAWRENCE ALLISON:   COMPANY
 WELL. LAWRANCE SHX #31-34:   WELL
 FLD .             NPR #3:   FIELD
 LOC .      S34 T39N R78W:   LOCATION
 CNTY.            NATRONA:   COUNTY
 STAT.            WYOMING:   STATE
 CTRY. UNITED STATES OF AMERICA:   COUNTRY
 SRVC.           GEARHART:   SERVICE COMPANY
 DATE.        22-SEP-1988:   LOGDATE
 API .     49025112470000:   API NUMBER
~CURVE INFORMATION
#MNEM.UNIT       API CODE    CURVE DESCRIPTION
#----------   ------------   ------------------------------
 DEPT.F                  :   
 GRR .GAPI   07 310 01 00:   GAMMA RAY FROM RESISTIVITY
 RILD.OHMM   07 120 46 00:   RESISTIVITY INDUCTION LOG DEEP
 RILM.OHMM   07 120 44 00:   RESISTIVITY INDUCTION LOG MEDIUM
 TENR.LBS    07 635 01 00:   TENSION FROM RESISTIVITY
~PARAMETER INFORMATION
#MNEM.UNIT          VALUE    DESCRIPTION
#----------   ------------   ------------------------------
 EKB .F         5075.0000:   Kelly bushing
 EGL .F         5065.0000:   Ground level
 EDF .F            0.0000:   Drilling floor
 TD  .F          577.5000:   Total depth
 CLNT.            A2DTECH:   Client Code
 PD  .                 GL:   Permanent Datum
 EPD .F              5065:   Elevation Permanent Datum
 LMF .                 KB:   Log Measured From
 DMF .                 KB:   Drilling Measured From
 DAPD.F                10:   Feet Above Permanent Datum
 DATE.        22-SEP-1988:   Date Logged [DD-MMM-YYYY]
 DD  .F               575:   Depth driller
 DL  .F             577.5:   Depth logger
 BLI .F               569:   Bottom log interval
 TLI .F                 0:   Top log interval
 CS1 .IN            9.625:   Casing size
 CBD1.       9.625" @ 50':   Casing driller 1
 CBL1.F                50:   Casing logger 1
 BS1 .IN             8.75:   Bit size
 BSD1.F               575:   Depth drilled with bit1
 DFT .                AIR:   Type fluid in hole
 TLAB.HRS            2350:   Time logger at bottom
 MRT .F                70:   Maximum recorded temp.
 LUN .               7597:   Logging unit number
 LUL .           GILLETTE:   Logging unit location
 ENGI.          HUCKFFLOT:   Recorded By
 WITN.             STRONG:   Witnessed by
 ORIG.           5" PRINT:   Origin of data
 UWI .     49025112470000:   Unique Well ID
 DICO. A2D TECHNOLOGIES, INC.:   Digitizing Company
 SL  . 324' FNL & 1963' FEL:   Surface Location
~OTHER INFORMATION
~A    DEPT      GRR      RILD       RILM       TENR   
# ...
  292.5000   126.9793     6.9142     6.3281     0.0000
  293.0000   124.5553     6.7254     6.3265     0.0000
  293.5000   120.9242     6.4517     6.2379     0.0000
  294.0000   120.3142     6.2323     5.8596     0.0000
  294.5000   123.3283     6.0183     5.1356     0.0000
  295.0000   126.3437     5.7752     4.5640     0.0000
  295.5000   128.4529     5.7357     4.1987     0.0000
  296.0000   130.2760     5.7761     4.3459     0.0000
  296.5000   131.7647     5.9390     4.4983     0.0000
  297.0000   129.9449     6.0223     4.8201     0.0000
  297.5000   128.1266     6.1069     5.1154     0.0000
  298.0000   125.3977     6.2791     5.6899     0.0000
  298.5000   125.9989     6.5970     6.0549     0.0000
  299.0000   126.2968     7.1665     6.6705     0.0000
  299.5000   125.6854     7.4233     6.5729     0.0000
  300.0000   126.2823     7.6800     6.9026     0.0000
  300.5000   123.5883     7.8956     7.2947     0.0000
  301.0000   119.9829     8.0054     7.6558     0.0000
  301.5000   122.7433     8.1772     7.9266     0.0000
  302.0000   126.0702     8.3442     7.8675     0.0000
  302.5000   125.7881     8.4602     7.4935     0.0000
  303.0000   123.9954     8.5187     7.3379     0.0000
  303.5000   122.5045     8.5773     7.4388     0.0000
  304.0000   125.5510     8.6364     7.5408     0.0000
  304.5000   128.5921     8.6958     7.5917     0.0000
  305.0000   128.3100     8.6952     7.5903     0.0000
  305.5000   126.5173     8.6919     7.6416     0.0000
  306.0000   124.6968     8.6339     7.6932     0.0000
  306.5000   124.4425     8.6333     7.6913     0.0000
  307.0000   126.2802     8.6930     7.6367     0.0000
  307.5000   127.5086     8.7528     7.9431     0.0000
  308.0000   127.2225     8.8131     7.9446     0.0000
  308.5000   123.6261     8.8738     7.9462     0.0000
  309.0000   123.9483     8.9350     8.0031     0.0000
  309.5000   124.2654     8.9343     8.0051     0.0000
  310.0000   122.7798     8.9959     8.1751     0.0000
  310.5000   120.0857     8.8712     8.1767     0.0000
  311.0000   119.1944     8.6880     8.1165     0.0000
  311.5000   118.3131     8.1042     7.6849     0.0000
  312.0000   115.6133     7.1535     7.1711     0.0000
  312.5000   115.6344     6.6737     6.3301     0.0000
  313.0000   118.9823     6.4907     5.2379     0.0000
  313.5000   123.5340     6.5355     4.7315     0.0000
  314.0000   135.6386     6.5349     4.5708     0.0000
  314.5000   138.3776     6.5801     4.6038     0.0000
  315.0000   129.6413     6.6593     4.8407     0.0000
  315.5000   116.3682     7.0516     5.5551     0.0000
  316.0000   110.6481     8.0442     6.0808     0.0000
  316.5000   108.8554     9.2405     6.6103     0.0000
  317.0000   109.8752     9.9035     7.6076     0.0000
  317.5000   113.4321    10.3954     8.9752     0.0000
  318.0000   118.5880    10.9876     9.2296     0.0000
  318.5000   119.8115    11.2179     9.5574     0.0000
  319.0000   119.5344    11.2954     9.8996     0.0000
  319.5000   119.5594    11.3731    10.0377     0.0000
  320.0000   119.5794    11.6115    10.1096     0.0000
  320.5000   120.8078    12.1039    10.1115     0.0000
  321.0000   121.7342    12.7936    10.1840     0.0000
  321.5000   119.6444    13.7722    10.6196     0.0000
  322.0000   109.0903    14.9272    11.4644     0.0000
  322.5000    94.0046    16.0822    12.5494     0.0000
  323.0000    79.8252    17.2371    13.8367     0.0000
  323.5000    73.3283    18.4706    16.3440     0.0000
  324.0000    71.1039    20.2117    18.9123     0.0000
  324.5000    71.1289    21.5121    21.8842     0.0000
  325.0000    71.1489    22.7379    22.5047     0.0000
  325.5000    70.5267    22.5793    22.5102     0.0000
  326.0000    68.4748    22.2664    21.4469     0.0000
  326.5000    67.8856    22.1111    20.7195     0.0000
  327.0000    69.7233    22.1096    20.1561     0.0000
  327.5000    73.9729    22.2621    20.0206     0.0000
  328.0000    77.6233    22.4155    20.1650     0.0000
  328.5000    77.0390    22.5701    21.0266     0.0000
  329.0000    76.1527    22.8834    22.3863     0.0000
  329.5000    71.6410    23.2016    22.8630     0.0000
  330.0000    65.4583    23.5241    23.1871     0.0000
  330.5000    64.1281    24.0167    23.5158     0.0000
  331.0000    66.8721    24.1827    23.8492     0.0000
  331.5000    68.1006    24.5184    24.1885     0.0000
  332.0000    69.0433    24.7080    24.7023     0.0000
  332.5000    69.9583    25.3799    25.4027     0.0000
  333.0000    69.6761    25.9118    25.9423     0.0000
  333.5000    69.3890    26.4548    26.6791     0.0000
  334.0000    68.8097    27.2174    28.0128     0.0000
  334.5000    67.6263    28.3506    30.0321     0.0000
  335.0000    66.7400    29.1462    31.5334     0.0000
  335.5000    65.5515    29.5513    33.5742     0.0000
  336.0000    64.0610    29.7551    34.7666     0.0000
  336.5000    62.4964    29.7526    35.7524     0.0000
  337.0000    59.8713    29.7507    36.0284     0.0000
  337.5000    62.0112    29.7487    35.0311     0.0000
  338.0000    64.1460    29.1021    33.6088     0.0000
  338.5000    65.9920    27.7514    32.4688     0.0000
  339.0000    66.9100    26.6185    30.7211     0.0000
  339.5000    67.2321    25.5319    29.2700     0.0000
  340.0000    67.8563    24.6487    29.2772     0.0000
  340.5000    71.1996    24.4876    28.2841     0.0000
  341.0000    74.8500    24.3168    27.3247     0.0000
  341.5000    76.0784    23.9803    27.1411     0.0000
  342.0000    75.7963    23.4763    27.1477     0.0000
  342.5000    74.9100    22.9995    26.7787     0.0000
  343.0000    74.2920    22.6812    25.3373     0.0000
  343.5000    74.0436    22.3673    22.9557     0.0000
  344.0000    74.0686    22.0577    20.7270     0.0000
  344.5000    77.1097    22.0559    20.0240     0.0000
  345.0000    78.3484    22.0545    19.7517     0.0000
  345.5000    78.6603    22.2069    19.8934     0.0000
  346.0000    78.3782    22.8382    20.6008     0.0000
  346.5000    76.8926    24.1302    21.4811     0.0000
  347.0000    73.5894    25.5052    22.7120     0.0000
  347.5000    71.1924    26.7723    24.3833     0.0000
  348.0000    72.4259    27.5261    26.2874     0.0000
  348.5000    74.5607    27.7133    27.4106     0.0000
  349.0000    75.1849    27.1404    28.1878     0.0000
  349.5000    75.2049    26.3961    29.0046     0.0000
  350.0000    72.2088    25.8509    29.3994     0.0000
  350.5000    69.8119    25.4927    28.1993     0.0000
  351.0000    68.9205    25.3149    26.8620     0.0000
  351.5000    68.9456    25.1383    23.7072     0.0000
  352.0000    70.1790    24.9629    21.2154     0.0000
  352.5000    73.2201    24.8329    20.6345     0.0000
  353.0000    75.9591    24.3279    19.7929     0.0000
  353.5000    78.3960    23.1251    19.1178     0.0000
  354.0000    83.2549    20.1392    18.8542     0.0000
  354.5000    83.5770    19.1848    19.2518     0.0000
  355.0000    82.0864    18.9205    19.9307     0.0000
  355.5000    76.3662    18.9205    20.6345     0.0000
  356.0000    71.2503    18.6599    21.2154     0.0000
  356.5000    74.9007    18.6599    22.2788     0.0000
  357.0000    79.7545    18.6599    22.1176     0.0000
  357.5000    81.2851    18.4029    20.3501     0.0000
  358.0000    81.3051    17.7756    18.2111     0.0000
  358.5000    80.1166    17.2893    17.2275     0.0000
  359.0000    82.5585    16.8162    16.9900     0.0000
  359.5000    84.6933    16.4700    16.7558     0.0000
  360.0000    87.4324    16.2431    16.4105     0.0000
  360.5000    85.0404    16.1308    16.1843     0.0000
  361.0000    83.8518    16.1308    16.0723     0.0000
  361.5000    83.8717    16.1308    15.8508     0.0000
  362.0000    86.0064    16.1308    15.7411     0.0000
  362.5000    86.9327    16.1308    15.4168     0.0000
  363.0000    84.8428    16.1308    15.0991     0.0000
  363.5000    83.0500    16.1308    14.9946     0.0000
  364.0000    81.5594    16.0193    15.2042     0.0000
  364.5000    79.7716    15.7987    15.3101     0.0000
  365.0000    79.4844    15.7987    15.3101     0.0000
