~VERSION INFORMATION
 VERS.                2.0:   CWLS LOG ASCII STANDARD - VERSION 2.0
 WRAP.                 NO:   ONE LINE PER DEPTH STEP
~WELL INFORMATION
#MNEM.UNIT      DATA TYPE    INFORMATION
#----------   ------------   ------------------------------
 STRT.F          240.0000:   START DEPTH
 STOP.F         2876.0000:   STOP DEPTH
 STEP.F            0.5000:   STEP LENGTH
 NULL.          -999.2500:   NO VALUE
 COMP.    FENIX & SCISSON:   COMPANY
 WELL. FENIX & SCISSON "A" #23-21:   WELL
 FLD .               NPR3:   FIELD
 LOC .      S21 T39N R78W:   LOCATION
 CNTY.            NATRONA:   COUNTY
 STAT.            WYOMING:   STATE
 CTRY. UNITED STATES OF AMERICA:   COUNTRY
 SRVC.              WELEX:   SERVICE COMPANY
 DATE.        05-MAR-1977:   LOGDATE
 API .     49025103030000:   API NUMBER
~CURVE INFORMATION
#MNEM.UNIT       API CODE    CURVE DESCRIPTION
#----------   ------------   ------------------------------
 DEPT.F                  :   
 GRD .GAPI   45 310 01 00:   GAMMA RAY FROM DENSITY LOG
 CALD.IN     45 280 60 00:   CALIPER FROM DENSITY LOG
 CORR.G/C3   45 356 01 00:   DENSITY CORRECTION
 RHOB.G/C3   45 350 01 00:   BULK DENSITY
 SPR .MV     07 010 01 00:   SPONTANEOUS POTENTIAL
 ILD .OHMM   07 120 46 00:   DEEP INDUCTION RESISTIVITY
 ILM .OHMM   07 120 44 00:   INDUCTION LOG MEDIUM RESISTIVITY
 SGRD.OHMM   07 220 05 00:   SHALLOW SHORT GUARD RESISTIVITY
~PARAMETER INFORMATION
#MNEM.UNIT          VALUE    DESCRIPTION
#----------   ------------   ------------------------------
 EKB .F         4986.0000:   Kelly bushing
 EGL .F         4976.0000:   Ground level
 TD  .F         2885.0000:   Total depth
 CLNT.            A2DTECH:   Client Code
 SL  . 990' FWL & 1650' FNL:   Surface Location
 DATE.        05-MAR-1977:   Date Logged [DD-MMM-YYYY]
 DD  .F              2885:   Depth driller
 DL  .F              2882:   Depth logger
 BLI .F              2876:   Bottom log interval
 TLI .F               238:   Top log interval
 CS1 .IN            8.625:   Casing size
 CBD1.      8.625" @ 251':   Casing driller 1
 CBL1.IN              251:   Casing logger 1
 BS1 .IN            7.875:   Bit size
 BSD1.F              2885:   Depth drilled with bit1
 DFT .                KCL:   Type fluid in hole
 DFD .                9.5:   Density
 TCS .HRS               3:   Time Circ. stopped
 MRT .F                78:   Maximum recorded temp.
 ENGI.          D. LAWSON:   Recorded By
 WITN.            K. JAPP:   Witnessed by
 ORIG.         2.5" PRINT:   Origin of data
 UWI .     49025103030000:   Unique Well ID
 DICO. A2D TECHNOLOGIES,INC.:   Digitizing Company
 PD  .                 GL:   Permanent Datum
 EPD .               4976:   Elevation Permanent Datum
 LMF .                 KB:   Log Measured From
 DMF .                 KB:   Drilling Measured From
 DAPD.                 10:   Feet Above Permanent Datum
 DFL .                8.8:   Fluid loss
 MSS .           FLOWLINE:   Source of sample
 RMS .OHMM            .40:   Rm
 MST .F                58:   Rm Meas. temp.
 RMF .OHMM            .37:   Rmf
 MFST.F                58:   Rmf Meas. temp.
 MFSS.OHMM            .67:   Source Rmf.
 MCST.F                58:   Rmc Meas. temp.
 MCSS.               MEAS:   Source Rmc.
 RMB .OHMM            .30:   Rm. at BHT
 BHT .F                78:   BHT.
~OTHER INFORMATION
~A   DEPT       GRD        CALD      CORR        RHOB      SPR        ILD        ILM       SGRD   
# ...
 1779.0000   168.5524     8.0991     0.0041     2.4583   -49.1705     7.1730    10.2360    14.5195
 1779.5000   171.1921     8.0996     0.0042     2.4665   -49.1858     7.1715    10.2346    14.1788
 1780.0000   172.6784     8.1294     0.0042     2.4754   -49.2010     7.1700    10.2332    12.8221
 1780.5000   173.2888     8.1299     0.0042     2.4858   -49.2163     7.1685    10.2318    13.0396
 1781.0000   172.8885     8.1597     0.0043     2.4963   -49.2316     7.1670    10.2304    14.1077
 1781.5000   170.2817     8.1602     0.0043     2.4908   -49.2468     7.1656    10.2289    14.1032
 1782.0000   168.5551     8.1606     0.0014     2.4761   -49.2621     7.1727    10.2569    13.9057
 1782.5000   171.6203     8.1610     0.0014     2.4610   -49.2774     7.2621    10.3683    13.7114
 1783.0000   174.4526     8.1615     0.0015     2.4542   -49.2926     7.2606    10.3667    14.2882
 1783.5000   173.2846     8.1619     0.0015     2.4533   -49.3079     7.2643    10.3653    14.2838
 1784.0000   169.8709     8.1624     0.0046     2.4563   -49.3232     7.3583    10.3639    14.0451
 1784.5000   167.9546     8.1628     0.0046     2.4620   -49.3384     7.3568    10.3624    13.8868
 1785.0000   167.4243     8.1632     0.0076     2.4681   -49.3537     7.3553    10.3610    14.1086
 1785.5000   168.5998     8.1343     0.0107     2.4726   -49.3690     7.3538    10.3595    14.2683
 1786.0000   170.0683     8.1641     0.0107     2.4665   -49.3842     7.3522    10.3581    13.8749
 1786.5000   170.9956     8.1646     0.0108     2.4607   -49.3995     7.2500    10.3567    13.8936
 1787.0000   170.2140     8.1650     0.0108     2.4637   -49.4148     7.2485    10.3553    14.2564
 1787.5000   169.4893     8.1655     0.0109     2.4652   -49.4300     7.2470    10.3539    14.2359
 1788.0000   170.6647     8.1659     0.0109     2.4655   -49.4453     7.2455    10.3524    13.0782
 1788.5000   169.4119     8.1663     0.0109     2.4605   -49.4606     7.1448    10.3510    13.5063
 1789.0000   165.3812     8.1668     0.0110     2.4551   -49.4758     7.1433    10.3496    14.0449
 1789.5000   164.2206     8.1672     0.0080     2.4611   -49.4911     7.1418    10.3481    14.0410
 1790.0000   166.3340     8.1677     0.0051     2.4691   -49.5064     7.1404    10.3467    14.0371
 1790.5000   169.2664     8.1681     0.0051     2.4680   -49.5216     7.1389    10.3453    13.6503
 1791.0000   171.0343     8.1685     0.0052     2.4620   -49.5369     7.1374    10.3438    13.4591
 1791.5000   169.8166     8.1690     0.0052     2.4588   -49.5522     7.1359    10.3424    13.2705
 1792.0000   168.4038     8.1694     0.0053     2.4653   -49.5674     7.0367    10.3409    13.2668
 1792.5000   174.0442     8.1699     0.0053     2.4698   -49.5827     6.7502    10.3395    13.4478
 1793.0000   180.4907     8.1703     0.0054     2.4733   -49.5980     6.7488    10.3381    13.4441
 1793.5000   182.2000     8.1707     0.0054     2.4752   -49.6132     6.7474    10.3366    13.2558
 1794.0000   176.3050     8.1712     0.0025     2.4615   -49.6285     6.7460    10.3352    13.2521
 1794.5000   175.1707     8.1716    -0.0005     2.4518   -49.6438     6.7446    10.3338    13.4331
 1795.0000   181.4526     8.1721    -0.0034     2.4439   -49.6590     6.7432    10.3323    13.6164
 1795.5000   186.0834     8.1725    -0.0034     2.4334   -49.6743     6.7418    10.3309    13.8022
 1796.0000   189.0966     8.1729    -0.0004     2.4321   -49.6896     6.7404    10.3295    13.7980
 1796.5000   191.5482     8.1734    -0.0003     2.4411   -49.7041     6.7390    10.3280    13.4179
 1797.0000   195.0840     8.1738     0.0027     2.4425   -49.7041     6.7376    10.3266    12.6922
 1797.5000   201.7226     8.1743     0.0028     2.4370   -49.7041     6.7362    10.3252    12.8654
 1798.0000   201.1652     8.1747     0.0028     2.4301   -49.7041     6.7348    10.3237    13.5933
 1798.5000   195.1121     8.1751     0.0029     2.4292   -49.7041     6.8270    10.3223    13.7793
 1799.0000   187.8969     8.1756     0.0059     2.4292   -49.7041     7.0163    10.3209    13.7749
 1799.5000   183.3253     8.2054     0.0089     2.4312   -49.7041     7.1122    10.3194    13.9629
 1800.0000   181.6714     8.2059     0.0090     2.4342   -49.7041     7.1107    10.3180    15.1667
 1800.5000   179.9193     8.2063     0.0120     2.4387   -49.7041     7.3080    10.3165    14.9542
 1801.0000   178.5563     8.2362     0.0121     2.4397   -49.7041     7.3065    10.3151    14.1455
 1801.5000   177.3896     8.2366     0.0091     2.4347   -49.7041     7.3050    10.3137    14.1415
 1802.0000   176.1289     8.2371     0.0092     2.4322   -49.7041     7.3034    10.3123    14.6563
 1802.5000   173.7689     8.2669     0.0062     2.4318   -49.6253     7.3019    10.3109    15.2694
 1803.0000   171.0236     8.2674     0.0063     2.4294   -49.4083     7.3007    10.3094    15.3531
 1803.5000   167.2229     8.2678     0.0063     2.4195   -49.1124     7.2407    10.5962    15.3488
 1804.0000   169.5149     8.2682     0.0064     2.4189   -48.8166     7.0992    10.8910    15.3446
 1804.5000   168.7786     8.2687     0.0064     2.4204   -48.5207     7.0432    10.7404    15.3396
 1805.0000   164.8974     8.2691     0.0035     2.4123   -48.5207     6.8513    10.1626    15.1247
 1805.5000   163.9956     8.2696    -0.0025     2.3935   -48.1698     6.7141     9.6160    13.1676
 1806.0000   166.0409     8.2700    -0.0054     2.3832   -47.8777     6.7618     9.2251     8.3404
 1806.5000   167.9355     8.2410    -0.0084     2.3979   -47.6331     6.9483     8.6093     9.3136
 1807.0000   170.1340     8.2415    -0.0083     2.4056   -47.3373     7.0904     8.6797    12.6220
 1807.5000   174.7974     8.2419    -0.0053     2.4032   -47.3373     7.3873     9.2457    15.3141
 1808.0000   180.6507     8.2423    -0.0023     2.4064   -47.3018     7.5885     9.9029    16.6344
 1808.5000   185.0291     8.2428     0.0008     2.4128   -47.0414     7.9975    10.3772    17.5757
 1809.0000   188.2592     8.2138     0.0008     2.4198   -46.7456     8.4066    10.8132    18.3151
 1809.5000   189.6452     8.2143     0.0009     2.4235   -46.7442     8.8157    11.2675    18.5659
 1810.0000   185.4366     8.2147     0.0009     2.4209   -46.7083     9.1226    11.6718    19.3461
 1810.5000   178.4901     8.2141    -0.0020     2.4152   -46.6724     9.3760    12.0667    19.6111
 1811.0000   173.1491     8.1862    -0.0020     2.4107   -46.6366     9.6364    12.1379    18.2949
 1811.5000   167.6096     8.1866    -0.0020     2.4033   -46.6007     9.7683    12.3047    16.8334
 1812.0000   161.3007     8.1870    -0.0019     2.4018   -46.5649     9.8676    12.0437    16.5134
 1812.5000   157.4414     8.1875    -0.0019     2.4018   -46.5290     9.8660    11.8029    18.0286
 1813.0000   155.6476     8.1879    -0.0018     2.4033   -46.4932     9.8647    11.8013    18.5291
 1813.5000   156.9435     8.1872    -0.0018     2.4019   -46.4573     9.8305    11.7996    18.5240
 1814.0000   159.0848     8.1853     0.0013     2.3923   -46.6194     9.5622    11.8842    19.3033
 1814.5000   160.6418     8.1833     0.0013     2.3964   -46.7456     9.3013    12.0468    19.5677
 1815.0000   157.0475     8.1814     0.0031     2.4128   -46.9132     9.0474    12.1245    17.5125
 1815.5000   155.0758     8.1795     0.0044     2.4199   -47.0414     8.8284    12.3785    15.6740
 1816.0000   164.7213     8.1775     0.0044     2.4145   -47.3373     8.8272    12.5477    16.1092
 1816.5000   166.1802     8.1756     0.0015     2.4154   -47.3373     8.7990    12.6313    17.1586
 1817.0000   168.0117     8.1737    -0.0002     2.4068   -47.3373     8.7039    12.6296    15.3640
 1817.5000   167.6029     8.1717    -0.0031     2.3969   -47.5000     8.7027    12.6279    16.1845
 1818.0000   162.4303     8.1698    -0.0044     2.3971   -47.6331     8.7015    12.3702    14.0130
 1818.5000   158.1995     8.1679    -0.0027     2.4060   -47.7939     8.7003    12.2810    16.5380
 1819.0000   154.7692     8.1659    -0.0013     2.4194   -48.0888     8.6991    12.3605    18.4676
