~VERSION INFORMATION
 VERS.                2.0:   CWLS LOG ASCII STANDARD - VERSION 2.0
 WRAP.                 NO:   ONE LINE PER DEPTH STEP
~WELL INFORMATION
#MNEM.UNIT      DATA TYPE    INFORMATION
#----------   ------------   ------------------------------
 STRT.F          514.0000:   START DEPTH
 STOP.F         4154.0000:   STOP DEPTH
 STEP.F            0.5000:   STEP LENGTH
 NULL.          -999.2500:   NO VALUE
 COMP.    FENIX & SCISSON:   COMPANY
 WELL.  FENIX "MX" #86-10:   WELL
 FLD .        TEAPOT DOME:   FIELD
 LOC .      S10 T38N R78W:   LOCATION
 CNTY.            NATRONA:   COUNTY
 STAT.            WYOMING:   STATE
 CTRY. UNITED STATES OF AMERICA:   COUNTRY
 SRVC.       SCHLUMBERGER:   SERVICE COMPANY
 DATE.        30-SEP-1978:   LOGDATE
 API .     49025107290000:   API NUMBER
~CURVE INFORMATION
#MNEM.UNIT       API CODE    CURVE DESCRIPTION
#----------   ------------   ------------------------------
 DEPT.F                  :   
 SPR .MV     07 010 01 00:   SPONTANEOUS POTENTIAL
 TENR.LBS    07 635 01 00:   TENSION FROM RESISTIVITY
 SFL .OHMM   07 220 01 00:   SHALLOW FOCUSED LOG RESISTIVITY
 ILM .OHMM   07 120 44 00:   INDUCTION LOG MEDIUM RESISTIVITY
 ILD .OHMM   07 120 46 00:   INDUCTION LOG DEEP RESISTIVITY
 CALD.IN     45 280 60 00:   CALIPER FROM DENSITY LOG
 GRD .GAPI   45 310 01 00:   GAMMA RAY FROM DENSITY LOG
 TEND.LBS    45 635 01 00:   TENSION FROM DENSITY LOG
 CORR.G/C3   45 356 01 00:   DENSITY CORRECTION
 RHOB.G/C3   45 350 01 00:   BULK DENSITY
 NPHI.DEC    42 890 03 00:   NEUTRON POROSITY SANDSTONE
~PARAMETER INFORMATION
#MNEM.UNIT          VALUE    DESCRIPTION
#----------   ------------   ------------------------------
 EKB .F         5233.0000:   Kelly bushing
 EGL .F         5222.0000:   Ground level
 EDF .F            0.0000:   Drilling floor
 TD  .F         4150.0000:   Total depth
 DATE.        30-SEP-1978:   Date logged
 CLNT.            A2DTECH:   Client Code
 SL  . 1450' FSL & 600' FEL:   Surface Location
 PD  .                 GL:   Permanent Datum
 LMF .                 KB:   Log Measured From
 DMF .                 KB:   Drilling Measured From
 DAPD.F                11:   Feet Above Permanent Datum
 DD  .F              4150:   Depth driller
 DL  .F              4141:   Depth logger
 BLI .F              4135:   Bottom log interval
 TLI .F               520:   Top log interval
 CS1 .IN            9.625:   Casing size
 CBD1.      9.625" @ 529':   Casing driller 1
 CBL1.F               529:   Casing logger 1
 BS1 .IN             8.75:   Bit size
 BSD1.F              4150:   Depth drilled with bit1
 DFT .                FGM:   Type fluid in hole
 DFD .                9.5:   Density
 DFV .                 36:   Viscosity
 DFPH.                 11:   pH
 DFL .                 60:   Fluid loss
 MSS .           MUD TANK:   Source of sample
 RMS .OHMM            .57:   Rm
 MST .F                68:   Rm Meas. temp.
 RMF .OHMM           .449:   Rmf
 MFST.F                68:   Rmf Meas. temp.
 MFSS.               MEAS:   Source Rmf.
 RMB .OHMM            .27:   Rm. at BHT
 BHT .F               142:   BHT.
 TCS .HRS            1500:   Time Circ. stopped
 TLAB.HRS            0700:   Time logger at bottom
 MRT .F               142:   Maximum recorded temp.
 LUN .               8043:   Logging unit number
 LUL .               CSPR:   Logging unit location
 ENGI.             LARSON:   Recorded By
 WITN.           DINSMORE:   Witnessed by
 ORIG.           5" PRINT:   Origin of data
 UWI .     49025107290000:   Unique Well ID
 DICO. A2D TECHNOLOGIES, INC.:   Digitizing Company
 EPD .               5222:   Elevation Permanent Datum
~OTHER INFORMATION
~A   DEPT      SPR       TENR        SFL        ILM        ILD       CALD         GRD      TEND       CORR       RHOB         NPHI 
# ...
 3381.0000   -36.4130  1111.5500     4.6450     4.1150     3.8940    10.7300   145.1340  1294.8210     0.0060     2.4660     0.2830
 3381.5000   -36.1870  1111.0120     4.5820     4.1000     3.8860    10.7370   142.7380  1294.8210     0.0000     2.4630     0.2910
 3382.0000   -35.9610  1110.4740     4.5190     4.0520     3.8600    10.7400   141.6660  1294.8210     0.0000     2.4770     0.3020
 3382.5000   -35.7330  1109.9351     4.4570     4.0030     3.8330    10.7430   140.6210  1294.8210     0.0280     2.4950     0.3030
 3383.0000   -35.6510  1109.3970     4.3940     3.9540     3.8070    10.7460   140.3660  1294.8210     0.0330     2.4990     0.3030
 3383.5000   -35.6510  1108.8590     4.3320     3.8940     3.7800    10.7490   143.7290  1294.8210     0.0290     2.4900     0.3060
 3384.0000   -35.5750  1108.3199     4.2690     3.9030     3.7540    10.7510   146.5910  1294.8210     0.0210     2.4760     0.3100
 3384.5000   -35.5050  1107.7820     4.3990     3.9260     3.8340    10.7540   149.7320  1294.8210     0.0140     2.4700     0.3120
 3385.0000   -35.4360  1107.2440     4.5280     3.9480     3.8500    10.7570   152.5760  1294.8210     0.0100     2.4640     0.3110
 3385.5000   -35.3660  1106.7050     4.6570     3.9700     3.8680    10.7600   155.9630  1294.8210     0.0060     2.4560     0.3090
 3386.0000   -35.2880  1106.1670     4.7860     3.9930     3.8840    10.7620   155.2830  1294.8210     0.0020     2.4490     0.3110
 3386.5000   -35.3050  1105.6290     4.8560     4.0150     3.9000    10.7650   154.2600  1294.8210     0.0110     2.4530     0.3130
 3387.0000   -35.4300  1105.0900     4.8560     4.0380     3.9160    10.7680   153.0390  1294.8210     0.0220     2.4650     0.3160
 3387.5000   -35.5460  1104.5520     4.8560     4.0600     3.9320    10.7710   151.9660  1294.8210     0.0310     2.4820     0.3180
 3388.0000   -35.6620  1104.0140     4.8560     4.0820     3.9490    10.7740   150.8400  1294.8210     0.0370     2.4990     0.3190
 3388.5000   -35.7810  1103.4760     4.8560     4.1050     3.9670    10.7760   149.6760  1294.8210     0.0350     2.5040     0.3170
 3389.0000   -35.8980  1102.9370     4.8560     4.1270     3.9670    10.7810   150.2090  1294.8210     0.0240     2.4890     0.3150
 3389.5000   -36.0150  1102.3990     4.8560     4.1500     3.9670    10.7880   152.0620  1294.8210     0.0120     2.4720     0.3130
 3390.0000   -36.1310  1101.8610     4.8560     4.1720     3.9670    10.7960   153.6890  1294.8210     0.0090     2.4620     0.3100
 3390.5000   -36.2500  1101.3220     4.8560     4.1920     3.9670    10.8030   152.7120  1294.8210     0.0080     2.4650     0.3020
 3391.0000   -36.3700  1100.7841     4.8560     4.1740     3.9670    10.8110   151.0040  1294.8210     0.0070     2.4700     0.2990
 3391.5000   -36.4150  1100.2460     4.8560     4.1590     3.9670    10.8180   148.2990  1294.8210     0.0060     2.4670     0.2980
 3392.0000   -36.2480  1099.7070     4.8560     4.1440     3.9670    10.8260   148.2410  1294.8210     0.0060     2.4610     0.2930
 3392.5000   -36.0850  1099.1689     4.8210     4.1280     3.9540    10.8330   148.1240  1294.8210     0.0070     2.4540     0.3030
 3393.0000   -35.9180  1098.6310     4.7180     4.1130     3.9360    10.8410   148.1780  1294.8210     0.0080     2.4580     0.3050
 3393.5000   -35.7510  1098.0920     4.6150     4.0980     3.9210    10.8490   147.2990  1294.8210     0.0100     2.4700     0.3040
 3394.0000   -35.5820  1097.5540     4.5120     4.0820     3.9040    10.8540   145.8520  1294.8210     0.0140     2.4800     0.2970
 3394.5000   -35.4200  1097.0160     4.4090     4.0670     3.8210    10.8870   148.4400  1294.8210     0.0140     2.4810     0.2940
 3395.0000   -35.2670  1096.4780     4.3060     4.0510     3.8430    10.9380   151.2070  1294.8210     0.0150     2.4760     0.2970
 3395.5000   -35.3070  1095.9390     4.2030     4.0400     3.8860    10.9860   153.6570  1294.8210     0.0160     2.4700     0.3000
 3396.0000   -35.3470  1095.4010     4.1150     4.1300     3.9280    11.0380   151.3830  1294.8210     0.0200     2.4670     0.3110
 3396.5000   -35.3950  1094.8630     4.5880     4.2910     3.9700    11.0440   146.9640  1294.8210     0.0270     2.4800     0.3310
 3397.0000   -35.4390  1094.3240     5.0000     4.6800     4.0130    10.9920   141.2560  1294.8210     0.0340     2.4960     0.3280
 3397.5000   -35.4840  1093.7860     5.4560     4.6270     4.0550    10.9460   135.9520  1294.8210     0.0410     2.5040     0.3170
 3398.0000   -35.5290  1093.4390     5.3160     4.5190     4.0980    10.9020   134.8580  1294.8210     0.0400     2.4940     0.2990
 3398.5000   -35.5740  1093.4390     5.0340     4.4100     4.1150    10.9000   143.8320  1294.8210     0.0340     2.4730     0.3040
 3399.0000   -35.6190  1093.4390     4.7520     4.3020     4.1150    10.8990   151.0090  1294.8210     0.0280     2.4650     0.3170
 3399.5000   -35.6630  1093.4390     4.3490     4.2690     4.1150    10.8990   153.8620  1294.8210     0.0220     2.4600     0.3310
 3400.0000   -35.7080  1093.4390     4.3820     4.2690     4.0630    10.8990   153.0170  1294.8210     0.0160     2.4520     0.3250
 3400.5000   -35.7530  1093.4390     4.4410     4.1790     4.0080    10.8990   153.8990  1294.8210     0.0100     2.4450     0.3170
 3401.0000   -35.7980  1093.4390     4.5010     4.1030     3.9530    10.8990   154.4960  1294.8210     0.0090     2.4470     0.3100
 3401.5000   -35.8430  1093.4390     4.5950     4.0270     3.8980    10.8980   153.6220  1294.8210     0.0110     2.4560     0.3030
 3402.0000   -35.8890  1093.4390     4.5840     3.9500     3.8430    10.8950   150.0770  1294.8210     0.0200     2.4650     0.3010
 3402.5000   -35.9320  1093.4390     4.5540     3.8940     3.8100    10.8930   146.6760  1294.8210     0.0240     2.4730     0.3030
 3403.0000   -35.9780  1093.4390     4.5250     3.8940     3.7900    10.8900   145.0040  1294.8210     0.0190     2.4710     0.3040
 3403.5000   -36.0250  1093.4390     4.4960     3.8940     3.7690    10.8880   145.5220  1294.8210     0.0140     2.4670     0.3070
 3404.0000   -36.0030  1093.4390     4.4670     3.8940     3.7490    10.8850   146.8360  1294.8210     0.0160     2.4740     0.3120
 3404.5000   -35.7960  1093.4390     4.4380     3.8940     3.7290    10.8820   149.0020  1294.8210     0.0180     2.4910     0.3160
 3405.0000   -35.5860  1093.4390     4.4030     3.8940     3.7080    10.8800   150.5870  1295.1660     0.0210     2.4960     0.3210
 3405.5000   -35.3620  1093.4390     4.3660     3.8600     3.6880    10.8770   150.5760  1295.4730     0.0210     2.4920     0.3190
 3406.0000   -35.3560  1093.4390     4.3290     3.8240     3.6670    10.8750   149.6710  1295.7800     0.0180     2.4720     0.3140
 3406.5000   -35.6280  1093.4390     4.2920     3.7880     3.6470    10.8720   148.2270  1296.0880     0.0150     2.4570     0.3060
 3407.0000   -35.9600  1093.4390     4.2550     3.7530     3.6260    10.8700   146.8080  1296.3950     0.0190     2.4760     0.3020
 3407.5000   -35.7380  1093.4390     4.2000     3.7170     3.6060    10.8670   145.7950  1296.7020     0.0340     2.4920     0.2980
 3408.0000   -35.6620  1093.4390     4.2030     3.6810     3.5850    10.8640   145.7770  1297.0100     0.0540     2.5090     0.2980
 3408.5000   -35.6440  1093.4390     4.2690     3.6450     3.5650    10.8620   145.7980  1297.3170     0.0490     2.5210     0.2960
 3409.0000   -35.6650  1093.4390     4.2460     3.6100     3.5520    10.8590   145.7910  1297.6240     0.0440     2.5130     0.3000
 3409.5000   -35.6570  1093.4390     4.1840     3.5740     3.5260    10.8590   147.1300  1297.9320     0.0380     2.5020     0.3020
 3410.0000   -35.6560  1093.4390     4.1230     3.5380     3.5000    10.8590   149.0180  1298.2390     0.0290     2.4810     0.2990
 3410.5000   -35.6580  1093.4390     4.0610     3.4880     3.4740    10.8590   149.7200  1298.5460     0.0200     2.4600     0.2990
 3411.0000   -35.6550  1093.4390     3.9670     3.5160     3.4480    10.8590   149.1610  1298.8540     0.0110     2.4380     0.3080
