~VERSION INFORMATION
 VERS.                2.0:   CWLS LOG ASCII STANDARD - VERSION 2.0
 WRAP.                 NO:   ONE LINE PER DEPTH STEP
~WELL INFORMATION
#MNEM.UNIT      DATA TYPE    INFORMATION
#----------   ------------   ------------------------------
 STRT.F          404.0000:   START DEPTH
 STOP.F         2919.0000:   STOP DEPTH
 STEP.F            0.5000:   STEP LENGTH
 NULL.          -999.2500:   NO VALUE
 COMP.    FENIX & SCISSON:   COMPANY
 WELL. FENIX & SCISSON "AX" #27-21:   WELL
 FLD .             NPR #3:   FIELD
 LOC .      S21 T39N R78W:   LOCATION
 CNTY.            NATRONA:   COUNTY
 STAT.            WYOMING:   STATE
 CTRY. UNITED STATES OF AMERICA:   COUNTRY
 SRVC.       SCHLUMBERGER:   SERVICE COMPANY
 DATE.        21-APR-1977:   LOGDATE
 API .     49025103730000:   API NUMBER
~CURVE INFORMATION
#MNEM.UNIT       API CODE    CURVE DESCRIPTION
#----------   ------------   ------------------------------
 DEPT.F                  :   
 SPR .MV     07 010 01 00:   SPONTANEOUS POTENTIAL
 ILM .OHMM   07 120 44 00:   INDUCTION LOG MEDIUM RESISTIVITY
 ILD .OHMM   07 120 46 00:   DEEP INDUCTION RESISTIVITY
 LL8 .OHMM   07 220 08 00:   LATEROLOG-8 RES.
 GRN .GAPI   35 310 01 00:   GAMMA RAY
 CALD.IN     45 280 60 00:   CALIPER FROM DENSITY LOG
 GRD .GAPI   45 310 01 00:   GAMMA RAY FROM DENSITY LOG
 CORR.G/C3   45 356 01 00:   DENSITY CORRECTION
 RHOB.G/C3   45 350 01 00:   BULK DENSITY
~PARAMETER INFORMATION
#MNEM.UNIT          VALUE    DESCRIPTION
#----------   ------------   ------------------------------
 EKB .F         5004.0000:   Kelly bushing
 EGL .F         4994.0000:   Ground level
 TD  .F         2920.0000:   Total depth
 CLNT.            A2DTECH:   Client Code
 SL  . 991' FWL & 1090' FSL:   Surface Location
 DATE.        21-APR-1977:   Date Logged [DD-MMM-YYYY]
 DD  .F              2920:   Depth driller
 DL  .F              2920:   Depth logger
 BLI .F              2914:   Bottom log interval
 TLI .F               419:   Top log interval
 CS1 .              8.625:   Casing size
 CBD1.      8.625" @ 425':   Casing driller 1
 CBL1.IN              419:   Casing logger 1
 BS1 .IN            7.875:   Bit size
 BSD1.F              2920:   Depth drilled with bit1
 DFT .                FGM:   Type fluid in hole
 DFD .                9.0:   Density
 DFV .                 34:   Viscosity
 DFPH.                8.0:   pH
 DFL .                8.0:   Fluid loss
 MSS .                PIT:   Source of sample
 RMS .OHMM          0.158:   Rm
 MST .F                72:   Rm Meas. temp.
 RMF .OHMM          0.158:   Rmf
 MFST.F                72:   Rmf Meas. temp.
 MFSS.               MEAS:   Source Rmf.
 RMB .OHMM          0.102:   Rm. at BHT
 BHT .F               112:   BHT.
 TCS .HRS            0500:   Time Circ. stopped
 TLAB.HRS            0700:   Time logger at bottom
 MRT .F               112:   Maximum recorded temp.
 LUN .               5642:   Logging unit number
 LUL .               CSPR:   Logging unit location
 ENGI.             TAYLOR:   Recorded By
 WITN.          PETTINGIL:   Witnessed by
 ORIG.      2.5" 5" PRINT:   Origin of data
 UWI .     49025103730000:   Unique Well ID
 DICO. A2D TECHNOLOGIES, INC.:   Digitizing Company
 PD  .                 GL:   Permanent Datum
 EPD .F              4994:   Elevation Permanent Datum
 LMF .                 KB:   Log Measured From
 DMF .                 KB:   Drilling Measured From
 DAPD.F                10:   Feet Above Permanent Datum
~OTHER INFORMATION
~A   DEPT      SPR        ILM        ILD        LL8        GRN       CALD         GRD      CORR       RHOB   
# ...
  586.5000   -71.2515     7.7598     6.7638     8.1622  -999.2500     8.8663    82.8742     0.0296     2.5057
  587.0000   -70.9881     7.6548     6.6710     8.0505  -999.2500     8.8668    80.5504     0.0221     2.5028
  587.5000   -70.9449     7.6558     6.6705     8.0505  -999.2500     8.8672    79.0170     0.0146     2.5091
  588.0000   -70.6789     7.6568     6.6701     8.1622  -999.2500     8.8677    79.5949     0.0342     2.5257
  588.5000   -70.9706     7.6579     6.6696     8.2755  -999.2500     8.8681    81.4002     0.0658     2.5387
  589.0000   -70.9643     7.6589     6.5781     8.2755  -999.2500     8.8686    83.3058     0.0583     2.5295
  589.5000   -70.6607     7.6600     6.5776     8.3904  -999.2500     8.8690    85.3081     0.0509     2.5223
  590.0000   -70.6548     7.6610     6.5772     8.3904  -999.2500     8.8694    86.8948     0.0464     2.5208
  590.5000   -70.6488     7.6621     6.5767     8.3904  -999.2500     8.8699    87.3869     0.0419     2.5223
  591.0000   -70.6428     7.6632     6.6673     8.3904  -999.2500     8.8703    87.6905     0.0510     2.5223
  591.5000   -70.6116     7.6642     6.6669     8.3904  -999.2500     8.8708    87.3290     0.0600     2.5221
  592.0000   -70.3334     7.6653     6.6664     8.2755  -999.2500     8.8712    85.4090     0.0571     2.5174
  592.5000   -70.3274     7.6663     6.6659     8.2755  -999.2500     8.8717    83.0503     0.0496     2.5094
  593.0000   -70.6193     7.6674     6.6655     8.2755  -999.2500     8.8721    80.1896     0.0271     2.4991
  593.5000   -70.6325     7.6684     6.6650     8.2755  -999.2500     8.8726    77.1799     0.0212     2.4924
  594.0000   -70.9049     7.6695     6.6646     8.2755  -999.2500     8.8730    77.5913     0.0362     2.5085
  594.5000   -70.9151     7.6705     6.5731     8.2755  -999.2500     8.8575    79.2505     0.0528     2.5269
  595.0000   -71.1906     7.7141     6.5727     8.2755  -999.2500     8.8442    78.6458     0.0348     2.5196
  595.5000   -71.1846     7.7790     6.3940     8.2755  -999.2500     8.8447    77.6062     0.0259     2.5042
  596.0000   -71.1667     7.7801     6.3935     8.1622  -999.2500     8.8281    77.5238     0.0394     2.4954
  596.5000   -70.8646     7.7812     6.4817     8.1622  -999.2500     8.8159    79.1616     0.0605     2.5086
  597.0000   -70.5714     7.8901     6.5709     8.1622  -999.2500     8.8163    80.3672     0.0605     2.5376
  597.5000   -70.5581     7.8912     6.6615     8.1622  -999.2500     8.7872    81.6272     0.0170     2.5333
  598.0000   -70.2619     7.8923     6.8466     8.1622  -999.2500     8.7876    85.3940     0.0096     2.4852
  598.5000   -70.2560     7.8934     6.9410     8.1622  -999.2500     8.7881    85.6975     0.0171     2.4835
  599.0000   -70.5476     7.8945     6.9404     8.1622  -999.2500     8.7885    86.5963     0.0307     2.5038
  599.5000   -70.5417     7.8956     6.8452     8.1622  -999.2500     8.7889    86.8999     0.0427     2.5130
  600.0000   -70.2381     7.8967     6.8447     8.1622  -999.2500     8.7894    87.7986     0.0248     2.5151
  600.5000   -70.2321     7.8978     6.7508     8.1622  -999.2500     8.7898    84.2331     0.0278     2.5156
  601.0000   -70.2262     8.0083     6.6581     8.2755  -999.2500     8.7903    77.9890     0.0204     2.5161
  601.5000   -70.2202     8.0094     6.6577     8.2755  -999.2500     8.7907    80.3759     0.0146     2.5168
  602.0000   -70.2142     8.0446     6.5663     8.3904  -999.2500     8.7912    82.7627     0.0245     2.5260
  602.5000   -70.5059     8.1565     6.5659     8.3904  -999.2500     8.7916    83.6615     0.0402     2.5468
  603.0000   -70.7975     8.2699     6.5654     8.5069  -999.2500     8.7920    83.6674     0.0526     2.5411
  603.5000   -71.0893     8.3849     6.6560     8.7448  -999.2500     8.7925    81.2923     0.0579     2.5143
  604.0000   -71.3809     8.5861     6.6554     8.9893  -999.2500     8.7929    77.4292     0.0284     2.5062
  604.5000   -71.3749     8.6198     6.7472     8.9893  -999.2500     8.7934    75.9470     0.0363     2.5127
  605.0000   -71.3689     8.7075     6.8400     8.9893  -999.2500     8.7938    75.9529     0.0260     2.5183
  605.5000   -71.0653     8.7088     6.8395     8.9893  -999.2500     8.7943    76.5541     0.0176     2.5168
  606.0000   -70.7617     8.7100     6.9338     8.9893  -999.2500     8.7947    78.3457     0.0137     2.5151
  606.5000   -70.4581     8.7111     7.0292     8.9893  -999.2500     8.7951    80.7325     0.0129     2.5102
  607.0000   -70.4522     8.7123     7.0287     8.9893  -999.2500     8.7956    84.3099     0.0151     2.5019
  607.5000   -70.1486     8.7135     7.0282     8.9893  -999.2500     8.7960    87.5896     0.0181     2.4932
  608.0000   -70.1426     8.7147     7.0277     8.9893  -999.2500     8.7965    89.8487     0.0189     2.4822
  608.5000   -69.8390     8.7159     7.0273     8.9893  -999.2500     8.7969    92.2171     0.0189     2.4795
  609.0000   -69.8331     8.7171     7.1240     8.9893  -999.2500     8.7974    94.4788     0.0189     2.4880
  609.5000   -69.3374     8.7183     7.1235     8.9893  -999.2500     8.7978    89.9807     0.0182     2.4953
  610.0000   -69.2250     8.7195     7.1231     8.9893  -999.2500     8.7982    83.6014     0.0152     2.5009
  610.5000   -69.2191     8.7207     7.1226     8.9893  -999.2500     8.7987    80.8106     0.0144     2.5021
  611.0000   -69.2132     8.7161     7.0248     8.9893  -999.2500     8.7991    81.7113     0.0121     2.4988
  611.5000   -69.2073     8.6558     7.0244     8.9893  -999.2500     8.7996    81.6503     0.0145     2.4939
  612.0000   -69.5000     8.5954     7.0239     8.9893  -999.2500     8.8000    80.7975     0.0228     2.4855
  612.5000   -69.7917     8.5350     7.0234     8.9175  -999.2500     8.8050    80.5427     0.0231     2.4768
  613.0000   -70.0834     8.4746     7.1202     8.8662  -999.2500     8.8102    81.7798     0.0326     2.4959
  613.5000   -70.0765     8.4143     7.1196     8.8662  -999.2500     8.8154    82.0462     0.0348     2.5167
  614.0000   -70.3691     8.3437     7.2177     8.8769  -999.2500     8.8206    82.0953     0.0608     2.5203
  614.5000   -70.3623     8.3437     7.2172     8.8905  -999.2500     8.8257    82.0605     0.0288     2.5004
  615.0000   -70.3564     8.3437     7.2167     8.9041  -999.2500     8.8309    82.0238     0.0195     2.4994
  615.5000   -70.3504     8.3437     7.3162     8.9177  -999.2500     8.8361    81.4346     0.0250     2.4999
  616.0000   -70.3445     8.3437     7.3156     8.9313  -999.2500     8.8413    80.5000     0.0145     2.5024
  616.5000   -70.3386     8.3437     7.2338     8.9448  -999.2500     8.8336    78.9672     0.0115     2.5072
  617.0000   -70.0351     8.4594     7.1495     8.9584  -999.2500     8.8144    76.7405     0.0250     2.5142
  617.5000   -70.0292     8.4594     7.1160     8.9720  -999.2500     8.7855    78.7944     0.0205     2.5123
  618.0000   -69.7256     8.5766     7.0529     8.9856  -999.2500     8.7891    81.0834     0.0235     2.5005
  618.5000   -69.4221     8.6955     7.1511     8.9992  -999.2500     8.7940    82.1199     0.0341     2.4996
  619.0000   -68.8210     8.8161     7.1892     9.0129  -999.2500     8.7989    80.6392     0.0371     2.4996
  619.5000   -68.8150     9.0622     7.3912     9.0135  -999.2500     8.8038    81.0610     0.0236     2.4968
  620.0000   -68.2139     9.4443     7.8105     9.0141  -999.2500     8.8088    82.2620     0.0086     2.4908
  620.5000   -67.9104     9.9790     8.3010     9.5293  -999.2500     8.8137    83.1042     0.0056     2.4849
  621.0000   -67.9044    10.5439     8.7221    10.2137  -999.2500     8.8186    83.3475     0.0101     2.4781
  621.5000   -67.8985    10.9885     9.1458    10.7935  -999.2500     8.8212    79.5521     0.0131     2.4766
  622.0000   -67.8926    11.6107     9.5340    11.2580  -999.2500     8.7922    76.1169     0.0131     2.4970
  622.5000   -68.1843    12.1002     9.8158    11.8943  -999.2500     8.7930    72.6818     0.0416     2.5295
