~VERSION INFORMATION
 VERS.                2.0:   CWLS LOG ASCII STANDARD - VERSION 2.0
 WRAP.                 NO:   ONE LINE PER DEPTH STEP
~WELL INFORMATION
#MNEM.UNIT      DATA TYPE    INFORMATION
#----------   ------------   ------------------------------
 STRT.F           20.0000:   START DEPTH
 STOP.F         4128.0000:   STOP DEPTH
 STEP.F            0.5000:   STEP LENGTH
 NULL.          -999.2500:   NO VALUE
 COMP. LAWRENCE-ALLISON & ASSOCIATES:   COMPANY
 WELL. LAWRENCE "X" #53-3:   WELL
 FLD .             NPR #3:   FIELD
 LOC .       S3 T38N R78W:   LOCATION
 CNTY.            NATRONA:   COUNTY
 STAT.            WYOMING:   STATE
 CTRY. UNITED STATES OF AMERICA:   COUNTRY
 SRVC.      DRESSER ATLAS:   SERVICE COMPANY
 DATE.        18-SEP-1983:   LOGDATE
 API .     49025109370000:   API NUMBER
~CURVE INFORMATION
#MNEM.UNIT       API CODE    CURVE DESCRIPTION
#----------   ------------   ------------------------------
 DEPT.F                  :   
 NPHI.DEC    42 890 03 00:   NEUTRON POROSITY SANDSTONE
 TEND.LBS    45 635 01 00:   TENSION FORM DENSITY LOG
 CORR.G/C3   45 356 01 00:   DENSITY CORRECTION
 RHOB.G/C3   45 350 01 00:   BULK DENSITY
 CALD.IN     45 280 60 00:   CALIPER FROM DENSITY LOG
 GRR .GAPI   07 310 01 00:   GAMMA RAY FROM RESISTIVITY
 TENR.LBS    06 635 01 00:   TENSION FROM RESISTIVITY
 SPR .MV     07 010 01 00:   SPONTANEOUS POTENTIAL
 RILD.OHMM   07 120 46 00:   DEEP INDUCTION RESISTIVITY
 RILM.OHMM   07 120 44 00:   INDUCTION LOG MEDIUM RESISTIVITY
 RSFL.OHMM   07 220 01 00:   SPHERICALLY FOCUSED RESISTIVITY
 TENS.LBS    60 635 01 00:   TENSION FROM SONIC
 DT  .US/F   60 520 00 00:   DELTA TIME
~PARAMETER INFORMATION
#MNEM.UNIT          VALUE    DESCRIPTION
#----------   ------------   ------------------------------
 EKB .F         5214.0000:   Kelly bushing
 EGL .F         5204.0000:   Ground level
 EDF .F            0.0000:   Drilling floor
 TD  .F         4117.0000:   Total depth
 CLNT.            A2DTECH:   Client Code
 PD  .                 GL:   Permanent Datum
 EPD .F              5204:   Elevation Permanent Datum
 LMF .                 KB:   Log Measured From
 DMF .                 KB:   Drilling Measured From
 DAPD.F                10:   Feet Above Permanent Datum
 DATE.        18-SEP-1983:   Date Logged [DD-MMM-YYYY]
 DD  .F              4117:   Depth driller
 DL  .F              4113:   Depth logger
 BLI .F              4110:   Bottom log interval
 TLI .F                 0:   Top log interval
 CS1 .IN            9.625:   Casing size
 CBD1.      9.625" @ 523':   Casing driller 1
 CBL1.F               523:   Casing logger 1
 BS1 .IN            7.875:   Bit size
 BSD1.F              4117:   Depth drilled with bit1
 DFT .            GEL KCL:   Type fluid in hole
 DFD .                9.0:   Density
 DFV .                 42:   Viscosity
 DFPH.                8.5:   pH
 DFL .                 10:   Fluid loss
 MSS .               TANK:   Source of sample
 RMS .OHMM           0.35:   Rm
 MST .F                68:   Rm Meas. temp.
 RMF .OHMM          0.266:   Rmf
 MFST.F                68:   Rmf Meas. temp.
 MFSS.               MEAS:   Source Rmf.
 RMC .OHMM          0.443:   Rmc
 MCST.F                68:   Rmc Meas. temp.
 MCSS.               CALC:   Source Rmc.
 RMB .OHMM          0.185:   Rm. at BHT
 BHT .F               130:   BHT.
 TCS .HRS               4:   Time Circ. stopped
 MRT .F               130:   Maximum recorded temp.
 LUN .               6270:   Logging unit number
 LUL .              WLSTN:   Logging unit location
 ENGI.             REEVES:   Recorded By
 WITN.             STRONG:   Witnessed by
 ORIG.           5" PRINT:   Origin of data
 UWI .     49025109370000:   Unique Well ID
 DICO. A2D TECHNOLOGIES, INC.:   Digitizing Company
~OTHER INFORMATION
~A   DEPT     NPHI       TEND       CORR       RHOB       CALD         GRR      TENR        SPR       RILD       RILM       RSFL       TENS         DT   
# ...
 3608.0000     0.2284   -34.2940     0.0291     2.4435     8.2899   199.6960   -62.0117   -82.2798     5.4073     5.5067     7.8850   -48.7879    90.1077
 3608.5000     0.2188   -30.6978     0.0337     2.4510     8.2899   199.5502   -62.0117   -81.8346     5.3293     5.3886     7.0765   -48.4837    89.9226
 3609.0000     0.2113   -27.1453     0.0398     2.4608     8.2899   198.1763   -62.0117   -81.2427     5.1029     5.2731     6.8746   -48.2576    88.2873
 3609.5000     0.2092   -23.5491     0.0490     2.4669     8.2899   194.8328   -62.0117   -80.6508     4.8863     5.1122     7.4940   -47.9924    86.2399
 3610.0000     0.2212   -19.9849     0.0656     2.4631     8.2899   182.6748   -62.0117   -80.0491     4.6034     4.8357     8.4082   -47.6776    85.4056
 3610.5000     0.2326   -14.4676     0.0642     2.4413     8.2899   165.9574   -62.0117   -79.4664     3.9922     4.4993     9.1003   -47.4296    86.0876
 3611.0000     0.2398    -9.0771     0.0582     2.4241     8.2899   180.8511   -62.0117   -79.0218     3.6515     4.1563     6.9703   -51.0315    86.9320
 3611.5000     0.2410    -9.2517     0.0613     2.4166     8.2899   197.5684   -62.0117   -78.5772     3.1236     3.6244     6.0777   -50.7197    87.6789
 3612.0000     0.2389    -9.4269     0.0463     2.4098     8.2899   203.8710   -62.0117   -78.5744     2.3748     3.1834     5.6955   -50.4116    88.1334
 3612.5000     0.2392   -13.4153     0.0373     2.4008     8.2895   210.0304   -62.0117   -79.1601     2.1777     2.6018     5.8612   -50.1636    89.0428
 3613.0000     0.2461   -17.3606     0.0435     2.3918     8.2885   209.4225   -62.0117   -80.0409     2.0854     2.1264     5.8173   -49.9156    93.3639
 3613.5000     0.2554   -21.3059     0.0541     2.3888     8.2875   211.2462   -62.0117   -80.4800     2.0702     2.0072     3.7489   -49.6591    97.3059
 3614.0000     0.2392   -25.8169     0.0563     2.4001     8.2866   230.7439   -62.0117   -80.3299     2.0850     2.1415     2.8508   -49.3939    98.2153
 3614.5000     0.2233   -33.0109     0.0256     2.4314     8.2856   253.7994   -62.0117   -80.0320     2.1304     2.4378     2.5219   -49.1095    94.2725
 3615.0000     0.2173   -36.9562     0.0241     2.4706     8.2846   257.1429   -62.0117   -79.8826     2.1925     2.8562     2.8631   -48.8615    89.4200
 3615.5000     0.2152   -37.1744     0.0348     2.4790     8.2836   208.8146   -62.0117   -80.1738     2.3061     3.3949     5.7723   -48.5516    87.2210
 3616.0000     0.2218   -37.3489     0.0426     2.4813     8.2826   182.3708   -62.0117   -80.4810     2.7019     3.7279     7.9237   -48.3036    86.8992
 3616.5000     0.2290   -37.5235     0.0470     2.4776     8.2816   154.6539   -62.0117   -81.0511     3.2588     4.1232     9.1503   -48.0556    87.5472
 3617.0000     0.2296   -37.7417     0.0456     2.4724     8.2806   147.7204   -62.0117   -81.4909     3.7370     4.3990     7.9047   -47.8031    89.1152
 3617.5000     0.2224   -37.9163     0.0411     2.4702     8.2796   148.9362   -62.0117   -81.9292     4.1634     4.6261     6.9571   -47.1837    90.1762
 3618.0000     0.2175   -38.0908     0.0382     2.4687     8.2787   154.4073   -62.0117   -82.3859     4.5437     4.8301     6.7586   -45.7976    90.5549
 3618.5000     0.2163   -34.4947     0.0413     2.4665     8.2777   163.2699   -62.0117   -82.6600     4.7397     5.0431     6.7092   -44.4116    90.9336
 3619.0000     0.2211   -27.1715     0.0413     2.4651     8.2767   168.0851   -62.0117   -82.5093     4.8428     5.2277     6.6602   -43.0255    91.3905
 3619.5000     0.2266   -23.5316     0.0369     2.4652     8.2757   169.3009   -62.0117   -82.2120     4.9128     5.4581     6.8045   -41.6394    91.9184
 3620.0000     0.2272   -16.2084     0.0370     2.4675     8.2747   163.2219   -62.0117   -82.0619     4.9836     5.6173     6.9023   -40.9092    92.1455
 3620.5000     0.2259    -8.8851     0.0416     2.4751     8.2737   161.6863   -62.3449   -82.0585     5.0193     5.7396     7.0521   -40.3275    92.0693
 3621.0000     0.2271    -5.2453     0.0462     2.4789     8.2727   160.1824   -62.7304   -82.2037     5.0552     5.8225     7.1592   -39.8559    92.0690
 3621.5000     0.2301    -1.6928     0.0493     2.4797     8.2717   159.8784   -63.1158   -82.3476     5.1282     5.9066     7.3085   -35.5965    91.9928
 3622.0000     0.2347     1.9034     0.0508     2.4752     8.2707   162.3100   -63.5012   -82.4920     5.1648     5.9489     7.4135   -35.1248    91.8408
 3622.5000     0.2374     1.6852     0.0509     2.4700     8.2742   163.8298   -63.8866   -82.6365     5.1643     5.9915     7.4125   -34.6532    91.7645
 3623.0000     0.2365    -2.2625     0.0450     2.4663     8.2804   161.3982   -64.2720   -82.6330     5.2012     5.9910     7.3583   -34.1667    91.6884
 3623.5000     0.2292    -2.4783     0.0375     2.4626     8.2866   162.0061   -64.6574   -82.6441     5.2006     5.8624     7.3043   -33.6742    91.4605
 3624.0000     0.2194    -6.4103     0.0330     2.4642     8.2928   163.8298   -65.0428   -82.7748     5.2392     5.8199     7.3563   -33.1204    91.1569
 3624.5000     0.2082    -6.5988     0.0361     2.4688     8.2991   168.5612   -65.4282   -83.0659     5.2478     5.8195     7.5701   -32.6488    90.8485
 3625.0000     0.2079   -10.5872     0.0437     2.4778     8.3052   176.5957   -65.8136   -83.2111     5.2563     5.7774     7.9031   -32.1971    90.8529
 3625.5000     0.2130   -10.7618     0.0393     2.4817     8.3092   180.5471   -66.1990   -83.3549     5.2649     5.7823     7.9594   -33.6178    91.5348
 3626.0000     0.2214   -14.7071     0.0273     2.4825     8.3080   183.8906   -66.5844   -83.3514     5.2738     5.8184     7.8443   -35.0221    92.0653
 3626.5000     0.2247   -19.2181     0.0289     2.4705     8.3070   188.5350   -66.9698   -83.2014     5.2313     5.9024     7.6755   -34.4325    92.3682
 3627.0000     0.2193   -22.6413     0.0365     2.4653     8.3059   191.1854   -67.3552   -83.0513     5.2132     5.9875     7.3496   -33.9609    92.7468
 3627.5000     0.2163   -26.5866     0.0275     2.4609     8.3049   192.7052   -67.7406   -82.6067     5.1969     5.9870     7.1915   -33.5227    92.4431
 3628.0000     0.2232   -30.5755     0.0095     2.4570     8.3039   194.2249   -68.1260   -81.8669     5.0852     5.9436     7.0369   -33.0303    91.4571
 3628.5000     0.2280   -26.9794    -0.0010     2.4542     8.3028   194.8328   -68.5115   -81.4223     4.9048     5.6919     6.8361   -32.5379    90.4711
 3629.0000     0.2271   -23.3832    -0.0024     2.4505     8.3018   193.0091   -68.8969   -80.8304     4.5887     4.7842     7.0856   -31.9565    89.9401
 3629.5000     0.2283   -19.7870    -0.0023     2.4445     8.3007   186.9301   -69.2823   -80.3858     4.0363     4.1752     7.7801   -31.4849    89.4848
 3630.0000     0.2448   -16.2346    -0.0038     2.4356     8.2997   184.7621   -69.6677   -79.7933     3.6222     3.6672     8.0643   -31.0136    89.6437
 3630.5000     0.2517   -16.4092     0.0385     2.4237     8.2986   193.0350   -70.0531   -79.0541     3.2506     3.4616     7.3424   -31.5474    90.5454
 3631.0000     0.2541   -16.6273     0.0824     2.4123     8.2976   207.0869   -70.4385   -78.4622     2.8961     3.1939     5.7053   -37.6461    92.0614
 3631.5000     0.2493   -16.8019     0.0945     2.4042     8.2965   225.8359   -70.8243   -78.0176     2.7282     2.8494     4.8685   -37.1745    94.3354
 3632.0000     0.2409   -20.7391     0.0704     2.4073     8.2955   238.9058   -71.2110   -77.8669     2.6176     2.7484     4.1845   -40.4546    94.2593
 3632.5000     0.2366   -21.4288     0.0449     2.4172     8.2944   264.7416   -71.5927   -77.8641     2.6554     2.8285     3.2457   -43.6891    93.2653
 3633.0000     0.2304   -25.3143     0.0223     2.4315     8.2934   281.1867   -71.6805   -78.0093     2.7132     3.0432     2.6005   -47.1233    90.8468
 3633.5000     0.2235   -28.8461     0.0088     2.4481     8.2923   280.5471   -71.4855   -78.4477     2.8329     3.4106     3.7274   -50.3216    88.4203
