~VERSION INFORMATION
 VERS.                2.0:   CWLS LOG ASCII STANDARD - VERSION 2.0
 WRAP.                 NO:   ONE LINE PER DEPTH STEP
~WELL INFORMATION
#MNEM.UNIT      DATA TYPE    INFORMATION
#----------   ------------   ------------------------------
 STRT.F           11.0000:   START DEPTH
 STOP.F         3368.0000:   STOP DEPTH
 STEP.F            0.5000:   STEP LENGTH
 NULL.          -999.2500:   NO VALUE
 COMP. LAWRENCE ALLISON AND ASSOC.:   COMPANY
 WELL. LAWRENCE NPR "AX" #3-11:   WELL
 FLD .                NPR:   FIELD
 LOC .      S11 T38N R78W:   LOCATION
 CNTY.            NATRONA:   COUNTY
 STAT.            WYOMING:   STATE
 CTRY. UNITED STATES OF AMERICA:   COUNTRY
 SRVC.      DRESSER ATLAS:   SERVICE COMPANY
 DATE.        17-JAN-1986:   LOGDATE
 API .     49025110540000:   API NUMBER
~CURVE INFORMATION
#MNEM.UNIT       API CODE    CURVE DESCRIPTION
#----------   ------------   ------------------------------
 DEPT.F                  :   
 TEND.LBS    45 635 01 00:   TENSION FROM DENSITY LOG
 DEN .G/C3   45 350 01 00:   BULK DENSITY
 CORR.G/C3   45 356 01 00:   DENSITY CORRECTION
 CNC .DEC    42 890 03 00:   NEUTRON PORISITY SANDSTONE
 TENR.LBS    07 635 01 00:   TENSION FROM RESISTIVITY
 CALR.IN     07 280 01 00:   CALIPER FROM RESISTIVITY
 SPR .MV     07 010 01 00:   SPONTANEOUS POTENTIAL
 GRR .GAPI   07 310 01 00:   GAMMA RAY FROM RESISTIVITY
 RFOC.OHMM   07 220 04 00:   RESISTIVITY FOCUSED LOG RES.
 RILD.OHMM   07 120 46 00:   INDUCTION LOG DEEP RESISTIVITY
 RILM.OHMM   07 120 44 00:   INDUCTION LOG MEDIUM RESISTIVITY
 TENS.LBS    60 635 01 00:   TENSION FROM SONIC
 AC  .US/F   60 250 00 00:   ACCOUSTIC
~PARAMETER INFORMATION
#MNEM.UNIT          VALUE    DESCRIPTION
#----------   ------------   ------------------------------
 EKB .F         5195.5000:   Kelly bushing
 EGL .F         5183.2000:   Ground level
 EDF .F         5194.5000:   Drilling floor
 TD  .F         3360.0000:   Total depth
 DATE.        17-JAN-1986:   Date logged
 CLNT.            A2DTECH:   Client Code
 SL  . 2389' FSL & 461'FWL:   Surface Location
 PD  .                 GL:   Permanent Datum
 EPD .F            5183.2:   Elevation Permanent Datum
 LMF .                 KB:   Log Measured From
 DMF .                 KB:   Drilling Measured From
 DAPD.F              12.3:   Feet Above Permanent Datum
 DD  .F              3360:   Depth driller
 DL  .F              3358:   Depth logger
 BLI .F              3356:   Bottom log interval
 TLI .F               575:   Top log interval
 CS1 .IN            8.625:   Casing size
 CBD1.      8.625" @ 575':   Casing driller 1
 CBL1.F               575:   Casing logger 1
 BS1 .IN            7.875:   Bit size
 BSD1.F              3360:   Depth drilled with bit1
 DFT .        POLYMER-KCL:   Type fluid in hole
 DFD .                  9:   Density
 DFV .                 36:   Viscosity
 DFPH.                  9:   pH
 DFL .                9.5:   Fluid loss
 MSS .           FLOWLINE:   Source of sample
 RMS .OHMM           .633:   Rm
 MST .F                68:   Rm Meas. temp.
 RMF .OHMM           .475:   Rmf
 MFST.F                68:   Rmf Meas. temp.
 RMC .OHMM           .791:   Rmc
 MCST.F                68:   Rmc Meas. temp.
 RMB .OHMM            .44:   Rm. at BHT
 BHT .F                98:   BHT.
 TCS .HRS               4:   Time Circ. stopped
 MRT .F                98:   Maximum recorded temp.
 LUN .               6264:   Logging unit number
 LUL .               GLTE:   Logging unit location
 ENGI.             MILLER:   Recorded By
 WITN.             STRONG:   Witnessed by
 ORIG.        2" 5" PRINT:   Origin of data
 UWI .     49025110540000:   Unique Well ID
 DICO. A2D TECHNOLOGIES, INC.:   Digitizing Company
~OTHER INFORMATION
~A   DEPT     TEND        DEN       CORR        CNC       TENR       CALR        SPR         GRR      RFOC       RILD       RILM       TENS         AC   
# ...
 3157.0000   -78.9740     2.4190     0.0180     0.2750   -54.6090     8.2910   -38.7960   121.7900     3.0300     2.0630     2.2920   -31.4590    92.0070
 3157.5000   -78.5760     2.4320     0.0330     0.2760   -54.6090     8.2900   -38.9180   127.8310     2.9810     2.0560     2.2700   -32.5780    91.9060
 3158.0000   -78.1790     2.4360     0.0360     0.2760   -54.6090     8.2880   -39.0570   133.8000     2.8930     2.0560     2.2550   -33.6970    92.2230
 3158.5000   -77.7810     2.4340     0.0400     0.2800   -54.6090     8.2870   -39.1950   135.8570     2.8140     2.0560     2.2800   -34.7850    92.5080
 3159.0000   -77.3840     2.4310     0.0430     0.2850   -54.6090     8.2850   -39.3330   134.1030     2.8990     2.0860     2.2970   -32.5830    92.6080
 3159.5000   -76.9860     2.4290     0.0440     0.2850   -54.6090     8.2840   -39.4710   127.4140     2.9780     2.1200     2.4150   -30.4410    92.2070
 3160.0000   -76.5890     2.4260     0.0410     0.2830   -54.6090     8.2820   -39.6270   120.2430     3.0860     2.1530     2.4860   -28.3000    91.7600
 3160.5000   -76.1910     2.4230     0.0430     0.2750   -54.6090     8.2810   -39.8530   117.5180     3.0710     2.2410     2.5560   -26.1590    91.2040
 3161.0000   -75.7930     2.4230     0.0440     0.2720   -54.6090     8.2790   -40.0800   115.4720     3.0330     2.3250     2.6600   -24.7750    91.2040
 3161.5000   -75.3960     2.4220     0.0440     0.2710   -54.6090     8.2780   -40.3070   114.1500     2.9950     2.4830     2.9250   -24.7750    91.2040
 3162.0000   -74.9980     2.4210     0.0150     0.2650   -54.6090     8.2760   -40.5350   111.0650     2.9470     2.7010     3.1890   -24.7750    89.4870
 3162.5000   -74.6010     2.4290     0.0130     0.2580   -54.6090     8.2750   -40.7620   108.2810     3.5690     2.9180     3.4540   -24.7750    87.4920
 3163.0000   -74.4480     2.4450     0.0170     0.2510   -54.6090     8.2730   -40.9870   110.0780     4.4360     3.1000     3.6520   -24.7750    84.0750
 3163.5000   -75.0890     2.4590     0.0210     0.2430   -54.6090     8.2720   -41.1620   113.7000     5.0800     3.2460     3.6810   -24.7750    80.9730
 3164.0000   -75.7290     2.4740     0.0040     0.2320   -54.6090     8.2720   -41.0810   119.7530     5.3200     3.3910     3.7110   -24.7750    78.4650
 3164.5000   -76.3690     2.4800    -0.0280     0.2210   -54.6090     8.2720   -41.0060   128.2400     4.8770     3.5360     3.7400   -24.7750    79.5090
 3165.0000   -77.0090     2.4740    -0.0180     0.2300   -54.6090     8.2720   -40.9320   136.8800     4.3390     3.6810     3.9040   -24.2620    81.4130
 3165.5000   -77.6500     2.4660    -0.0060     0.2410   -54.6090     8.2720   -40.8580   144.1390     3.8730     3.8260     4.1030   -23.0610    83.3160
 3166.0000   -78.2900     2.4570     0.0070     0.2510   -54.6090     8.2720   -40.7840   135.5860     3.8160     3.9710     4.3010   -21.8600    84.2830
 3166.5000   -78.9300     2.4510     0.0230     0.2390   -54.6090     8.2720   -40.7100   121.4190     4.6340     4.0780     4.4990   -20.6580    83.1900
 3167.0000   -79.5700     2.4710     0.0440     0.2270   -54.6090     8.2720   -40.6350   107.5700     5.0970     4.1010     4.6970   -19.4570    81.4810
 3167.5000   -80.2100     2.4910     0.0630     0.2200   -54.6090     8.2720   -40.5330   101.1960     5.2540     4.3150     4.8950   -18.2560    79.6690
 3168.0000   -80.8510     2.5050     0.0610     0.2180   -54.6090     8.2720   -40.3190    99.2090     5.4100     4.6210     5.0940   -17.0550    78.7940
 3168.5000   -81.4910     2.5050     0.0590     0.2130   -54.6090     8.2720   -40.1070    97.9020     5.6830     4.9270     5.2500   -15.8540    77.9640
 3169.0000   -82.1310     2.5080     0.0560     0.2040   -54.6090     8.2720   -39.8940    96.5860     6.0240     5.2710     5.4290   -14.7650    77.3380
 3169.5000   -82.7710     2.5230     0.0410     0.1980   -54.6090     8.2720   -40.0540    95.7080     6.3650     5.4690     5.6070   -18.9070    76.7740
 3170.0000   -83.4120     2.5330     0.0240     0.2020   -54.6090     8.2720   -40.5890    94.9490     6.5780     5.6220     5.7860   -22.6960    76.3590
 3170.5000   -84.0520     2.5420     0.0300     0.2060   -54.6090     8.2720   -41.1240    94.1950     6.5290     5.6750     5.8460   -22.6580    76.3150
 3171.0000   -84.0160     2.5470     0.0410     0.2050   -54.6090     8.2720   -41.6620    93.4690     6.4630     5.7270     5.8680   -17.9680    76.2790
 3171.5000   -83.4360     2.5500     0.0520     0.2040   -54.6090     8.2720   -41.8500    93.4980     6.3980     5.6950     5.8880   -13.2780    76.2590
 3172.0000   -82.8560     2.5520     0.0420     0.2090   -50.8730     8.2720   -41.9600    95.6330     6.3320     5.5790     5.7760    -8.5870    76.2590
 3172.5000   -82.2760     2.5410     0.0180     0.2150   -47.3800     8.2720   -42.0670    98.6820     6.2400     5.4620     5.6710    -4.7550    76.6600
 3173.0000   -81.6960     2.5310     0.0130     0.2150   -43.8880     8.2720   -42.1620    99.3660     6.0580     5.3460     5.5660    -4.0980    77.1320
 3173.5000   -81.1160     2.5240     0.0140     0.2140   -40.3950     8.2720   -42.1640   100.5200     5.8760     5.2290     5.4620    -2.9530    77.7390
 3174.0000   -80.5360     2.5290     0.0320     0.2170   -36.9020     8.2720   -42.1550   103.5490     5.6830     5.1120     5.3570    -1.8080    78.2650
 3174.5000   -79.9560     2.5340     0.0540     0.2200   -35.0760     8.2660   -41.9750   107.4520     5.4870     4.9870     5.2220    -0.6620    79.5440
 3175.0000   -79.3760     2.5400     0.0560     0.2240   -36.6040     8.2540   -41.7950   111.1800     5.2710     4.9410     5.2830     0.4830    80.3710
 3175.5000   -78.7960     2.5380     0.0600     0.2220   -38.1330     8.2410   -41.6160   109.8680     5.2710     5.2120     5.3200     1.6280    80.4820
 3176.0000   -78.2160     2.5290     0.0620     0.2080   -39.6610     8.2290   -41.4370   106.5160     6.1100     5.5150     5.4790     2.7740    79.0300
 3176.5000   -77.6360     2.5240     0.0590     0.2000   -41.1890     8.2160   -41.2570   104.0440     7.7960     5.7520     5.6220     3.9190    76.3160
 3177.0000   -77.0560     2.5400     0.0520     0.1950   -42.7170     8.2040   -41.0060   104.0300     9.6920     6.1660     5.5580     5.2550    74.2530
 3177.5000   -76.4760     2.5530     0.0450     0.1910   -44.2450     8.1930   -40.6840   108.8920     9.0420     5.9940     5.4430     2.3240    73.1490
 3178.0000   -75.8970     2.5600     0.0400     0.1970   -44.5890     8.2110   -40.3630   113.5680     7.6010     5.7040     5.2450    -1.1940    74.2070
 3178.5000   -75.3170     2.5510     0.0440     0.2110   -44.5890     8.2280   -40.0410   117.0420     6.1600     5.4140     5.0330    -4.7550    76.0490
 3179.0000   -74.7370     2.5420     0.0490     0.2250   -44.5890     8.2450   -39.7170   115.3920     5.3240     5.1240     4.9270    -4.7550    77.8910
 3179.5000   -73.7660     2.5410     0.0530     0.2280   -44.5890     8.2530   -39.5580   114.1510     5.0850     4.8340     4.7800    -4.7550    79.3680
 3180.0000   -71.5750     2.5390     0.0500     0.2290   -44.5890     8.2550   -39.5110   115.4110     4.9430     4.5440     4.6340    -4.7550    79.7820
 3180.5000   -69.3840     2.5320     0.0330     0.2310   -44.5890     8.2560   -39.4650   116.8460     4.8010     4.2540     4.4870    -4.7550    80.3990
 3181.0000   -67.1930     2.5240     0.0240     0.2340   -44.5890     8.2580   -39.4200   116.3500     4.6320     4.0860     4.3420    -4.7550    81.3740
 3181.5000   -65.0020     2.5140     0.0290     0.2370   -46.0890     8.2600   -39.4060   114.3630     4.7060     3.9900     4.2240    -4.7550    81.8760
 3182.0000   -62.8110     2.5100     0.0550     0.2410   -47.5710     8.2610   -39.4960   114.3040     4.7980     3.8950     4.1070    -4.7550    81.9750
 3182.5000   -60.6200     2.5150     0.0710     0.2450   -49.0530     8.2630   -39.5840   114.5540     4.8960     3.7990     3.9900    -4.7550    81.8260
