~VERSION INFORMATION
 VERS.                2.0:   CWLS LOG ASCII STANDARD - VERSION 2.0
 WRAP.                 NO:   ONE LINE PER DEPTH STEP
~WELL INFORMATION
#MNEM.UNIT      DATA TYPE    INFORMATION
#----------   ------------   ------------------------------
 STRT.F          200.0000:   START DEPTH
 STOP.F         3098.0000:   STOP DEPTH
 STEP.F            0.5000:   STEP LENGTH
 NULL.          -999.2500:   NO VALUE
 COMP.    FENIX & SCISSON:   COMPANY
 WELL.   FENIX "AX" #74-3:   WELL
 FLD .              N P R:   FIELD
 LOC .       S3 T38N R78W:   LOCATION
 CNTY.            NATRONA:   COUNTY
 STAT.            WYOMING:   STATE
 CTRY. UNITED STATES OF AMERICA:   COUNTRY
 SRVC.              WELEX:   SERVICE COMPANY
 DATE.        17-AUG-1977:   LOGDATE
 API .     49025104120000:   API NUMBER
~CURVE INFORMATION
#MNEM.UNIT       API CODE    CURVE DESCRIPTION
#----------   ------------   ------------------------------
 DEPT.F                  :   
 CALD.IN     45 280 60 00:   CALIPER FROM DENSITY LOG
 SPR .MV     07 010 01 00:   SPONTANEOUS POTENTIAL
 NPHI.DEC    42 890 00 00:   NEUTRON POROSITY
 GRD .GAPI   45 310 01 00:   GAMMA RAY FROM DENSITY LOG
 CORR.G/C3   45 356 01 00:   DENSITY CORRECTION
 RHOB.G/C3   45 350 01 00:   BULK DENSITY
 SGRD.OHMM   07 220 05 00:   SHALLOW SHORT GUARD RESISTIVITY
 ILD .OHMM   07 120 46 00:   DEEP INDUCTION RESISTIVITY
 ILM .OHMM   07 120 44 00:   INDUCTION LOG MEDIUM RESISTIVITY
~PARAMETER INFORMATION
#MNEM.UNIT          VALUE    DESCRIPTION
#----------   ------------   ------------------------------
 EKB .F         5141.0000:   Kelly bushing
 EGL .F         5131.0000:   Ground level
 EDF .F            0.0000:   Drilling floor
 TD  .F         3100.0000:   Total depth
 DATE.        17-AUG-1977:   Date logged
 CLNT.            A2DTECH:   Client Code
 SL  . 2272' FNL & 1060' FEL:   Surface Location
 PD  .                 GL:   Permanent Datum
 EPD .F              5131:   Elevation Permanent Datum
 LMF .                 KB:   Log Measured From
 DMF .                 KB:   Drilling Measured From
 DD  .F              3100:   Depth driller
 DL  .F              3100:   Depth logger
 BLI .F              3098:   Bottom log interval
 TLI .F               200:   Top log interval
 CS1 .IN            8.625:   Casing size
 CBD1.      8.625" @ 215':   Casing driller 1
 CBL1.F               218:   Casing logger 1
 BS1 .IN            7.875:   Bit size
 DFT .            KCL MUD:   Type fluid in hole
 DFD .                8.8:   Density
 DFV .                 33:   Viscosity
 DFPH.                9.5:   pH
 DFL .               10.6:   Fluid loss
 MSS .           FLOWLINE:   Source of sample
 RMS .OHMM            .67:   Rm
 MST .F                98:   Rm Meas. temp.
 RMF .OHMM            .64:   Rmf
 MFST.F                98:   Rmf Meas. temp.
 RMC .OHMM            .31:   Rmc
 MCST.F                98:   Rmc Meas. temp.
 MFSS.           MEASURED:   Source Rmf.
 RMB .OHMM            .57:   Rm. at BHT
 BHT .F               115:   BHT.
 TCS .HRS               3:   Time Circ. stopped
 MRT .F               115:   Maximum recorded temp.
 LUN .               8611:   Logging unit number
 LUL .             CASPER:   Logging unit location
 ENGI.            C. DOAK:   Recorded By
 WITN.     MR. PETTINGILL:   Witnessed by
 ORIG.           5" PRINT:   Origin of data
 UWI .     49025104120000:   Unique Well ID
 DICO. A2D TECHNOLOGIES, INC.:   Digitizing Company
 BSD1.               3100:   Depth drilled with bit1
~OTHER INFORMATION
~A   DEPT       CALD      SPR       NPHI          GRD      CORR        RHOB     SGRD        ILD        ILM   
# ...
 3047.0000     7.9630   -67.9200     0.2000   128.8080     0.0070     2.5480     5.7500     4.1260     4.7730
 3047.5000     7.9500   -68.0680     0.1980   127.9130     0.0090     2.5550     5.8380     4.1290     4.7730
 3048.0000     7.9390   -68.2170     0.1960   127.0080     0.0090     2.5560     5.6050     4.1320     4.7660
 3048.5000     7.9350   -68.3660     0.1960   126.1880     0.0060     2.5490     5.2990     4.1350     4.7290
 3049.0000     7.9280   -68.5080     0.1980   127.6980     0.0040     2.5430     5.1830     4.1380     4.6920
 3049.5000     7.9220   -68.3860     0.2000   129.3260     0.0030     2.5360     5.4750     4.1410     4.6550
 3050.0000     7.9160   -68.2380     0.2020   130.9440     0.0020     2.5310     5.3470     4.1440     4.6010
 3050.5000     7.9090   -68.0910     0.2030   132.5700     0.0010     2.5280     5.1350     4.1470     4.5180
 3051.0000     7.9030   -67.9440     0.2030   134.3330     0.0000     2.5260     5.0890     4.1500     4.5180
 3051.5000     7.8970   -67.7970     0.2020   134.4240    -0.0010     2.5230     5.1020     4.1530     4.5180
 3052.0000     7.8900   -67.6500     0.2010   132.1660     0.0000     2.5260     5.1130     4.1560     4.5180
 3052.5000     7.8840   -67.5030     0.2000   129.8800     0.0040     2.5300     5.1250     4.1610     4.5180
 3053.0000     7.8780   -67.3570     0.2000   128.9400     0.0080     2.5330     5.1350     4.1430     4.5170
 3053.5000     7.8710   -67.2100     0.2000   129.1940     0.0070     2.5370     5.2210     4.1100     4.5180
 3054.0000     7.8650   -67.0630     0.2000   126.5520     0.0070     2.5400     5.3890     4.0770     4.5140
 3054.5000     7.8590   -66.9140     0.2020   123.7360     0.0080     2.5380     5.5260     4.0430     4.5630
 3055.0000     7.8520   -66.7730     0.2030   121.5830     0.0080     2.5330     5.2570     4.0090     4.5580
 3055.5000     7.8460   -66.9650     0.2050   122.8840     0.0120     2.5270     4.9510     3.9750     4.5580
 3056.0000     7.8420   -67.1780     0.2060   124.1210     0.0160     2.5220     5.0200     3.9420     4.5590
 3056.5000     7.8430   -67.3900     0.2060   125.3510     0.0210     2.5260     5.0990     3.9080     4.4760
 3057.0000     7.8460   -67.6010     0.2070   126.5800     0.0250     2.5370     5.3270     3.8740     4.4760
 3057.5000     7.8480   -67.8130     0.2090   127.8090     0.0290     2.5470     5.2300     3.8400     4.4360
 3058.0000     7.8510   -68.0240     0.2110   129.0400     0.0340     2.5570     5.0870     3.8070     4.4220
 3058.5000     7.8530   -68.2360     0.2110   130.2680     0.0340     2.5580     4.9510     3.7620     4.4060
 3059.0000     7.8560   -68.4450     0.2090   131.1960     0.0290     2.5440     4.9510     3.8080     4.3890
 3059.5000     7.8590   -68.6500     0.2040   130.8060     0.0240     2.5350     5.0890     3.8780     4.3730
 3060.0000     7.8610   -68.8890     0.1990   130.4270     0.0190     2.5260     5.0890     3.9470     4.3550
 3060.5000     7.8620   -68.8770     0.1970   130.0650     0.0140     2.5220     5.0230     4.0170     4.4360
 3061.0000     7.8620   -68.8570     0.1980   130.4530     0.0080     2.5310     4.9700     4.0870     4.5050
 3061.5000     7.8620   -68.8340     0.1980   132.3340     0.0080     2.5400     4.9510     4.1570     4.5760
 3062.0000     7.8620   -68.8130     0.1980   134.1450     0.0090     2.5480     5.5310     4.2260     4.6470
 3062.5000     7.8620   -68.7910     0.1940   135.9470     0.0100     2.5550     5.9970     4.2960     4.7180
 3063.0000     7.8620   -68.7690     0.1910   137.7270     0.0100     2.5530     6.4190     4.3660     4.7890
 3063.5000     7.8620   -68.7480     0.1870   139.5530     0.0080     2.5500     6.4560     4.4350     4.8600
 3064.0000     7.8620   -68.7260     0.1840   144.0150     0.0050     2.5410     6.0930     4.5050     4.9300
 3064.5000     7.8620   -68.7050     0.1800   148.5270     0.0020     2.5290     5.8910     4.5180     5.0010
 3065.0000     7.8620   -68.6830     0.1790   153.0220    -0.0010     2.5170     6.0550     4.4680     5.0720
 3065.5000     7.8620   -68.6610     0.1800   157.5130    -0.0030     2.5070     6.2480     4.4090     5.1350
 3066.0000     7.8620   -68.6400     0.1860   161.9820    -0.0040     2.5130     6.3390     4.3500     5.1250
 3066.5000     7.8620   -68.6180  -999.2500   169.2980    -0.0040     2.5200     5.8130     4.2920     5.0470
 3067.0000     7.8620   -68.5970  -999.2500   178.6640    -0.0010     2.5220     5.3760     4.2330     4.9680
 3067.5000     7.8620   -68.5750  -999.2500   188.0750     0.0000     2.5190     5.2820     4.1740     4.8900
 3068.0000     7.8620   -68.5530  -999.2500   197.4660     0.0020     2.5160     5.1880     4.1160     4.8120
 3068.5000     7.8620   -68.5320  -999.2500   219.4120     0.0030     2.5180     5.0950     4.0570     4.7730
 3069.0000     7.8620   -68.5100  -999.2500   239.9100     0.0040     2.5200     4.9960     3.9980     4.6860
 3069.5000     7.8620   -68.4880  -999.2500   260.4080     0.0060     2.5220     4.9960     3.9380     4.6430
 3070.0000     7.8620   -68.4670  -999.2500   268.8110     0.0070     2.5240     5.0010     3.9520     4.6590
 3070.5000     7.8620   -68.4450  -999.2500   230.7280     0.0090     2.5260     5.0280     3.9700     4.6990
 3071.0000     7.8620   -68.4240  -999.2500   202.9820     0.0100     2.5280     5.0890     3.9880     4.7390
 3071.5000     7.8620   -68.4020  -999.2500   151.5430     0.0090     2.5290     5.4660     4.0060     4.7790
 3072.0000     7.8620   -68.3800  -999.2500   119.8830     0.0060     2.5310     6.0550     4.0240     4.8200
 3072.5000     7.8620   -68.3590  -999.2500   116.1870     0.0020     2.5320     5.5760     4.0420     4.8610
 3073.0000     7.8620   -68.3370  -999.2500   113.9780    -0.0010     2.5250     5.9530     4.0600     4.9060
 3073.5000     7.8620   -68.3140  -999.2500   112.2170    -0.0040     2.5180     6.5160     4.0770     4.9060
 3074.0000     7.8620   -68.2450  -999.2500   110.4380    -0.0070     2.5110     6.0480     4.0950     4.8170
 3074.5000     7.8620   -68.1710  -999.2500   108.6720    -0.0110     2.5040     5.4900     4.1130     4.7180
 3075.0000     7.8620   -68.0960  -999.2500   106.9520    -0.0140     2.5040     5.1730     4.1310     4.6200
 3075.5000     7.8500   -68.0210  -999.2500   108.4320    -0.0100     2.5100     5.1420     4.1490     4.5180
 3076.0000     7.8330   -67.9470  -999.2500   110.4670    -0.0070     2.5150     5.1110     4.1600     4.5180
 3076.5000     7.8170   -67.8720  -999.2500   110.9200    -0.0040     2.5210     5.0800     4.1350     4.5180
 3077.0000     7.8080   -67.7970  -999.2500   110.6770    -0.0010     2.5260     5.0490     4.1130     4.5190
 3077.5000     7.8440   -67.7300  -999.2500   108.8980     0.0030     2.5200     5.0170     4.0910     4.5260
 3078.0000     7.8800   -67.7550  -999.2500   106.9760     0.0050     2.5130     4.9960     4.0480     4.5330
 3078.5000     7.8690   -67.7850  -999.2500   101.0010     0.0050     2.5110     4.9740     4.0050     4.5390
 3079.0000     7.8460   -67.8150  -999.2500    88.5190     0.0060     2.5210     4.9490     3.9900     4.5460
 3079.5000     7.8240   -67.8450  -999.2500    73.5610     0.0070     2.5300     4.9250     3.9740     4.5530
 3080.0000     7.8010   -67.8760  -999.2500  -999.2500     0.0070     2.5400     4.9000     3.9580     4.5580
 3080.5000     7.7830   -67.9080  -999.2500  -999.2500     0.0080     2.5490     4.8760     3.9430     4.5160
 3081.0000     7.7980   -67.8920  -999.2500  -999.2500     0.0090     2.5570     4.8520     3.8560     4.4740
 3081.5000     7.8160   -67.5010  -999.2500  -999.2500     0.0100     2.5580     4.8270     3.7660     4.4330
 3082.0000     7.8330   -67.2720  -999.2500  -999.2500     0.0100     2.5560     4.7780     3.6760     4.3910
 3082.5000     7.8510   -67.0330  -999.2500  -999.2500     0.0120     2.5470     4.6760     3.5850     4.3500
 3083.0000     7.8690   -66.7950  -999.2500  -999.2500     0.0110     2.5390     4.5590     3.4950     4.3090
