~VERSION INFORMATION
 VERS.                2.0:   CWLS LOG ASCII STANDARD - VERSION 2.0
 WRAP.                 NO:   ONE LINE PER DEPTH STEP
~WELL INFORMATION
#MNEM.UNIT      DATA TYPE    INFORMATION
#----------   ------------   ------------------------------
 STRT.F          212.0000:   START DEPTH
 STOP.F         3042.0000:   STOP DEPTH
 STEP.F            0.5000:   STEP LENGTH
 NULL.          -999.2500:   NO VALUE
 COMP.    FENIX & SCISSON:   COMPANY
 WELL.   FENIX "A" #74-28:   WELL
 FLD .             NPR #3:   FIELD
 LOC .      S28 T39N R78W:   LOCATION
 CNTY.            NATRONA:   COUNTY
 STAT.            WYOMING:   STATE
 CTRY. UNITED STATES OF AMERICA:   COUNTRY
 SRVC.              WELEX:   SERVICE COMPANY
 DATE.        03-AUG-1977:   LOGDATE
 API .     49025104080000:   API NUMBER
~CURVE INFORMATION
#MNEM.UNIT       API CODE    CURVE DESCRIPTION
#----------   ------------   ------------------------------
 DEPT.F                  :   
 SPR .MV     07 010 01 00:   SPONTANEOUS POTENTIAL
 ILD .OHMM   07 120 46 00:   INDUCTION LOG DEEP RESISTIVITY
 ILM .OHMM   07 120 44 00:   INDUCTION LOG MEDIUM RESISTIVITY
 SFLU.OHMM   07 220 01 00:   SPHERICALLY FOCUSED LOG UNAVERAGED RESISTIVITY
 CALD.IN     45 280 60 00:   CALIPER FROM DENSITY LOG
 GRD .GAPI   45 310 01 00:   GAMMA RAY FROM DENSITY LOG
 CORR.G/C3   45 356 01 00:   DENSITY CORRECTION
 RHOB.G/C3   45 350 01 00:   BULK DENSITY
~PARAMETER INFORMATION
#MNEM.UNIT          VALUE    DESCRIPTION
#----------   ------------   ------------------------------
 EKB .F         5050.0000:   Kelly bushing
 EGL .F         5040.0000:   Ground level
 EDF .F            0.0000:   Drilling floor
 TD  .F         3044.0000:   Total depth
 DATE.        03-AUG-1977:   Date logged
 CLNT.            A2DTECH:   Client Code
 SL  . 2310' FNL & 930' FEL:   Surface Location
 PD  .                 GL:   Permanent Datum
 EPD .F              5040:   Elevation Permanent Datum
 LMF .                 KB:   Log Measured From
 DMF .                 KB:   Drilling Measured From
 DAPD.F                10:   Feet Above Permanent Datum
 DD  .F              3044:   Depth driller
 DL  .F              3044:   Depth logger
 BLI .F              3042:   Bottom log interval
 TLI .F               238:   Top log interval
 CS1 .IN            8.625:   Casing size
 CBD1.      8.625" @ 220':   Casing driller 1
 CBL1.F               238:   Casing logger 1
 BS1 .IN            7.875:   Bit size
 BSD1.F              3044:   Depth drilled with bit1
 DFT .            KCL MUD:   Type fluid in hole
 DFV .                 35:   Viscosity
 DFPH.               10.5:   pH
 DFL .                7.2:   Fluid loss
 MSS .           FLOWLINE:   Source of sample
 RMS .OHMM           1.13:   Rm
 MST .F                84:   Rm Meas. temp.
 RMF .OHMM           0.77:   Rmf
 MFST.F                70:   Rmf Meas. temp.
 MFSS.           FANN KIT:   Source Rmf.
 MCSS.           FANN KIT:   Source Rmc.
 RMB .OHMM            .82:   Rm. at BHT
 BHT .F               118:   BHT.
 TCS .HRS               7:   Time Circ. stopped
 MRT .F               116:   Maximum recorded temp.
 LUN .               8611:   Logging unit number
 LUL .             CASPER:   Logging unit location
 ENGI.            C. DOAK:   Recorded By
 WITN.      W. PETTINGILL:   Witnessed by
 ORIG.         2.5" PRINT:   Origin of data
 UWI .     49025104080000:   Unique Well ID
 DICO. A2D TECHNOLOGIES, INC.:   Digitizing Company
~OTHER INFORMATION
~A   DEPT      SPR        ILD        ILM       SFLU         CALD       GRD       CORR        RHOB 
# ...
 2439.5000   -58.9330     5.8350     7.2400    10.2450     8.3650   150.1970     0.0220     2.5290
 2440.0000   -58.9750     5.9190     7.1660    10.0150     8.3640   149.9910     0.0220     2.5260
 2440.5000   -59.0170     6.0080     7.0850     9.7840     8.3630   150.6240     0.0230     2.5170
 2441.0000   -59.0580     5.9700     7.0040     9.3990     8.3610   151.2010     0.0230     2.5140
 2441.5000   -59.1000     5.8980     6.9230     9.5900     8.3600   151.8620     0.0240     2.5240
 2442.0000   -59.1420     5.8260     6.8420    10.2620     8.3590   152.2650     0.0240     2.5270
 2442.5000   -59.1830     5.7540     6.7610    10.1460     8.3580   152.6580     0.0250     2.5270
 2443.0000   -59.2250     5.6810     6.6810     9.9140     8.3570   153.1950     0.0250     2.5250
 2443.5000   -59.2660     5.6090     6.5960     9.6810     8.3560   153.5710     0.0250     2.5200
 2444.0000   -59.3090     5.5770     6.5960     9.5560     8.3550   154.8590     0.0260     2.5130
 2444.5000   -59.3480     5.5470     6.5960     9.5190     8.3530   156.6340     0.0260     2.5140
 2445.0000   -59.3950     5.5080     6.5950     9.4820     8.3520   158.3610     0.0270     2.5200
 2445.5000   -59.3640     5.4680     6.5930     9.4450     8.3510   159.8750     0.0270     2.5270
 2446.0000   -59.3190     5.4290     6.5970     9.4080     8.3500   161.6530     0.0280     2.5290
 2446.5000   -59.2720     5.3890     6.5950     9.2260     8.3500   160.1770     0.0280     2.5280
 2447.0000   -59.2280     5.3420     6.5880     9.1770     8.3530   157.9410     0.0290     2.5280
 2447.5000   -59.1820     5.2900     6.5780     9.0920     8.3560   158.0580     0.0290     2.5310
 2448.0000   -59.1370     5.2380     6.6150     9.0080     8.3580   160.8820     0.0290     2.5300
 2448.5000   -59.0900     5.1850     5.9290     8.9230     8.3610   162.8840     0.0300     2.5200
 2449.0000   -59.0470     5.1330     5.4740     8.7240     8.3630   161.8630     0.0300     2.5080
 2449.5000   -59.0080     5.0800     5.4740     8.1330     8.3660   159.7060     0.0300     2.5070
 2450.0000   -59.0920     5.0800     5.4740     7.2400     8.3680   157.0320     0.0300     2.5120
 2450.5000   -59.1790     5.1160     5.9980     7.7650     8.3710   157.1270     0.0320     2.5240
 2451.0000   -59.2720     5.1460     6.3540     8.4200     8.3730   157.1680     0.0350     2.5340
 2451.5000   -59.3610     5.1760     6.3380     8.6690     8.3760   157.3150     0.0380     2.5440
 2452.0000   -59.4510     5.1790     6.3250     8.8050     8.3780   157.4300     0.0410     2.5450
 2452.5000   -59.5420     5.1880     6.3120     8.9400     8.3810   157.5360     0.0440     2.5540
 2453.0000   -59.6320     5.1960     6.2990     9.0550     8.3830   157.6690     0.0460     2.5530
 2453.5000   -59.7220     5.2040     6.2850     9.0550     8.3860   157.7770     0.0460     2.5430
 2454.0000   -59.8120     5.2120     6.2720     9.0550     8.3880   157.7800     0.0400     2.5340
 2454.5000   -59.9020     5.2190     6.2590     9.0550     8.3910   157.1490     0.0340     2.5310
 2455.0000   -59.9930     5.2270     6.2460     9.0550     8.3930   156.5480     0.0280     2.5310
 2455.5000   -60.0820     5.2350     6.2370     9.0550     8.3960   155.9550     0.0220     2.5310
 2456.0000   -60.1750     5.2430     6.1790     8.7460     8.3980   155.5480     0.0160     2.5310
 2456.5000   -60.1800     5.2500     6.0660     8.4060     8.4010   156.7600     0.0140     2.5270
 2457.0000   -60.1030     5.2580     5.9930     8.0970     8.4040   157.7720     0.0140     2.5210
 2457.5000   -60.0310     5.2660     5.9630     9.0550     8.4060   157.7480     0.0150     2.5140
 2458.0000   -59.9580     5.2730     5.9320     8.9130     8.4090   157.4320     0.0150     2.5170
 2458.5000   -59.8840     5.2730     5.8970     8.7520     8.4110   157.3080     0.0160     2.5200
 2459.0000   -59.8110     5.3950     5.9870     8.5910     8.4140   155.2240     0.0160     2.5250
 2459.5000   -59.7380     5.5350     6.1830     8.4040     8.4160   150.7980     0.0170     2.5210
 2460.0000   -59.6630     5.6760     6.3790     9.0370     8.4190   146.5800     0.0170     2.5170
 2460.5000   -59.5900     5.8160     6.5750     9.7830     8.4210   143.3170     0.0180     2.5140
 2461.0000   -59.5180     5.9570     6.7710    10.5120     8.4240   142.8480     0.0200     2.5230
 2461.5000   -59.4370     6.0970     6.9670    11.0540     8.4260   142.4370     0.0270     2.5320
 2462.0000   -59.4220     6.2370     7.1630    11.5830     8.4290   141.7830     0.0350     2.5410
 2462.5000   -59.4940     6.2980     7.3180    12.4320     8.4300   143.4500     0.0380     2.5450
 2463.0000   -59.5570     6.3980     7.4470    12.0600     8.4300   147.0330     0.0380     2.5360
 2463.5000   -59.6220     6.4990     7.6560    11.1170     8.4300   148.1780     0.0370     2.5290
 2464.0000   -59.6870     6.6000     7.5700    10.8740     8.4300   147.2060     0.0370     2.5230
 2464.5000   -59.7520     6.7010     7.3430    10.7750     8.4300   146.9440     0.0370     2.5230
 2465.0000   -59.8170     6.8010     7.1060    10.6760     8.4300   150.6210     0.0360     2.5260
 2465.5000   -59.8820     6.8460     7.3920    10.5120     8.4300   153.8820     0.0360     2.5330
 2466.0000   -59.9470     6.8460     7.6900    11.0260     8.4300   157.3470     0.0360     2.5300
 2466.5000   -60.0120     6.8460     7.9470    12.6550     8.4300   159.8950     0.0350     2.5230
 2467.0000   -60.0770     6.8460     7.8960    12.1200     8.4300   158.8880     0.0350     2.5250
 2467.5000   -60.1420     6.8020     7.8500    11.0510     8.4300   157.0740     0.0350     2.5300
 2468.0000   -60.2070     6.7170     7.8010    10.3180     8.4300   155.1890     0.0340     2.5340
 2468.5000   -60.2720     6.6330     7.6950    10.3800     8.4300   153.4060     0.0340     2.5420
 2469.0000   -60.3370     6.5480     7.5790    10.4490     8.4300   151.4590     0.0340     2.5510
 2469.5000   -60.4020     6.4630     7.4630    10.5120     8.4300   150.5110     0.0330     2.5500
 2470.0000   -60.4680     6.3790     7.3470    10.9740     8.4300   150.8540     0.0330     2.5480
 2470.5000   -60.5330     6.2940     7.2400    11.5390     8.4300   151.6330     0.0320     2.5370
 2471.0000   -60.5980     6.2100     7.2170    11.4210     8.4300   152.4130     0.0310     2.5270
 2471.5000   -60.6630     6.1250     7.1310    10.8270     8.4300   153.2210     0.0310     2.5190
 2472.0000   -60.7280     6.0400     7.0450     9.5760     8.4300   153.8560     0.0300     2.5180
 2472.5000   -60.7920     5.9560     6.9590     9.7320     8.4290   153.3400     0.0300     2.5170
 2473.0000   -60.8590     5.8710     6.8730     9.9160     8.4260   152.2060     0.0290     2.5170
 2473.5000   -60.9210     5.7890     6.7870    10.1000     8.4220   151.1640     0.0280     2.5100
 2474.0000   -60.9940     5.7920     6.7200    10.2840     8.4180   149.6840     0.0280     2.5040
 2474.5000   -61.0010     5.8080     6.8000    10.4680     8.4140   149.6930     0.0270     2.4990
 2475.0000   -61.0250     5.8240     6.9000    10.6520     8.4100   151.8550     0.0260     2.5080
 2475.5000   -61.0470     5.8400     6.9990    10.8360     8.4060   153.7870     0.0260     2.5200
 2476.0000   -61.0720     5.8560     7.0980    10.9110     8.4020   155.7410     0.0260     2.5310
 2476.5000   -61.0960     5.8710     7.1980    10.4350     8.3970   156.1740     0.0280     2.5420
 2477.0000   -61.1200     5.8870     7.2470     9.9400     8.3940   154.7170     0.0300     2.5490
 2477.5000   -61.1440     5.8970     7.2600    10.0370     8.3910   153.2120     0.0320     2.5530
 2478.0000   -61.1680     5.9480     7.2730    10.3050     8.4110   151.6420     0.0330     2.5480
 2478.5000   -61.1910     6.0010     7.2860    10.5720     8.4330   150.1730     0.0350     2.5470
 2479.0000   -61.2150     6.0530     7.2990    10.8400     8.4550   148.6150     0.0370     2.5490
 2479.5000   -61.2390     6.1060     7.3120    10.9110     8.4770   149.4510     0.0360     2.5510
