~VERSION INFORMATION
 VERS.                2.0:   CWLS LOG ASCII STANDARD - VERSION 2.0
 WRAP.                 NO:   ONE LINE PER DEPTH STEP
~WELL INFORMATION
#MNEM.UNIT      DATA TYPE    INFORMATION
#----------   ------------   ------------------------------
 STRT.F           32.0000:   START DEPTH
 STOP.F         2998.0000:   STOP DEPTH
 STEP.F            0.5000:   STEP LENGTH
 NULL.          -999.2500:   NO VALUE
 COMP.   TESORO PETROLEUM:   COMPANY
 WELL. TESORO N.P.R. #3-34:   WELL
 FLD .        TEAPOT DOME:   FIELD
 LOC .      S34 T39N R78W:   LOCATION
 CNTY.            NATRONA:   COUNTY
 STAT.            WYOMING:   STATE
 CTRY. UNITED STATES OF AMERICA:   COUNTRY
 SRVC.       SCHLUMBERGER:   SERVICE COMPANY
 DATE.        08-AUG-1969:   LOGDATE
 API .     49025100250000:   API NUMBER
~CURVE INFORMATION
#MNEM.UNIT       API CODE    CURVE DESCRIPTION
#----------   ------------   ------------------------------
 DEPT.F                  :   
 SPR .MV     05 010 01 00:   SPONTANEOUS POTENTIAL FROM RES.
 ASN .OHMM   05 040 16 00:   AMPLIFIED SHORT NORMAL 16"
 ILD .OHMM   05 120 46 00:   INDUCTION LOG DEEP
 CORR.G/C3   45 356 01 00:   DENSITY CORRECTION
 GRD .GAPI   45 310 01 00:   GAMMA RAY FROM DENSITY LOG
 CALD.IN     45 280 60 00:   CALIPER FROM DENSITY LOG
 RHOB.G/C3   45 350 01 00:   BULK DENSITY
~PARAMETER INFORMATION
#MNEM.UNIT          VALUE    DESCRIPTION
#----------   ------------   ------------------------------
 EKB .F         5185.0000:   Kelly bushing
 EGL .F         5172.0000:   Ground level
 TD  .F         2999.0000:   Total depth
 CLNT.            A2DTECH:   Client Code
 SL  . 465' FWL & 1075' FSL':   Surface Location
 DATE.        08-AUG-1969:   Date Logged [DD-MMM-YYYY]
 DD  .F              2998:   Depth driller
 DL  .F              2999:   Depth logger
 BLI .F              2998:   Bottom log interval
 TLI .F               615:   Top log interval
 CS1 .              10.75:   Casing size
 CBD1.      10.75" @ 615':   Casing driller 1
 CBL1.IN              615:   Casing logger 1
 BS1 .IN                9:   Bit size
 BSD1.F              2998:   Depth drilled with bit1
 DFT .      FRESH GEL MUD:   Type fluid in hole
 DFD .                9.6:   Density
 DFV .                 55:   Viscosity
 DFPH.                9.5:   pH
 DFL .                7.0:   Fluid loss
 MSS .           FLOWLINE:   Source of sample
 RMS .OHMM           0.75:   Rm
 MST .F                87:   Rm Meas. temp.
 RMF .OHMM           1.09:   Rmf
 MFST.F                87:   Rmf Meas. temp.
 MFSS.               MEAS:   Source Rmf.
 RMB .OHMM           0.59:   Rm. at BHT
 BHT .F               111:   BHT.
 TCS .HRS               3:   Time Circ. stopped
 MRT .F               111:   Maximum recorded temp.
 LUN .               4507:   Logging unit number
 LUL .               CSPR:   Logging unit location
 ENGI.            ED MIXA:   Recorded By
 WITN.                MAY:   Witnessed by
 ORIG.   1" 2.5" 5" PRINT:   Origin of data
 UWI .     49025100250000:   Unique Well ID
 DICO. A2D TECHNOLOGIES, INC.:   Digitizing Company
~OTHER INFORMATION
~A   DEPT      SPR        ASN        ILD       CORR        GRD       CALD       RHOB   
# ...
 1761.0000   -30.2582     8.6509     8.3368     0.0599    89.8490     9.3058     2.5957
 1761.5000   -30.2497     8.6956     8.3403     0.0599    92.3547     9.3068     2.6061
 1762.0000   -30.2429     8.7108     8.3431     0.0528    88.0734     9.3077     2.5980
 1762.5000   -30.2354     8.7112     8.3459     0.0389    85.0153     9.3086     2.5933
 1763.0000   -30.2292     8.7117     8.3488     0.0227    88.0734     9.3095     2.5838
 1763.5000   -30.2212     8.7269     8.3516     0.0161    87.4618     9.3104     2.5683
 1764.0000   -30.2149     8.7864     8.3551     0.0254    89.3129     9.3113     2.5802
 1764.5000   -30.2075     8.8312     8.3579     0.0389    91.1706     9.3122     2.5956
 1765.0000   -30.1996     8.8907     8.3607     0.0519    93.6389     9.3131     2.6087
 1765.5000   -30.1933     8.9208     8.4374     0.0599    95.4128     9.3140     2.6198
 1766.0000   -30.1864     8.9360     8.4402     0.0570    94.7485     9.3150     2.6067
 1766.5000   -30.1793     8.9364     8.4431     0.0442    93.5138     9.3159     2.5817
 1767.0000   -30.1711     8.9368     8.4465     0.0293    94.3408     9.3168     2.5780
 1767.5000   -30.1637     8.9372     8.4494     0.0185    95.4128     9.3177     2.5532
 1768.0000   -30.1574     8.9378     8.4522     0.0142    91.1315     9.3186     2.5478
 1768.5000   -30.1500     8.9529     8.4550     0.0117    92.4638     9.3195     2.5546
 1769.0000   -30.1435     8.9829     8.4579     0.0161    93.8185     9.3204     2.5642
 1769.5000   -30.1363     8.9981     8.4613     0.0241    95.4128     9.3214     2.5832
 1770.0000   -30.1283     9.0133     8.4641     0.0362    93.4354     9.3211     2.6074
 1770.5000   -30.1215     8.9806     8.4670     0.0522    92.0466     9.3208     2.5926
 1771.0000   -30.1147     8.9256     8.4698     0.0716    90.5199     9.3205     2.5866
 1771.5000   -30.1076     8.8964     8.4727     0.0510    89.1203     9.3508     2.5807
 1772.0000   -30.0993     8.8969     8.4761     0.0453    88.6850     9.3810     2.6101
 1772.5000   -30.0919     8.9269     8.4789     0.0505    87.6761     9.3807     2.6278
 1773.0000   -30.0850     8.9580     8.4817     0.0608    85.6082     9.3804     2.6071
 1773.5000   -30.0782     9.0608     8.4846     0.0702    83.1804     9.3801     2.5997
 1774.0000   -30.0714     9.1498     8.4874     0.0560    86.3241     9.3798     2.5819
 1774.5000   -30.2086     9.2093     8.4163     0.0428    88.3171     9.3795     2.5996
 1775.0000   -30.1994     9.2245     8.4199     0.0359    89.5514     9.3792     2.6158
 1775.5000   -30.1926     9.1803     8.3481     0.0364    89.9875     9.3789     2.6231
 1776.0000   -30.1852     9.0778     8.2039     0.0412    86.3530     9.3786     2.6216
 1776.5000   -30.1793     9.0190     8.1329     0.0495    83.7920     9.3783     2.6112
 1777.0000   -30.1709     8.9309     7.9887     0.0558    84.3916     9.3780     2.6082
 1777.5000   -30.1641     8.8723     7.9176     0.0578    86.8601     9.3830     2.6126
 1778.0000   -30.1573     8.8431     7.8459     0.0559    88.7179     9.4080     2.6081
 1778.5000   -30.1504     8.7846     7.8494     0.0523    89.9083     9.3771     2.5933
 1779.0000   -30.1436     8.7850     7.8523     0.0468    87.3068     9.3768     2.5815
 1779.5000   -30.4237     8.7854     7.8558     0.0449    86.9502     9.3765     2.5920
 1780.0000   -30.4152     8.8154     7.9324     0.0432    89.9083     9.3761     2.6084
 1780.5000   -30.4083     8.8454     8.0830     0.0436    87.4618     9.3758     2.6186
 1781.0000   -30.1145     8.8770     8.1596     0.0471    83.7920     9.3755     2.6279
 1781.5000   -30.1076     8.9202     8.1625     0.0512    84.4037     9.3752     2.6432
 1782.0000   -30.0992     8.9649     8.2398     0.0512    85.6269     9.3749     2.5965
 1782.5000   -30.0923     8.9801     8.3165     0.0519    86.8502     9.3746     2.5860
 1783.0000   -30.0855     9.0101     8.3932     0.0526    88.6850     9.3743     2.5797
 1783.5000   -29.9352     9.0410     8.4698     0.0522    90.5199     9.3740     2.5913
 1784.0000   -29.9282     9.0701     8.4756     0.0445    89.9083     9.3737     2.5803
 1784.5000   -29.9211     9.0853     8.6977     0.0356    87.4618     9.3602     2.5762
 1785.0000   -29.9129     9.1300     8.7744     0.0281    87.4618     9.3425     2.5751
 1785.5000   -29.9061     9.2486     8.8511     0.0234    88.0734     9.3422     2.5764
 1786.0000   -29.8993     9.3383     8.9277     0.0373    89.2966     9.3419     2.5928
 1786.5000   -29.8924     9.4859     9.0061     0.0497    89.9083     9.3110     2.6120
 1787.0000   -29.8839     9.5750     9.0818     0.0597    86.8502     9.3107     2.6188
 1787.5000   -29.8771     9.6935     9.1585     0.0664    81.3456     9.3104     2.6147
 1788.0000   -29.8702     9.8121     9.2351     0.0687    80.1223     9.3101     2.5884
 1788.5000   -29.8634     9.9307     9.3118     0.0448    81.9572     9.3098     2.5721
 1789.0000   -30.0000    10.0221     9.3146     0.0222    88.0734     9.3094     2.5534
 1789.5000   -29.9926     9.9317     9.3181     0.0067    90.5199     9.3091     2.5444
 1790.0000   -30.1292     9.7991     9.2464     0.0014    91.1315     9.3088     2.5474
 1790.5000   -30.2664     9.8882     9.1754     0.0064    92.3547     9.3085     2.5594
 1791.0000   -30.2579     9.9773     9.1043     0.0205    91.1273     9.3082     2.5668
 1791.5000   -30.2511     9.9614     9.1078     0.0290    88.6585     9.3385     2.5789
 1792.0000   -30.2425     9.7714     8.9636     0.0376    86.2141     9.3688     2.5907
 1792.5000   -30.2357     9.6094     8.8919     0.0435    84.4037     9.3685     2.6010
 1793.0000   -30.2288     9.5064     8.7477     0.0468    86.3787     9.3988     2.5965
 1793.5000   -30.2220     9.3886     8.6028     0.0351    90.0828     9.4290     2.5773
 1794.0000   -30.3586     9.1955     8.5318     0.0302    93.1050     9.4287     2.5625
 1794.5000   -30.4936     9.0942     8.3130     0.0271    94.2701     9.4284     2.5609
 1795.0000   -30.6302     9.0060     8.1688     0.0263    94.1896     9.4281     2.5565
 1795.5000   -30.6234     8.9473     8.0232     0.0264    94.8012     9.4278     2.5470
 1796.0000   -30.7617     8.8591     7.8790     0.0278    90.5603     9.4275     2.5667
 1796.5000   -30.7532     8.7560     7.8080     0.0309    88.0734     9.4272     2.5770
 1797.0000   -30.7460     8.6237     7.6631     0.0366    88.3465     9.4269     2.5799
 1797.5000   -30.8829     8.5355     7.6666     0.0423    90.8158     9.4266     2.5563
 1798.0000   -31.0179     8.4325     7.5949     0.0453    92.3547     9.4569     2.5651
 1798.5000   -31.1545     8.3443     7.5984     0.0365    92.3547     9.4871     2.5680
 1799.0000   -31.1477     8.2857     7.5273     0.0281    93.1478     9.4868     2.5738
 1799.5000   -31.1406     8.2397     7.5303     0.0241    94.4827     9.5171     2.5782
 1800.0000   -30.9888     8.1980     7.5337     0.0253    96.0250     9.5168     2.5900
 1800.5000   -30.4058     8.1541     7.5365     0.0298    96.6396     9.5165     2.5765
 1801.0000   -30.2525     8.1250     7.5393     0.0336    97.8659     9.4856     2.5738
 1801.5000   -30.2410     8.0959     7.5422     0.0347    99.0922     9.4853     2.5838
 1802.0000   -30.2315     8.0963     7.5187     0.0343    97.2604     9.4544     2.5900
 1802.5000   -30.0786     8.1855     7.4694     0.0320    94.8169     9.4541     2.5845
 1803.0000   -29.7819     8.2450     7.4202     0.0283    92.9851     9.4233     2.5672
 1803.5000   -29.6268     8.2749     7.3710     0.0234    91.1533     9.4230     2.5739
 1804.0000   -29.6173     8.2753     7.3407     0.0234    91.7679     9.4227     2.5686
 1804.5000   -29.7513     8.2006     7.3451     0.0243    94.2175     9.4223     2.5726
 1805.0000   -29.7417     8.0990     7.2747     0.0254    96.6670     9.4276     2.5680
 1805.5000   -29.7300     8.0256     7.2791     0.0266    97.8932     9.4584     2.5562
 1806.0000   -29.7197     7.9374     7.2826     0.0278    99.1195     9.4893     2.5489
