~VERSION INFORMATION
 VERS.                2.0:   CWLS LOG ASCII STANDARD - VERSION 2.0
 WRAP.                 NO:   ONE LINE PER DEPTH STEP
~WELL INFORMATION
#MNEM.UNIT      DATA TYPE    INFORMATION
#----------   ------------   ------------------------------
 STRT.F           10.0000:   START DEPTH
 STOP.F         5812.0000:   STOP DEPTH
 STEP.F            0.5000:   STEP LENGTH
 NULL.          -999.2500:   NO VALUE
 COMP. LAWRENCE - ALLSISON:   COMPANY
 WELL. LAWRENCE "X" #11-11:   WELL
 FLD .              NPR 3:   FIELD
 LOC .      S11 T38N R78W:   LOCATION
 CNTY.            NATRONA:   COUNTY
 STAT.            WYOMING:   STATE
 CTRY. UNITED STATES OF AMERICA:   COUNTRY
 SRVC.      DRESSER ATLAS:   SERVICE COMPANY
 DATE.        12-NOV-1982:   LOGDATE
 API .     49025109160000:   API NUMBER
~CURVE INFORMATION
#MNEM.UNIT       API CODE    CURVE DESCRIPTION
#----------   ------------   ------------------------------
 DEPT.F                  :   
 TEND.LBS    45 635 01 00:   TENSION FROM DENSITY LOG
 CALD.IN     45 280 60 00:   CALIPER FROM DENSITY LOG
 CORR.G/C3   45 356 01 00:   DENSITY CORRECTION
 RHOB.G/C3   45 350 01 00:   BULK DENSITY
 CN  .DEC    42 890 03 00:   COMPENSATED NEUTRON POROSITY SANDSTONE
 AC  .US/F   60 520 00 00:   ACOUSTIC
 TENS.LBS    60 635 01 00:   TENSION FROM SONIC
 GRR .GAPI   11 310 01 00:   GAMMA RAY FROM RESISTIVITY
 RD  .OHMM   11 220 10 00:   RESISTIVITY DEEP
 RMLL.OHMM   11 270 04 00:   RESISTIVITY MICROLATEROLOG
 RS  .OHMM   11 220 09 00:   RESISTIVITY SHALLOW
 SPR .MV     11 010 01 00:   SPONTANEOUS POTENTIAL FROM RESISTIVITY
 TENR.LBS    11 635 01 00:   TENSION FROM RESISTIVITY
~PARAMETER INFORMATION
#MNEM.UNIT          VALUE    DESCRIPTION
#----------   ------------   ------------------------------
 EKB .F         5160.0000:   Kelly bushing
 EGL .F         5150.0000:   Ground level
 EDF .F            0.0000:   Drilling floor
 TD  .F         5800.0000:   Total depth
 CLNT.            A2DTECH:   Client Code
 SL  . 660' FNL & 660' FWL:   Surface Location
 PD  .                 GL:   Permanent Datum
 EPD .F              5150:   Elevation Permanent Datum
 LMF .                 KB:   Log Measured From
 DMF .                 KB:   Drilling Measured From
 DAPD.F                10:   Feet Above Permanent Datum
 DATE.        12-NOV-1982:   Date Logged [DD-MMM-YYYY]
 DD  .F              5800:   Depth driller
 DL  .F              5795:   Depth logger
 BLI .F              5702:   Bottom log interval
 TLI .F                 0:   Top log interval
 CS1 .IN            9.625:   Casing size
 CBD1.      9.625" @ 664':   Casing driller 1
 CBL1.F               660:   Casing logger 1
 BS1 .IN             8.75:   Bit size
 BSD1.F              5800:   Depth drilled with bit1
 DFT .                KCL:   Type fluid in hole
 DFD .                8.6:   Density
 DFV .                 45:   Viscosity
 DFPH.                8.5:   pH
 DFL .                7.8:   Fluid loss
 MSS .           FLOWLINE:   Source of sample
 RMS .OHMM           0.32:   Rm
 MST .F                92:   Rm Meas. temp.
 RMF .OHMM           0.26:   Rmf
 MFST.F                90:   Rmf Meas. temp.
 MFSS.               MEAS:   Source Rmf.
 RMB .OHMM           0.19:   Rm. at BHT
 BHT .F               160:   BHT.
 TCS .HRS               3:   Time Circ. stopped
 MRT .F               160:   Maximum recorded temp.
 LUN .               6270:   Logging unit number
 LUL .              WLSTN:   Logging unit location
 ENGI.            QUICKEL:   Recorded By
 WITN.             STRONG:   Witnessed by
 ORIG.        2" 5" PRINT:   Origin of data
 UWI .     49025109160000:   Unique Well ID
 DICO. A2D TECHNIOLOGIES,INC.:   Digitizing Company
 RMC .OHMM           0.40:   Rmc
 MCST.F                92:   Rmc Meas. temp.
 MCSS.               CALC:   Source Rmc.
~OTHER INFORMATION
~A  DEPTH     TEND       CALD       CORR       RHOB         CN         AC       TENS        GRR         RD       RMLL         RS        SPR       TENR
# ...
 3390.0000   -72.7214    10.3409     0.0497     2.5227     0.2851    89.0047   -61.5009   134.3416     5.2118     6.1358     5.3104   -53.9979   -77.5271
 3390.5000   -69.0282    10.3321     0.0572     2.5159     0.2893    88.3305   -57.4165   134.9853     5.3604     6.3105     5.4620   -53.8172   -73.5415
 3391.0000   -69.0831    10.3417     0.0511     2.5107     0.2906    88.1840   -57.0858   138.0278     5.4751     6.4007     5.5411   -53.7865   -69.5559
 3391.5000   -65.3762    10.3422     0.0450     2.5076     0.2894    88.4947   -53.0014   141.0703     5.6312     6.4043     5.6202   -53.6059   -65.5702
 3392.0000   -61.6967    10.3426     0.0495     2.5121     0.2851    89.2732   -52.6708   138.7045     5.5935     6.3963     5.3196   -53.2753   -65.3497
 3392.5000   -54.2554    10.3431     0.0555     2.5144     0.2785    90.1860   -52.3649   139.3592     5.1740     5.9233     5.1048   -53.2446   -68.9006
 3393.0000   -50.5622    10.3286     0.0569     2.5136     0.2759    91.1441   -52.0094   140.6025     4.7752     5.5803     4.8987   -53.3643   -68.6736
 3393.5000   -50.6185    10.3291     0.0463     2.5061     0.2594    92.1289   -55.4430   143.0453     4.5197     5.2811     4.6362   -53.6329   -68.4488
 3394.0000   -46.9239    10.3295     0.0372     2.4978     0.2585    93.1892   -55.1051   145.8111     4.2190     5.0677     4.3273   -53.6012   -71.9975
 3394.5000   -43.2307    10.3299     0.0251     2.4971     0.2624    94.4003   -54.7672   143.4303     4.0766     4.7300     4.1239   -53.8714   -71.7621
 3395.0000   -47.0474    10.3304     0.0190     2.4971     0.2793    94.7807   -54.4295   143.1773     3.9668     4.5389     4.0688   -54.1328   -67.7362
 3395.5000   -50.8505    10.3308     0.0160     2.4956     0.2953    94.1829   -54.0916   144.4317     3.9689     4.4775     4.0705   -54.2520   -67.5156
 3396.0000   -58.4017    10.3462     0.0129     2.4880     0.2956    93.5840   -53.6965   144.1758     4.0538     4.4753     4.1008   -54.3789   -67.2950
 3396.5000   -50.9603    10.3617     0.0068     2.4775     0.2977    92.7589   -53.3657   143.9090     4.1983     4.7364     4.2179   -54.3405   -67.0744
 3397.0000   -47.2671    10.3621     0.0007     2.4722     0.3146    92.3109   -53.0351   145.7631     4.3797     4.9759     4.3383   -54.6096   -70.6741
 3397.5000   -47.3220    10.3625    -0.0053     2.4730     0.3122    92.1644   -52.7044   146.9955     4.5078     5.1507     4.4622   -54.5789   -74.1717
 3398.0000   -47.3770    10.3630    -0.0176     2.4746     0.3005    92.3198   -52.4025   144.0519     4.6640     5.2247     4.6215   -54.5482   -73.9428
 3398.5000   -43.6837    10.3634    -0.0296     2.4782     0.2951    92.3996   -52.0431   143.4852     4.6017     5.2628     4.7206   -54.3622   -73.7199
 3399.0000   -39.4538    10.3638    -0.0356     2.4820     0.3003    92.3286   -51.7124   144.7396     4.5714     5.2646     4.7885   -54.1658   -73.4940
 3399.5000   -32.5492    10.3644    -0.0176     2.4835     0.3030    92.2576   -51.3818   147.7821     4.4797     5.2296     4.7904   -53.8487   -73.2260
 3400.0000   -40.1141    10.3497    -0.0177     2.4752     0.2910    92.1867   -51.0510   146.6267     4.4198     5.1593     4.7923   -53.3682   -76.8256
 3400.5000   -47.6012    10.3503    -0.0238     2.4669     0.2799    92.0403   -54.4636   137.9221     4.4523     5.1254     4.8277   -53.0376   -76.5499
 3401.0000   -55.0975    10.3507    -0.0238     2.4729     0.2856    92.0458   -54.1710   137.1195     4.4541     5.2016     4.8320   -52.8808   -76.2542
 3401.5000   -51.3493    10.3361     0.0013     2.4797     0.2850    91.9737   -53.8786   140.4595     4.5497     5.2763     4.8370   -53.1604   -75.8530
 3402.0000   -43.8531    10.3366     0.0528     2.4721     0.2736    91.7530   -53.5860   136.9023     4.5831     5.2799     4.8421   -53.1394   -75.5593
 3402.5000   -32.6087    10.3371     0.0272     2.4759     0.2786    91.2296   -57.0571   135.1424     4.7138     5.3565     4.8797   -53.1184   -75.2657
 3403.0000   -32.6087    10.3376     0.0120     2.4804     0.2858    91.0067   -60.5105   136.6843     4.8147     5.3594     4.8837   -52.9437   -74.9721
 3403.5000   -28.8606    10.3380     0.0120     2.4849     0.2984    91.2385   -60.2160   140.9235     4.9519     5.3623     4.8877   -52.9232   -78.5170
 3404.0000   -36.3568    10.3385     0.0074     2.4826     0.2984    91.0166   -67.4311   141.2654     4.9903     5.3653     4.8917   -52.9027   -74.3848
 3404.5000   -43.8531    10.3389    -0.0002     2.4774     0.2960    90.8778   -67.0654   142.5146     5.0601     5.2942     4.9307   -53.0372   -70.3262
 3405.0000   -51.3493    10.3393    -0.0063     2.4744     0.2879    90.6555   -63.0192   147.0533     5.0626     5.2978     4.9006   -53.3166   -66.2651
 3405.5000   -55.0975    10.3398    -0.0093     2.4744     0.2825    90.8128   -62.7267   147.3839     5.0297     5.3007     4.9045   -53.8907   -65.9638
 3406.0000   -51.3493    10.3402    -0.0034     2.4698     0.2816    91.1196   -62.4341   144.1367     4.9965     5.3036     4.7742   -54.1709   -65.6069
 3406.5000   -40.1049    10.3407     0.0056     2.4683     0.2753    91.5772   -58.3879   143.2781     4.9298     5.1973     4.6797   -54.4498   -65.3132
 3407.0000   -32.6087    10.3412     0.0116     2.4691     0.2696    92.1103   -58.0955   143.3191     4.8639     5.0579     4.5239   -54.4288   -65.0196
 3407.5000   -43.8531    10.3416     0.0190     2.4683     0.2736    92.3417   -54.0492   145.1591     4.8323     4.9223     4.4035   -54.4078   -64.7260
 3408.0000   -47.6012    10.3719     0.0298     2.4638     0.2929    92.1207   -50.0000   150.5974     4.7683     4.7903     4.2867   -54.3828   -64.4325
 3408.5000   -43.8531    10.3724     0.0415     2.4608     0.3073    91.7179   -49.6997   152.7478     4.7372     4.7597     4.2902   -54.3623   -67.9773
 3409.0000   -36.3568    10.3728     0.0384     2.4608     0.3077    90.0067   -53.1717   152.7782     4.8053     4.7624     4.2938   -54.1919   -67.6102
 3409.5000   -32.6087    10.3733     0.0353     2.4698     0.3038    87.9142   -56.6330   148.3317     4.8407     4.7721     4.3884   -54.0214   -67.3193
 3410.0000   -32.6087    10.3738     0.0308     2.4893     0.2909    87.3915   -56.3063   137.2782     4.8764     4.9022     4.4843   -53.8510   -67.0181
 3410.5000   -32.6087    10.3742     0.0262     2.5059     0.2870    87.2446   -55.9748   136.1198     4.8788     4.9733     4.5506   -53.8305   -66.7169
 3411.0000   -28.8606    10.3746     0.0231     2.5112     0.2828    86.3460   -60.7346   133.7619     4.8808     4.9760     4.5543   -53.8100   -66.3623
 3411.5000   -25.1124    10.3751     0.0201     2.4925     0.2795    85.2941   -62.9704   132.2934     4.8156     4.9443     4.5256   -53.7895   -66.0687
 3412.0000   -21.3643    10.3755     0.0200     2.4570     0.2879    85.6022   -62.6049   134.1437     4.6215     4.8118     4.4360   -53.6191   -62.0101
 3412.5000   -40.1049    10.3759     0.0184     2.4290     0.3012    90.2831   -62.3123   138.6824     3.9154     4.3996     3.9466   -53.2984   -65.5549
 3413.0000   -55.0975    10.3914     0.0018     2.3087     0.3157   104.0892   -62.0120   146.5194     2.9285     2.7861     2.9517   -52.9775   -65.1878
 3413.5000   -58.8456    10.4965    -0.0464     2.1974     0.3521   115.4820   -57.9004   156.8614     1.5600     1.1167     1.3945   -52.5030   -64.9096
 3414.0000   -32.6087    10.6763     0.0002     2.0463     0.3702   124.7632   -57.6079   169.8498     1.3217     0.5510     1.2674   -51.7329   -64.6007
 3414.5000   -10.1199    10.8860     0.1585     2.0320     0.3859   117.7026   -57.3155   171.8297     1.2950     0.4867     1.2787   -51.4126   -64.3069
 3415.0000   -25.8636    11.0209     0.2303     2.0312     0.3922    97.9492   -60.8498   168.5826     1.3804     0.6112     1.3341   -50.7924   -64.0060
 3415.5000   -55.0975    10.8848     0.2212     2.0771     0.3925    88.8072   -60.4842   158.1288     1.7480     0.8843     1.6213   -49.5725   -71.2499
