~VERSION INFORMATION
 VERS.                2.0:   CWLS LOG ASCII STANDARD - VERSION 2.0
 WRAP.                 NO:   ONE LINE PER DEPTH STEP
~WELL INFORMATION
#MNEM.UNIT      DATA TYPE    INFORMATION
#----------   ------------   ------------------------------
 STRT.F          195.5000:   START DEPTH
 STOP.F         3197.0000:   STOP DEPTH
 STEP.F            0.5000:   STEP LENGTH
 NULL.          -999.2500:   NO VALUE
 COMP.    FENIX & SCISSON:   COMPANY
 WELL.  FENIX "AX" #17-11:   WELL
 FLD .              NPR-3:   FIELD
 LOC .      S11 T38N R78W:   LOCATION
 CNTY.            NATRONA:   COUNTY
 STAT.            WYOMING:   STATE
 CTRY. UNITED STATES OF AMERICA:   COUNTRY
 SRVC.              WELEX:   SERVICE COMPANY
 DATE.        16-SEP-1977:   LOGDATE
 API .     49025104170000:   API NUMBER
~CURVE INFORMATION
#MNEM.UNIT       API CODE    CURVE DESCRIPTION
#----------   ------------   ------------------------------
 DEPT.F                  :   
 GRD .GAPI   45 310 01 00:   GAMMA RAY FROM DENSITY LOG
 CALD.IN     45 280 60 00:   CALIPER FROM DENSITY LOG
 CORR.G/C3   45 356 01 00:   DENSITY CORRECTION
 TEND.LBS    45 635 01 00:   TENSION FORM DENSITY LOG
 RHOB.G/C3   45 350 01 00:   BULK DENSITY
 SPR .MV     07 010 01 00:   SPONTANEOUS POTENTIAL
 TENR.LBS    07 635 01 00:   TENSION FROM RESISTIVITY
 ILD .OHMM   07 120 46 00:   DEEP INDUCTION RESISTIVITY
 ILM .OHMM   07 120 44 00:   INDUCTION LOG MEDIUM RESISTIVITY
 SGRD.OHMM   07 220 05 00:   SHALLOW SHORT GUARD RESISTIVITY
~PARAMETER INFORMATION
#MNEM.UNIT          VALUE    DESCRIPTION
#----------   ------------   ------------------------------
 EKB .F         5212.0000:   Kelly bushing
 EGL .F         5202.0000:   Ground level
 TD  .F         3195.0000:   Total depth
 CLNT.            A2DTECH:   Client Code
 SL  . 1090' FSL & 330' FWL:   Surface Location
 PD  .                 GL:   Permanent Datum
 EPD .F              5202:   Elevation Permanent Datum
 LMF .                 KB:   Log Measured From
 DMF .                 KB:   Drilling Measured From
 DAPD.F                10:   Feet Above Permanent Datum
 DATE.        16-SEP-1977:   Date Logged [DD-MMM-YYYY]
 DD  .F              3195:   Depth driller
 DL  .F              3195:   Depth logger
 BLI .F              3193:   Bottom log interval
 TLI .F               217:   Top log interval
 CS1 .IN            8.625:   Casing size
 CBD1.      8.625" @ 216':   Casing driller 1
 CBL1.F               217:   Casing logger 1
 BS1 .IN            7.875:   Bit size
 BSD1.F              3195:   Depth drilled with bit1
 DFT .            KCL MUD:   Type fluid in hole
 DFD .                9.2:   Density
 DFV .                 36:   Viscosity
 DFPH.                 11:   pH
 DFL .                8.8:   Fluid loss
 MSS .           FLOWLINE:   Source of sample
 RMS .OHMM           2.76:   Rm
 MST .F                99:   Rm Meas. temp.
 RMF .OHMM           1.54:   Rmf
 MFST.F                99:   Rmf Meas. temp.
 MFSS.               MEAS:   Source Rmf.
 RMC .OHMM           3.01:   Rmc
 MCST.F                99:   Rmc Meas. temp.
 MCSS.               MEAS:   Source Rmc.
 RMB .OHMM           2.40:   Rm. at BHT
 BHT .F               112:   BHT.
 TCS .HRS               6:   Time Circ. stopped
 MRT .F               112:   Maximum recorded temp.
 LUN .               8611:   Logging unit number
 LUL .             CASPER:   Logging unit location
 ENGI.          D. LAWSON:   Recorded By
 WITN.         HARRINGTON:   Witnessed by
 ORIG.           5" PRINT:   Origin of data
 UWI .     49025104170000:   Unique Well ID
 DICO. A2D TECHNOLOGIES, INC.:   Digitizing Company
~OTHER INFORMATION
~A   DEPT       GRD      CALD       CORR       TEND       RHOB        SPR       TENR        ILD        ILM       SGRD   
# ...
  999.5000    91.1186    10.9178     0.0128  1331.4370     2.4869   -69.9902  1137.4353     6.9588     7.7225     8.9485
 1000.0000    97.4359    10.9170     0.0127  1332.4082     2.4834   -69.9240  1137.7245     6.9101     7.6159     8.9461
 1000.5000   102.9299    10.9161     0.0126  1333.2843     2.4824   -69.7043  1138.4731     6.8618     7.4589     8.9040
 1001.0000   104.0374    10.9152     0.0125  1334.1317     2.4869   -69.7121  1139.3531     6.8614     7.5109     8.8191
 1001.5000   101.9039    10.9143     0.0129  1330.1807     2.4921   -69.7208  1140.0768     6.8609     7.4073     8.7564
 1002.0000    98.8698    10.9134     0.0183  1320.9420     2.5003   -69.7281  1140.8007     6.9084     7.4073     8.7627
 1002.5000    96.1374    10.9276     0.0198  1336.8263     2.5078   -69.7355  1141.5244     6.9078     7.4073     8.8138
 1003.0000    94.0083    10.9267     0.0227  1322.6940     2.5130   -69.7428  1142.2482     6.9061     7.5109     8.8115
 1003.5000    92.4825    10.9409     0.0226  1338.7588     2.5167   -69.7501  1142.9720     6.8590     7.6159     8.8098
 1004.0000    92.4646    10.9549     0.0223  1339.6348     2.5144   -69.7576  1143.7126     6.9064     7.7225     8.8697
 1004.5000    93.6497    10.9579     0.0178  1340.5107     2.5070   -69.7666  1144.6005     6.9058     7.7790     8.9292
 1005.0000    94.8432    10.9835     0.0177  1341.3867     2.5002   -69.7739  1145.3242     6.9054     7.8305     8.9895
 1005.5000    95.1274    10.9976     0.0162  1342.2626     2.4942   -69.7803  1146.0480     6.9049     7.9401     9.0175
 1006.0000    92.6922    11.0118     0.0161  1343.1385     2.4912   -69.7886  1146.7719     6.9044     7.7225     8.9817
 1006.5000    91.4681    11.0259     0.0160  1329.0420     2.4919   -69.7959  1147.4956     6.9040     7.5109     8.8599
 1007.0000    90.5456    11.0273     0.0174  1329.9402     2.4957   -69.8030  1148.2192     6.9035     7.3051     8.6757
 1007.5000    90.2265    11.0544     0.0218  1330.8384     2.4988   -69.8106  1148.9521     6.9030     7.2043     8.6140
 1008.0000    91.7129    11.0686     0.0232  1346.8613     2.5016   -69.8182  1149.7007     6.8547     7.3051     8.4936
 1008.5000    92.6047    11.0868     0.0231  1347.7373     2.4979   -69.8271  1150.5717     6.7597     7.4073     8.4919
 1009.0000    92.5829    11.1121     0.0229  1348.6132     2.4964   -69.8333  1151.1978     6.6659     7.5109     8.4902
 1009.5000    92.5654    11.1263     0.0184  1334.3002     2.4963   -69.8409  1152.0192     6.5735     7.6159     8.4298
 1010.0000    93.4572    11.1403     0.0153  1350.1921     2.4933   -69.8491  1152.7429     6.5276     7.7225     8.4281
 1010.5000    93.1337    11.1695     0.0152  1350.4615     2.4918   -69.8564  1153.4667     6.5272     7.7225     8.3681
 1011.0000    93.4198    11.1685     0.0147  1350.7311     2.4979   -69.8636  1154.1918     6.4815     7.7225     8.3660
 1011.5000    94.6496    11.1828     0.0134  1336.2968     2.5030   -69.8712  1154.9403     6.3875     7.5109     8.3646
 1012.0000    95.7961    11.1818     0.0123  1334.7327     2.4993   -69.8788  1155.8190     6.3030     7.2545     8.4213
 1012.5000    95.4726    11.1809     0.0122  1322.9790     2.4955   -69.8876  1156.4373     6.2589     6.8624     8.5367
 1013.0000    94.8517    11.1649     0.0121  1323.8025     2.4955   -69.8949  1157.2665     6.2152     6.7209     8.5948
 1013.5000    94.8342    11.1641     0.0105  1324.6259     2.4955   -69.9015  1157.9904     6.2582     6.7748     8.6529
 1014.0000    95.4244    11.1632     0.0088  1325.5116     2.4865   -69.9091  1158.7141     6.3014     6.9102     8.6507
 1014.5000    96.6092    11.1623     0.0043  1326.3087     2.4773   -69.9169  1159.4377     6.3449     7.1049     8.6490
 1015.0000    97.5264    11.1614     0.0028  1312.1257     2.4700   -69.9242  1160.1797     6.3886     7.3051     8.6472
 1015.5000    97.1731    11.1605     0.0027  1327.9192     2.4752   -69.9318  1161.0663     6.5226     7.6159     8.7055
 1016.0000    95.6473    11.1595     0.0056  1343.8694     2.4857   -69.9394  1161.7902     6.7060     7.7225     8.8250
 1016.5000    93.5182    11.1586     0.0115  1359.6366     2.5036   -69.9470  1162.5139     6.8943     7.7225     8.8232
 1017.0000    91.9924    11.1578     0.0189  1360.3292     2.5148   -69.9554  1163.2377     7.0881     7.6159     8.8215
 1017.5000    91.0699    11.1569     0.0219  1361.2307     2.5157   -69.9621  1163.9614     7.2368     7.7225     8.8197
 1018.0000    90.7508    11.1560     0.0186  1361.9761     2.5095   -69.9701  1164.6852     7.3887     8.1072     8.8179
 1018.5000    90.4314    11.1551     0.0142  1369.3236     2.5036   -69.9774  1165.4193     7.5438     8.3938     8.8775
 1019.0000    91.6164    11.1389     0.0126  1378.5928     2.4998   -69.9848  1166.3137     7.7021     8.5112     9.0749
 1019.5000    93.4088    11.1380     0.0140  1380.0883     2.4983   -69.9939  1167.0375     7.8645     8.6302     9.3797
 1020.0000    92.7880    11.1221     0.0169  1395.3557     2.4998   -70.0000  1167.7612     7.9732     8.7510     9.5749
 1020.5000    89.4523    11.1212     0.0199  1396.0330     2.5013   -70.0086  1168.4850     8.1406     8.8734     9.5730
 1021.0000    88.2281    11.1203     0.0198  1381.7806     2.5020   -70.0159  1169.2087     8.1399     8.8734     9.5711
 1021.5000    89.7189    11.1194     0.0197  1382.7096     2.5005   -70.0227  1169.9326     8.1393     8.6894     9.5691
 1022.0000    92.7262    11.1186     0.0196  1383.5741     2.4982   -70.0303  1170.6588     8.0265     8.3783     9.5011
 1022.5000    93.9071    11.1326     0.0200  1384.4377     2.4960   -70.0379  1171.4072     7.9704     8.1638     9.4335
 1023.0000    91.4720    11.1317     0.0209  1370.2096     2.4982   -70.0455  1172.2848     7.8599     8.2207     9.3664
 1023.5000    89.9462    11.1308     0.0224  1356.0253     2.5064   -70.0544  1172.9043     7.6973     8.3938     9.3272
 1024.0000    89.6270    11.1299     0.0223  1341.8524     2.5169   -70.0617  1173.7323     7.4810     8.6302     9.2974
 1024.5000    90.8162    11.0974     0.0236  1357.6859     2.5259   -70.0682  1174.4562     7.2802     8.6904     9.2956
 1025.0000    93.5136    11.0980     0.0251  1343.5630     2.5348   -70.0764  1175.1799     7.2673     8.7510     9.2937
 1025.5000    95.3061    11.1270     0.0265  1344.3862     2.5341   -69.7788  1175.9036     7.1127     8.8120     9.3565
 1026.0000    94.3186    11.1105     0.0264  1345.2401     2.5355   -69.7879  1176.6469     7.0792     8.8120     9.4197
 1026.5000    91.3451    11.0945     0.0249  1346.1702     2.5400   -69.7954  1177.5322     7.0787     8.8120     9.4833
 1027.0000    90.1210    11.1083     0.0278  1346.8564     2.5438   -69.6511  1178.2560     7.0782     8.8120     9.5474
 1027.5000    89.8018    11.1071     0.0322  1347.6797     2.5475   -69.6603  1178.9797     7.1271     8.7510     9.6844
 1028.0000    90.6893    11.1059     0.0336  1348.5029     2.5485   -69.5143  1179.7035     7.2264     8.6302     9.8120
 1028.5000    90.9778    11.1047     0.0305  1349.4249     2.5422   -69.5235  1180.4274     7.2762     8.3938     9.8095
 1029.0000    90.6543    11.1186     0.0275  1350.1498     2.5298   -69.5308  1181.1510     7.3775     8.0511     9.6056
 1029.5000    90.3156    11.1171     0.0244  1351.0194     2.5152   -69.5381  1181.8864     7.3218     7.8851     9.4713
 1030.0000    89.7099    11.1009     0.0213  1351.8164     2.5092   -69.5455  1182.7795     7.2242     7.8305     9.2744
 1030.5000    89.9985    11.0695     0.0212  1356.4812     2.5069   -69.5530  1183.5032     7.1241     7.8305     9.1448
 1031.0000    91.1832    11.0685     0.0211  1368.4131     2.5069   -69.5620  1184.2271     7.0743     7.9401     9.0170
 1031.5000    92.6740    11.0604     0.0216  1369.2365     2.5107   -69.5693  1184.9509     7.0738     8.0511     8.8900
 1032.0000    93.8631    11.0510     0.0240  1385.1443     2.5151   -69.5766  1170.5236     7.0733     8.2207     8.7932
 1032.5000    94.4490    11.0196     0.0239  1385.9413     2.5190   -69.5839  1156.4373     7.0729     8.5112     8.7646
