~VERSION INFORMATION
 VERS.                2.0:   CWLS LOG ASCII STANDARD - VERSION 2.0
 WRAP.                 NO:   ONE LINE PER DEPTH STEP
~WELL INFORMATION
#MNEM.UNIT      DATA TYPE    INFORMATION
#----------   ------------   ------------------------------
 STRT.F           11.0000:   START DEPTH
 STOP.F         3368.0000:   STOP DEPTH
 STEP.F            0.5000:   STEP LENGTH
 NULL.          -999.2500:   NO VALUE
 COMP. LAWRENCE ALLISON AND ASSOC.:   COMPANY
 WELL. LAWRENCE NPR "AX" #3-11:   WELL
 FLD .                NPR:   FIELD
 LOC .      S11 T38N R78W:   LOCATION
 CNTY.            NATRONA:   COUNTY
 STAT.            WYOMING:   STATE
 CTRY. UNITED STATES OF AMERICA:   COUNTRY
 SRVC.      DRESSER ATLAS:   SERVICE COMPANY
 DATE.        17-JAN-1986:   LOGDATE
 API .     49025110540000:   API NUMBER
~CURVE INFORMATION
#MNEM.UNIT       API CODE    CURVE DESCRIPTION
#----------   ------------   ------------------------------
 DEPT.F                  :   
 TEND.LBS    45 635 01 00:   TENSION FROM DENSITY LOG
 DEN .G/C3   45 350 01 00:   BULK DENSITY
 CORR.G/C3   45 356 01 00:   DENSITY CORRECTION
 CNC .DEC    42 890 03 00:   NEUTRON PORISITY SANDSTONE
 TENR.LBS    07 635 01 00:   TENSION FROM RESISTIVITY
 CALR.IN     07 280 01 00:   CALIPER FROM RESISTIVITY
 SPR .MV     07 010 01 00:   SPONTANEOUS POTENTIAL
 GRR .GAPI   07 310 01 00:   GAMMA RAY FROM RESISTIVITY
 RFOC.OHMM   07 220 04 00:   RESISTIVITY FOCUSED LOG RES.
 RILD.OHMM   07 120 46 00:   INDUCTION LOG DEEP RESISTIVITY
 RILM.OHMM   07 120 44 00:   INDUCTION LOG MEDIUM RESISTIVITY
 TENS.LBS    60 635 01 00:   TENSION FROM SONIC
 AC  .US/F   60 250 00 00:   ACCOUSTIC
~PARAMETER INFORMATION
#MNEM.UNIT          VALUE    DESCRIPTION
#----------   ------------   ------------------------------
 EKB .F         5195.5000:   Kelly bushing
 EGL .F         5183.2000:   Ground level
 EDF .F         5194.5000:   Drilling floor
 TD  .F         3360.0000:   Total depth
 DATE.        17-JAN-1986:   Date logged
 CLNT.            A2DTECH:   Client Code
 SL  . 2389' FSL & 461'FWL:   Surface Location
 PD  .                 GL:   Permanent Datum
 EPD .F            5183.2:   Elevation Permanent Datum
 LMF .                 KB:   Log Measured From
 DMF .                 KB:   Drilling Measured From
 DAPD.F              12.3:   Feet Above Permanent Datum
 DD  .F              3360:   Depth driller
 DL  .F              3358:   Depth logger
 BLI .F              3356:   Bottom log interval
 TLI .F               575:   Top log interval
 CS1 .IN            8.625:   Casing size
 CBD1.      8.625" @ 575':   Casing driller 1
 CBL1.F               575:   Casing logger 1
 BS1 .IN            7.875:   Bit size
 BSD1.F              3360:   Depth drilled with bit1
 DFT .        POLYMER-KCL:   Type fluid in hole
 DFD .                  9:   Density
 DFV .                 36:   Viscosity
 DFPH.                  9:   pH
 DFL .                9.5:   Fluid loss
 MSS .           FLOWLINE:   Source of sample
 RMS .OHMM           .633:   Rm
 MST .F                68:   Rm Meas. temp.
 RMF .OHMM           .475:   Rmf
 MFST.F                68:   Rmf Meas. temp.
 RMC .OHMM           .791:   Rmc
 MCST.F                68:   Rmc Meas. temp.
 RMB .OHMM            .44:   Rm. at BHT
 BHT .F                98:   BHT.
 TCS .HRS               4:   Time Circ. stopped
 MRT .F                98:   Maximum recorded temp.
 LUN .               6264:   Logging unit number
 LUL .               GLTE:   Logging unit location
 ENGI.             MILLER:   Recorded By
 WITN.             STRONG:   Witnessed by
 ORIG.        2" 5" PRINT:   Origin of data
 UWI .     49025110540000:   Unique Well ID
 DICO. A2D TECHNOLOGIES, INC.:   Digitizing Company
~OTHER INFORMATION
~A   DEPT     TEND        DEN       CORR        CNC       TENR       CALR        SPR         GRR      RFOC       RILD       RILM       TENS         AC   
# ...
 2247.0000  -999.2500  -999.2500  -999.2500  -999.2500  -117.8030     9.3850   -52.2810   115.1240     8.0580     5.7670     5.9680   -93.9710    94.9810
 2247.5000  -999.2500  -999.2500  -999.2500  -999.2500  -117.0080     9.3890   -52.2790   119.1430     7.7610     5.9230     6.1100   -94.1940    93.9500
 2248.0000  -999.2500  -999.2500  -999.2500  -999.2500  -116.2130     9.3930   -52.1720   121.9530     7.4620     6.0800     6.2520   -94.4170    94.4690
 2248.5000  -999.2500  -999.2500  -999.2500  -999.2500  -115.4180     9.3960   -51.4990   122.8580     7.1470     6.2360     6.3940   -94.6890    95.1200
 2249.0000  -999.2500  -999.2500  -999.2500  -999.2500  -115.7470     9.4000   -50.8200   125.4250     7.5800     6.3390     6.5170   -94.1750    95.7700
 2249.5000  -999.2500  -999.2500  -999.2500  -999.2500  -123.3350     9.4000   -50.1390   126.4580     8.0740     6.2850     6.5540   -93.5140    96.2500
 2250.0000  -999.2500  -999.2500  -999.2500  -999.2500  -130.9220     9.3920   -50.6320   123.9460     8.5170     6.2230     6.5940   -92.8520    95.5750
 2250.5000  -999.2500  -999.2500  -999.2500  -999.2500  -129.9000     9.3840   -51.2210   121.1740     8.2550     6.2800     6.6340   -92.1910    95.0400
 2251.0000  -999.2500  -999.2500  -999.2500  -999.2500  -120.0200     9.3760   -51.8100   121.2700     8.0580     6.3950     6.6790   -91.5300    94.5060
 2251.5000  -999.2500  -999.2500  -999.2500  -999.2500  -118.5540     9.3680   -52.3960   122.4580     8.0580     6.4730     6.7250   -90.8680    93.9710
 2252.0000  -999.2500  -999.2500  -999.2500  -999.2500  -126.7870     9.3590   -52.9780   122.7130     8.2340     6.5320     6.7710   -90.2070    93.5500
 2252.5000  -999.2500  -999.2500  -999.2500  -999.2500  -134.7700     9.3510   -53.2330   122.5880     8.3610     6.5920     6.8170   -89.5460    93.7100
 2253.0000  -999.2500  -999.2500  -999.2500  -999.2500  -124.5890     9.3430   -53.4220   122.4260     8.2080     6.7000     6.9400   -88.8840    93.9080
 2253.5000  -999.2500  -999.2500  -999.2500  -999.2500  -114.7290     9.3350   -53.6100   124.0820     8.1010     6.8210     7.0790   -88.2230    94.1340
 2254.0000  -999.2500  -999.2500  -999.2500  -999.2500  -114.7290     9.3270   -53.8010   127.2100     8.0580     6.9400     7.2170   -87.5620    94.3600
 2254.5000  -999.2500  -999.2500  -999.2500  -999.2500  -114.7290     9.3190   -53.9840   129.5270     8.5620     7.0600     7.3560   -86.9000    94.5500
 2255.0000  -999.2500  -999.2500  -999.2500  -999.2500  -114.7290     9.3110   -54.2260   130.2060     9.0020     7.1790     7.4950   -86.2390    94.5500
 2255.5000  -999.2500  -999.2500  -999.2500  -999.2500  -114.7290     9.3020   -54.0460   129.1250     9.3760     7.2990     7.6340   -85.5780    94.5500
 2256.0000  -999.2500  -999.2500  -999.2500  -999.2500  -114.7290     9.2940   -53.8790   122.1740     9.8720     7.4850     7.8380   -84.9160    94.3450
 2256.5000  -999.2500  -999.2500  -999.2500  -999.2500  -114.7290     9.2860   -53.7150   115.9550     9.7400     7.4160     7.7160   -83.1160    94.1650
 2257.0000  -999.2500  -999.2500  -999.2500  -999.2500  -114.7290     9.2920   -53.5510   114.7720     9.5140     7.2790     7.5590   -80.6360    93.9850
 2257.5000  -999.2500  -999.2500  -999.2500  -999.2500  -114.7290     9.3030   -53.1200   118.5950     9.1830     7.1290     7.4160   -78.1560    93.8050
 2258.0000  -999.2500  -999.2500  -999.2500  -999.2500  -114.7290     9.3140   -52.4170   124.0210     8.8650     6.8530     7.0370   -75.6760    93.6250
 2258.5000  -999.2500  -999.2500  -999.2500  -999.2500  -114.7290     9.3250   -51.7160   125.9590     8.5480     6.5190     6.6910   -73.1960    93.7370
 2259.0000  -999.2500  -999.2500  -999.2500  -999.2500  -113.5810     9.3360   -51.0140   125.1910     8.1440     6.1850     6.3440   -70.7160    94.0570
 2259.5000  -999.2500  -999.2500  -999.2500  -999.2500  -112.2460     9.3480   -50.3100   122.8190     7.6120     5.9710     5.9970   -68.2360    94.3770
 2260.0000  -999.2500  -999.2500  -999.2500  -999.2500  -110.9110     9.3590   -49.6080   119.7940     7.0320     5.9100     5.7270   -65.7570    94.6970
 2260.5000  -999.2500  -999.2500  -999.2500  -999.2500  -109.5760     9.3600   -48.9080   115.9740     6.4530     5.8500     5.8100   -65.5310    95.0170
 2261.0000  -999.2500  -999.2500  -999.2500  -999.2500  -108.2410     9.3560   -48.0920   112.9690     5.8880     5.7890     5.8780   -67.1840    95.3370
 2261.5000  -999.2500  -999.2500  -999.2500  -999.2500  -106.9060     9.3520   -48.0980   113.0070     6.8340     5.7270     5.9460   -68.8380    95.6500
 2262.0000  -999.2500  -999.2500  -999.2500  -999.2500  -105.5710     9.3480   -48.6430   117.4190     7.7870     5.8150     6.0140   -70.4910    95.2210
 2262.5000  -999.2500  -999.2500  -999.2500  -999.2500  -104.9640     9.3440   -49.1920   121.1500     8.6030     5.9040     6.0820   -72.1440    94.5830
 2263.0000  -999.2500  -999.2500  -999.2500  -999.2500  -105.6790     9.3650   -49.7620   122.4050     8.6460     5.9930     6.1500   -73.7980    93.9450
 2263.5000  -999.2500  -999.2500  -999.2500  -999.2500  -106.3950     9.3880   -49.9740   120.2640     8.6760     6.0530     6.2230   -75.4510    93.3070
 2264.0000  -999.2500  -999.2500  -999.2500  -999.2500  -107.1110     9.4110   -50.0820   117.8560     8.3760     6.0530     6.0020   -77.1040    92.6500
 2264.5000  -999.2500  -999.2500  -999.2500  -999.2500  -107.8270     9.4340   -50.1870   118.5270     7.8010     5.7880     5.7720   -78.7580    92.5500
 2265.0000  -999.2500  -999.2500  -999.2500  -999.2500  -108.5430     9.4570   -50.2900   120.3610     7.2270     5.4960     5.5430   -80.4110    93.0820
 2265.5000  -999.2500  -999.2500  -999.2500  -999.2500  -109.2590     9.4800   -50.3930   118.4740     6.6520     5.2040     5.3590   -82.0640    93.6360
 2266.0000  -999.2500  -999.2500  -999.2500  -999.2500  -109.9750     9.5020   -50.5350   115.1380     6.2710     4.9870     5.1960   -83.7170    94.0970
 2266.5000  -999.2500  -999.2500  -999.2500  -999.2500  -110.6910     9.4940   -50.6020   112.9670     5.9430     4.8720     5.0330   -84.8100    94.4370
 2267.0000  -999.2500  -999.2500  -999.2500  -999.2500  -111.4070     9.4810   -50.4840   115.4670     6.0190     4.7360     4.8690   -85.1400    94.7760
 2267.5000  -999.2500  -999.2500  -999.2500  -999.2500  -112.1230     9.4670   -50.3570   117.8630     6.1090     4.5470     4.6750   -85.4710    95.1500
 2268.0000  -999.2500  -999.2500  -999.2500  -999.2500  -112.8390     9.4620   -50.2270   120.2590     5.8400     4.5730     4.7220   -85.8020    95.3500
 2268.5000  -999.2500  -999.2500  -999.2500  -999.2500  -113.5550     9.4620   -50.1120   121.4510     5.5710     4.6380     4.8390   -86.1320    95.2310
 2269.0000  -999.2500  -999.2500  -999.2500  -999.2500  -114.2710     9.4620   -50.4150   120.4450     5.5710     4.7180     4.9560   -86.4630    95.1820
 2269.5000  -999.2500  -999.2500  -999.2500  -999.2500  -114.7290     9.4620   -50.7430   117.2250     5.7170     4.6950     5.1270   -86.7940    95.1140
 2270.0000  -999.2500  -999.2500  -999.2500  -999.2500  -114.7290     9.4620   -50.6880   114.0090     6.3290     4.6530     5.0380   -87.1240    94.9630
 2270.5000  -999.2500  -999.2500  -999.2500  -999.2500  -114.7290     9.4620   -50.3280   113.4170     7.2330     4.6110     4.8750   -87.4550    94.7150
 2271.0000  -999.2500  -999.2500  -999.2500  -999.2500  -114.7290     9.4620   -49.9670   115.3470     7.4850     4.5690     4.7120   -87.7860    94.2860
 2271.5000  -999.2500  -999.2500  -999.2500  -999.2500  -114.7290     9.4620   -49.6040   118.1350     6.9830     4.5050     4.6110   -88.1160    93.4940
 2272.0000  -999.2500  -999.2500  -999.2500  -999.2500  -114.7290     9.4620   -49.2410   117.0730     6.1250     4.5360     4.5890   -88.4470    92.5500
 2272.5000  -999.2500  -999.2500  -999.2500  -999.2500  -114.7290     9.4620   -48.8810   115.1340     4.8060     4.6000     4.7380   -88.7780    93.0420
