~VERSION INFORMATION
 VERS.                2.0:   CWLS LOG ASCII STANDARD - VERSION 2.0
 WRAP.                 NO:   ONE LINE PER DEPTH STEP
~WELL INFORMATION
#MNEM.UNIT      DATA TYPE    INFORMATION
#----------   ------------   ------------------------------
 STRT.F          205.0000:   START DEPTH
 STOP.F         3171.5000:   STOP DEPTH
 STEP.F            0.5000:   STEP LENGTH
 NULL.          -999.2500:   NO VALUE
 COMP.    FENIX & SCISSON:   COMPANY
 WELL. FENIX & SCISSON  "AX" #27-28:   WELL
 FLD .              NPR 3:   FIELD
 LOC .      S28 T39N R78W:   LOCATION
 CNTY.            NATRONA:   COUNTY
 STAT.            WYOMING:   STATE
 CTRY. UNITED STATES OF AMERICA:   COUNTRY
 SRVC.       SCHLUMBERGER:   SERVICE COMPANY
 DATE.        30-MAY-1977:   LOGDATE
 API .     49025103870000:   API NUMBER
~CURVE INFORMATION
#MNEM.UNIT       API CODE    CURVE DESCRIPTION
#----------   ------------   ------------------------------
 DEPT.F                  :   
 NPHI.DEC    42 890 03 00:   NEUTRON POROSITY SANDSTONE
 CALD.IN     45 280 60 00:   CALIPER FROM DENSITY LOG
 GRD .GAPI   45 310 01 00:   GAMMA RAY FROM DENSITY LOG
 RHOB.G/C3   45 350 01 00:   BULK DENSITY
 CORR.G/C3   45 356 01 00:   DENSITY CORRECTION
 SPR .MV     11 010 01 00:   SPONTANEOUS POTENTIAL
 MSFL.OHMM   11 270 04 00:   MICRO SPHERICALLY FOCUSED RES.
 LLD .OHMM   11 220 10 00:   LATEROLOG LOG DEEP
 LLS .OHMM   11 220 09 00:   LATEROLOG LOG SHALLOW
~PARAMETER INFORMATION
#MNEM.UNIT          VALUE    DESCRIPTION
#----------   ------------   ------------------------------
 EKB .F         5094.0000:   Kelly bushing
 EGL .F         5084.0000:   Ground level
 EDF .F            0.0000:   Drilling floor
 EPD .F            0.0000:   Permanent datum
 TD  .F         3169.0000:   Total depth
 DATE.        30-MAY-1977:   Date logged
 CLNT.            A2DTECH:   Client Code
 SL  . 1266' FSL & 871' FWL:   Surface Location
 PD  .                 GL:   Permanent Datum
 DD  .F              3163:   Depth driller
 DL  .F              3169:   Depth logger
 BLI .F              3168:   Bottom log interval
 CS1 .IN            8.625:   Casing size
 CBD1.      8.625" @ 210':   Casing driller 1
 CBL1.F               219:   Casing logger 1
 BS1 .IN            7.875:   Bit size
 DFT .           SALT/MUD:   Type fluid in hole
 DFD .                8.9:   Density
 DFV .                 32:   Viscosity
 DFPH.                8.5:   pH
 DFL .                5.8:   Fluid loss
 MSS .                PIT:   Source of sample
 RMS .OHMM           .194:   Rm
 MST .F                65:   Rm Meas. temp.
 RMF .OHMM           .165:   Rmf
 MFST.F                65:   Rmf Meas. temp.
 MFSS.               MEAS:   Source Rmf.
 RMB .OHMM           .107:   Rm. at BHT
 BHT .F               118:   BHT.
 MRT .F               118:   Maximum recorded temp.
 LUN .               5642:   Logging unit number
 LUL .               CSPR:   Logging unit location
 ENGI.             MARTIN:   Recorded By
 WITN.         PETTINGILL:   Witnessed by
 ORIG.           5" PRINT:   Origin of data
 UWI .     49025103870000:   Unique Well ID
 DICO. A2D TECHNOLOGIES, INC.:   Digitizing Company
 DAPD.F                10:   Feet Above Permanent Datum
 BSD1.F              3163:   Depth drilled with bit1
 TLI .F               219:   Top log interval
 TLAB.HRS            0930:   Time logger at bottom
~OTHER INFORMATION
~A   DEPT     NPHI         CALD      GRD         RHOB      CORR       SPR       MSFL        LLD        LLS   
# ...
 2723.5000     0.2113     8.6578   139.6540     2.5981     0.0476   -77.5310    17.2422    11.6249    13.6566
 2724.0000     0.2172     8.6602   139.6500     2.6211     0.0965   -77.1376    17.2386    11.4115    13.1621
 2724.5000     0.2250     8.6625   138.0525     2.5901     0.0785   -76.9425    20.6965    10.5992    12.4542
 2725.0000     0.2327     8.6649   134.8606     2.6031     0.0875   -76.7474    21.8625    11.1524    12.9168
 2725.5000     0.2351     8.6672   130.8727     2.6200     0.1074   -76.7506    23.3027    12.6793    14.4181
 2726.0000     0.2132     8.6695   127.6815     2.6170     0.1074   -76.7538    21.2614    13.7145    16.0087
 2726.5000     0.1935     8.6719   125.2872     2.5841     0.0685   -76.7570    19.3974    15.3674    17.4770
 2727.0000     0.1830     8.6742   123.6897     2.5691     0.0824   -76.7602    17.6968    15.2251    17.9620
 2727.5000     0.1809     8.6765   122.8889     2.5771     0.0694   -76.7634    15.8518    13.7600    18.4612
 2728.0000     0.1841     8.6781   122.4865     2.6010     0.0764   -76.7660    15.8485    13.0200    18.7971
 2728.5000     0.1859     8.6779   121.2874     2.5751     0.0883   -77.1647    15.9917    12.7805    18.7963
 2729.0000     0.1877     8.6578   118.0979     2.5771     0.0873   -77.5644    17.5212    14.0058    28.9240
 2729.5000     0.1855     8.6577   115.3051     2.5960     0.0743   -77.7659    42.1339    16.3951    29.7279
 2730.0000     0.1759     8.6575   110.5180     2.6079     0.0633   -77.9686    59.1833    21.1317    29.9995
 2730.5000     0.1595     8.6693   110.5141     2.6189     0.0763   -77.9705    53.0172    28.1231    30.5426
 2731.0000     0.1570     8.6812   116.8852     2.5950     0.0733   -78.3703    39.5443    29.1688    30.2635
 2731.5000     0.1699     8.6930   131.2233     2.5640     0.0414   -78.5717    14.4408    15.9615    20.2469
 2732.0000     0.1926     8.7048   143.1719     2.5441     0.0488   -78.9714     9.3036    10.4291    13.5456
 2732.5000     0.2230     8.7166   171.0578     2.5361     0.0702   -79.1729     8.6452     6.3089     9.0623
 2733.0000     0.2505     8.7284   177.8265     2.5301     0.0443   -79.1761     8.8841     5.4439     6.4676
 2733.5000     0.3165     8.7403   184.1944     2.5261     0.0453   -79.1792     8.7212     5.3816     6.4658
 2734.0000     0.3264     8.7553   183.8570     2.5261     0.0343   -79.1824     8.7996     5.4301     6.5848
 2734.5000     0.3245     8.7552   183.5196     2.5410     0.0582   -79.5821     8.7986     5.6321     6.6444
 2735.0000     0.3218     8.7551   183.1821     2.5599     0.0662   -79.5853     8.6365     5.6309     6.6425
 2735.5000     0.3269     8.7549   182.8447     2.5519     0.0592   -79.5884     8.6348     5.4769     6.6415
 2736.0000     0.3331     8.7547   182.5073     2.5430     0.0731   -79.5916     8.9550     5.4758     6.6401
 2736.5000     0.3385     8.7744   182.1699     2.5370     0.0611   -79.7930     9.1186     5.5252     6.6388
 2737.0000     0.3468     8.7742   181.7762     2.5330     0.0352   -79.7962     9.5437     5.6264     6.5165
 2737.5000     0.3510     8.7740   181.3747     2.5280     0.0432   -79.8000     9.9887     5.6772     6.5157
 2738.0000     0.3521     8.7937   180.9723     2.5619     0.0601   -79.8038     9.8047     5.7284     6.3956
 2738.5000     0.3372     8.7935   180.1715     2.5708     0.0710   -80.2028     9.1112     5.7272     6.2783
 2739.0000     0.3311     8.7933   178.5740     2.5618     0.0670   -80.2060     8.9441     5.6222     6.1628
 2739.5000     0.3296     8.8131   177.3764     2.5608     0.0640   -80.0109     9.3611     5.3799     6.1614
 2740.0000     0.3365     8.8129   173.7869     2.5997     0.0959   -80.0141    10.4459     5.5683     6.1604
 2740.5000     0.3263     8.8127   169.7990     2.5877     0.0839   -80.2155    11.1353     6.1586     6.2154
 2741.0000     0.3077     8.8523   157.4441     2.5658     0.0600   -80.0204    11.6544     6.7496     6.8118
 2741.5000     0.2988     8.8521   155.0481     2.5478     0.0450   -80.0236    11.5459     7.4651     7.9760
 2742.0000     0.2815     8.8717   158.2313     2.5428     0.0460   -79.8285    11.0271     7.5324     8.4094
 2742.5000     0.2668     8.8716   163.4080     2.5298     0.0520   -80.0299    10.5317     7.6238     8.4080
 2743.0000     0.2701     8.8515   165.7952     2.5378     0.0390   -79.8348    10.1506     7.4824     8.2524
 2743.5000     0.2713     8.8513   168.5800     2.5288     0.0440   -79.4416     9.7337     7.4135     7.8980
 2744.0000     0.2713     8.8499   172.5599     2.5418     0.0170   -79.0483     9.4674     7.1441     7.6142
 2744.5000     0.2785     8.8485   178.5286     2.5298     0.0260   -78.8520     9.6023     6.8217     7.2744
 2745.0000     0.2965     8.8471   178.9246     2.5318     0.0270   -78.8539     9.6886     6.6156     7.1211
 2745.5000     0.2993     8.8458   178.1238     2.5527     0.0519   -78.8589    10.2336     6.6146     7.3165
 2746.0000     0.2977     8.8444   172.8812     2.5606     0.0588   -78.6676    10.8095     6.9240     7.7950
 2746.5000     0.2913     8.8430   169.7497     2.5477     0.0438   -78.8672    10.3235     7.4501     8.0334
 2747.0000     0.2785     8.8416   170.5441     2.5257     0.0349   -79.0691    10.0418     7.7983     8.4695
 2747.5000     0.2638     8.8403   172.5320     2.5327     0.0269   -79.2686    10.0398     7.3790     8.2521
 2748.0000     0.2678     8.8389   174.5200     2.5716     0.0587   -79.5363     9.4148     7.0466     7.5329
 2748.5000     0.2885     8.8375   181.2871     2.5476     0.0617   -79.8039     9.1579     6.7913     7.1315
 2749.0000     0.2965     8.8361   181.2831     2.5675     0.0657   -80.0716     8.9900     6.4259     7.1079
 2749.5000     0.3005     8.8348   178.8888     2.5705     0.0746   -80.2736     8.9063     6.4246     6.9780
 2750.0000     0.3005     8.8334   171.7138     2.5755     0.0577   -80.2774     8.9045     6.4825     6.9766
 2750.5000     0.3005     8.8320   168.5226     2.5476     0.0447   -80.2792     9.0672     6.5410     6.9334
 2751.0000     0.2978     8.8306   173.6994     2.5735     0.0527   -80.1713     9.1487     6.5999     6.9960
 2751.5000     0.2874     8.8293   180.8648     2.5964     0.0736   -80.0634     9.1469     6.5986     6.9940
 2752.0000     0.2886     8.8279   188.0343     2.5864     0.0865   -79.9555     8.8970     6.5973     6.9932
 2752.5000     0.2926     8.8277   189.6239     2.5465     0.0476   -79.6986     8.7342     6.3582     6.7411
 2753.0000     0.2966     8.8276   192.4087     2.5356     0.0626   -79.1072     8.5751     6.0719     6.4997
 2753.5000     0.3024     8.8275   193.5999     2.5196     0.0526   -78.5158     8.1888     5.8518     6.1529
 2754.0000     0.3099     8.8297   194.3927     2.5335     0.0486   -78.7147     8.0387     5.6398     5.9318
 2754.5000     0.3203     8.8320   191.6000     2.5325     0.0635   -79.3131     8.1110     5.4855     5.8493
 2755.0000     0.3243     8.8343   186.4161     2.5335     0.0724   -79.7126     8.2591     5.3355     5.7954
 2755.5000     0.3228     8.8366   182.4266     2.5604     0.0874   -79.9140     8.5654     5.2857     5.7410
 2756.0000     0.3200     8.8388   182.4226     2.5494     0.0744   -79.9171     8.5636     5.4322     5.7399
 2756.5000     0.3148     8.8411   182.8170     2.5594     0.0893   -80.3166     8.8003     5.6341     5.9264
 2757.0000     0.3120     8.8434   184.0082     2.5653     0.0933   -80.3198     8.9610     5.7903     6.2574
 2757.5000     0.3124     8.8456   185.1994     2.5544     0.0883   -80.5211     9.0416     5.8963     6.3706
 2758.0000     0.3112     8.8454   185.1954     2.5454     0.0953   -80.5243     9.2067     6.0043     6.4705
 2758.5000     0.3129     8.8452   183.5979     2.5573     0.1072   -80.7256     9.5481     6.0585     6.5205
 2759.0000     0.3244     8.8450   181.2035     2.5583     0.1012   -80.7288     9.5462     6.1131     6.7009
 2759.5000     0.3288     8.8448   178.0124     2.5702     0.1012   -80.9301     9.7213     6.1685     6.7616
