~VERSION INFORMATION
 VERS.                2.0:   CWLS LOG ASCII STANDARD - VERSION 2.0
 WRAP.                 NO:   ONE LINE PER DEPTH STEP
~WELL INFORMATION
#MNEM.UNIT      DATA TYPE    INFORMATION
#----------   ------------   ------------------------------
 STRT.F            0.0000:   START DEPTH
 STOP.F         1064.0000:   STOP DEPTH
 STEP.F            0.5000:   STEP LENGTH
 NULL.          -999.2500:   NO VALUE
 COMP.  JOHN BROWN E. & C:   COMPANY
 WELL. JOHN BROWN NPR 3-1 "X" #68-2:   WELL
 FLD .                NPR:   FIELD
 LOC .       S2 T38N R78W:   LOCATION
 CNTY.            NATRONA:   COUNTY
 STAT.            WYOMING:   STATE
 CTRY. UNITED STATES OF AMERICA:   COUNTRY
 SRVC.     ATLAS WIRELINE:   SERVICE COMPANY
 DATE.        25-JAN-1992:   LOGDATE
 API .     49025224850000:   API NUMBER
~CURVE INFORMATION
#MNEM.UNIT       API CODE    CURVE DESCRIPTION
#----------   ------------   ------------------------------
 DEPT.F                  :   
 GRR .GAPI   07 310 01 00:   GAMMA RAY FROM RESISTIVITY
 TENR.LBS    07 635 01 00:   TENSION
 RILD.OHMM   07 120 46 00:   INDUCTION LOG DEEP RESISTIVITY
 RILM.OHMM   07 120 44 00:   INDUCTION LOG MEDIUM RESISTIVITY
~PARAMETER INFORMATION
#MNEM.UNIT          VALUE    DESCRIPTION
#----------   ------------   ------------------------------
 EKB .F         5197.0000:   Kelly bushing
 EGL .F         5187.0000:   Ground level
 TD  .F         1060.0000:   Total depth
 DATE.        25-JAN-1992:   Date logged
 CLNT.            A2DTECH:   Client Code
 PD  .                 GL:   Permanent Datum
 EPD .F               518:   Elevation Permanent Datum
 LMF .                 KB:   Log Measured From
 DMF .                 KB:   Drilling Measured From
 DAPD.F                10:   Feet Above Permanent Datum
 DD  .F              1060:   Depth driller
 DL  .F              1057:   Depth logger
 BLI .F              1055:   Bottom log interval
 CS1 .IN            10.75:   Casing size
 CBD1.       10.75" @ 50':   Casing driller 1
 CBL1.F                50:   Casing logger 1
 BS1 .IN             8.75:   Bit size
 BSD1.F              1060:   Depth drilled with bit1
 DFT .                AIR:   Type fluid in hole
 LUN .            HL-6307:   Logging unit number
 LUL .             CASPER:   Logging unit location
 ENGI.             ZIEGER:   Recorded By
 WITN.             STRONG:   Witnessed by
 ORIG.           5" PRINT:   Origin of data
 UWI .     49025224850000:   Unique Well ID
 DICO. A2D TECHNOLOGIES, INC.:   Digitizing Company
~OTHER INFORMATION
~A    DEPT      GRR      TENR       RILD       RILM   
# ...
  365.0000   116.9050   -34.3530     3.4750     3.6490
  365.5000   118.8520   -34.3530     3.2530     3.4120
  366.0000   119.8460   -34.3530     3.1700     3.1820
  366.5000   118.5750   -34.3530     3.1230     3.1230
  367.0000   114.8420   -34.3530     3.1230     3.1490
  367.5000   109.3570   -34.3530     3.1080     3.1810
  368.0000   103.9450   -34.3530     3.0450     3.2110
  368.5000   102.8610   -34.3530     2.9980     3.1900
  369.0000   105.5460   -34.3530     2.9700     3.0950
  369.5000   111.0910   -34.3530     2.9430     2.9690
  370.0000   116.6100   -34.3530     2.8630     2.8420
  370.5000   120.2790   -34.3530     2.7220     2.7150
  371.0000   121.6190   -34.3530     2.5820     2.5890
  371.5000   121.8330   -34.3530     2.4410     2.4620
  372.0000   121.9950   -34.3530     2.3000     2.3360
  372.5000   122.7960   -34.3530     2.1990     2.2190
  373.0000   125.9630   -34.3530     2.2030     2.1990
  373.5000   129.8840   -34.3530     2.2190     2.2990
  374.0000   132.9870   -34.3530     2.3890     2.5070
  374.5000   131.0810   -34.3530     2.5460     2.6940
  375.0000   126.5720   -34.3530     2.7030     2.9160
  375.5000   121.6840   -34.3530     2.8740     3.1180
  376.0000   116.6270   -34.3530     3.0860     3.3200
  376.5000   114.5430   -34.3530     3.3200     3.5220
  377.0000   113.7860   -34.3530     3.5550     3.6540
  377.5000   115.0460   -34.3530     3.7440     3.7600
  378.0000   117.1280   -34.3530     3.7920     3.7920
  378.5000   117.1510   -34.3530     3.6780     3.6640
  379.0000   116.5110   -34.3530     3.5870     3.5670
  379.5000   118.0290   -34.3530     3.4860     3.4580
  380.0000   122.2910   -34.3530     3.3370     3.3380
  380.5000   126.8640   -34.3530     3.1730     3.2110
  381.0000   129.3700   -34.3530     3.0090     3.0470
  381.5000   129.5190   -34.3530     2.8430     2.8720
  382.0000   129.1270   -34.3530     2.6770     2.6980
  382.5000   129.5380   -34.3530     2.5110     2.5240
  383.0000   131.0430   -34.3530     2.3450     2.3500
  383.5000   133.4860   -34.3530     2.2400     2.2400
  384.0000   135.8910   -34.3530     2.2960     2.3010
  384.5000   137.9600   -34.3530     2.3950     2.4680
  385.0000   137.9130   -34.3530     2.5020     2.6340
  385.5000   134.1600   -34.3530     2.6210     2.8320
  386.0000   127.3170   -34.3530     2.8190     3.1710
  386.5000   120.5910   -34.3530     3.1410     3.5100
  387.0000   119.3550   -34.3530     3.4640     3.8490
  387.5000   120.1660   -34.3530     3.8470     4.1560
  388.0000   120.1920   -34.3530     4.2560     4.3360
  388.5000   120.2920   -34.3530     4.4930     4.5150
  389.0000   120.3470   -34.3530     4.6530     4.6950
  389.5000   120.1890   -34.3530     4.8140     4.8740
  390.0000   120.0820   -34.3530     4.9740     5.0540
  390.5000   121.0740   -34.3530     5.1590     5.2330
  391.0000   122.0850   -34.3530     5.3500     5.4130
  391.5000   123.6260   -34.3530     5.5400     5.5920
  392.0000   125.4590   -34.3530     5.7310     5.7710
  392.5000   126.5340   -34.3530     5.8700     5.9520
  393.0000   125.2030   -34.3530     5.9790     6.0180
  393.5000   123.1980   -34.3530     6.0740     5.9880
  394.0000   121.1440   -34.3530     6.0630     5.9600
  394.5000   117.2450   -34.3530     6.0520     5.9320
  395.0000   116.1500   -34.3530     6.0410     5.9030
  395.5000   116.3590   -34.3530     6.0300     5.8750
  396.0000   115.1360   -34.3530     6.0200     5.8490
  396.5000   114.7570   -34.3530     5.9930     5.8290
  397.0000   116.5740   -34.3530     5.9650     5.8100
  397.5000   119.2820   -34.3530     5.9360     5.7900
  398.0000   120.4710   -34.3530     5.9080     5.7710
  398.5000   121.1860   -34.3530     5.8800     5.7520
  399.0000   123.3190   -34.3530     5.8540     5.7320
  399.5000   124.8430   -34.3530     5.8290     5.7130
  400.0000   123.8980   -34.3530     5.8070     5.6930
  400.5000   122.7720   -34.3530     5.7840     5.6740
  401.0000   122.3200   -34.3530     5.7620     5.6550
  401.5000   122.6690   -34.3530     5.7470     5.6410
  402.0000   127.1170   -34.3530     5.8410     5.7090
  402.5000   131.9630   -34.3530     5.9120     5.7820
  403.0000   133.2800   -34.3530     5.9840     5.8560
  403.5000   132.1290   -34.3530     6.0550     5.9290
  404.0000   130.9240   -34.3530     6.1270     6.0460
  404.5000   127.2500   -34.3530     6.2190     6.1990
  405.0000   122.4680   -34.3530     6.4230     6.3520
  405.5000   120.9100   -34.3530     6.6280     6.5060
  406.0000   120.8490   -34.3530     6.8320     6.7240
  406.5000   120.8270   -34.3530     7.0420     6.7150
  407.0000   121.4540   -34.3530     7.1300     6.6910
  407.5000   122.2110   -34.3530     7.2390     6.6670
  408.0000   121.9440   -34.3530     7.2230     6.6430
  408.5000   118.6130   -34.3530     7.1810     6.6200
  409.0000   116.8790   -34.3530     7.0720     6.5720
  409.5000   115.5200   -34.3530     6.9470     6.4320
  410.0000   113.8610   -34.3530     6.8210     6.2930
  410.5000   111.8220   -34.3530     6.6620     6.1540
  411.0000   110.7430   -34.3530     6.0590     5.8940
  411.5000   110.7160   -34.3530     5.4720     5.4740
  412.0000   109.2080   -34.3530     4.7510     4.9310
  412.5000   106.7450   -34.3530     3.8630     4.2310
  413.0000   108.2320   -34.3530     2.9750     3.5310
  413.5000   115.7560   -34.3530     2.5760     2.8310
  414.0000   124.3010   -34.3530     2.2810     2.1780
  414.5000   138.4380   -34.3530     2.1610     1.9860
  415.0000   149.1640   -34.3530     2.0800     2.0180
  415.5000   151.2910   -34.3530     2.1040     2.0800
  416.0000   148.3710   -34.3530     2.1580     2.2810
  416.5000   143.0090   -34.3530     2.4250     2.6480
  417.0000   131.9620   -34.3530     2.6450     3.4470
  417.5000   120.3400   -34.3530     3.4670     4.2450
  418.0000   111.3630   -34.3530     4.2120     5.0440
  418.5000   108.3110   -34.3530     4.8660     5.8430
  419.0000   105.8720   -34.3530     6.5690     6.7530
  419.5000   101.9220   -34.3530     8.4140     8.4290
  420.0000    97.9590   -34.3530    10.0960     9.5490
  420.5000    94.0040   -34.3530    10.3950    10.1890
  421.0000    92.5880   -34.3530    10.4760    10.1890
  421.5000    93.6950   -34.3530     9.7070     9.4220
  422.0000    95.3210   -34.3530     8.9270     8.4020
  422.5000    98.6670   -34.3530     7.7430     7.3570
  423.0000   102.0200   -34.3530     6.5590     6.3040
  423.5000   106.9240   -34.3530     5.5890     5.2510
  424.0000   117.0250   -34.3530     5.4950     4.5610
  424.5000   130.0350   -34.3530     5.4010     4.5200
  425.0000   140.3050   -34.3530     5.3110     4.8110
  425.5000   141.4110   -34.3530     5.2390     5.3110
  426.0000   124.6280   -34.3530     5.2750     5.9750
  426.5000   109.6200   -34.3530     5.4490     6.6390
  427.0000   103.6150   -34.3530     6.1780     7.3030
  427.5000   101.1100   -34.4420     7.2010     7.9670
  428.0000   101.3870   -34.5300     8.2240     8.6310
  428.5000   101.8100   -34.6170     9.2050     9.0280
  429.0000   102.0680   -34.7040     9.4980     9.2730
  429.5000   102.3890   -34.7910     9.7790     9.5190
  430.0000   103.4170   -34.8780    10.0600     9.7650
  430.5000   103.0250   -34.9650    10.3410    10.0100
  431.0000   101.6550   -35.0530    10.6230    10.2560
  431.5000   101.5940   -35.1400    10.8380    10.5020
  432.0000   101.8780   -35.2270    11.0820    10.7470
  432.5000    99.2640   -35.3140    11.3270    10.9710
  433.0000    94.2230   -35.4010    11.5960    11.0240
  433.5000    92.1940   -35.4890    11.5960    11.0730
  434.0000    93.3720   -35.5760    11.5960    11.1220
  434.5000    95.6830   -35.6630    11.5960    11.1760
  435.0000    97.9760   -35.7500    11.5960    11.2860
  435.5000   100.3550   -35.8370    11.5960    11.4080
  436.0000    99.9360   -35.9250    11.5960    11.5290
  436.5000    98.6950   -36.0120    11.6560    11.6500
  437.0000   100.7720   -36.0990    11.8320    11.7710
  437.5000   102.8960   -36.1860    12.0080    11.8920
