~VERSION INFORMATION
 VERS.                2.0:   CWLS LOG ASCII STANDARD - VERSION 2.0
 WRAP.                 NO:   ONE LINE PER DEPTH STEP
~WELL INFORMATION
#MNEM.UNIT      DATA TYPE    INFORMATION
#----------   ------------   ------------------------------
 STRT.F          212.5000:   START DEPTH
 STOP.F         3098.0000:   STOP DEPTH
 STEP.F            0.5000:   STEP LENGTH
 NULL.          -999.2500:   NO VALUE
 COMP.    FENIX & SCISSON:   COMPANY
 WELL. FENIX NPR 77 "A" #3-33:   WELL
 FLD .                NPR:   FIELD
 LOC .      S33 T39N R78W:   LOCATION
 CNTY.            NATRONA:   COUNTY
 STAT.            WYOMING:   STATE
 CTRY. UNITED STATES OF AMERICA:   COUNTRY
 SRVC.       SCHLUMBERGER:   SERVICE COMPANY
 DATE.        07-MAY-1977:   LOGDATE
 API .     49025103700000:   API NUMBER
~CURVE INFORMATION
#MNEM.UNIT       API CODE    CURVE DESCRIPTION
#----------   ------------   ------------------------------
 DEPT.F                  :   
 SPR .MV     07 010 01 00:   SPONTANEOUS POTENTIAL
 LL8 .OHMM   11 220 08 00:   LATERALOG-8 RESISTIVITY
 ILD .OHMM   07 120 46 00:   DEEP INDUCTION RESISTIVITY
 CALD.IN     45 280 60 00:   CALIPER FROM DENSITY LOG
 GRD .GAPI   45 310 01 00:   GAMMA RAY FROM DENSITY LOG
 RHOB.G/C3   45 350 01 00:   BULK DENSITY
 CORR.G/C3   45 356 01 00:   DENSITY CORRECTION
 ILM .OHMM   07 120 44 00:   INDUCTION LOG MEDIUM RESISTIVITY
~PARAMETER INFORMATION
#MNEM.UNIT          VALUE    DESCRIPTION
#----------   ------------   ------------------------------
 EKB .F         5152.0000:   Kelly bushing
 EGL .F         5141.0000:   Ground level
 TD  .F         3097.0000:   Total depth
 DATE.        07-MAY-1977:   Date logged
 CLNT.            A2DTECH:   Client Code
 SL  . 990' FEL & 990' FSL:   Surface Location
 PD  .                 GL:   Permanent Datum
 EPD .F              5141:   Elevation Permanent Datum
 LMF .                 KB:   Log Measured From
 DMF .                 KB:   Drilling Measured From
 DAPD.F                11:   Feet Above Permanent Datum
 DD  .F              3096:   Depth driller
 DL  .F              3097:   Depth logger
 BLI .F              3091:   Bottom log interval
 TLI .F               222:   Top log interval
 CS1 .IN            8.625:   Casing size
 CBD1.      8.625" @ 200':   Casing driller 1
 CBL1.F               222:   Casing logger 1
 BS1 .IN            7.875:   Bit size
 BSD1.F              3096:   Depth drilled with bit1
 DFT .                KCL:   Type fluid in hole
 DFD .                9.2:   Density
 DFV .                 38:   Viscosity
 DFPH.                  8:   pH
 DFL .                7.6:   Fluid loss
 MSS .           FLOWLINE:   Source of sample
 RMS .OHMM           .191:   Rm
 MST .F                76:   Rm Meas. temp.
 RMF .OHMM           .185:   Rmf
 MFST.F                76:   Rmf Meas. temp.
 MFSS.               MEAS:   Source Rmf.
 RMB .OHMM           .126:   Rm. at BHT
 BHT .F               115:   BHT.
 TCS .HRS            1200:   Time Circ. stopped
 TLAB.HRS            1530:   Time logger at bottom
 MRT .F                15:   Maximum recorded temp.
 LUN .               6442:   Logging unit number
 LUL .               CSPR:   Logging unit location
 ENGI.             MARTIN:   Recorded By
 WITN.          PETTMGILL:   Witnessed by
 ORIG.      2.5" 5" PRINT:   Origin of data
 UWI .     49025103700000:   Unique Well ID
 DICO. A2D TECHNOLOGIES, INC.:   Digitizing Company
~OTHER INFORMATION
~A   DEPT      SPR        LL8        ILD       CALD         GRD      RHOB       CORR        ILM   
  212.5000  -999.2500  -999.2500  -999.2500  -999.2500    75.4530  -999.2500  -999.2500  -999.2500
  213.0000  -999.2500  -999.2500  -999.2500  -999.2500    77.0340  -999.2500  -999.2500  -999.2500
  213.5000  -999.2500  -999.2500  -999.2500  -999.2500    77.9760  -999.2500  -999.2500  -999.2500
  214.0000  -999.2500  -999.2500  -999.2500  -999.2500    76.9380  -999.2500  -999.2500  -999.2500
  214.5000  -999.2500  -999.2500  -999.2500  -999.2500    75.1980  -999.2500  -999.2500  -999.2500
  215.0000  -999.2500  -999.2500  -999.2500  -999.2500    75.3150  -999.2500  -999.2500  -999.2500
  215.5000  -999.2500  -999.2500  -999.2500  -999.2500    75.5130  -999.2500  -999.2500  -999.2500
  216.0000  -999.2500  -999.2500  -999.2500  -999.2500    75.5390  -999.2500  -999.2500  -999.2500
  216.5000  -999.2500  -999.2500  -999.2500  -999.2500    74.8510  -999.2500  -999.2500  -999.2500
  217.0000  -999.2500  -999.2500  -999.2500  -999.2500    74.3860  -999.2500  -999.2500  -999.2500
  217.5000  -999.2500  -999.2500  -999.2500  -999.2500    73.9740  -999.2500  -999.2500  -999.2500
  218.0000  -999.2500  -999.2500  -999.2500  -999.2500    74.2310  -999.2500  -999.2500  -999.2500
  218.5000  -999.2500  -999.2500  -999.2500  -999.2500    74.7610  -999.2500  -999.2500  -999.2500
  219.0000  -999.2500  -999.2500  -999.2500  -999.2500    75.0900  -999.2500  -999.2500  -999.2500
  219.5000  -999.2500  -999.2500  -999.2500  -999.2500    76.0610  -999.2500  -999.2500  -999.2500
  220.0000  -999.2500  -999.2500  -999.2500  -999.2500    77.6730  -999.2500  -999.2500  -999.2500
  220.5000  -999.2500  -999.2500  -999.2500  -999.2500    79.1500  -999.2500  -999.2500  -999.2500
  221.0000    -3.4580  -999.2500  -999.2500  -999.2500    80.4330     2.5110  -999.2500  -999.2500
  221.5000   -14.6320  -999.2500  -999.2500  -999.2500    79.6250     2.5090  -999.2500  -999.2500
  222.0000   -25.0240    23.9940  -999.2500  -999.2500    78.6100     2.5090  -999.2500  -999.2500
  222.5000   -35.4150    55.9290  -999.2500     8.3610    77.4450     2.5350  -999.2500  -999.2500
  223.0000   -44.4040    29.2880    47.3270     8.4010    83.9580     2.8400  -999.2500  -999.2500
  223.5000   -56.3940    29.7720    21.4670     8.8010    91.9060     2.8070  -999.2500    21.6770
  224.0000   -69.2480     7.9810     3.5440     9.2460   100.3820     2.6460  -999.2500     8.0700
  224.5000   -73.9580     8.0880     2.4500     9.6030   104.4510     2.5760     0.1280     3.0850
  225.0000   -78.7500     8.2360     2.8290     9.7680   106.8670     2.5080     0.1160     3.3650
  225.5000   -83.5790     8.2970     3.5780     9.9480   106.8040     2.5220     0.1040     3.9180
  226.0000   -88.3930     8.3510     7.0930    10.1360   107.0440     2.5400     0.1080     4.4710
  226.5000   -91.4630     8.5130    12.0900    11.1330   107.7920     2.5540     0.1140     5.0240
  227.0000   -94.0420     8.7410     9.0620    12.1420   108.6180     2.5490     0.1200     5.5760
  227.5000   -95.8270     8.9550     6.7680    12.9690   109.4300     2.5490     0.1130     6.1070
  228.0000   -97.6390     9.1690     6.5440    13.1060   109.3890     2.5520     0.1060     5.9490
  228.5000   -99.4560     9.3360     6.3190    13.1670   108.3290     2.5310     0.0920     5.5830
  229.0000  -101.2830     9.0580     6.0510    13.2230   107.3770     2.5000     0.0760     5.2690
  229.5000  -102.2770     8.8290     6.2420    13.2880   106.3750     2.4940     0.0680     5.8430
  230.0000  -103.0560     8.6010     6.8470    13.3250   105.3790     2.5070     0.0770     7.0140
  230.5000  -103.8460     8.3720     8.0060    13.3240   104.6190     2.5210     0.0850     6.7940
  231.0000  -104.0470     8.1430     8.6190    13.3350   105.5010     2.5340     0.0920     6.2050
  231.5000  -103.7390     7.9150     8.7900    13.3470   106.4060     2.5370     0.0880     5.8860
  232.0000  -103.2240     7.7630     8.9620    13.3380   105.3940     2.5370     0.0830     6.8380
  232.5000  -101.7150     7.7950     9.1330    13.3820   104.6120     2.5350     0.0810     7.6690
  233.0000  -100.2460     8.0590     9.3360    13.4420   105.5180     2.5340     0.0930     8.5000
  233.5000   -99.0700     8.3240     9.3360    13.2600   106.9390     2.5320     0.0970     9.3360
  234.0000   -98.3840     8.5880     9.3360    11.8820   107.7960     2.5190     0.0880     9.1640
  234.5000   -97.6980     8.8330     9.2830    10.5450   107.1120     2.5070     0.0770     8.8120
  235.0000   -97.0760     8.7480     9.1720     9.6330   106.3890     2.4920     0.0670     8.4600
  235.5000   -96.8710     8.6490     9.0610     9.7300   106.8420     2.4850     0.0540     8.1080
  236.0000   -96.6480     8.5510     8.9500     9.6860   108.4000     2.4860     0.0620     7.7560
  236.5000   -96.7780     8.4530     8.8390     9.6700   109.9860     2.5160     0.0810     7.4130
  237.0000   -97.2040     8.2810     8.7520     9.6750   111.1570     2.5320     0.0940     7.2100
  237.5000   -97.6310     8.3380     8.7520     9.6680   110.9770     2.5290     0.0920     7.0790
  238.0000   -98.0600     8.4310     8.7520     9.6710   113.5570     2.5240     0.0850     7.0890
  238.5000   -98.4900     8.5240     8.6930     9.6710   117.6500     2.5190     0.0860     7.0980
  239.0000   -98.9190     8.6170     8.6180     9.6680   119.3310     2.5140     0.0910     7.1070
  239.5000   -99.3410     8.7100     8.5430     9.6580   116.7580     2.5090     0.0930     7.1160
  240.0000  -100.2330     8.8040     8.4680     9.6480   114.4320     2.5170     0.0840     7.1250
  240.5000  -101.3770     8.8970     8.3930     9.6380   111.8580     2.5300     0.0940     7.1340
  241.0000  -102.5240     8.9980     8.3580     9.6280   110.0270     2.5250     0.1070     7.1440
  241.5000  -103.6750     9.3260     8.5660     9.6180   109.8350     2.5200     0.0770     7.2100
  242.0000  -104.8520     9.6840     8.7530     9.6080   110.0940     2.5130     0.0860     7.2470
  242.5000  -106.0160     9.8820     8.9390     9.5990   109.9990     2.5320     0.0970     7.3700
  243.0000  -107.1900     9.9320     9.1260     9.5890   108.4260     2.5670     0.1080     7.4940
  243.5000  -108.2460     9.9590     9.3120     9.5820   107.0000     2.5610     0.0960     7.6170
  244.0000  -109.3000    10.2550     9.4990     9.5740   107.6260     2.5460     0.0720     7.7400
  244.5000  -110.7890    10.5260     9.6850     9.5670   110.3950     2.5440     0.0770     7.8930
  245.0000  -112.7450    10.5260     9.8680     9.5590   111.3400     2.5630     0.1070     8.1390
  245.5000  -114.6170    10.7050     9.9590     9.5500   110.7860     2.5650     0.0980     8.3850
  246.0000  -115.8250    11.1390    10.2470     9.5270   110.2420     2.5560     0.0580     8.6310
  246.5000  -116.9890    11.2290    10.5720     9.5040   110.4490     2.5280     0.0670     8.8780
  247.0000  -118.1680    11.5340    10.8970     9.4810   110.8600     2.5400     0.0910     9.1240
  247.5000  -118.2440    12.3460    11.2210     9.4580   109.6440     2.5430     0.0960     9.3700
  248.0000  -118.0730    12.6600    11.5460     9.4340   106.2910     2.5340     0.0990     9.6160
  248.5000  -117.8940    12.5430    11.8710     9.4110   103.0550     2.5160     0.0600     9.8620
  249.0000  -117.7130    13.0150    12.2010     9.3930    99.8740     2.5130     0.0720    10.1090
  249.5000  -117.4900    13.2040    12.3140     9.3930    96.8120     2.5190     0.1000    10.3550
  250.0000  -117.1250    13.4670    12.3140     9.3930    96.6950     2.5210     0.0960    10.5260
  250.5000  -116.7770    13.7560    12.1570     9.3880    97.8520     2.4940     0.0490    10.3790
  251.0000  -116.2180    13.3990    12.0140     9.3820    99.5280     2.4950     0.0340    10.2450
  251.5000  -115.6810    13.0020    11.8710     9.3750   101.1490     2.5000     0.0480    10.1110
  252.0000  -115.1480    12.6050    11.7280     9.3690   101.7660     2.5070     0.0640     9.9780
  252.5000  -114.6160    12.2080    11.5860     9.3630   100.9380     2.5140     0.0800     9.8440
