~VERSION INFORMATION
 VERS.                2.0:   CWLS LOG ASCII STANDARD - VERSION 2.0
 WRAP.                 NO:   ONE LINE PER DEPTH STEP
~WELL INFORMATION
#MNEM.UNIT      DATA TYPE    INFORMATION
#----------   ------------   ------------------------------
 STRT.F           61.5000:   START DEPTH
 STOP.F         4220.0000:   STOP DEPTH
 STEP.F            0.5000:   STEP LENGTH
 NULL.          -999.2500:   NO VALUE
 COMP.   LAWRENCE ALLISON:   COMPANY
 WELL. ALLISON NPR 3 "LX" #28-34:   WELL
 FLD .                NPR:   FIELD
 LOC .      S34 T39N R78W:   LOCATION
 CNTY.            NATRONA:   COUNTY
 STAT.            WYOMING:   STATE
 CTRY. UNITED STATES OF AMERICA:   COUNTRY
 SRVC.       DRESER ATLAS:   SERVICE COMPANY
 DATE.        23-MAR-1983:   LOGDATE
 API .     49025109190000:   API NUMBER
~CURVE INFORMATION
#MNEM.UNIT       API CODE    CURVE DESCRIPTION
#----------   ------------   ------------------------------
 DEPT.F                  :   
 TEND.LBS    45 635 01 00:   TENSION FROM DENSITY LOG
 CORR.G/C3   45 356 01 00:   DENSITY CORRECTION
 RHOB.G/C3   45 350 01 00:   BULK DENSITY
 CN  .DEC    42 890 00 00:   Neutron Porosity
 SPR .MV     07 010 01 00:   SPONTANEOUS POTENTIAL
 GRR .GAPI   07 310 01 00:   GAMMA RAY FROM RESISTIVITY
 TENR.LBS    07 635 01 00:   TENSION FROM RESISTIVITY
 RILD.OHMM   07 120 46 00:   DEEP INDUCTION RESISTIVITY
 RILM.OHMM   07 120 44 00:   INDUCTION LOG MEDIUM RESISTIVITY
 RFOC.OHMM   07 220 01 00:   RESISTIVITY FOCUSED LOG RES.
 TENS.LBS    60 635 01 00:   TENSION FROM SONIC LOG
 DT  .US/F   60 520 00 00:   DELTA TIME
 CALS.IN     60 280 50 00:   CALIPER FROM SONIC LOG
~PARAMETER INFORMATION
#MNEM.UNIT          VALUE    DESCRIPTION
#----------   ------------   ------------------------------
 EKB .F         5184.0000:   Kelly bushing
 EGL .F         5174.0000:   Ground level
 EDF .F            0.0000:   Drilling floor
 TD  .F         4397.0000:   Total depth
 DATE.        23-MAR-1983:   Date logged
 CLNT.            A2DTECH:   Client Code
 SL  . 942' FWL & 645' FSL:   Surface Location
 PD  .                 GL:   Permanent Datum
 EPD .F              5174:   Elevation Permanent Datum
 LMF .                 KB:   Log Measured From
 DMF .                 KB:   Drilling Measured From
 DAPD.F                10:   Feet Above Permanent Datum
 DD  .F              4397:   Depth driller
 DL  .F              4203:   Depth logger
 BLI .F              4201:   Bottom log interval
 CS1 .IN            9.625:   Casing size
 CBD1.      9.625" @ 659':   Casing driller 1
 CBL1.F               658:   Casing logger 1
 BS1 .IN             8.75:   Bit size
 BSD1.F              4397:   Depth drilled with bit1
 DFT .   GEL/DRISPACK/KCL:   Type fluid in hole
 DFD .                8.6:   Density
 DFV .                 36:   Viscosity
 DFPH.                8.5:   pH
 DFL .                 18:   Fluid loss
 MSS .               TANK:   Source of sample
 RMS .OHMM           0.55:   Rm
 MST .F                74:   Rm Meas. temp.
 RMF .OHMM           0.43:   Rmf
 MFST.F                66:   Rmf Meas. temp.
 RMC .OHMM           0.69:   Rmc
 MCST.F                74:   Rmc Meas. temp.
 MFSS.               MEAS:   Source Rmf.
 MCSS.               CALC:   Source Rmc.
 RMB .OHMM           0.33:   Rm. at BHT
 BHT .F               122:   BHT.
 TCS .HRS             5.5:   Time Circ. stopped
 MRT .F               122:   Maximum recorded temp.
 LUN .               6270:   Logging unit number
 LUL .              WLSTN:   Logging unit location
 ENGI.             REEVES:   Recorded By
 WITN.             STRONG:   Witnessed by
 ORIG.           5" PRINT:   Origin of data
 UWI .     49025109190000:   Unique Well ID
 DICO. A2D TECHNOLOGIES, INC.:   Digitizing Company
~OTHER INFORMATION
~A   DEPT     TEND       CORR       RHOB         CN        SPR         GRR      TENR       RILD       RILM       RFOC       TENS         DT       CALS   
# ...
 2297.5000   -53.3420     0.0260     2.4750     0.3260   -49.6260   139.3640   -87.6750     5.3630     5.1800     6.0250  -100.1860    94.9340    15.2380
 2298.0000   -53.5850     0.0240     2.4780     0.3100   -49.8130   137.0880   -84.6690     5.5300     5.3430     6.3070   -96.5860    94.9730    15.2210
 2298.5000   -53.8290     0.0210     2.4880     0.3000   -50.0000   134.5260   -67.8360     5.7010     5.5050     6.6080   -87.8850    95.0120    15.2280
 2299.0000   -54.0730     0.0240     2.4950     0.3000   -50.1920   131.8700   -53.4070     5.8330     5.6680     6.6080   -71.0840    95.0510    15.2390
 2299.5000   -54.3170     0.0300     2.5040     0.3030   -50.3700   129.2710   -49.4990     5.9150     5.8310     6.3430   -54.2170    95.0890    15.2500
 2300.0000   -54.6090     0.0560     2.5020     0.3110   -50.5830   128.0370   -64.6290     5.9150     6.0250     6.2520   -54.2170    95.1200    15.2610
 2300.5000   -53.5540     0.0820     2.4990     0.3150   -50.5890   126.8760   -74.6490     5.9150     5.9740     6.7730   -94.3780    95.1200    15.2720
 2301.0000   -52.2360     0.1020     2.4750     0.3120   -50.5830   127.4020   -66.9340     5.8850     5.8460     7.1140   -77.3760    94.6100    15.2830
 2301.5000   -50.9180     0.1100     2.4530     0.3100   -50.5670   127.9190   -54.3090     5.7460     5.7180     6.8150   -60.5090    94.1040    15.2930
 2302.0000   -49.5990     0.0820     2.4310     0.3320   -50.5580   128.7160   -44.5890     5.6060     5.5900     6.4120   -54.2170    94.3240    15.3040
 2302.5000   -48.2810     0.0360     2.4240     0.3520   -50.5460   129.9180   -41.5830     5.4670     5.4620     6.0250   -54.2170    94.9740    15.3150
 2303.0000   -46.9620     0.0450     2.4160     0.3710   -50.5340   131.2350   -37.9760     5.3270     5.3340     5.9150   -54.2170    95.7230    15.3260
 2303.5000   -45.6440     0.0730     2.3800     0.3670   -50.5230   132.5140   -34.3690     5.1870     5.2060     5.9150   -51.9280    95.7230    15.3370
 2304.0000   -44.5890     0.1100     2.3440     0.3580   -50.5120   135.3960   -30.7620     5.0480     5.0100     5.9150   -46.8670    95.9000    15.3350
 2304.5000   -47.0940     0.0980     2.3420     0.3550   -50.5000   136.1860   -27.1540     4.9180     5.0280     5.5960   -41.8070    96.5260    15.3260
 2305.0000   -54.6090     0.0550     2.3760     0.3600   -50.4890   134.7110   -24.5490     4.9630     5.0650     5.1030   -36.7470    98.2610    15.3170
 2305.5000   -57.1140     0.0190     2.4100     0.3640   -50.4780   132.6150   -24.5490     5.0040     5.1030     5.1740   -34.1370    99.7390    15.3090
 2306.0000   -60.2450     0.0300     2.4540     0.3520   -50.4660   135.2690   -24.5490     5.0460     5.1410     5.5040   -34.1370    99.5380    15.2990
 2306.5000   -63.3770     0.0460     2.4490     0.3270   -50.4550   140.1410   -24.5490     5.0870     5.1790     5.9460   -34.1370    97.9040    15.3100
 2307.0000   -64.6290     0.0560     2.4450     0.3300   -50.4440   144.8460   -24.5490     5.1290     5.2170     6.3680   -34.1370    95.9240    15.3320
 2307.5000   -64.6290     0.0560     2.4370     0.3320   -50.4320   143.4480   -24.5490     5.1700     5.2550     6.2150   -34.1370    95.7230    15.3510
 2308.0000   -64.6290     0.0520     2.4410     0.3310   -50.4210   141.8520   -24.5490     5.2470     5.2950     6.0470   -34.1370    97.4220    15.3740
 2308.5000   -63.9140     0.0170     2.4520     0.3320   -50.4100   139.8480   -24.5490     5.3960     5.4590     5.8780   -34.1370    98.1330    15.3630
 2309.0000   -62.1240    -0.0180     2.4630     0.3350   -50.3980   137.9570   -24.5490     5.4940     5.6360     5.7010   -34.1370    97.7590    15.3250
 2309.5000   -60.3350    -0.0140     2.4640     0.3460   -50.3870   134.2200   -24.5490     5.6070     5.8130     6.3680   -34.1370    97.3290    15.2930
 2310.0000   -58.5460    -0.0110     2.4590     0.3470   -50.3760   130.0780   -24.5490     5.6260     5.9900     6.4870   -34.1370    96.2810    15.2620
 2310.5000   -56.7560    -0.0060     2.4500     0.3100   -50.3640   128.2940   -24.5490     5.6440     6.1380     6.4870   -34.1370    95.5220    15.2630
 2311.0000   -54.6090     0.0190     2.4410     0.3040   -50.3530   130.5310   -24.5490     5.6630     5.8200     6.4870   -34.1370    95.7190    15.2660
 2311.5000   -56.0410     0.0470     2.4330     0.3000   -50.3420   133.3760   -24.5490     5.6820     5.5970     6.4870   -34.1370    95.8880    15.2690
 2312.0000   -57.8300     0.0490     2.4410     0.3010   -50.3300   134.3150   -24.5490     5.7010     5.6970     6.1760   -34.1370    96.7980    15.2720
 2312.5000   -59.6190     0.0290     2.4590     0.3120   -50.3190   134.7450   -24.5490     5.7010     5.8240     5.7010   -34.1370    98.1330    15.2750
 2313.0000   -61.4090     0.0260     2.4630     0.3200   -50.3080   134.0460   -24.5490     5.7700     5.9520     5.7010   -34.1370    98.5340    15.2790
 2313.5000   -63.1980     0.0220     2.4640     0.3210   -50.2960   134.3810   -24.5490     5.8570     6.0790     6.0760   -34.1370    98.1520    15.2820
 2314.0000   -64.6290     0.0180     2.4640     0.3150   -50.2850   135.7300   -24.5490     5.9440     6.2060     6.5170   -34.1370    97.5490    15.2850
 2314.5000   -62.1240     0.0240     2.4610     0.3080   -50.2740   137.5040   -24.5490     6.0310     6.3340     6.8560   -34.1370    96.6380    15.2880
 2315.0000   -60.0370     0.0370     2.4580     0.3030   -50.2630   136.8410   -24.5490     6.1180     6.4610     7.0970   -34.1370    95.9240    15.2910
 2315.5000   -57.9490     0.0340     2.4540     0.3030   -50.2510   134.9280   -24.5490     6.2520     6.6080     7.3860   -34.1370    95.6080    15.2940
 2316.0000   -55.8620     0.0190     2.4500     0.3030   -50.2420   133.8920   -24.5490     6.1510     6.4990     7.6590   -34.1370    95.3040    15.2970
 2316.5000   -53.7740    -0.0100     2.4450     0.3030   -50.2290   133.1080   -24.5490     5.9270     6.3710     7.5820   -27.4600    95.0010    15.3010
 2317.0000   -51.6870    -0.0110     2.4390     0.3070   -50.2140   133.3510   -25.8630     5.7030     6.2520     7.2880   -26.7290    94.7190    15.3180
 2317.5000   -49.5990    -0.0120     2.4030     0.3150   -50.2200   131.7840   -28.6680     5.4780     5.7530     6.9940   -32.3520    95.2610    15.3370
 2318.0000   -47.5120    -0.0040     2.3180     0.3270   -50.0380   129.2410   -31.4740     5.2540     5.2870     6.6990   -37.9740    96.1100    15.3550
 2318.5000   -45.4240     0.0150     2.2560     0.3390   -49.6610   126.8840   -34.5690     5.0300     4.8210     6.3670   -44.1770    97.3240    15.3730
 2319.0000   -40.2950     0.0060     2.2620     0.3520   -49.3090   124.5660   -32.6270     4.8280     4.4030     6.0180   -41.0140   101.1370    15.3920
 2319.5000   -33.1380    -0.0200     2.3430     0.3380   -48.9370   122.1990   -28.7420     4.8510     4.4030     5.2920   -34.6890   106.0630    15.4100
 2320.0000   -24.5490    -0.0160     2.4040     0.3220   -48.5950   122.2080   -24.8570     4.9250     4.4030     4.3540   -28.3630   108.7750    15.4290
 2320.5000   -34.5690     0.0000     2.4720     0.3060   -48.2390   124.8970   -20.9730     4.9980     4.6310     4.7780   -22.0380   107.4030    15.4490
 2321.0000   -47.0940     0.0040     2.4670     0.3040   -48.5370   127.6640   -17.0880     5.0720     4.8360     5.6250   -15.7130   103.7550    15.4610
 2321.5000   -53.9410     0.0010     2.4660     0.3070   -48.8900   129.2150   -14.5290     5.1450     5.0400     6.8560   -15.4950    98.5860    15.4580
 2322.0000   -52.2710     0.0000     2.4570     0.3110   -49.2560   128.6280   -33.6070     5.2190     5.2950     6.7550   -19.7120    95.1410    15.4560
 2322.5000   -50.6010    -0.0020     2.4500     0.3260   -49.6080   128.2610   -53.8080     5.2950     5.1780     6.5680   -24.0960    93.5500    15.4550
 2323.0000   -48.9310     0.0120     2.4110     0.3520   -50.0110   127.7760   -74.0080     5.0520     4.8490     6.3220   -72.6910    93.6510    15.4530
