~VERSION INFORMATION
 VERS.                2.0:   CWLS LOG ASCII STANDARD - VERSION 2.0
 WRAP.                 NO:   ONE LINE PER DEPTH STEP
~WELL INFORMATION
#MNEM.UNIT      DATA TYPE    INFORMATION
#----------   ------------   ------------------------------
 STRT.F           36.0000:   START DEPTH
 STOP.F         3014.5000:   STOP DEPTH
 STEP.F            0.5000:   STEP LENGTH
 NULL.          -999.2500:   NO VALUE
 COMP.    TESRO PETROLEUM:   COMPANY
 WELL. TESORO N.P.R. "A" #6-21:   WELL
 FLD .             TEAPOT:   FIELD
 LOC .      S21 T39N R78W:   LOCATION
 CNTY.            NATRONA:   COUNTY
 STAT.            WYOMING:   STATE
 CTRY. UNITED STATES OF AMERICA:   COUNTRY
 SRVC.              WELEX:   SERVICE COMPANY
 DATE.        16-JUL-1968:   LOGDATE
 API .     49025100180000:   API NUMBER
~CURVE INFORMATION
#MNEM.UNIT       API CODE    CURVE DESCRIPTION
#----------   ------------   ------------------------------
 DEPT.F                  :   
 SPR .MV     05 010 01 00:   SPONTANEOUS POTENTIAL FROM RES.
 ASN .OHMM   05 041 18 00:   AMPLIFIED SHORT NORMAL 18"
 IL  .OHMM   05 120 00 00:   INDUCTION LOG
 GRD .GAPI   45 310 01 00:   GAMMA RAY FROM DENSITY LOG
 CALD.IN     45 280 60 00:   CALIPER FROM DENSITY LOG
 GDEN.CPS    45 350 30 00:   GAMMA DENS
~PARAMETER INFORMATION
#MNEM.UNIT          VALUE    DESCRIPTION
#----------   ------------   ------------------------------
 EKB .F         5002.0000:   Kelly bushing
 EGL .F         4991.0000:   Ground level
 EDF .F         5001.0000:   Drilling floor
 TD  .F         3025.0000:   Total depth
 DATE.        16-JUL-1968:   Date logged
 CLNT.            A2DTECH:   Client Code
 PD  .                 GL:   Permanent Datum
 EPD .F              4991:   Elevation Permanent Datum
 LMF .                 KB:   Log Measured From
 DMF .                 KB:   Drilling Measured From
 DD  .F              3025:   Depth driller
 DL  .F              3019:   Depth logger
 BLI .F              3014:   Bottom log interval
 TLI .F              2670:   Top log interval
 CS1 .IN            10.75:   Casing size
 CBD1.      10.75" @ 325':   Casing driller 1
 CBL1.F               325:   Casing logger 1
 BS1 .IN                9:   Bit size
 BSD1.F              3025:   Depth drilled with bit1
 DFT .     WATER BASE MUD:   Type fluid in hole
 DFD .                9.7:   Density
 DFV .                 60:   Viscosity
 DFL .                6.4:   Fluid loss
 MSS .              CIRC.:   Source of sample
 RMS .OHMM            2.2:   Rm
 MST .F                84:   Rm Meas. temp.
 RMF .OHMM            1.6:   Rmf
 MFST.F                70:   Rmf Meas. temp.
 RMC .OHMM            3.3:   Rmc
 MCST.F                68:   Rmc Meas. temp.
 MFSS.               MEAS:   Source Rmf.
 RMB .OHMM           1.55:   Rm. at BHT
 BHT .F               120:   BHT.
 MRT .F               120:   Maximum recorded temp.
 LUN .               6869:   Logging unit number
 LUL .                 NC:   Logging unit location
 ENGI.          H. STEITZ:   Recorded By
 WITN.                MAY:   Witnessed by
 ORIG.           5" PRINT:   Origin of data
 UWI .     49025100180000:   Unique Well ID
 DICO. A2D TECHNOLOGIES, INC.:   Digitizing Company
~OTHER INFORMATION
~A   DEPT      SPR        ASN           IL      GRD       CALD       GDEN   
# ...
 2740.0000   -39.3080    10.8440     9.0700    92.2350     9.4310  1091.5510
 2740.5000   -39.2610    11.0270     9.6240    92.9520     9.4230  1087.5750
 2741.0000   -39.2130    10.9760     9.6980    92.9860     9.4140  1096.1520
 2741.5000   -39.1650    10.8090     9.2230    94.2720     9.4060  1105.8490
 2742.0000   -39.1990    10.0300     8.7680    96.0710     9.4090  1101.4910
 2742.5000   -39.3210     9.5050     8.3140    98.9340     9.4200  1108.9060
 2743.0000   -39.1160     9.0540     7.8600   102.7440     9.4310  1118.7480
 2743.5000   -38.9140     8.6400     7.4050   106.5670     9.4430  1128.5890
 2744.0000   -38.7150     8.4160     7.2220   102.2520     9.4540  1133.3000
 2744.5000   -38.6180     8.2830     7.1040    98.8280     9.4660  1098.6169
 2745.0000   -38.9010     8.3660     7.0270    98.8240     9.4770  1077.1700
 2745.5000   -39.1790     8.7380     7.0210    97.9330     9.4890  1069.6820
 2746.0000   -39.4550     9.1040     7.2490    97.6360     9.5000  1063.8220
 2746.5000   -39.7340     9.4110     7.6950   100.2070     9.5040  1065.5840
 2747.0000   -39.8970     9.6690     8.1400    99.2980     9.5070  1072.2271
 2747.5000   -40.0570     9.9230     8.4320    98.2850     9.5100  1078.8690
 2748.0000   -40.2170    10.4480     8.4510    99.1710     9.5130  1085.5120
 2748.5000   -40.3760    10.8100     8.4730    97.0890     9.5160  1092.1541
 2749.0000   -40.5510    10.8010     8.4960    94.9250     9.5200  1095.0990
 2749.5000   -41.3460    10.8740     8.5220    91.6040     9.4880  1097.5150
 2750.0000   -42.4030    11.6060     9.1820    86.4010     9.4400  1108.8000
 2750.5000   -43.8110    12.6260     9.8640    77.1840     9.3920  1130.3140
 2751.0000   -46.4390    14.0150    11.1090    68.4730     9.3440  1153.1810
 2751.5000   -50.0800    17.5190    12.7840    58.3080     9.2950  1166.1030
 2752.0000   -54.3470    20.9460    14.5680    51.9780     9.2640  1181.4550
 2752.5000   -59.0360    24.2530    19.6170    48.5250     9.2370  1204.6720
 2753.0000   -62.9090    28.0920    25.6080    45.0350     9.2100  1224.9110
 2753.5000   -65.7350    31.5240    34.0330    41.7230     9.2110  1245.1490
 2754.0000   -67.8320    37.7510    46.4240    40.4460     9.2180  1256.5610
 2754.5000   -69.1640    40.9860    49.9500    40.1350     9.2250  1239.8521
 2755.0000   -70.4870    43.1720    49.9500    40.7900     9.2330  1219.5480
 2755.5000   -71.2790    45.2430    50.0610    42.5820     9.2400  1229.5090
 2756.0000   -72.0510    46.4640    44.4360    44.3280     9.2470  1238.6680
 2756.5000   -72.2640    46.2010    39.9790    46.1620     9.2540  1238.7419
 2757.0000   -71.8720    45.8180    36.2420    47.8410     9.2610  1249.8730
 2757.5000   -71.5970    45.4680    34.0640    47.7550     9.2690  1251.4360
 2758.0000   -71.3090    45.5680    33.7330    46.8660     9.2760  1234.9900
 2758.5000   -70.8370    47.4600    33.8350    45.3930     9.2830  1210.7159
 2759.0000   -70.3370    50.1490    35.4770    43.9380     9.2900  1190.4771
 2759.5000   -69.9100    51.4800    37.9980    42.5130     9.2970  1133.3000
 2760.0000   -69.9440    66.0960    46.1650    41.0930     9.3050  1051.6400
 2760.5000   -69.9700    99.8190    50.2320    40.0820     9.3200   983.2540
 2761.0000   -69.9940   129.1400   135.5230    40.0750     9.3470   976.1710
 2761.5000   -70.0170   153.2940   261.3980    40.0400     9.3720   967.2960
 2762.0000   -70.0400   172.4020   449.8130    40.0020     9.3970   976.1100
 2762.5000   -70.0630   178.7850   500.0310    39.9650     9.4210   995.8750
 2763.0000   -70.0860   171.4300   496.5140    39.9160     9.4120  1021.9680
 2763.5000   -70.1060   155.2550   283.7750    40.2340     9.4040  1097.1110
 2764.0000   -70.3450   128.9840   162.4700    42.4250     9.3620  1166.3669
 2764.5000   -70.7160    99.1210   101.8440    44.7950     9.3150  1244.8270
 2765.0000   -70.9830    70.0510    74.2740    42.3410     9.2670  1351.9880
 2765.5000   -71.2890    48.3070    49.4520    41.5190     9.2250  1373.9210
 2766.0000   -71.4700    46.9220    42.5220    40.6990     9.2250  1368.8870
 2766.5000   -71.3410    43.3760    36.0040    40.5370     9.2420  1375.8450
 2767.0000   -71.2180    41.2860    33.7150    41.1900     9.2720  1369.9200
 2767.5000   -71.0960    39.7200    31.0840    44.5290     9.3020  1379.3170
 2768.0000   -70.9750    38.5960    30.6120    49.1380     9.3320  1388.7130
 2768.5000   -71.0050    37.4720    31.3080    50.8620     9.3350  1393.7380
 2769.0000   -71.3310    36.5780    32.1220    49.2190     9.3220  1380.9659
 2769.5000   -72.2600    35.9040    32.3860    47.6990     9.3090  1371.8690
 2770.0000   -72.8900    36.1550    32.1060    49.4040     9.2960  1377.8330
 2770.5000   -72.7870    36.6250    31.8390    49.1860     9.2870  1374.2100
 2771.0000   -72.4580    37.0830    32.0100    51.9300     9.3080  1362.9670
 2771.5000   -72.1410    37.2110    32.4710    53.9250     9.3290  1343.2939
 2772.0000   -71.8260    37.4900    33.2800    53.4470     9.3380  1313.9480
 2772.5000   -71.5110    37.7480    34.1660    50.9760     9.3040  1282.4060
 2773.0000   -71.1920    38.5980    35.9790    48.6810     9.2700  1248.6750
 2773.5000   -70.9080    40.0480    38.5030    46.4780     9.2440  1216.0811
 2774.0000   -70.6260    42.0960    42.5170    45.8810     9.2460  1190.2760
 2774.5000   -70.3470    42.8150    44.9730    46.6110     9.2840  1169.0850
 2775.0000   -70.0990    43.1010    46.1440    46.9440     9.3060  1194.6460
 2775.5000   -70.0420    42.4290    45.7000    46.7370     9.3170  1244.0800
 2776.0000   -69.9800    39.9870    44.1980    46.6280     9.3280  1298.3101
 2776.5000   -69.8950    36.6540    39.6160    47.5550     9.3390  1365.9050
 2777.0000   -69.3530    33.4940    35.0530    47.3170     9.3390  1403.9620
 2777.5000   -68.8200    30.4570    30.5360    47.1790     9.3320  1434.0720
 2778.0000   -68.2880    28.3230    26.4540    48.9890     9.3250  1461.3170
 2778.5000   -67.7560    26.1890    23.1920    51.1090     9.3180  1483.9360
 2779.0000   -67.2250    24.0550    20.5780    51.9600     9.3120  1473.8170
 2779.5000   -66.6920    22.8840    19.1450    53.2550     9.3050  1458.8781
 2780.0000   -66.1560    21.4210    17.7420    54.5200     9.3070  1442.3190
 2780.5000   -65.4890    19.3260    16.3060    55.7750     9.3190  1416.3800
 2781.0000   -64.3440    17.6510    14.9210    57.0270     9.3300  1386.8190
 2781.5000   -63.2120    16.3970    13.5320    58.2850     9.3420  1368.2670
 2782.0000   -62.0760    15.2250    12.7270    58.2630     9.3540  1350.6510
 2782.5000   -61.5530    14.1980    11.8890    56.3560     9.3660  1347.3660
 2783.0000   -61.0130    13.1840    11.0430    56.2300     9.3800  1352.4250
 2783.5000   -59.9720    12.3620    10.1720    56.6500     9.3940  1343.5190
 2784.0000   -57.6160    11.4870     9.6320    57.2370     9.4080  1312.0370
 2784.5000   -51.7800    10.5880     9.1840    61.4090     9.4220  1288.3370
 2785.0000   -49.9340     9.9520     8.7430    63.6060     9.4350  1277.4351
 2785.5000   -48.0550     9.6530     8.3050    65.1950     9.4490  1271.1160
 2786.0000   -46.6720     9.1250     8.0780    66.9230     9.4590  1264.5129
 2786.5000   -45.2960     8.7280     7.7970    69.8030     9.4420  1262.5250
 2787.0000   -43.4530     8.4270     7.4720    71.6290     9.4260  1264.2540
 2787.5000   -42.5970     8.1370     7.1440    70.6040     9.4090  1271.8440
 2788.0000   -42.8960     7.8450     6.8150    69.5410     9.3920  1283.8070
 2788.5000   -42.3060     7.5750     6.4500    72.1810     9.3750  1297.3160
 2789.0000   -41.8670     7.4370     6.3400    74.8390     9.3590  1300.8080
 2789.5000   -41.7000     7.3090     6.2470    76.9570     9.3420  1304.2740
 2790.0000   -40.8480     7.1770     6.1540    78.1700     9.3250  1287.3760
 2790.5000   -39.9860     7.0150     6.0610    80.6160     9.3080  1265.1560
 2791.0000   -39.5550     6.8470     5.9690    81.1260     9.3140  1246.2190
 2791.5000   -39.1880     6.6800     5.8800    79.7850     9.3320  1228.7400
