~VERSION INFORMATION
 VERS.                2.0:   CWLS LOG ASCII STANDARD - VERSION 2.0
 WRAP.                 NO:   ONE LINE PER DEPTH STEP
~WELL INFORMATION
#MNEM.UNIT      DATA TYPE    INFORMATION
#----------   ------------   ------------------------------
 STRT.F           10.5000:   START DEPTH
 STOP.F         5650.0000:   STOP DEPTH
 STEP.F            0.5000:   STEP LENGTH
 NULL.          -999.2500:   NO VALUE
 COMP.    FENIX & SCISSON:   COMPANY
 WELL. FENIX NPR 3 "LX" #56-3:   WELL
 FLD .              N P R:   FIELD
 LOC .       S3 T38N R78W:   LOCATION
 CNTY.            NATRONA:   COUNTY
 STAT.            WYOMING:   STATE
 CTRY. UNITED STATES OF AMERICA:   COUNTRY
 SRVC.              WELEX:   SERVICE COMPANY
 DATE.        13-JUN-1978:   LOGDATE
 API .     49025109250000:   API NUMBER
~CURVE INFORMATION
#MNEM.UNIT       API CODE    CURVE DESCRIPTION
#----------   ------------   ------------------------------
 DEPT.F                  :   
 NPHI.DEC    42 890 03 00:   NEUTRON POROSITY SANDSTONE
 SPR .MV     07 010 01 00:   SPONTANEOUS POTENTIAL
 ILD .OHMM   07 120 46 00:   DEEP INDUCTION RESISTIVITY
 ILM .OHMM   07 120 44 00:   INDUCTION LOG MEDIUM RESISTIVITY
 SFL .OHMM   07 220 01 00:   SHALLOW FOCUSED LOG RESISTIVITY
 GRD .GAPI   45 310 01 00:   GAMMA RAY FROM DENSITY LOG
 CALD.IN     45 280 60 00:   CALIPER FROM DENSITY LOG
 RHOB.G/C3   45 350 01 00:   BULK DENSITY
 CORR.G/C3   45 356 01 00:   DENSITY CORRECTION
~PARAMETER INFORMATION
#MNEM.UNIT          VALUE    DESCRIPTION
#----------   ------------   ------------------------------
 EKB .F         5181.0000:   Kelly bushing
 EGL .F         5171.0000:   Ground level
 EDF .F         5180.0000:   Drilling floor
 TD  .F         5644.0000:   Total depth
 DATE.        13-JUN-1978:   Date logged
 CLNT.            A2DTECH:   Client Code
 SL  . 1980' FSL & 2080' FEL:   Surface Location
 PD  .                 GL:   Permanent Datum
 EPD .F              5171:   Elevation Permanent Datum
 LMF .                 KB:   Log Measured From
 DMF .                 KB:   Drilling Measured From
 DD  .F              5640:   Depth driller
 DL  .F              5644:   Depth logger
 BLI .F              5638:   Bottom log interval
 TLI .F              3093:   Top log interval
 CS1 .IN            8.625:   Casing size
 CBD1.      8.625" @ 545':   Casing driller 1
 BS1 .IN            7.875:   Bit size
 DFT .                FGM:   Type fluid in hole
 DFD .                9.2:   Density
 DFV .                 52:   Viscosity
 DFPH.                 11:   pH
 DFL .                5.2:   Fluid loss
 MSS .           MUD/TANK:   Source of sample
 RMS .OHMM           0.59:   Rm
 MST .F                80:   Rm Meas. temp.
 RMF .OHMM           0.48:   Rmf
 MFST.F                80:   Rmf Meas. temp.
 MFSS.               MEAS:   Source Rmf.
 RMB .OHMM           0.29:   Rm. at BHT
 BHT .F               162:   BHT.
 TCS .HRS            1200:   Time Circ. stopped
 MRT .F               162:   Maximum recorded temp.
 LUN .               7675:   Logging unit number
 LUL .               CODY:   Logging unit location
 ENGI.               BOND:   Recorded By
 ORIG.           5" PRINT:   Origin of data
 UWI .     49025109250000:   Unique Well ID
 DICO. A2D TECHNOLOGIES, INC.:   Digitizing Company
 DAPD.F                10:   Feet Above Permanent Datum
 BSD1.F              5640:   Depth drilled with bit1
 TLAB.HRS            1630:   Time logger at bottom
~OTHER INFORMATION
~A  DEPTH     NPHI        SPR        ILD        ILM        SFL        GRD       CALD       RHOB       CORR
# ...
 3916.0000     0.4100   -74.7070     1.7960     2.0480     2.2790    84.9340    10.6290     2.2330     0.2500
 3916.5000     0.3980   -74.5160     1.8170     2.0390     2.3420    84.5940    10.5800     2.2850     0.2340
 3917.0000     0.3860   -74.3260     1.8970     2.0320     2.4050    83.4040    11.0270     2.3380     0.2410
 3917.5000     0.3710   -74.1350     1.9770     2.1210     2.4680    81.7690    11.2680     2.3980     0.2080
 3918.0000     0.3430   -73.9420     2.0580     2.2110     2.5310    80.9660    11.3190     2.4700     0.2370
 3918.5000     0.3160   -73.9440     2.1380     2.3020     2.6400    80.5260    11.3160     2.4410     0.2500
 3919.0000     0.3110   -73.9860     2.2180     2.3920     2.9200    80.8090    11.0040     2.3730     0.1250
 3919.5000     0.3040   -74.0300     2.2990     2.4830     3.1860    81.0820    10.5080     2.3970     0.0510
 3920.0000     0.2960   -74.0730     2.3790     2.5730     3.1010    81.8220    10.4430     2.4460     0.0860
 3920.5000     0.3000   -74.1160     2.4590     2.6640     3.0190    83.2570    10.4190     2.4700     0.1040
 3921.0000     0.3080   -74.1590     2.5400     2.7540     2.9610    84.6680    10.3690     2.4500     0.0920
 3921.5000     0.3120   -74.2020     2.5940     2.8450     3.3600    86.1590    10.3180     2.4380     0.0800
 3922.0000     0.2760   -74.2450     2.6390     2.9100     3.9350    90.3060    10.2670     2.4630     0.0760
 3922.5000     0.2780   -74.2880     2.6840     2.9340     3.7870    99.2620    10.2160     2.4750     0.0950
 3923.0000     0.2850   -74.3320     2.7290     2.9570     3.5810   108.0470    10.1620     2.4600     0.1090
 3923.5000     0.2950   -74.3750     2.7770     2.9810     3.3670   116.8870    10.0260     2.4520     0.1200
 3924.0000     0.3030   -74.4180     2.7280     3.0050     3.5390   119.9130     9.8800     2.4320     0.1080
 3924.5000     0.2970   -74.4610     2.6770     3.0160     3.7190   122.7250     9.7320     2.4090     0.0420
 3925.0000     0.3000   -74.5020     2.6260     2.9400     3.9350   125.4910     9.6840     2.4170     0.0500
 3925.5000     0.3000   -74.4590     2.5750     2.8640     3.8140   126.0970     9.6670     2.4420     0.0730
 3926.0000     0.2740   -74.4130     2.5230     2.7870     3.6050   129.2050     9.7810     2.4330     0.0920
 3926.5000     0.2960   -74.3670     2.4720     2.7100     3.3960   135.9390     9.8980     2.4570     0.1020
 3927.0000     0.3230   -74.3210     2.4040     2.6340     3.1870   142.6120     9.9760     2.4470     0.1060
 3927.5000     0.3350   -74.2750     2.3330     2.5570     2.9780   149.3160    10.0070     2.4230     0.0800
 3928.0000     0.3410   -74.2290     2.2610     2.4870     2.7920   151.5840    10.0420     2.4170     0.0670
 3928.5000     0.3350   -74.1840     2.1900     2.4250     2.7510   139.3750    10.0220     2.4180     0.0800
 3929.0000     0.3280   -74.1390     2.1190     2.3680     3.0440   117.6090     9.8620     2.4170     0.0620
 3929.5000     0.3190   -74.1340     2.0620     2.3110     2.9040   100.7220     9.6970     2.4350     0.0640
 3930.0000     0.3260   -74.2340     2.0380     2.2540     2.6890    96.4110     9.6830     2.4570     0.0750
 3930.5000     0.3410   -74.3300     2.0130     2.2040     2.4640    92.4620     9.6910     2.4230     0.0810
 3931.0000     0.3500   -74.4250     1.9890     2.1610     2.5320    90.7940     9.6260     2.4050     0.0630
 3931.5000     0.3410   -74.5210     1.9640     2.1180     2.6220    90.6750     9.6030     2.3860     0.0570
 3932.0000     0.3350   -74.6170     1.8750     2.0130     2.6770    90.5820     9.6030     2.3600     0.0530
 3932.5000     0.3350   -74.7130     1.7610     1.8920     2.5850    90.5000     9.6020     2.3110     0.0520
 3933.0000     0.3420   -74.8090     1.6470     1.7700     2.4940    91.0170     9.6290     2.2430     0.0540
 3933.5000     0.3530   -74.9030     1.5330     1.6490     2.3130    93.5520     9.7570     2.1980     0.1140
 3934.0000     0.3850   -74.7830     1.5110     1.5580     2.0140    97.7750    10.2330     2.1520     0.1440
 3934.5000     0.4140   -74.6430     1.5050     1.6200     1.7150   102.3500    12.1220     2.0940     0.1050
 3935.0000     0.4280   -74.5020     1.4990     1.6700     1.5430   105.9530    10.8520     2.0790     0.0740
 3935.5000     0.4050   -74.3620     1.4940     1.7200     1.8890   108.6990    10.3250     2.2950     0.0620
 3936.0000     0.3750   -74.2210     1.4880     1.7700     2.4640   108.7950     9.9830     2.4050     0.0540
 3936.5000     0.3660   -74.0810     1.5540     1.8170     2.4420   108.4530     9.6420     2.4010     0.0450
 3937.0000     0.3570   -73.9410     1.6260     1.8570     2.4180   106.7290     9.5460     2.3970     0.0420
 3937.5000     0.3540   -73.8010     1.6990     1.8970     2.4000   105.0360     9.5630     2.4050     0.0430
 3938.0000     0.3570   -73.7310     1.7720     1.9360     2.5340   105.3300     9.5840     2.4190     0.0460
 3938.5000     0.3570   -73.7960     1.8440     1.9760     2.7130   105.9620     9.6050     2.4360     0.0570
 3939.0000     0.3550   -73.8590     1.9170     2.0160     2.6870   106.6600     9.6250     2.4480     0.0670
 3939.5000     0.3480   -73.9210     1.9890     2.1240     2.5850   105.0430     9.6340     2.4360     0.0770
 3940.0000     0.3480   -73.9840     2.0620     2.2780     2.4830   102.6180     9.5670     2.4290     0.0720
 3940.5000     0.3380   -74.0470     2.1760     2.4310     2.4420   100.1080     9.4990     2.4300     0.0570
 3941.0000     0.3270   -74.1100     2.3140     2.5850     3.2920   101.2750     9.4310     2.4310     0.0360
 3941.5000     0.3170   -74.1730     2.4520     2.7380     4.0450   106.1190     9.4020     2.4420     0.0430
 3942.0000     0.3090   -74.2360     2.5900     2.8800     4.0020   110.9560     9.4000     2.4530     0.0500
 3942.5000     0.3170   -74.2980     2.7280     2.9690     3.8420   114.3230     9.3970     2.4540     0.0380
 3943.0000     0.3220   -74.2400     2.9070     3.0520     3.7930   111.4740     9.3950     2.4550     0.0250
 3943.5000     0.3270   -74.1670     2.8520     3.1570     4.0350   109.4690     9.3930     2.4530     0.0150
 3944.0000     0.3270   -74.0930     2.8290     3.1130     4.1960   108.3120     9.3900     2.4670     0.0280
 3944.5000     0.3320   -74.0190     2.8070     3.0520     3.9950   107.6880     9.3880     2.4590     0.0440
 3945.0000     0.3310   -73.9460     2.7840     2.9910     3.8570   107.2320     9.3860     2.4470     0.0470
 3945.5000     0.3330   -73.8720     2.7620     2.9300     3.7930   106.8410     9.3840     2.4370     0.0300
 3946.0000     0.3390   -73.7980     2.7400     2.8800     3.8400   109.1460     9.3950     2.4440     0.0400
 3946.5000     0.3360   -73.7240     2.7260     2.9080     3.8640   110.6000     9.4080     2.4630     0.0540
 3947.0000     0.3300   -73.7230     2.7310     2.9320     3.6350   110.0160     9.4210     2.4660     0.0630
 3947.5000     0.3230   -73.7380     2.7430     2.9560     3.5250   109.1770     9.4120     2.4690     0.0480
 3948.0000     0.3160   -73.7540     2.7560     2.9790     3.8040   107.0970     9.3890     2.4490     0.0330
 3948.5000     0.3100   -73.7690     2.7680     3.0030     4.0750   106.8010     9.3550     2.4560     0.0280
 3949.0000     0.3070   -73.7850     2.7770     3.0270     4.2740   105.3320     9.3210     2.4840     0.0590
 3949.5000     0.3200   -73.8000     2.8790     3.0800     4.2450   101.5700     9.2870     2.5000     0.0820
 3950.0000     0.3300   -73.8160     2.9740     3.2110     4.2210   100.0220     9.2340     2.5050     0.0870
 3950.5000     0.3420   -73.8310     3.0690     3.3420     4.1960    98.5690     9.1770     2.5020     0.0920
 3951.0000     0.3400   -73.8460     3.1650     3.4730     4.4190    97.1120     9.1210     2.5140     0.0930
 3951.5000     0.3330   -73.8620     3.2600     3.6040     4.6640    95.6590     9.0800     2.5190     0.0840
 3952.0000     0.3050   -73.8770     3.3980     3.7680     4.8120    94.1980     9.0680     2.5080     0.0750
