~VERSION INFORMATION
 VERS.                2.0:   CWLS LOG ASCII STANDARD - VERSION 2.0
 WRAP.                 NO:   ONE LINE PER DEPTH STEP
~WELL INFORMATION
#MNEM.UNIT      DATA TYPE    INFORMATION
#----------   ------------   ------------------------------
 STRT.F           35.5000:   START DEPTH
 STOP.F         6235.5000:   STOP DEPTH
 STEP.F            0.5000:   STEP LENGTH
 NULL.          -999.2500:   NO VALUE
 COMP. LAWRENCE-ALLISON ASSOCIATES:   COMPANY
 WELL. LAWRENCE-ALLISON "X" #62-11:   WELL
 FLD .                NPR:   FIELD
 LOC .      S11 T38N R78W:   LOCATION
 CNTY.            NATRONA:   COUNTY
 STAT.            WYOMING:   STATE
 CTRY. UNITED STATES OF AMERICA:   COUNTRY
 SRVC.      DRESSER ATLAS:   SERVICE COMPANY
 DATE.        18-DEC-1982:   LOGDATE
 API .     49025109020000:   API NUMBER
~CURVE INFORMATION
#MNEM.UNIT       API CODE    CURVE DESCRIPTION
#----------   ------------   ------------------------------
 DEPT.F                  :   
 ILM .OHMM   07 120 44 00:   INDUCTION LOG MEDIUM
 ILD .OHMM   07 120 46 00:   DEEP RESISTIVITY
 RFOC.OHMM   07 220 04 00:   RESISTIVITY FOCUSED LOG RES.
 DT  .US/F   60 520 00 00:   DELTA TIME
 TENS.LBS    60 635 01 00:   TENSION FROM SONIC LOG.
 RS  .OHMM   11 220 09 00:   RESISTIVITY SHALLOW
 RD  .OHMM   11 220 10 00:   RESISTIVITY DEEP
 RLL .OHMM   11 220 00 00:   LATEROLOG RESISTIVITY
 SPR .MV     07 010 01 00:   SPONTANEOUS POTENTIAL
 TENR.LBS    07 635 01 00:   TENSION FROM RES. LOG
 CALD.IN     45 280 60 00:   CALIPER FROM DENSITY LOG
 GRD .GAPI   45 310 01 00:   GAMMA RAY FROM DENSITY LOG
 DEN .G/C3   45 350 01 00:   FORMATION FACTOR DENSITY
 DRHO.G/C3   45 356 01 00:   DENSITY CORRECTION
 TEND.LBS    45 635 01 00:   TENSION FROM DENSITY LOG
 CN  .DEC    42 890 00 00:   NEUTRON POROSITY
~PARAMETER INFORMATION
#MNEM.UNIT          VALUE    DESCRIPTION
#----------   ------------   ------------------------------
 EKB .F         5218.0000:   Kelly bushing
 EGL .F         5208.0000:   Ground level
 EDF .F            0.0000:   Drilling floor
 TD  .F         6232.0000:   Total depth
 DATE.        18-DEC-1982:   Date logged
 CLNT.            A2DTECH:   Client Code
 SL  . 971' FNL & 1898' FEL:   Surface Location
 PD  .                 GL:   Permanent Datum
 EPD .F              5208:   Elevation Permanent Datum
 LMF .                 KB:   Log Measured From
 DMF .                 KB:   Drilling Measured From
 DAPD.F                10:   Feet Above Permanent Datum
 DD  .F              6222:   Depth driller
 DL  .F              6232:   Depth logger
 BLI .F              6230:   Bottom log interval
 CS1 .IN            9.625:   Casing size
 CBD1.     9.625" @ 1002':   Casing driller 1
 CBL1.F              1002:   Casing logger 1
 BS1 .IN             8.75:   Bit size
 BSD1.F              6222:   Depth drilled with bit1
 DFT .                KCL:   Type fluid in hole
 DFD .                  9:   Density
 DFV .                 37:   Viscosity
 DFPH.                  8:   pH
 DFL .                8.4:   Fluid loss
 MSS .           FLOWLINE:   Source of sample
 RMS .OHMM            .25:   Rm
 MST .F                60:   Rm Meas. temp.
 RMF .OHMM            .18:   Rmf
 MFST.F                62:   Rmf Meas. temp.
 RMC .OHMM            .32:   Rmc
 MCST.F                60:   Rmc Meas. temp.
 MFSS.               MEAS:   Source Rmf.
 MCSS.               CALC:   Source Rmc.
 RMB .OHMM            .09:   Rm. at BHT
 BHT .F               166:   BHT.
 TCS .HRS               6:   Time Circ. stopped
 MRT .F               166:   Maximum recorded temp.
 LUN .               6274:   Logging unit number
 LUL .               GLTE:   Logging unit location
 ENGI.             RAUTIO:   Recorded By
 WITN.           JENNINGS:   Witnessed by
 ORIG.           5" PRINT:   Origin of data
 UWI .     49025109020000:   Unique Well ID
 DICO. A2D TECHNOLOGIES, INC.:   Digitizing Company
~OTHER INFORMATION
~A  DEPTH      ILM        ILD       RFOC         DT       TENS         RS         RD        RLL        SPR       TENR       CALD        GRD        DEN       DRHO       TEND         CN
# ...
  874.0000    10.7574    10.1807    11.3017  -999.2500  -999.2500  -999.2500  -999.2500  -999.2500   -41.9015   -35.1964    12.4541    71.3776     2.3689    -0.0290     0.4092     0.2526
  874.5000    10.7490    10.1709    11.2943  -999.2500  -999.2500  -999.2500  -999.2500  -999.2500   -42.0679   -34.9698    12.4540    70.1431     2.3704    -0.0289     0.4539     0.2464
  875.0000    10.7393    10.1625    11.2842  -999.2500  -999.2500  -999.2500  -999.2500  -999.2500   -42.0820   -34.7432    12.4538    69.8219     2.3782    -0.0260     0.4987     0.2335
  875.5000    10.7321    10.1558    11.3573  -999.2500  -999.2500  -999.2500  -999.2500  -999.2500   -42.0968   -34.5166    12.4536    72.1909     2.3938    -0.0244     0.5434     0.2234
  876.0000    10.6489    10.1475    11.3471  -999.2500  -999.2500  -999.2500  -999.2500  -999.2500   -42.1095   -34.2844    12.4535    73.9677     2.4258    -0.0198     0.5881     0.2297
  876.5000    10.4919    10.1385    11.3385  -999.2500  -999.2500  -999.2500  -999.2500  -999.2500   -41.9714   -34.0634    12.4533    74.8436     2.4329    -0.0167     0.6328     0.2412
  877.0000    10.4119    10.1309    11.3297  -999.2500  -999.2500  -999.2500  -999.2500  -999.2500   -41.9863   -33.8079    12.4532    74.8144     2.4313    -0.0104     0.6775     0.2465
  877.5000    10.3311    10.1226    11.2420  -999.2500  -999.2500  -999.2500  -999.2500  -999.2500   -41.6994   -33.6103    12.4530    74.4849     2.4282    -0.0073     0.7222     0.2515
  878.0000    10.1794    10.1846    11.2340  -999.2500  -999.2500  -999.2500  -999.2500  -999.2500   -41.7104   -33.3837    12.4538    75.3649     2.4258    -0.0105     0.7670     0.2533
  878.5000    10.0998    10.1755    11.2258  -999.2500  -999.2500  -999.2500  -999.2500  -999.2500   -41.7240   -33.1571    12.4544    76.1091     2.4251    -0.0106     0.8117     0.2539
  879.0000    10.2331    10.3101    11.2172  -999.2500  -999.2500  -999.2500  -999.2500  -999.2500   -41.7376   -32.9079    12.4551    76.8448     2.4212    -0.0075     0.8564     0.2479
  879.5000    10.2968    10.3741    11.2080  -999.2500  -999.2500  -999.2500  -999.2500  -999.2500   -41.7511   -32.7039    12.4557    77.0875     2.4188    -0.0054     0.9011     0.2426
  880.0000    10.3615    10.4371    11.2793  -999.2500  -999.2500  -999.2500  -999.2500  -999.2500   -41.7651   -36.2432    12.4564    74.9520     2.4204    -0.0013     0.9458     0.2375
  880.5000    10.4540    10.5738    11.2686  -999.2500  -999.2500  -999.2500  -999.2500  -999.2500   -41.7800   -36.0272    12.4570    72.2201     2.4227     0.0018     0.9905     0.2397
  881.0000    10.5611    10.6422    11.4178  -999.2500  -999.2500  -999.2500  -999.2500  -999.2500   -41.7919   -35.8006    12.4577    72.1951     2.4251     0.0059     1.0353     0.2450
  881.5000    10.6253    10.6318    11.4083  -999.2500  -999.2500  -999.2500  -999.2500  -999.2500   -41.8054   -35.5726    12.4583    72.7749     2.4274     0.0096     1.0800     0.2499
  882.0000    10.6155    10.6219    11.4002  -999.2500  -999.2500  -999.2500  -999.2500  -999.2500   -41.7476   -35.3474    12.4590    72.4412     2.4282     0.0112     1.1247     0.2518
  882.5000    10.6059    10.5409    11.2338  -999.2500  -999.2500  -999.2500  -999.2500  -999.2500   -41.3805   -35.1208    12.4596    71.2150     2.4266     0.0111     1.1694     0.2521
  883.0000    10.5765    10.4592    11.1490  -999.2500  -999.2500  -999.2500  -999.2500  -999.2500   -41.2402   -34.8844    12.4603    71.1858     2.4235     0.0048     1.2141     0.2542
  883.5000    10.4978    10.3775    11.0619  -999.2500  -999.2500  -999.2500  -999.2500  -999.2500   -40.9534   -34.6677    12.4609    72.0616     2.4196    -0.0010     1.2588     0.2611
  884.0000    10.3252    10.2981    10.9478  -999.2500  -999.2500  -999.2500  -999.2500  -999.2500   -40.7783   -34.4411    12.4616    73.8343     2.4157    -0.0062     1.3036     0.2673
  884.5000    10.2826    10.1477    10.8953  -999.2500  -999.2500  -999.2500  -999.2500  -999.2500   -40.6467   -37.9909    12.4622    75.6110     2.4110    -0.0111     1.3483     0.2597
  885.0000    10.1100     9.9982    10.9620  -999.2500  -999.2500  -999.2500  -999.2500  -999.2500   -40.3904   -37.7643    12.4629    78.5848     2.4048    -0.0143     1.3930     0.2547
  885.5000     9.9841     9.9912    10.9528  -999.2500  -999.2500  -999.2500  -999.2500  -999.2500   -40.2565   -37.5138    12.4635    79.4649     2.3946    -0.0144     1.4377     0.2490
  886.0000     9.9065     9.9139    10.9450  -999.2500  -999.2500  -999.2500  -999.2500  -999.2500   -40.2685   -35.9971    12.4641    78.5306     2.3852    -0.0144     1.4824     0.2474
  886.5000     9.8300     9.7682    10.9359  -999.2500  -999.2500  -999.2500  -999.2500  -999.2500   -40.4329   -33.3082    12.4648    76.7038     2.3845    -0.0145     1.5271     0.2477
  887.0000     9.8214     9.7419    10.9285  -999.2500  -999.2500  -999.2500  -999.2500  -999.2500   -40.4476   -33.0816    12.4654    76.0740     2.3891    -0.0177     1.5719     0.2489
  887.5000     9.8125     9.6851    10.9190  -999.2500  -999.2500  -999.2500  -999.2500  -999.2500   -40.4603   -32.8550    12.4661    77.2543     2.4141    -0.0177     1.6166     0.2489
  888.0000     9.8054     9.6776    10.9118  -999.2500  -999.2500  -999.2500  -999.2500  -999.2500   -40.4751   -32.6284    12.4667    78.7225     2.4391    -0.0146     1.6613     0.2482
  888.5000     9.8656     9.6685    10.9035  -999.2500  -999.2500  -999.2500  -999.2500  -999.2500   -40.4878   -32.3962    12.4674    79.0019     2.4399    -0.0147     1.7060     0.2498
  889.0000     9.8819     9.6617    10.8957  -999.2500  -999.2500  -999.2500  -999.2500  -999.2500   -40.5027   -32.1752    12.4680    77.7673     2.4297    -0.0116     1.7507     0.2513
  889.5000     9.9189     9.6531    10.9627  -999.2500  -999.2500  -999.2500  -999.2500  -999.2500   -40.5143   -31.9373    12.4687    77.1441     2.4180    -0.0100     1.7954     0.2528
  890.0000     9.9790     9.6457    11.0321  -999.2500  -999.2500  -999.2500  -999.2500  -999.2500   -40.5281   -31.7220    12.4678    77.1125     2.4071    -0.0085     1.8402     0.2469
  890.5000    10.0407     9.6382    11.0216  -999.2500  -999.2500  -999.2500  -999.2500  -999.2500   -40.5415   -31.4955    12.4660    77.6923     2.4001    -0.0070     1.8849     0.2437
  891.0000    10.0303     9.6303    11.2453  -999.2500  -999.2500  -999.2500  -999.2500  -999.2500   -40.5551   -33.3621    12.4640    78.2679     2.3923    -0.0118     1.9296     0.2411
  891.5000    10.0929     9.6212    11.3936  -999.2500  -999.2500  -999.2500  -999.2500  -999.2500   -40.5686   -34.8314    12.4621    78.2345     2.3891    -0.0149     2.0218     0.2455
  892.0000    10.0846     9.6821    11.6227  -999.2500  -999.2500  -999.2500  -999.2500  -999.2500   -40.7341   -34.5667    12.4604    76.1032     2.3876    -0.0150    -1.7160     0.2523
  892.5000    10.1463     9.7410    11.6144  -999.2500  -999.2500  -999.2500  -999.2500  -999.2500   -40.7468   -34.3656    12.4587    74.5767     2.3938    -0.0135    -1.5474     0.2561
  893.0000    10.2084     9.8698    11.6874  -999.2500  -999.2500  -999.2500  -999.2500  -999.2500   -40.7616   -34.1390    12.4420    74.8561     2.3977    -0.0119    -5.3149     0.2551
  893.5000    10.3551     9.9991    11.6785  -999.2500  -999.2500  -999.2500  -999.2500  -999.2500   -41.0781   -33.8785    12.4398    74.8227     2.3845    -0.0078    -5.1322     0.2519
  894.0000    10.4784    10.2718    11.7514  -999.2500  -999.2500  -999.2500  -999.2500  -999.2500   -41.5433   -33.6858    12.4531    71.7905     2.3735    -0.0038    -4.9767     0.2485
  894.5000    10.6907    10.5534    11.9057  -999.2500  -999.2500  -999.2500  -999.2500  -999.2500   -42.1593   -33.4197    12.4515    69.0628     2.3642     0.0005    -4.8090     0.2447
  895.0000    11.0585    10.9944    12.0620  -999.2500  -999.2500  -999.2500  -999.2500  -999.2500   -42.9283   -33.2256    12.4495    67.2360     2.3587     0.0036    -4.6403     0.2421
