~VERSION INFORMATION
 VERS.                2.0:   CWLS LOG ASCII STANDARD - VERSION 2.0
 WRAP.                 NO:   ONE LINE PER DEPTH STEP
~WELL INFORMATION
#MNEM.UNIT      DATA TYPE    INFORMATION
#----------   ------------   ------------------------------
 STRT.F           57.0000:   START DEPTH
 STOP.F         5817.0000:   STOP DEPTH
 STEP.F            0.5000:   STEP LENGTH
 NULL.          -999.2500:   NO VALUE
 COMP. DEPARTMENT OF ENERGY:   COMPANY
 WELL. DEPARTMENT NPR 371 "X" #1-4:   WELL
 FLD .              NPR-3:   FIELD
 LOC .       S4 T38N R78W:   LOCATION
 CNTY.            NATRONA:   COUNTY
 STAT.            WYOMING:   STATE
 CTRY. UNITED STATES OF AMERICA:   COUNTRY
 SRVC.       SCHLUMBERGER:   SERVICE COMPANY
 DATE.        25-AUG-2002:   LOGDATE
 API .     49025230480000:   API NUMBER
~CURVE INFORMATION
#MNEM.UNIT       API CODE    CURVE DESCRIPTION
#----------   ------------   ------------------------------
 DEPT.F                  :   
 HCAL.IN     07 280 01 00:   HRLT CALIPER
 RLA1.OHMM   06 120 01 00:   HRLT RESISTIVITY 1
 RLA2.OHMM   06 120 02 00:   HRLT RESISTIVITY 2
 RLA3.OHMM   06 120 03 00:   HRLT RESISTIVITY 3
 RXOZ.OHMM   06 270 04 00:   STAN RES. MICROCFL RESISTIVITY
 TENR.LBS    06 635 01 00:   TENSION FROM RESITIVITY
 GRR .GAPI   07 310 01 00:   GAMMA RAY FROM RESISTIVITY
 SPHI.DEC    60 890 22 00:   SONIC POROSITY SANDSTONE
 DT  .US/F   60 520 00 00:   DELTA TIME
 TENS.LBS    60 635 01 00:   TENSION FROM SONIC
 RT  .OHMM   06 120 00 00:   HRLT TRUE RESISTIVITY
~PARAMETER INFORMATION
#MNEM.UNIT          VALUE    DESCRIPTION
#----------   ------------   ------------------------------
 EKB .F         5196.0000:   Kelly bushing
 EGL .F         5186.0000:   Ground level
 EDF .F         5194.0000:   Drilling floor
 TD  .F         5803.0000:   Total depth
 CLNT.            A2DTECH:   Client Code
 SL  . 794' FEL & 333' FNL:   Surface Location
 PD  .                 GL:   Permanent Datum
 EPD .F              5186:   Elevation Permanent Datum
 LMF .                 KB:   Log Measured From
 DMF .                 KB:   Drilling Measured From
 DAPD.F                10:   Feet Above Permanent Datum
 DATE.        25-AUG-2002:   Date Logged [DD-MMM-YYYY]
 DD  .F              5800:   Depth driller
 DL  .F              5803:   Depth logger
 BLI .F              5803:   Bottom log interval
 TLI .F               656:   Top log interval
 CS1 .IN            9.625:   Casing size
 CBD1.      9.625" @ 660':   Casing driller 1
 CBL1.F               656:   Casing logger 1
 BS1 .IN            8.750:   Bit size
 BSD1.F              5800:   Depth drilled with bit1
 DFT .           GEL CHEM:   Type fluid in hole
 DFD .                  9:   Density
 DFV .                 36:   Viscosity
 DFPH.                8.5:   pH
 DFL .                7.6:   Fluid loss
 MSS .           FLOWLINE:   Source of sample
 RMS .OHMM          0.846:   Rm
 MST .F                90:   Rm Meas. temp.
 RMF .OHMM          0.670:   Rmf
 MFST.F                90:   Rmf Meas. temp.
 MFSS.               MEAS:   Source Rmf.
 RMC .OHMM          1.075:   Rmc
 MCST.F                90:   Rmc Meas. temp.
 MCSS.               CALC:   Source Rmc.
 TCS .HRS            0300:   Time Circ. stopped
 TLAB.HRS            0915:   Time logger at bottom
 MRT .F               156:   Maximum recorded temp.
 LUN .               2211:   Logging unit number
 LUL .             CASPER:   Logging unit location
 ENGI.        J.L. FLORES:   Recorded By
 WITN.        STEVE HARDY:   Witnessed by
 ORIG.        2" 5" PRINT:   Origin of data
 UWI .     49025230480000:   Unique Well ID
 DICO. A2D TECHNOLOGIES, INC.:   Digitizing Company
~OTHER INFORMATION
~A   DEPT     HCAL       RLA1       RLA2       RLA3       RXOZ       TENR         GRR      SPHI         DT       TENS         RT   
# ...
 1002.5000    10.6809     5.8858     5.3654     5.2188     4.9274  1233.3334    96.9501  -999.2500    96.0252   841.8548     6.5387
 1003.0000    10.6957     5.1596     4.9719     5.0412     4.3808  1233.3334    94.4511  -999.2500    97.2076   841.5096     5.1674
 1003.5000    10.6788     7.7123     8.1858     7.9621     4.5354  1233.3334    93.0864  -999.2500    97.6604   826.1733     6.5375
 1004.0000    10.7083     8.7370     8.7727     8.6521     5.5822  1233.3334    91.7216  -999.2500    97.0566   825.8972     7.9897
 1004.5000    10.7230     8.1520     8.1858     8.0732     6.7294  1233.3334    90.5821  -999.2500    95.6226   810.4918     8.4637
 1005.0000    10.7376     7.6062     7.7446     7.6381     6.7298  1233.3334    91.9364  -999.2500    93.8113   810.2156     7.5580
 1005.5000    10.7368     7.7710     8.0732     7.9621     6.7771  1233.3334    96.2364  -999.2500    91.9245   809.9395     7.5055
 1006.0000    10.7363     8.3811     8.5331     8.4742     6.9677  1233.3334   100.7615     0.2943    91.7736   794.5341     8.0424
 1006.5000    10.7357     8.3811     8.4157     8.2427     7.0654  1233.3334    98.7170     0.2940    91.6981   794.2580     8.5584
 1007.0000    10.6747     8.2658     8.2999     8.2999     7.0170  1233.3334    98.4852     0.2949    91.6226   793.9759     8.3818
 1007.5000    10.6440     8.3271     8.6521     8.6521     7.0663  1233.3334    97.7989     0.2915    91.3962   793.6367     8.2090
 1008.0000    10.6282     8.7370     8.8951     9.0191     7.1652  1233.3334    96.4355     0.2903    91.2453   793.3606     8.2807
 1008.5000    10.6429     8.9826     9.0191     9.0818     7.3669  1233.3334    96.2024     0.2897    91.0943   793.0154     8.8566
 1009.0000    10.6574     8.9826     8.8337     8.8845     7.4700  1233.3334   100.2744     0.2888    90.9434   777.6791     8.9176
 1009.5000    10.6721     8.7370     8.6521     8.6521     7.4706  1233.3334    98.0033     0.2867    90.5660   777.4030     8.9167
 1010.0000    10.7015     8.4981     8.5924     8.6521     7.3683  1233.3334   100.9437     0.2849    90.2642   777.1085     8.6724
 1010.5000    10.7163     8.6167     8.7727     8.7727     7.3689  1233.3334    95.9522     0.2846    90.6415   791.9109     8.4936
 1011.0000    10.7308     8.7370     8.9569     8.8951     7.3694  1233.3334    95.9470     0.2867    91.0238   791.5658     8.4929
 1011.5000    10.7302     8.9826     9.1449     9.0191     7.5768  1233.3334    95.0354     0.2879    91.3208   791.2206     8.6702
 1012.0000    10.7295     9.1079     9.1449     9.1449     7.6829  1233.3334    94.1239     0.2903    91.3208   790.9445     8.8513
 1012.5000    10.6987     9.1713     9.0818     9.0191     7.8991  1233.3334    97.0643     0.2903    91.3208   790.6626     9.0375
 1013.0000    10.6679     9.1079     9.0191     9.1449     7.8996  1233.3334    94.7919     0.2900    91.1698   790.3232     9.2249
 1013.5000    10.6523     8.9826     9.1449     9.1449     8.0103  1233.3334    91.1600     0.2903    91.2453   790.0471     9.3529
 1014.0000    10.6670     8.5572     8.8951     8.7727     8.0664  1233.3334    88.6623     0.2915    91.3962   789.7020     8.9097
 1014.5000    10.6662     8.4981     8.5924     8.4742     8.1230  1233.3334    89.5647     0.2927    91.6226   804.5180     8.4876
 1015.0000    10.6808     8.4981     8.5331     8.4157     8.0119  1233.3334    89.7860     0.2937    91.7736   804.2168     8.4284
 1015.5000    10.7105     8.6167     8.5331     8.4742     7.3740  1233.3334    89.7782     0.2946    91.9245   818.9250     8.3119
 1016.0000    10.7252     8.6167     8.4157     8.2999     7.0746  1233.3334    89.7730     0.2949    92.2264   818.6489     8.2537
 1016.5000    10.7244     8.4394     8.1293     8.1858     7.0751  1233.3334    92.2589     0.2988    92.5283   818.3727     8.5436
 1017.0000    10.7238     8.0398     7.9621     8.0732     7.0756  1233.3334    95.8790  -999.2500    93.0566   818.0276     8.4840
 1017.5000    10.7233     7.8200     7.8526     7.9621     6.8828  1233.3334    97.4599  -999.2500    93.4340   817.7711     7.8614
 1018.0000    10.7380     7.8200     7.8526     7.9072     6.6954  1233.3334    96.7736  -999.2500    93.7358   802.4096     7.6993
 1018.5000    10.7526     7.7123     7.7446     7.7968     6.6038  1233.3334    98.3545  -999.2500    94.3396   802.0700     7.7521
 1019.0000    10.7518     7.5015     7.5330     7.7446     6.6502  1233.3334    96.0834  -999.2500    94.6415   801.7939     7.6979
 1019.5000    10.7513     7.2964     7.3781     7.7487     6.6047  1233.3334   100.1554  -999.2500    94.9434   800.6505     7.5391
 1020.0000    10.7657     7.3982     7.5330     7.8526     6.6052  1233.3334    96.7514  -999.2500    95.0943   786.1124     7.2822
 1020.5000    10.7806     7.6062     7.7446     7.8526     6.6057  1233.3334    94.7069  -999.2500    95.0189   785.8362     7.1320
 1021.0000    10.7950     7.7660     7.7446     7.7446     6.6101  1233.3334    94.9269  -999.2500    94.9409   800.6204     7.4852
 1021.5000    10.7942     7.7123     7.7446     7.6381     6.6987  1233.3334    99.9066  -999.2500    94.7924   800.2751     7.6416
 1022.0000    10.7786     7.6062     7.7446     7.5854     6.6070  1233.3334   101.0356  -999.2500    94.7924   799.9991     7.7475
 1022.5000    10.7781     7.5536     7.5330     7.5854     6.5166  1233.3334    97.6316  -999.2500    94.8679   799.6539     7.7467
 1023.0000    10.7774     7.5015     7.5330     7.6381     6.5172  1233.3334   100.1175  -999.2500    94.8679   799.3777     7.5869
 1023.5000    10.7923     7.6062     7.6381     7.7446     6.5176  1233.3334    99.2059  -999.2500    94.8679   799.0963     7.4820
 1024.0000    10.7915     7.8200     7.7984     7.8526     6.6090  1233.3334   101.6931  -999.2500    94.4906   798.7565     7.4813
 1024.5000    10.7757     7.9842     8.0732     7.9621     6.7015  1233.3334    99.8739  -999.2500    94.1887   798.4940     7.5850
 1025.0000    10.7601     8.1520     8.1858     8.1293     6.7954  1233.3334   101.9080  -999.2500    93.8868   798.1353     7.9081
 1025.5000    10.7596     8.1520     8.1858     8.1858     6.7958  1233.3334   100.5406  -999.2500    93.6604   797.8591     8.1834
 1026.0000    10.7439     7.8743     7.7963     7.9621     6.8911  1233.3334   100.3088  -999.2500    93.5849   812.6506     8.3544
 1026.5000    10.7283     7.2964     7.0779     7.1270     6.7967  1233.3334    98.2643  -999.2500    94.0377   812.2981     8.3537
 1027.0000    10.7126     6.6678     6.7405     6.5587     6.1697  1233.3334    95.5387  -999.2500    95.0943   812.0482     8.1813
 1027.5000    10.7119     7.1959     7.2264     7.5854     5.8377  1233.3334    93.7208  -999.2500    95.5472   811.7470     7.3232
 1028.0000    10.7114     7.9291     7.9621     7.8526     6.3877  1233.3334    91.4497  -999.2500    95.6277   811.4007     6.5551
 1028.5000    10.7109     7.7123     7.8526     7.6381     6.6130  1233.3334    96.2015  -999.2500    95.0943   796.0643     7.6853
 1029.0000    10.7102     7.3982     7.5826     7.3252     6.7057  1233.3334    98.4621  -999.2500    94.8679   795.7831     8.0104
 1029.5000    10.7097     7.1959     7.2264     6.9323     6.4334  1233.3334   100.4962  -999.2500    95.2453   795.4819     7.8997
 1030.0000    10.7092     6.9992     6.9292     6.9387     6.0037  1233.3334    97.7719  -999.2500    95.8491   795.1669     7.5254
 1030.5000    10.6934     7.1959     7.3272     7.5330     6.0041  1233.3334   101.3907  -999.2500    96.0000   794.8217     7.1196
 1031.0000    10.6929     7.8743     8.0175     7.9621     6.3463  1233.3334   102.2910  -999.2500    95.9245   794.5457     6.9727
 1031.5000    10.6773     7.5015     7.4294     7.5330     6.4352  1233.3334   101.6060  -999.2500    95.8491   794.2770     7.3181
 1032.0000    10.6766     7.1959     7.2218     7.3272     6.1739  1233.3334    99.3362  -999.2500    95.8491   808.9846     8.1178
 1032.5000    10.6761     7.1959     7.4294     7.5854     6.0893  1233.3334   100.9145  -999.2500    95.8617   804.7532     7.2664
