~VERSION INFORMATION
 VERS.                2.0:   CWLS LOG ASCII STANDARD - VERSION 2.0
 WRAP.                 NO:   ONE LINE PER DEPTH STEP
~WELL INFORMATION
#MNEM.UNIT      DATA TYPE    INFORMATION
#----------   ------------   ------------------------------
 STRT.F          906.0000:   START DEPTH
 STOP.F         3426.0000:   STOP DEPTH
 STEP.F            0.5000:   STEP LENGTH
 NULL.          -999.2500:   NO VALUE
 COMP.    FENIX & SCISSON:   COMPANY
 WELL. FENIX NPR 3 "AX" #46-11:   WELL
 FLD .                NPR:   FIELD
 LOC .      S11 T38N R78W:   LOCATION
 CNTY.            NATRONA:   COUNTY
 STAT.            WYOMING:   STATE
 CTRY. UNITED STATES OF AMERICA:   COUNTRY
 SRVC.       SCHLUMBERGER:   SERVICE COMPANY
 DATE.        16-MAY-1981:   LOGDATE
 API .     49025108720000:   API NUMBER
~CURVE INFORMATION
#MNEM.UNIT       API CODE    CURVE DESCRIPTION
#----------   ------------   ------------------------------
 DEPT.F                  :   
 SPR .MV     07 010 01 00:   SPONTANEOUS POTENTIAL
 ILD .OHMM   07 120 46 00:   INDUCTION LOG DEEP RESISTIVITY
 SFL .OHMM   07 220 01 00:   SHALLOW FOCUSED LOG RESISTIVITY
 TENR.LBS    07 635 01 00:   TENSION
 ILM .OHMM   07 120 44 00:   INDUCTION LOG MEDIUM RESISTIVITY
 CALD.IN     45 280 60 00:   CALIPER FROM DENSITY LOG
 GRD .GAPI   45 310 01 00:   GAMMA RAY FROM DENSITY LOG
 RHOB.G/C3   45 350 01 00:   BULK DENSITY
 TEND.LBS    45 635 01 00:   TENSION FROM DENSITY LOG
 CORR.G/C3   45 356 01 00:   DENSITY CORRECTION
~PARAMETER INFORMATION
#MNEM.UNIT          VALUE    DESCRIPTION
#----------   ------------   ------------------------------
 EKB .F         5199.0000:   Kelly bushing
 EGL .F         5189.0000:   Ground level
 EDF .F            0.0000:   Drilling floor
 TD  .F         3422.0000:   Total depth
 DATE.        16-MAY-1981:   Date logged
 CLNT.            A2DTECH:   Client Code
 SL  . 1867' FSL & 2100' FWL:   Surface Location
 PD  .                 GL:   Permanent Datum
 EPD .F              5189:   Elevation Permanent Datum
 LMF .                 KB:   Log Measured From
 DMF .                 KB:   Drilling Measured From
 DAPD.F                10:   Feet Above Permanent Datum
 DD  .F              3421:   Depth driller
 DL  .F              3422:   Depth logger
 BLI .F              3416:   Bottom log interval
 TLI .F               926:   Top log interval
 CS1 .IN            8.625:   Casing size
 CBD1.      8.625" @ 925':   Casing driller 1
 CBL1.F               926:   Casing logger 1
 BS1 .IN            7.875:   Bit size
 BSD1.F              3421:   Depth drilled with bit1
 DFT .                FGM:   Type fluid in hole
 DFD .                8.5:   Density
 DFV .                 60:   Viscosity
 DFPH.                  9:   pH
 DFL .                 12:   Fluid loss
 MSS .               PITS:   Source of sample
 RMS .OHMM           1.17:   Rm
 MST .F                73:   Rm Meas. temp.
 RMF .OHMM           1.03:   Rmf
 MFST.F                73:   Rmf Meas. temp.
 MFSS.               MEAS:   Source Rmf.
 RMB .OHMM            .71:   Rm. at BHT
 BHT .F               120:   BHT.
 TCS .HRS            1200:   Time Circ. stopped
 TLAB.HRS            1745:   Time logger at bottom
 MRT .F               120:   Maximum recorded temp.
 LUN .               8133:   Logging unit number
 LUL .               CSPR:   Logging unit location
 ENGI.             TAYLOR:   Recorded By
 WITN.              RIVAS:   Witnessed by
 ORIG.           5" PRINT:   Origin of data
 UWI .     49025108720000:   Unique Well ID
 DICO. A2D TECHNOLOGIES, INC.:   Digitizing Company
~OTHER INFORMATION
~A   DEPT      SPR        ILD        SFL       TENR        ILM       CALD         GRD        RHOB     TEND        CORR  
# ...
 2715.0000     9.2650     6.7210     8.1210   985.7300     6.4660     8.2920   157.7880     2.5530  1019.0760     0.0060
 2715.5000     9.2570     6.8720     8.5040   985.8990     6.6520     8.2910   155.4730     2.5520  1019.0760     0.0080
 2716.0000     9.2480     7.0230     8.8870   986.0680     6.8380     8.2900   153.8140     2.5530  1019.0760     0.0110
 2716.5000     9.2400     7.1730     9.4400   986.2370     7.0230     8.2890   152.1540     2.5560  1019.0760     0.0130
 2717.0000     9.2310     7.1730     9.2990   986.4060     7.1730     8.2880   150.4870     2.5580  1019.0760     0.0170
 2717.5000     9.2230     7.0000     9.0640   986.5750     7.1730     8.2880   148.7830     2.5540  1019.0760     0.0120
 2718.0000     9.2140     6.7800     8.8290   986.7430     7.0460     8.2880   148.6480     2.5440  1019.0760     0.0070
 2718.5000     9.2060     6.5610     8.4100   986.9120     6.9170     8.2880   150.6510     2.5340  1019.0760     0.0020
 2719.0000     9.1970     6.3410     7.9350   987.0810     6.7880     8.2880   152.8300     2.5350  1019.0760     0.0050
 2719.5000     9.1890     6.1960     7.4600   987.2500     6.6590     8.2880   156.4410     2.5390  1019.0760     0.0060
 2720.0000     9.1810     6.2130     7.0430   987.4190     6.5450     8.2880   152.8040     2.5390  1019.0760     0.0040
 2720.5000     9.1720     6.2320     7.3060   987.5880     6.5530     8.2880   149.0360     2.5380  1019.0760     0.0020
 2721.0000     9.1640     6.2510     7.4410   987.7570     6.5780     8.2880   145.4770     2.5410  1019.0760     0.0000
 2721.5000     9.1550     6.2700     7.8910   987.9260     6.6030     8.2880   146.2120     2.5450  1019.0760     0.0010
 2722.0000     9.1470     6.2890     8.3010   988.0950     6.6280     8.2880   150.6110     2.5510  1019.0760     0.0010
 2722.5000     9.1380     6.3100     8.7110   988.2640     6.6530     8.2880   154.3570     2.5620  1019.0760     0.0030
 2723.0000     9.1300     6.2290     9.1010   988.4330     6.6660     8.2880   155.6040     2.5720  1019.0760     0.0060
 2723.5000     9.1210     6.1230     8.9720   988.6020     6.5640     8.2880   155.8160     2.5710  1019.0760     0.0090
 2724.0000     9.1130     5.8220     8.4310   988.7710     6.4660     8.2880   162.6940     2.5560  1019.0760     0.0140
 2724.5000     9.1040     5.5200     7.6940   988.9400     6.3680     8.2880   172.4630     2.5440  1019.0760     0.0180
 2725.0000     9.0960     5.2180     6.2420   989.1090     6.1550     8.2880   182.0110     2.5430  1019.0760     0.0220
 2725.5000     9.0880     4.9730     4.9730   989.2770     5.7700     8.2880   186.5990     2.5430  1019.0760     0.0200
 2726.0000     9.0790     4.9730     5.4320   989.4460     5.3860     8.2880   186.5640     2.5430  1019.0760     0.0100
 2726.5000     9.0710     5.5080     6.6390   989.6150     5.0650     8.2880   148.1180     2.5450  1019.0760     0.0020
 2727.0000     9.0620     6.0830     7.8450   989.7840     5.5260     8.2880   132.7340     2.5490  1019.0760     0.0010
 2727.5000     9.0540     6.3000     9.0510   989.9530     5.8640     8.2880   125.4590     2.5530  1019.0760     0.0040
 2728.0000     9.0450     6.5290    10.3450   990.1220     6.2350     8.2880   126.3360     2.5590  1019.0760     0.0070
 2728.5000     9.0370     6.7570     9.9890   990.2910     6.5590     8.2880   131.2340     2.5690  1019.0760     0.0090
 2729.0000     9.0280     6.9650     9.6050   990.4600     6.8840     8.2880   134.3410     2.5760  1019.0760     0.0120
 2729.5000     9.0200     7.1250     9.2210   990.6290     7.2080     8.2880   135.5290     2.5710  1019.0760     0.0110
 2730.0000     9.0120     7.3060     8.9360   990.7980     7.4410     8.2880   135.7150     2.5630  1019.0760     0.0100
 2730.5000     9.0030     7.1590     8.9360   990.9670     7.3250     8.2880   135.7720     2.5650  1019.0760     0.0120
 2731.0000     8.9950     6.9920     8.9840   991.1360     7.1930     8.2880   133.0890     2.5750  1019.0760     0.0160
 2731.5000     8.9860     6.8250     9.0290   991.3050     7.0610     8.2880   130.4090     2.5840  1019.0760     0.0200
 2732.0000     8.9780     6.6580     9.1010   991.4740     6.9290     8.2880   128.8790     2.5770  1019.0760     0.0200
 2732.5000     8.9690     6.4270     8.5950   991.6430     6.7980     8.2880   131.5840     2.5600  1019.0760     0.0100
 2733.0000     8.9610     6.5180     7.1730   991.8110     6.6660     8.2880   135.6170     2.5460  1019.0760     0.0020
 2733.5000     8.9520     6.6660     7.1730   991.9800     6.5340     8.2880   137.5930     2.5530  1019.0760     0.0050
 2734.0000     8.9440     6.5620     7.1730   992.1490     6.4270     8.2880   137.1340     2.5630  1019.0760     0.0090
 2734.5000     8.9360     6.3860     8.0180   992.3180     6.4270     8.2880   138.8880     2.5600  1019.0760     0.0070
 2735.0000     8.9270     6.3100     8.6140   992.4870     6.6530     8.2890   141.2380     2.5490  1019.0760     0.0030
 2735.5000     8.9190     6.3100     8.0530   992.6560     6.8420     8.2890   140.2530     2.5370  1019.0760    -0.0020
 2736.0000     8.9100     6.5040     7.5700   992.8250     7.0310     8.2900   138.4690     2.5270  1019.0760    -0.0030
 2736.5000     8.9020     6.7080     7.5780   992.9940     7.2200     8.2900   134.3390     2.5330  1019.0760    -0.0030
 2737.0000     8.8960     6.9130     8.2370   993.1630     7.4090     8.2910   130.0420     2.5520  1019.0760     0.0020
 2737.5000     8.9230     7.1180     8.9520   993.3320     7.5990     8.2910   125.7650     2.5730  1019.0760     0.0100
 2738.0000     8.9520     7.3220     9.6660   993.5010     7.7880     8.2920   121.8950     2.5880  1019.0760     0.0180
 2738.5000     8.9810     7.5270    10.3800   993.6700     7.9770     8.2920   118.6840     2.5890  1019.0760     0.0200
 2739.0000     9.0100     7.7180    11.3370   993.8390     8.1540     8.2930   118.4390     2.5810  1019.0760     0.0170
 2739.5000     9.0390     7.6410    10.9850   994.0080     8.0370     8.2930   121.3360     2.5740  1019.0760     0.0150
 2740.0000     9.0690     7.5680    10.4100   994.1770     7.9270     8.2940   126.5130     2.5740  1019.0760     0.0170
 2740.5000     9.0980     7.4950     9.8350   994.3450     7.8160     8.2950   131.8050     2.5750  1019.0760     0.0180
 2741.0000     9.1270     7.4220     9.2690   994.5140     7.7060     8.2950   137.1520     2.5750  1019.0760     0.0200
 2741.5000     9.1560     7.3490     9.0260   994.6830     7.5960     8.2960   140.1940     2.5670  1019.0760     0.0180
 2742.0000     9.1850     7.3060     8.6290   994.8520     7.4860     8.2960   141.6750     2.5540  1019.0760     0.0100
 2742.5000     9.2140     7.2870     8.3050   995.0210     7.4410     8.2970   143.3990     2.5410  1019.0760     0.0010
 2743.0000     9.2430     7.2540     8.9140   995.1900     7.4410     8.2970   140.7410     2.5470  1019.0760     0.0010
 2743.5000     9.2730     7.2220     9.4290   995.3590     7.4410     8.2980   138.4320     2.5600  1019.0760     0.0070
 2744.0000     9.3020     7.1890     9.9730   995.5280     7.4110     8.2980   136.9940     2.5720  1019.0760     0.0130
 2744.5000     9.3310     7.1570     9.5490   995.6970     7.3720     8.2990   139.2460     2.5710  1019.0760     0.0130
 2745.0000     9.3600     7.1240     9.1000   995.8660     7.3340     8.2990   139.9410     2.5670  1020.5270     0.0120
 2745.5000     9.3890     7.0920     8.6510   996.0350     7.2950     8.3000   142.2230     2.5640  1022.4080     0.0120
 2746.0000     9.4180     7.0590     8.1540   996.2040     7.2560     8.3000   144.3950     2.5720  1024.2900     0.0180
 2746.5000     9.4480     6.9860     8.5650   996.3730     7.2170     8.3010   141.8080     2.5840  1026.1710     0.0300
 2747.0000     9.4770     6.8680     9.0240   996.5420     7.1730     8.3010   139.3070     2.5900  1028.0530     0.0310
 2747.5000     9.5060     6.7510     9.2690   996.7110     7.0610     8.3020   139.4580     2.5910  1029.9351     0.0270
 2748.0000     9.5350     6.6340     9.1470   996.8800     6.9310     8.3020   139.8540     2.5900  1031.8160     0.0230
