~VERSION INFORMATION
 VERS.                2.0:   CWLS LOG ASCII STANDARD - VERSION 2.0
 WRAP.                 NO:   ONE LINE PER DEPTH STEP
~WELL INFORMATION
#MNEM.UNIT      DATA TYPE    INFORMATION
#----------   ------------   ------------------------------
 STRT.F          637.0000:   START DEPTH
 STOP.F         3158.0000:   STOP DEPTH
 STEP.F            0.5000:   STEP LENGTH
 NULL.          -999.2500:   NO VALUE
 COMP.    FENIX & SCISSON:   COMPANY
 WELL.  FENIX "AX" #34-33:   WELL
 FLD .             NPR #3:   FIELD
 LOC .      S33 T39N R78W:   LOCATION
 CNTY.            NATRONA:   COUNTY
 STAT.            WYOMING:   STATE
 CTRY. UNITED STATES OF AMERICA:   COUNTRY
 SRVC.       SCHLUMBERGER:   SERVICE COMPANY
 DATE.        15-APR-1977:   LOGDATE
 API .     49025103450000:   API NUMBER
~CURVE INFORMATION
#MNEM.UNIT       API CODE    CURVE DESCRIPTION
#----------   ------------   ------------------------------
 DEPT.F                  :   
 CALD.IN     45 280 60 00:   CALIPER FROM DENSITY LOG
 GRD .GAPI   45 310 01 00:   GAMMA RAY FROM DENSITY LOG
 RHOB.G/C3   45 350 01 00:   BULK DENSITY
 CORR.G/C3   45 356 01 00:   DENSITY CORRECTION
 SPR .MV     07 010 01 00:   SPONTANEOUS POTENTIAL
 SFLU.OHMM   07 220 01 00:   SPHERICALLY FOCUSED LOG UNAVERAGED RESISTIVITY
 ILD .OHMM   07 120 46 00:   INDUCTION LOG DEEP RESISTIVITY
 ILM .OHMM   07 120 44 00:   INDUCTION LOG MEDIUM RESISTIVITY
~PARAMETER INFORMATION
#MNEM.UNIT          VALUE    DESCRIPTION
#----------   ------------   ------------------------------
 EKB .F         5196.0000:   Kelly bushing
 EGL .F         5185.0000:   Ground level
 EDF .F            0.0000:   Drilling floor
 TD  .F         3159.0000:   Total depth
 DATE.        15-APR-1977:   Date logged
 CLNT.            A2DTECH:   Client Code
 SL  . 2132' FNL & 1750' FWL:   Surface Location
 PD  .                 GL:   Permanent Datum
 EPD .F              5185:   Elevation Permanent Datum
 LMF .                 KB:   Log Measured From
 DMF .                 KB:   Drilling Measured From
 DAPD.F                11:   Feet Above Permanent Datum
 DD  .F              3156:   Depth driller
 DL  .F              3159:   Depth logger
 BLI .F              3153:   Bottom log interval
 TLI .F               637:   Top log interval
 CS1 .IN            8.625:   Casing size
 CBD1.      8.625" @ 637':   Casing driller 1
 CBL1.F               637:   Casing logger 1
 BS1 .IN            7.875:   Bit size
 BSD1.F              3156:   Depth drilled with bit1
 DFT .                FGM:   Type fluid in hole
 DFD .                7.5:   Density
 DFV .                 35:   Viscosity
 DFPH.                8.5:   pH
 DFL .                  9:   Fluid loss
 MSS .                PIT:   Source of sample
 RMS .OHMM            .48:   Rm
 MST .F                60:   Rm Meas. temp.
 RMF .OHMM            .28:   Rmf
 MFST.F                60:   Rmf Meas. temp.
 MFSS.               MEAS:   Source Rmf.
 RMB .OHMM            .24:   Rm. at BHT
 BHT .F               120:   BHT.
 TCS .HRS            0200:   Time Circ. stopped
 MRT .F               120:   Maximum recorded temp.
 LUN .               7680:   Logging unit number
 LUL .               CSPR:   Logging unit location
 ENGI.             TAYLOR:   Recorded By
 WITN.         PETTINGILL:   Witnessed by
 ORIG.           5" PRINT:   Origin of data
 UWI .     49025103450000:   Unique Well ID
 DICO. A2D TECHNOLOGIES, INC.:   Digitizing Company
 TLAB.               0530:   Time logger at bottom
~OTHER INFORMATION
~A   DEPT       CALD      GRD       RHOB       CORR        SPR         SFLU        ILD        ILM 
# ...
  961.0000     9.1176    89.5162     2.5681     0.1006   -55.8636     8.9514     8.2015     7.1123
  961.5000     9.1374    89.3172     2.5741     0.1236   -55.8636     8.8699     8.2818     7.1785
  962.0000     9.1370    90.9053     2.5541     0.1186   -55.6648     8.8704     8.3943     7.2453
  962.5000     9.1366    92.8905     2.5391     0.0896   -55.6648     8.7897     8.3945     7.3802
  963.0000     9.1361    95.4714     2.5621     0.1086   -55.4660     8.9534     8.4993     7.5054
  963.5000     9.1357    97.8536     2.5631     0.1126   -55.4660     9.2895     8.6054     7.6578
  964.0000     9.1352    98.8459     2.5691     0.0737   -55.0684     9.6382     9.0372     7.7289
  964.5000     9.1348    97.6541     2.5761     0.0756   -55.2672     9.8177     9.0373     7.8728
  965.0000     9.1343    95.4695     2.5780     0.0716   -55.0684     9.8182     9.0661     7.9457
  965.5000     9.1339    95.0720     2.5780     0.0577   -55.0684     9.8187     9.0950     7.9466
  966.0000     9.1334    92.6890     2.5671     0.0617   -54.4720     9.7293     9.1226     7.8741
  966.5000     9.1330    92.8871     2.5581     0.0427   -55.0684     9.6406     9.0894     7.8745
  967.0000     9.1325    95.0707     2.5501     0.0267   -55.0684     9.5530     9.0563     7.8746
  967.5000     9.1321    96.0629     2.5491     0.0307   -54.8696     9.6415     9.0234     7.8582
  968.0000     9.1316    92.2903     2.5551     0.0307   -54.8696     9.8213     8.9906     7.8418
  968.5000     9.1312    90.3045     2.5710     0.0467   -54.6708     9.9126     8.9578     7.8255
  969.0000     9.1307    88.7158     2.5770     0.0507   -54.4720     9.9131     8.9253     7.8048
  969.5000     9.1303    87.9199     2.5720     0.0467   -54.4720     9.9135     8.8928     7.8050
  970.0000     9.1298    92.6857     2.5720     0.0417   -54.6708     9.8234     8.8604     7.8776
  970.5000     9.1294    94.8691     2.5690     0.0496   -54.4720     9.7339     8.8282     7.8780
  971.0000     9.1289    94.6701     2.5461     0.0506   -54.4720     9.3828     8.7961     7.7349
  971.5000     9.1285    93.2800     2.5451     0.0347   -54.4720     9.2123     8.7641     7.5945
  972.0000     9.1280    89.3090     2.5630     0.0506   -55.2672     9.1285     8.7322     7.4563
  972.5000     9.1276    89.1101     2.5800     0.0703   -55.0684     9.0454     8.7004     7.3208
  973.0000     9.1271    87.7201     2.5780     0.0656   -55.2672     8.9629     8.6687     7.2543
  973.5000     9.1267    87.3213     2.5710     0.0626   -55.2672     8.9635     8.6372     7.2547
  974.0000     9.1262    92.6807     2.5660     0.0656   -55.4660     8.9640     8.6058     7.2551
  974.5000     9.1258    90.4982     2.5570     0.0656   -55.4660     8.9645     8.5745     7.2555
  975.0000     9.1254    87.9172     2.5540     0.0636   -55.4660     8.9650     8.5433     7.1894
  975.5000     9.1249    86.7257     2.5740     0.0586   -55.6648     8.9653     8.5122     7.2048
  976.0000     9.1245    86.3284     2.5820     0.0925   -55.6648     8.8838     8.4812     7.2205
  976.5000     9.1240    93.8712     2.5960     0.0985   -55.4660     8.8843     8.4504     7.2361
  977.0000     9.1236    96.6498     2.5959     0.1005   -55.0684     8.8848     8.4081     7.2518
  977.5000     9.1231    97.8404     2.5570     0.0855   -55.2672     8.8854     8.4031     7.2676
  978.0000     9.1227    94.6639     2.5331     0.0685   -55.0684     8.8858     8.3981     7.2833
  978.5000     9.1222    95.8544     2.5291     0.0685   -54.8696     8.8861     8.3931     7.2992
  979.0000     9.1218    95.0600     2.5221     0.0775   -54.8696     8.8868     8.3882     7.3150
  979.5000     9.1213    93.6701     2.5460     0.0865   -54.8696     8.8872     8.3832     7.2597
  980.0000     9.1209    93.6697     2.5380     0.0815   -54.4720     8.8878     8.3782     7.2599
  980.5000     9.1204    94.0662     2.5520     0.0835   -54.4720     8.8882     8.3732     7.2601
  981.0000     9.1200    95.0582     2.5550     0.0825   -54.2732     8.8887     8.3682     7.2426
  981.5000     9.1195    95.4547     2.5480     0.0755   -54.2732     8.8892     8.3633     7.2251
  982.0000     9.1191    95.6528     2.5300     0.0755   -54.2732     8.8896     8.3583     7.2077
  982.5000     9.1186    95.8508     2.5201     0.0695   -54.2732     8.8901     8.3533     7.1903
  983.0000     9.1182    94.6595     2.5181     0.0625   -54.0744     8.8906     8.3484     7.1730
  983.5000     9.1177    95.0560     2.5480     0.0745   -54.0744     8.8910     8.3434     7.1557
  984.0000     9.1173    97.2388     2.5630     0.0805   -54.4720     8.8916     8.3385     7.1310
  984.5000     9.1168    99.0245     2.5550     0.0685   -54.4720     8.8921     8.3335     7.1312
  985.0000     9.1164    98.6271     2.5450     0.0665   -54.4720     8.8925     8.3286     7.1315
  985.5000     9.1159    95.2527     2.5470     0.0625   -54.4720     8.8115     8.3236     7.1385
  986.0000     9.1155    93.4661     2.5550     0.0795   -54.2732     8.8121     8.3187     7.1455
  986.5000     9.1150    90.2901     2.5620     0.0825   -54.0744     8.8126     8.3137     7.1526
  987.0000     9.1146    87.3128     2.5480     0.0805   -54.0744     8.8130     8.3088     7.1596
  987.5000     9.1141    86.3186     2.5350     0.0695   -54.0744     8.8134     8.3039     7.1666
  988.0000     9.1137    97.4335     2.5410     0.0695   -53.2791     8.7334     8.2989     7.1737
  988.5000     9.1133    99.2192     2.5460     0.0665   -53.8755     8.7338     8.2940     7.1345
  989.0000     9.1128    99.2187     2.5550     0.0744   -53.4779     8.7340     8.2891     7.2008
  989.5000     9.1124    97.0352     2.5569     0.0824   -53.4779     8.7346     8.2841     7.2574
  990.0000     9.1119    94.6533     2.5540     0.0824   -53.4779     8.8158     8.2792     7.3144
  990.5000     9.1115    94.2560     2.5619     0.0874   -53.4779     8.8977     8.2743     7.3719
  991.0000     9.1110    94.2556     2.5709     0.0994   -53.4779     8.9805     8.2676     7.4038
  991.5000     9.1106    93.4613     2.5609     0.0934   -53.2791     9.1476     8.2680     7.6113
  992.0000     9.1101    91.2780     2.5499     0.0784   -53.2791     9.2327     8.2684     7.8245
  992.5000     9.1097    90.2854     2.5509     0.0854   -53.2791     9.4045     8.2688     7.8972
  993.0000     9.1092    90.2850     2.5579     0.0684   -53.2791     9.7573     8.2693     7.8977
  993.5000     9.1088    91.6736     2.5729     0.0804   -53.2791     9.6685     8.2697     7.8258
  994.0000     9.1083    94.8482     2.5679     0.0834   -52.2851     9.2346     8.2701     7.6134
  994.5000     9.1079    95.4430     2.5529     0.0744   -53.2791     8.9839     8.2707     7.3388
  995.0000     9.1074    96.6333     2.5340     0.0614   -53.2791     9.1511     8.3444     7.2056
  995.5000     9.1070    99.2124     2.5290     0.0514   -53.2791     9.2361     8.4188     7.1401
  996.0000     9.1065    99.0135     2.5290     0.0185   -53.2791     9.4949     8.4938     7.1404
  996.5000     9.1061    99.2114     2.5419     0.0205   -53.6767     9.1526     8.5695     7.1408
  997.0000     9.1056   100.9967     2.5509     0.0414   -53.6767     9.0693     8.6459     7.2072
  997.5000     9.1052   101.9883     2.5479     0.0474   -53.6767     9.2381     8.7230     7.3413
  998.0000     9.1047    97.2257     2.5469     0.0474   -53.6767     9.4969     8.8238     7.5470
  998.5000     9.1043    96.6300     2.5459     0.0404   -53.4779     9.9441     8.8239     7.6168
  999.0000     9.1038    97.8200     2.5469     0.0354   -53.6767     9.7635     8.8241     7.8493
  999.5000     9.0954    99.4068     2.5589     0.0484   -53.6767     9.7640     8.8919     8.1996
 1000.0000     9.0954    99.4063     2.5519     0.0434   -53.6767     9.9457     8.9603     8.1247
 1000.5000     9.0959    95.3996     2.5479     0.0294   -53.4829    10.0299     9.0291     8.0535
 1001.0000     9.0962    92.6582     2.5439     0.0244   -53.2790     9.9449     9.0935     8.0500
