~VERSION INFORMATION
 VERS.                2.0:   CWLS LOG ASCII STANDARD - VERSION 2.0
 WRAP.                 NO:   ONE LINE PER DEPTH STEP
~WELL INFORMATION
#MNEM.UNIT      DATA TYPE    INFORMATION
#----------   ------------   ------------------------------
 STRT.F          670.0000:   START DEPTH
 STOP.F         3440.0000:   STOP DEPTH
 STEP.F            0.5000:   STEP LENGTH
 NULL.          -999.2500:   NO VALUE
 COMP.    FENIX & SCISSON:   COMPANY
 WELL.   FENIX "A" #57-33:   WELL
 FLD .             NPR #3:   FIELD
 LOC .      S33 T39N R78W:   LOCATION
 CNTY.            NATRONA:   COUNTY
 STAT.            WYOMING:   STATE
 CTRY. UNITED STATES OF AMERICA:   COUNTRY
 SRVC.       SCHLUMBERGER:   SERVICE COMPANY
 DATE.        27-APR-1977:   LOGDATE
 API .     49025103600000:   API NUMBER
~CURVE INFORMATION
#MNEM.UNIT       API CODE    CURVE DESCRIPTION
#----------   ------------   ------------------------------
 DEPT.F                  :   
 SPR .MV     11 010 01 00:   SPONTANEOUS POTENTIAL FROM RES.
 MSFL.OHMM   11 270 04 00:   MICRO SPHERICALLY FOCUSED
 LLD .OHMM   11 220 10 00:   LATEROLOG LOG DEEP
 LLS .OHMM   11 220 09 00:   LATEROLOG LOG SHALLOW
 CALD.IN     45 280 60 00:   CALIPER FROM DENSITY LOG
 DRHO.G/C3   45 356 01 00:   DENSITY CORRECTION
 NPHI.DEC    42 890 03 00:   NEUTRON POROSITY SANDSTONE
 RHOB.G/C3   45 350 01 00:   BULK DENSITY
 GRD .GAPI   45 310 01 00:   GAMMA RAY FROM RESISTIVITY
~PARAMETER INFORMATION
#MNEM.UNIT          VALUE    DESCRIPTION
#----------   ------------   ------------------------------
 EKB .F         5183.0000:   Kelly bushing
 EGL .F         5172.0000:   Ground level
 EDF .F            0.0000:   Drilling floor
 TD  .F         3424.0000:   Total depth
 DATE.        27-APR-1977:   Date logged
 CLNT.            A2DTECH:   Client Code
 SL  . 990' FSL & 2310' FEL:   Surface Location
 PD  .                 GL:   Permanent Datum
 EPD .F              5172:   Elevation Permanent Datum
 LMF .                 KB:   Log Measured From
 DMF .                 KB:   Drilling Measured From
 DAPD.F                11:   Feet Above Permanent Datum
 DD  .F              3421:   Depth driller
 DL  .F              3424:   Depth logger
 BLI .F              3423:   Bottom log interval
 TLI .F               764:   Top log interval
 CS1 .IN            8.625:   Casing size
 CBD1.      8.625" @ 711':   Casing driller 1
 BS1 .IN            7.875:   Bit size
 BSD1.F              3421:   Depth drilled with bit1
 DFT .            KCL MUD:   Type fluid in hole
 DFD .                9.5:   Density
 DFV .                 41:   Viscosity
 DFPH.                  8:   pH
 DFL .               10.8:   Fluid loss
 MSS .            MUD PIT:   Source of sample
 RMS .OHMM           0.26:   Rm
 MST .F                74:   Rm Meas. temp.
 RMF .OHMM           0.21:   Rmf
 MFST.F                74:   Rmf Meas. temp.
 RMC .OHMM            .09:   Rmc
 MCST.F                74:   Rmc Meas. temp.
 MFSS.               MEAS:   Source Rmf.
 MCSS.               CALC:   Source Rmc.
 RMB .OHMM           0.15:   Rm. at BHT
 BHT .F               126:   BHT.
 TCS .HRS            0900:   Time Circ. stopped
 TLAB.HRS            1430:   Time logger at bottom
 MRT .F               126:   Maximum recorded temp.
 LUN .               7711:   Logging unit number
 LUL .               CSPR:   Logging unit location
 ENGI.             SAYLER:   Recorded By
 WITN.         PETTINGILL:   Witnessed by
 ORIG.           5" PRINT:   Origin of data
 UWI .     49025103600000:   Unique Well ID
 DICO. A2D TECHNOLOGIES, INC.:   Digitizing Company
~OTHER INFORMATION
~A   DEPT      SPR       MSFL        LLD        LLS         CALD      DRHO        NPHI       RHOB      GRD   
# ...
 3225.0000   -71.0460     7.4960     4.9510     5.3540     8.0920     0.0200     0.2470     2.5530   145.7340
 3225.5000   -70.9770     7.2720     4.8050     5.3030     8.0970     0.0150     0.2480     2.5500   146.1850
 3226.0000   -71.1130     7.1830     4.6590     5.2530     8.1020     0.0160     0.2500     2.5480   143.6790
 3226.5000   -71.5780     7.0950     4.5260     5.2020     8.1070     0.0160     0.2510     2.5470   142.1170
 3227.0000   -72.0380     7.0060     4.6410     5.1510     8.1120     0.0180     0.2470     2.5470   141.8350
 3227.5000   -72.3250     6.9120     4.7390     5.1010     8.1180     0.0240     0.2430     2.5480   141.9760
 3228.0000   -72.3200     6.9420     4.6510     5.0500     8.1230     0.0230     0.2390     2.5450   142.3430
 3228.5000   -72.2990     6.9710     4.5210     5.0000     8.1280     0.0190     0.2480     2.5400   144.1310
 3229.0000   -73.0460     6.4370     4.3920     4.9490     8.1330     0.0160     0.2520     2.5350   145.0270
 3229.5000   -73.9550     6.1290     4.2440     4.8990     8.1380     0.0170     0.2540     2.5300   147.1760
 3230.0000   -74.8880     6.4420     4.2560     4.8710     8.1430     0.0180     0.2560     2.5320   148.4830
 3230.5000   -74.9060     6.7190     4.2800     4.8870     8.1490     0.0180     0.2600     2.5330   146.3490
 3231.0000   -74.9010     6.4390     4.3050     4.9020     8.1540     0.0180     0.2640     2.5320   145.4890
 3231.5000   -74.8990     6.1860     4.3290     4.9160     8.1590     0.0150     0.2700     2.5270   145.7090
 3232.0000   -74.8900     6.3890     4.3630     4.8280     8.1830     0.0120     0.2740     2.5300   147.9490
 3232.5000   -75.8180     6.5360     4.3090     4.7240     8.1820     0.0090     0.2730     2.5270   146.9240
 3233.0000   -77.8120     6.2840     4.1860     4.6200     8.1810     0.0060     0.2700     2.5200   145.6060
 3233.5000   -79.7860     5.9830     4.0630     4.5160     8.1810     0.0020     0.2770     2.5180   144.3680
 3234.0000   -81.0690     5.6820     3.9410     4.4120     8.1810     0.0000     0.2740     2.5180   142.7920
 3234.5000   -80.9450     5.3820     3.8180     4.3070     8.1810     0.0170     0.2730     2.5220   140.3230
 3235.0000   -80.2850     5.1470     3.6980     4.2050     8.1810     0.0180     0.2740     2.5260   142.3920
 3235.5000   -79.6140     5.2130     3.6980     4.2050     8.1810     0.0180     0.2780     2.5220   149.1140
 3236.0000   -79.6200     5.2910     3.6980     4.2740     8.1810     0.0160     0.2850     2.5130   151.7420
 3236.5000   -80.0600     5.1250     3.7310     4.3310     8.1810     0.0120     0.2910     2.5110   154.3260
 3237.0000   -80.4990     4.9620     3.7850     4.3870     8.1810     0.0110     0.2960     2.5200   153.0240
 3237.5000   -80.9470     4.9960     3.8390     4.4440     8.1810     0.0200     0.2990     2.5310   152.1430
 3238.0000   -80.7250     5.1000     3.8720     4.4440     8.1820     0.0170     0.2950     2.5250   152.3090
 3238.5000   -80.1590     4.8480     3.7750     4.3460     8.1850     0.0160     0.2910     2.5140   152.4830
 3239.0000   -79.6670     4.5260     3.6550     4.2740     8.1880     0.0220     0.2870     2.5200   152.6780
 3239.5000   -80.0720     4.5560     3.5320     4.2020     8.1910     0.0260     0.2880     2.5280   151.9330
 3240.0000   -80.8110     4.5940     3.5640     4.1290     8.1940     0.0300     0.2910     2.5310   150.9620
 3240.5000   -81.4540     4.6630     3.5640     4.1100     8.1970     0.0240     0.3000     2.5250   150.7010
 3241.0000   -81.1870     4.6900     3.5240     4.0610     8.2000     0.0170     0.3010     2.5240   148.3370
 3241.5000   -80.8350     4.7160     3.4830     4.0120     8.2030     0.0190     0.2970     2.5150   146.7800
 3242.0000   -80.4760     4.7710     3.4420     3.9620     8.2050     0.0150     0.2990     2.5030   146.4840
 3242.5000   -81.0220     4.9680     3.4010     3.9130     8.2080     0.0090     0.3030     2.5010   146.7070
 3243.0000   -82.0730     5.2620     3.3610     3.8640     8.2110     0.0120     0.3080     2.5060   146.4530
 3243.5000   -83.1230     5.2430     3.2960     3.8150     8.2140     0.0210     0.3130     2.5160   146.2180
 3244.0000   -84.1780     4.9340     3.2110     3.7650     8.2170     0.0280     0.3180     2.5230   148.4450
 3244.5000   -85.2300     4.6090     3.1270     3.7160     8.2200     0.0240     0.3220     2.5120   149.8060
 3245.0000   -86.2820     4.4440     3.0210     3.6640     8.2230     0.0180     0.3190     2.5000   151.4970
 3245.5000   -87.2210     4.4440     3.0490     3.7520     8.2260     0.0250     0.3190     2.4960   153.4320
 3246.0000   -87.5980     4.5230     3.1520     3.8520     8.2290     0.0310     0.3220     2.5000   155.7040
 3246.5000   -87.8430     4.5920     3.2530     3.9520     8.2320     0.0250     0.3260     2.5090   156.7330
 3247.0000   -87.9540     4.6530     3.3420     3.9800     8.2350     0.0140     0.3280     2.4970   154.6400
 3247.5000   -87.1880     4.4020     3.3420     3.9010     8.2380     0.0110     0.3310     2.4870   152.9060
 3248.0000   -85.9770     4.1310     3.0200     3.7920     8.2410     0.0060     0.3320     2.4850   155.2080
 3248.5000   -84.7420     3.8360     2.7760     3.6840     8.2350     0.0080     0.3250     2.4870   154.6840
 3249.0000   -84.3070     3.9810     2.6320     3.5750     8.2270     0.0100     0.3200     2.4930   156.8810
 3249.5000   -84.0290     4.1850     2.7500     3.4990     8.2190     0.0000     0.3200     2.4850   159.3050
 3250.0000   -83.3370     4.3880     2.9750     3.6600     8.2100     0.0030     0.3200     2.4780   160.9150
 3250.5000   -82.5760     4.5920     3.2000     3.8060     8.2020     0.0080     0.3200     2.4720   164.5790
 3251.0000   -81.9520     4.7300     3.3420     3.9430     8.1940     0.0070     0.3230     2.4620   167.2570
 3251.5000   -81.6610     4.8400     3.3680     4.1670     8.1860     0.0060     0.3280     2.4500   164.7570
 3252.0000   -81.3670     5.0080     3.4540     4.2590     8.1790     0.0090     0.3300     2.4500   167.3060
 3252.5000   -81.0590     5.8640     3.5400     4.3090     8.1750     0.0190     0.3300     2.4870   157.5310
 3253.0000   -80.6900     6.7190     3.9420     4.5940     8.1710     0.0230     0.3250     2.4930   149.9700
 3253.5000   -80.3000     7.5750     4.6160     5.2080     8.1670     0.0260     0.3140     2.4990   146.9240
 3254.0000   -79.9090     8.4300     5.2910     5.8230     8.1630     0.0340     0.3010     2.5090   148.0550
 3254.5000   -79.5170     9.2860     5.9650     6.4370     8.1580     0.0420     0.2970     2.5210   148.5710
 3255.0000   -79.1280     9.5270     6.6390     7.1000     8.1540     0.0440     0.2920     2.5350   146.7150
 3255.5000   -78.8880     8.6900     7.1450     7.1000     8.1500     0.0370     0.2880     2.5440   144.9610
 3256.0000   -79.0590     5.3510     5.5290     5.8850     8.1460     0.0320     0.2790     2.5600   146.3520
 3256.5000   -79.2250     3.3120     3.8270     4.9650     8.1420     0.0370     0.2620     2.5730   148.8730
 3257.0000   -79.3910     5.2900     3.0210     3.9800     8.1400     0.0310     0.2460     2.5650   152.9160
 3257.5000   -79.5560     6.7830     3.6840     4.4210     8.1370     0.0160     0.2370     2.5510   164.1210
 3258.0000   -79.6410     8.3770     4.4780     5.1140     8.1350     0.0270     0.2370     2.5520   178.0870
 3258.5000   -79.5720    10.0660     5.2730     5.8540     8.1330     0.0440     0.2450     2.5540   201.1360
 3259.0000   -79.5060     9.3830     5.9080     6.1440     8.1310     0.0690     0.2660     2.5460   225.3000
 3259.5000   -79.4390     8.9920     6.0730     6.4550     8.1290     0.0810     0.2930     2.5030   150.1110
 3260.0000   -79.3730     9.5750     6.1820     6.6330     8.1260     0.0410     0.3060     2.5310   150.1990
 3260.5000   -79.3120    10.1710     6.3300     6.7650     8.1240     0.0370     0.3120     2.5740   134.5620
 3261.0000   -79.2640    10.5400     6.4780     6.8960     8.1220     0.0330     0.3190     2.5680   134.5620
