~VERSION INFORMATION
 VERS.                2.0:   CWLS LOG ASCII STANDARD - VERSION 2.0
 WRAP.                 NO:   ONE LINE PER DEPTH STEP
~WELL INFORMATION
#MNEM.UNIT      DATA TYPE    INFORMATION
#----------   ------------   ------------------------------
 STRT.F           31.5000:   START DEPTH
 STOP.F         3370.0000:   STOP DEPTH
 STEP.F            0.5000:   STEP LENGTH
 NULL.          -999.2500:   NO VALUE
 COMP. LAWRENCE ALLISON & ASSOC - WEST:   COMPANY
 WELL. LAWRENCE "AX" #46-34:   WELL
 FLD .             NPR #3:   FIELD
 LOC .      S34 T39N R78W:   LOCATION
 CNTY.            NATRONA:   COUNTY
 STAT.            WYOMING:   STATE
 CTRY. UNITED STATES OF AMERICA:   COUNTRY
 SRVC.       SCHLUMBERGER:   SERVICE COMPANY
 DATE.        30-APR-1986:   LOGDATE
 API .     49025111380000:   API NUMBER
~CURVE INFORMATION
#MNEM.UNIT       API CODE    CURVE DESCRIPTION
#----------   ------------   ------------------------------
 DEPT.F                  :   
 TENR.LBS    07 635 01 00:   TENSION FROM RESISTIVITY
 GRR .GAPI   07 310 01 00:   GAMMA RAY FROM RESISTIVITY
 CALR.IN     07 280 01 00:   CALIPER FROM RESISTIVITY
 SPR .MV     07 010 01 00:   SPONTANEOUS POTENTIAL
 TEND.LBS    45 635 01 00:   TENSION FROM DENSITY LOG
 DEN .G/C3   45 350 01 00:   BULK DENSITY
 CORR.G/C3   45 356 01 00:   DENSITY CORRECTION
 CNC .DEC    42 890 03 00:   NEUTRON PORISITY SANDSTONE
 RFOC.OHMM   07 220 04 00:   RESISTIVITY FOCUSED LOG
 RILD.OHMM   07 120 46 00:   RESISTIVITY INDUCTION LOG DEEP
 RILM.OHMM   07 120 44 00:   RESISTIVITY INDUCTION LOG MEDIUM
~PARAMETER INFORMATION
#MNEM.UNIT          VALUE    DESCRIPTION
#----------   ------------   ------------------------------
 EKB .F         5094.0000:   Kelly bushing
 EGL .F         5082.0000:   Ground level
 EDF .F            0.0000:   Drilling floor
 TD  .F         3370.0000:   Total depth
 DATE.        30-APR-1986:   Date logged
 CLNT.            A2DTECH:   Client Code
 SL  . 2462' FWL & 1545' FSL:   Surface Location
 PD  .                 GL:   Permanent Datum
 EPD .F              5082:   Elevation Permanent Datum
 LMF .                 KB:   Log Measured From
 DMF .                 KB:   Drilling Measured From
 DAPD.F                12:   Feet Above Permanent Datum
 DD  .F              3370:   Depth driller
 DL  .F              3369:   Depth logger
 BLI .F              3367:   Bottom log interval
 CS1 .IN            8.625:   Casing size
 CBD1.      8.625" @ 642':   Casing driller 1
 CBL1.F               642:   Casing logger 1
 BS1 .IN            7.875:   Bit size
 BSD1.F              3370:   Depth drilled with bit1
 DFT .        POLYMER/KCL:   Type fluid in hole
 DFD .                8.9:   Density
 DFV .                 36:   Viscosity
 DFPH.                8.5:   pH
 DFL .               10.2:   Fluid loss
 MSS .           FLOWLINE:   Source of sample
 RMS .OHMM           .319:   Rm
 MST .F                79:   Rm Meas. temp.
 RMF .OHMM            .24:   Rmf
 MFST.F                79:   Rmf Meas. temp.
 RMC .OHMM            .40:   Rmc
 MCST.F                79:   Rmc Meas. temp.
 MFSS.               CALC:   Source Rmf.
 MCSS.               CALC:   Source Rmc.
 RMB .OHMM            .21:   Rm. at BHT
 BHT .F               117:   BHT.
 TCS .HRS               4:   Time Circ. stopped
 MRT .F               117:   Maximum recorded temp.
 LUN .            HL-6264:   Logging unit number
 LUL .           GILLETTE:   Logging unit location
 ENGI.     P. M. FAHLSING:   Recorded By
 WITN.             STRONG:   Witnessed by
 ORIG.        2" 5" PRINT:   Origin of data
 UWI .     49025111380000:   Unique Well ID
 DICO. A2D TECHNOLOGIES, INC.:   Digitizing Company
 TLI .                  0:   Top log interval
~OTHER INFORMATION
~A   DEPT     TENR        GRR       CALR        SPR       TEND        DEN       CORR        CNC       RFOC       RILD       RILM   
# ...
 2441.0000   -64.4430   122.2830    10.6140   -88.8970   -75.7980     2.5000     0.1010     0.2740     4.5920     3.2660     3.3440
 2441.5000   -60.5820   121.9530    10.6360   -89.0280   -82.4840     2.4840     0.1060     0.2670     5.1270     3.1030     3.2510
 2442.0000   -52.1060   120.7620    10.6470   -89.1610   -77.7040     2.4810     0.0650     0.2600     5.2030     3.1030     3.2820
 2442.5000   -43.6310   121.3480    10.6660   -89.3210   -70.0150     2.4880     0.0200     0.2590     5.0500     3.1820     3.3750
 2443.0000   -34.3530   121.3000    10.6890   -89.4470   -62.3260     2.4990    -0.0050     0.2720     4.8970     3.2710     3.4680
 2443.5000   -38.5890   122.2300    10.7230   -89.6140   -54.6370     2.4990     0.0210     0.2930     4.8420     3.3610     3.5610
 2444.0000   -44.5720   119.6900    10.7530   -89.6870   -59.1890     2.4980     0.0440     0.2870     5.0020     3.4510     3.6540
 2444.5000   -50.5550   117.3840    10.7820   -89.4280   -65.5970     2.5030     0.0320     0.2710     5.1620     3.5400     3.7330
 2445.0000   -54.4130   117.0350    10.8120   -89.1440   -72.0040     2.5090     0.0040     0.2580     5.3220     3.6310     3.7430
 2445.5000   -55.4530   116.7500    10.8420   -88.9230   -72.2800     2.5160     0.0150     0.2650     5.4550     3.6400     3.7520
 2446.0000   -56.5340   116.7210    10.8720   -88.6360   -70.2300     2.5270     0.0350     0.2780     5.3580     3.6510     3.7620
 2446.5000   -57.6160   117.1680    10.8900   -88.4170   -68.1790     2.5380     0.0500     0.2830     5.2750     3.6620     3.7710
 2447.0000   -58.6980   117.3230    10.9010   -88.1280   -66.1290     2.5400     0.0430     0.2810     5.1920     3.6740     3.7810
 2447.5000   -59.7800   114.2600    10.9130   -87.9180   -64.0790     2.5390     0.0350     0.2790     5.2020     3.6850     3.7900
 2448.0000   -60.8620   111.0660    10.9230   -88.1770   -79.3300     2.5360     0.0450     0.2780     5.3010     3.6960     3.8000
 2448.5000   -61.9440   109.4850    10.9360   -88.5620   -81.5210     2.5270     0.0540     0.2760     5.3550     3.7070     3.8270
 2449.0000   -63.0260   109.7330    10.9460   -88.8850   -71.8710     2.5080     0.0360     0.2740     5.0790     3.7190     3.8640
 2449.5000   -64.1080   111.2010    10.9580   -89.2640   -69.6370     2.5010     0.0150     0.2730     4.8600     3.7300     3.9020
 2450.0000   -64.4430   113.4840    10.9690   -89.4890   -67.4040     2.5030    -0.0010     0.2660     4.7480     3.7740     3.9390
 2450.5000   -64.4430   116.1210    10.9780   -89.5080   -65.1700     2.5080     0.0010     0.2640     4.8960     3.8330     3.9760
 2451.0000   -64.4430   116.1870    11.0030   -89.4940   -65.3390     2.5120    -0.0020     0.2760     5.2080     3.8910     4.0130
 2451.5000   -64.4430   115.9490    11.0290   -89.5020   -70.1720     2.5060    -0.0070     0.2870     5.3110     3.9500     4.0500
 2452.0000   -64.4430   115.9460    11.0540   -89.5020   -75.0060     2.4990    -0.0060     0.2740     5.4210     4.0090     4.0880
 2452.5000   -64.4430   115.7680    11.0790   -89.4940   -79.8400     2.4930     0.0070     0.2610     5.5570     4.0580     4.1330
 2453.0000   -64.4430   114.0080    11.0900   -89.5110   -84.6740     2.4900     0.0310     0.2580     5.5570     4.0110     4.0360
 2453.5000   -64.4430   111.7840    11.0910   -89.4840   -89.5080     2.4890     0.0480     0.2580     5.5230     3.9310     3.9110
 2454.0000   -64.4430   111.4270    11.0930   -89.5210   -93.9070     2.4880     0.0490     0.2580     5.5050     3.8510     3.7850
 2454.5000   -64.4430   111.0260    11.0950   -89.4760   -90.6300     2.4860     0.0170     0.2610     5.2870     3.7700     3.6600
 2455.0000   -64.4430   112.3070    11.0970   -89.3250   -85.9430     2.4850    -0.0050     0.2750     5.0150     3.6900     3.5340
 2455.5000   -64.4430   114.5420    11.0990   -89.2750   -81.2550     2.4870    -0.0030     0.2900     4.7430     3.5980     3.4090
 2456.0000   -64.4430   118.2250    11.1010   -88.9770   -76.5680     2.4930     0.0100     0.2870     4.4710     3.4720     3.3090
 2456.5000   -64.4430   121.2780    11.1020   -88.6580   -75.4260     2.5050     0.0390     0.2830     4.3390     3.3240     3.2400
 2457.0000   -64.4430   119.8180    11.1040   -88.4160   -79.5510     2.5180     0.0470     0.2900     4.3590     3.2200     3.1460
 2457.5000   -64.4430   117.9400    11.1060   -88.0910   -83.6760     2.5300     0.0540     0.2970     4.3690     3.0770     2.9920
 2458.0000   -64.4430   117.5030    11.1080   -88.1040   -87.8010     2.5380     0.0600     0.2990     4.3690     2.9360     2.8390
 2458.5000   -64.4430   118.4190    11.1100   -88.5000   -91.9250     2.5370     0.0520     0.2910     4.3690     2.7720     2.6850
 2459.0000   -64.4430   119.7740    11.1120   -88.8660   -91.8470     2.5340     0.0480     0.2820     4.3140     2.5960     2.5320
 2459.5000   -64.4430   121.2670    11.1140   -89.1880   -87.8810     2.5320     0.0540     0.2720     4.0600     2.4190     2.3730
 2460.0000   -64.4430   123.4140    11.1160   -89.4930   -83.8370     2.5290     0.0620     0.2670     3.5370     2.2040     2.4170
 2460.5000   -64.4430   125.3310    11.1180   -89.5070   -78.3720     2.5010     0.0590     0.2680     3.0130     2.2180     2.4560
 2461.0000   -64.4430   126.5070    11.1200   -89.4040   -72.7970     2.4740     0.0510     0.2760     2.8030     2.2420     2.4940
 2461.5000   -64.4430   124.5570    11.1210   -89.3290   -67.2230     2.4610     0.0470     0.2820     3.1600     2.2660     2.5330
 2462.0000   -64.4430   121.0570    11.1230   -89.2250   -61.6490     2.4770     0.0640     0.2840     3.6010     2.2720     2.5710
 2462.5000   -64.4430   117.0680    11.1250   -89.1490   -56.0750     2.5150     0.0750     0.2780     4.0200     2.3350     2.6100
 2463.0000   -61.1130   113.1670    11.1270   -89.0470   -50.5010     2.5210     0.0620     0.2710     3.8260     2.3990     2.6480
 2463.5000   -56.0280   113.2260    11.1290   -88.9700   -44.9270     2.5170     0.0440     0.2730     3.6400     2.4620     2.6760
 2464.0000   -50.9430   115.4770    11.1330   -88.8950   -45.3220     2.5060     0.0360     0.2720     3.4350     2.5320     2.6710
 2464.5000   -45.8580   117.3030    11.1380   -88.7150   -47.6650     2.5000     0.0360     0.2670     3.4350     2.5360     2.6670
 2465.0000   -44.3830   119.9480    11.1440   -88.5350   -50.0090     2.5050     0.0320     0.2610     3.6200     2.5420     2.6630
 2465.5000   -35.6870   123.6680    11.1490   -88.3650   -52.3530     2.5100     0.0160     0.2650     3.6720     2.5470     2.6590
 2466.0000   -30.6020   124.3190    11.1550   -88.1940   -54.6970     2.5060     0.0180     0.2730     3.6190     2.5520     2.6550
 2466.5000   -25.5170   121.2510    11.1600   -88.0140   -57.0400     2.4970     0.0230     0.2790     3.5650     2.5320     2.6520
 2467.0000   -20.4310   119.9030    11.1650   -87.8530   -59.3840     2.4890     0.0200     0.2800     3.5880     2.5470     2.6770
 2467.5000   -35.1150   120.8810    11.1700   -87.6640   -61.7280     2.4820     0.0070     0.2800     3.6310     2.5670     2.6990
 2468.0000   -34.3530   122.5230    11.1760   -87.5100   -63.6960     2.4830    -0.0210     0.2800     3.5900     2.5880     2.7210
 2468.5000   -34.3530   122.9170    11.1810   -87.6010   -63.6960     2.4850    -0.0250     0.2780     3.5320     2.6080     2.7430
 2469.0000   -34.3530   120.0490    11.1860   -87.7550   -63.6960     2.4930     0.0040     0.2780     3.5850     2.6270     2.7340
 2469.5000   -34.3530   116.9790    11.1910   -87.8770   -63.6960     2.5010     0.0240     0.2790     3.6700     2.6210     2.7050
 2470.0000   -34.3530   116.5600    11.1960   -88.0220   -63.6960     2.5070     0.0270     0.2760     3.6990     2.6150     2.6760
 2470.5000   -34.3530   119.1100    11.2010   -88.1570   -63.6960     2.5040     0.0280     0.2600     3.5100     2.6090     2.6480
 2471.0000   -34.3530   121.3400    11.2060   -88.2880   -63.6960     2.5010     0.0300     0.2640     3.3110     2.6030     2.6270
