~VERSION INFORMATION
 VERS.                2.0:   CWLS LOG ASCII STANDARD - VERSION 2.0
 WRAP.                 NO:   ONE LINE PER DEPTH STEP
~WELL INFORMATION
#MNEM.UNIT      DATA TYPE    INFORMATION
#----------   ------------   ------------------------------
 STRT.F           34.0000:   START DEPTH
 STOP.F         2909.0000:   STOP DEPTH
 STEP.F            0.5000:   STEP LENGTH
 NULL.          -999.2500:   NO VALUE
 COMP.   TESORO PETROLEUM:   COMPANY
 WELL. TESORO NPR "A" #3-28:   WELL
 FLD .             TEAPOT:   FIELD
 LOC .      S28 T39N R78W:   LOCATION
 CNTY.            NATRONA:   COUNTY
 STAT.            WYOMING:   STATE
 CTRY. UNITED STATES OF AMERICA:   COUNTRY
 SRVC.              WELEX:   SERVICE COMPANY
 DATE.        22-JUL-1968:   LOGDATE
 API .     49025102620000:   API NUMBER
~CURVE INFORMATION
#MNEM.UNIT       API CODE    CURVE DESCRIPTION
#----------   ------------   ------------------------------
 DEPT.F                  :   
 GRD .GAPI   45 310 01 00:   GAMMA RAY FROM DENSITY LOG
 SPR .MV     05 010 01 00:   SPONTANEOUS POTENTIAL FROM RES.
 ASN .OHMM   05 041 16 00:   AMPLIFIED SHORT NORMAL 16"
 ILD .OHMM   05 120 46 00:   INDUCTION LOG DEEP
~PARAMETER INFORMATION
#MNEM.UNIT          VALUE    DESCRIPTION
#----------   ------------   ------------------------------
 EKB .F         5050.0000:   Kelly bushing
 EGL .F         5039.0000:   Ground level
 EDF .F            0.0000:   Drilling floor
 EPD .F         5039.0000:   Permanent datum
 TD  .F         2906.0000:   Total depth
 CLNT.            A2DTECH:   Client Code
 DATE.       22-JULY-1968:   Date Logged [DD-MMM-YYYY]
 DD  .F              2906:   Depth driller
 DL  .F              2906:   Depth logger
 BLI .F              2901:   Bottom log interval
 TLI .F               356:   Top log interval
 CS1 .              10.75:   Casing size
 CBD1.      10.75" @ 356':   Casing driller 1
 CBL1.IN              356:   Casing logger 1
 BS1 .IN                9:   Bit size
 DFT .     WATER BASE MUD:   Type fluid in hole
 DFD .                9.6:   Density
 DFV .                 60:   Viscosity
 DFPH.                9.0:   pH
 DFL .                  6:   Fluid loss
 MSS .               CTRC:   Source of sample
 RMS .OHMM            2.1:   Rm
 MST .F                74:   Rm Meas. temp.
 RMF .OHMM            1.6:   Rmf
 MFST.F                71:   Rmf Meas. temp.
 MFSS.               MEAS:   Source Rmf.
 RMC .OHMM            3.0:   Rmc
 MCST.F                66:   Rmc Meas. temp.
 RMB .OHMM            1.3:   Rm. at BHT
 BHT .F               120:   BHT.
 MRT .F               120:   Maximum recorded temp.
 LUN .               6869:   Logging unit number
 ORIG.         2.5" PRINT:   Origin of data
 UWI .     49025102620000:   Unique Well ID
 DICO. A2D TECHNOLOGIES, INC.:   Digitizing Company
 LUL .          NEWCASTLE:   Logging unit location
~OTHER INFORMATION
~A   DEPT      GRD        SPR         ASN         ILD 
# ...
 2224.0000    73.0543   -31.2603     8.4353     6.3281
 2224.5000    76.8251   -31.2352     7.7789     5.7553
 2225.0000    82.8530   -31.2101     8.2915     5.6782
 2225.5000    87.0001   -31.1850     9.0225     5.9937
 2226.0000    89.6424   -31.1599    10.1956     6.7823
 2226.5000    83.5043   -31.1348    12.1924     7.5710
 2227.0000    77.8000   -31.1097    13.1322     8.6751
 2227.5000    77.2560   -31.0846    14.0721     9.4637
 2228.0000    80.8228   -31.0595    14.2282    10.4184
 2228.5000    85.4990   -31.0344    14.0708    11.3699
 2229.0000    88.6392   -31.0093    14.0607    11.3318
 2229.5000    92.1559   -30.9842    13.7153    10.6896
 2230.0000    95.0845   -30.9591    13.1911    10.0472
 2230.5000    98.0048   -30.9340    12.4163     9.4051
 2231.0000   100.6471   -30.9089    12.0803     8.7628
 2231.5000   102.9133   -30.8838    11.2357     7.8007
 2232.0000   106.3080   -30.8587     9.6027     6.6246
 2232.5000   106.3171   -30.8336     8.0117     5.9937
 2233.0000   108.2071   -30.8084     6.5819     5.3628
 2233.5000   110.4984   -30.7833     6.2768     4.8896
 2234.0000   113.1156   -30.7582     6.0748     4.4164
 2234.5000   102.8621   -30.7331     5.8662     3.9432
 2235.0000    94.3446   -30.7080     5.6218     3.7855
 2235.5000    86.5637   -30.6829     5.3786     3.6278
 2236.0000    81.9295   -30.6578     5.2526     3.6278
 2236.5000    83.3784   -30.6327     5.1893     3.6278
 2237.0000    84.3863   -30.6076     5.2514     3.6278
 2237.5000    84.5925   -30.5825     5.2194     3.6278
 2238.0000    84.2275   -30.5574     5.2188     3.7855
 2238.5000    83.1081   -30.5323     5.2513     3.8672
 2239.0000    81.9887   -30.5072     5.3156     4.1009
 2239.5000    80.8692   -30.4821     5.4112     4.2587
 2240.0000    78.9975   -30.4570     5.5235     4.4164
 2240.5000    78.2542   -30.4319     5.6651     4.4164
 2241.0000    77.1348   -30.4068     5.7167     4.4164
 2241.5000    75.9000   -30.3817     5.7160     4.4164
 2242.0000    72.9679   -30.3565     5.6982     4.4164
 2242.5000    72.6480   -30.3314     5.6519     4.4164
 2243.0000    73.0345   -30.3063     5.6200     4.3907
 2243.5000    73.4201   -30.2812     5.5880     4.2587
 2244.0000    73.9510   -30.2561     5.5561     4.2587
 2244.5000    75.4532   -30.2310     5.5555     4.2587
 2245.0000    76.8339   -30.2041     5.5862     4.2587
 2245.5000    75.2771   -31.1491     5.5856     4.2587
 2246.0000    74.7063   -31.1500     5.6163     4.2587
 2246.5000    76.4872   -31.1510     5.6471     4.2587
 2247.0000    78.0010   -31.1520     5.6855     4.4164
 2247.5000    79.8910   -31.1530     5.7910     4.4164
 2248.0000    80.6525   -31.1540     5.9201     4.5741
 2248.5000    80.2854   -31.1549     5.9607     4.7319
 2249.0000    79.5033   -31.1559     5.9112     4.8896
 2249.5000    77.2932   -31.1569     6.0820     4.8896
 2250.0000    75.0830   -31.1579     6.0501     4.8896
 2250.5000    72.8728   -31.1589     5.9868     4.8896
 2251.0000    69.7980   -31.1599     5.7573     4.7319
 2251.5000    72.3376   -31.1608     5.4945     4.5138
 2252.0000    74.2773   -31.1618     5.2317     4.3450
 2252.5000    76.2162   -31.1628     4.9689     4.1758
 2253.0000    78.1553   -31.1638     4.7060     3.9432
 2253.5000    79.0168   -31.1648     4.4432     3.7855
 2254.0000    77.0046   -31.1657     4.1804     3.7855
 2254.5000    78.5184   -31.1667     3.9128     3.7855
 2255.0000    80.4084   -31.1677     3.5957     3.6278
 2255.5000    82.2983   -31.1687     3.5041     3.4700
 2256.0000    84.5645   -31.1697     3.6289     3.1546
 2256.5000    85.7022   -31.1707     3.5503     3.1391
 2257.0000    84.0050   -31.1716     3.3983     2.9700
 2257.5000    79.3283   -31.1726     3.4629     2.8010
 2258.0000    74.4442   -31.1736     3.6092     2.6814
 2258.5000    74.4546   -31.1746     3.6407     2.8391
 2259.0000    74.9668   -31.1756     3.4996     2.9968
 2259.5000    77.0356   -31.1765     3.5303     3.0801
 2260.0000    81.7807   -31.1775     3.5610     3.1546
 2260.5000    83.7438   -31.1785     3.5919     3.1546
 2261.0000    85.1861   -31.1795     3.6225     3.1546
 2261.5000    85.0439   -31.1805     3.6533     3.1546
 2262.0000    85.0545   -31.1814     3.6527     3.1546
 2262.5000    84.6865   -31.1824     3.6207     3.1546
 2263.0000    83.1919   -31.1834     3.6201     3.1546
 2263.5000    78.6869   -31.1844     3.6194     3.1546
 2264.0000    76.0628   -31.1854     3.6188     3.1546
 2264.5000    74.5481   -31.1864     3.6182     3.1546
 2265.0000    74.6208   -31.1873     3.6040     3.1546
 2265.5000    75.4068   -31.1883     3.5855     3.1546
 2266.0000    76.1932   -31.1893     3.5849     3.1546
 2266.5000    77.9660   -31.1903     3.6157     3.1546
 2267.0000    79.9295   -31.1913     3.6150     3.1546
 2267.5000    80.4764   -31.1922     3.6457     3.1546
 2268.0000    79.8948   -31.1932     3.7391     3.1546
 2268.5000    78.5117   -31.1942     3.8326     3.1546
 2269.0000    76.9107   -31.1952     3.9887     3.1546
 2269.5000    75.4152   -31.1962     4.0842     3.1546
 2270.0000    76.9290   -31.1972     4.1129     3.1546
 2270.5000    79.9475   -31.1981     4.0745     3.1546
 2271.0000    82.2136   -31.1991     3.9605     3.1546
 2271.5000    84.1036   -31.2001     3.8172     3.1153
 2272.0000    83.3309   -31.2011     3.5699     2.9968
 2272.5000    81.8648   -31.2021     3.4212     2.8391
 2273.0000    83.5558   -31.2030     3.2733     2.6814
 2273.5000    85.2686   -31.2040     3.1993     2.5237
 2274.0000    83.0742   -31.2050     3.2927     2.5237
 2274.5000    81.2619   -31.2060     3.3548     2.3659
 2275.0000    79.4984   -31.2070     3.3856     2.3659
 2275.5000    78.9122   -31.2079     3.3222     2.3659
 2276.0000    78.9216   -31.2089     3.4157     2.5237
 2276.5000    78.5549   -31.2099     3.5432     2.5237
 2277.0000    77.8134   -31.2109     3.6723     2.6871
 2277.5000    76.3178   -31.2119     3.8329     2.9968
 2278.0000    72.9413   -31.2129     4.0013     3.1546
 2278.5000    71.0695   -31.2138     4.2367     3.3123
 2279.0000    68.8216   -31.2148     4.5271     3.5211
 2279.5000    67.3245   -31.2158     4.8465     3.8478
 2280.0000    66.5828   -31.2168     5.1703     4.1745
 2280.5000    68.1959   -31.2178     5.4475     4.4164
 2281.0000    70.5116   -31.2187     5.2902     4.5741
 2281.5000    72.5494   -31.2197     5.0701     4.5741
 2282.0000    74.8890   -31.2207     5.1322     4.5741
 2282.5000    76.4107   -31.2217     5.1943     4.7319
 2283.0000    74.8098   -31.2227     5.2251     4.7319
 2283.5000    69.6094   -31.2237     5.3192     4.7319
 2284.0000    68.9806   -31.2246     5.4148     4.7383
 2284.5000    70.8072   -31.2256     5.5156     4.8896
 2285.0000    71.9449   -31.2266     5.6448     4.8896
 2285.5000    72.3301   -31.2276     5.7236     4.8896
 2286.0000    70.3388   -31.2286     5.6290     4.8896
 2286.5000    70.9755   -31.2295     5.7048     4.8896
 2287.0000    71.6123   -31.2305     5.6902     4.8896
 2287.5000    72.2491   -31.2315     5.5903     4.7319
 2288.0000    72.7523   -31.2113     5.4381     4.5741
 2288.5000    74.2741   -31.1820     5.4062     4.4164
 2289.0000    76.1567   -31.1526     5.4683     4.4164
 2289.5000    73.5346   -31.1232     5.5617     4.4164
 2290.0000    71.6628   -31.0939     5.8420     4.4164
 2290.5000    70.5434   -31.0645     6.1356     4.5741
 2291.0000    69.7993   -31.0351     6.3946     4.8965
 2291.5000    70.5616   -31.0058     6.5773     5.0473
 2292.0000    70.5857   -30.9764     6.7386     5.2345
 2292.5000    68.6707   -30.9470     6.8745     5.5612
 2293.0000    66.3839   -30.9177     7.0306     5.7303
 2293.5000    64.8393   -30.8883     7.4375     6.0570
 2294.0000    63.2949   -30.8589     7.7504     6.3091
 2294.5000    61.1611   -30.8296     7.7185     6.4669
 2295.0000    58.9639   -30.8002     7.6865     6.4669
 2295.5000    62.2325   -30.7708     7.6220     6.4669
 2296.0000    66.1013   -30.7415     7.5532     6.3091
 2296.5000    68.4323   -30.7121     7.4652     6.3091
