~VERSION INFORMATION
 VERS.                2.0:   CWLS LOG ASCII STANDARD - VERSION 2.0
 WRAP.                 NO:   ONE LINE PER DEPTH STEP
~WELL INFORMATION
#MNEM.UNIT      DATA TYPE    INFORMATION
#----------   ------------   ------------------------------
 STRT.F            0.0000:   START DEPTH
 STOP.F         4700.0000:   STOP DEPTH
 STEP.F            0.5000:   STEP LENGTH
 NULL.          -999.2500:   NO VALUE
 COMP. LAWRENCE ALLISON & ASSOCIATES:   COMPANY
 WELL. LAWRENCE NPR 3 "X" #33-23:   WELL
 FLD .                NPR:   FIELD
 LOC .      S23 T38N R78W:   LOCATION
 CNTY.            NATRONA:   COUNTY
 STAT.            WYOMING:   STATE
 CTRY. UNITED STATES OF AMERICA:   COUNTRY
 SRVC.      DRESSER ATLAS:   SERVICE COMPANY
 DATE.        12-NOV-1984:   LOGDATE
 API .     49025109930000:   API NUMBER
~CURVE INFORMATION
#MNEM.UNIT       API CODE    CURVE DESCRIPTION
#----------   ------------   ------------------------------
 DEPT.F                  :   
 TEND.LBS    45 635 01 00:   TENSION FROM DENSITY LOG
 CALD.IN     45 280 60 00:   CALIPER FROM DENSITY LOG
 CORR.G/C3   45 356 01 00:   DENSITY CORRECTION
 DEN .G/C3   45 350 01 00:   BULK DENSITY
 CNC .DEC    42 890 03 00:   NEUTRON PORISITY SANDSTONE
 SPR .MV     07 010 01 00:   SPONTANEOUS POTENTIAL
 GRR .GAPI   07 310 01 00:   GAMMA RAY FROM RESISTIVITY
 RFOC.OHMM   07 220 01 00:   RESISTIVITY FOCUSED LOG RES.
 ILM .OHMM   07 120 44 00:   INDUCTION LOG MEDIUM RESISTIVITY
 ILD .OHMM   07 120 46 00:   INDUCTION LOG DEEP RESISTIVITY
 TENS.LBS    60 635 01 00:   TENSION FROM SONIC LOG
 DT  .US/F   60 520 00 00:   DELTA TIME
 TENR.LBS    07 635 01 00:   TENSION
~PARAMETER INFORMATION
#MNEM.UNIT          VALUE    DESCRIPTION
#----------   ------------   ------------------------------
 EKB .F         5308.0000:   Kelly bushing
 EGL .F         5296.0000:   Ground level
 EDF .F            0.0000:   Drilling floor
 EPD .F            0.0000:   Permanent datum
 TD  .F         4695.0000:   Total depth
 DATE.        12-NOV-1984:   Date logged
 CLNT.            A2DTECH:   Client Code
 SL  . 1415' FNL & 1874' FWL:   Surface Location
 PD  .                 GL:   Permanent Datum
 LMF .                 KB:   Log Measured From
 DMF .                 KB:   Drilling Measured From
 DAPD.F                12:   Feet Above Permanent Datum
 DD  .F              4695:   Depth driller
 DL  .F              4694:   Depth logger
 BLI .F              4691:   Bottom log interval
 TLI .F              1205:   Top log interval
 CS1 .IN            8.625:   Casing size
 CBD1.     8.625" @ 1206':   Casing driller 1
 CBL1.F              1205:   Casing logger 1
 BS1 .IN            7.875:   Bit size
 BSD1.F              4695:   Depth drilled with bit1
 DFT .     GFL/KCL/STAFLO:   Type fluid in hole
 DFD .                9.2:   Density
 DFV .                 45:   Viscosity
 DFPH.                  8:   pH
 DFL .                 10:   Fluid loss
 MSS .           FLOWLINE:   Source of sample
 RMS .OHMM            .51:   Rm
 MST .F                72:   Rm Meas. temp.
 RMF .OHMM            .43:   Rmf
 MFST.F                70:   Rmf Meas. temp.
 RMC .OHMM            .64:   Rmc
 MCST.F                72:   Rmc Meas. temp.
 MFSS.               MEAS:   Source Rmf.
 MCSS.               CALC:   Source Rmc.
 RMB .OHMM           .272:   Rm. at BHT
 BHT .F               135:   BHT.
 TCS .HRS               4:   Time Circ. stopped
 MRT .F               135:   Maximum recorded temp.
 LUN .               6274:   Logging unit number
 LUL .               GLTE:   Logging unit location
 ENGI.             RAUTIO:   Recorded By
 ORIG.           5" PRINT:   Origin of data
 UWI .     49025109930000:   Unique Well ID
 DICO. A2D TECHNOLOGIES, INC.:   Digitizing Company
~OTHER INFORMATION
~A    DEPT    TEND       CALD       CORR        DEN        CNC        SPR         GRR      RFOC        ILM        ILD       TENS         DT       TENR   
# ...
 1274.0000   -19.0760    10.6020     0.0250     2.5200     0.2520   -26.2240    85.7860     7.0960     7.5330     7.7430   -58.8530    90.7960   -60.4640
 1274.5000   -19.0760    10.6020    -0.0040     2.5130     0.2620   -26.3300    86.3240     7.0800     7.5460     7.7480   -58.8530    90.2300   -60.3100
 1275.0000   -19.0760    10.6020    -0.0070     2.5070     0.2570   -26.4350    88.3140     7.0640     7.5590     7.7530   -58.8530    89.6650   -60.1560
 1275.5000   -19.0760    10.6020    -0.0110     2.5130     0.2430   -26.5430    89.8110     7.0490     7.5720     7.7570   -58.8530    88.9940   -60.0020
 1276.0000   -19.0760    10.6020     0.0170     2.5210     0.2330   -26.4260    90.5180     7.0330     7.5850     7.7620   -58.8530    89.1490   -59.8480
 1276.5000   -19.0760    10.6020     0.0420     2.5260     0.2370   -26.1780    90.6950     7.0210     7.5980     7.7660   -58.8530    89.3400   -59.6940
 1277.0000   -21.0690    10.6020     0.0370     2.5260     0.2430   -25.9290    88.6800     7.1140     7.6110     7.8360   -58.8530    89.5310   -59.5400
 1277.5000   -23.0150    10.6020     0.0350     2.5270     0.2470   -25.6790    87.3760     7.1420     7.6240     7.9180   -58.8530    89.5980   -59.3860
 1278.0000   -24.9610    10.6020     0.0170     2.5250     0.2470   -25.4300    88.6080     7.3310     7.7080     8.0000   -58.8530    89.5330   -59.2320
 1278.5000   -26.9080    10.6020    -0.0160     2.5230     0.2410   -25.1970    89.7720     7.6060     7.8040     8.0820   -58.8530    89.3940   -59.0780
 1279.0000   -28.8540    10.6020    -0.0260     2.5160     0.2360   -25.0730    90.0960     7.6960     7.9000     8.2070   -58.8530    89.2550   -58.9240
 1279.5000   -30.8000    10.6020    -0.0270     2.5100     0.2370   -24.9550    90.2920     7.5690     7.8200     8.1600   -58.8530    89.1160   -58.7700
 1280.0000   -32.7460    10.6020    -0.0130     2.5050     0.2410   -24.8340    89.9920     7.4700     7.7170     8.0620   -58.8530    88.9940   -58.6160
 1280.5000   -34.6930    10.6020     0.0000     2.5040     0.2390   -24.8350    89.6100     7.3710     7.6140     7.9640   -58.8530    89.5630   -58.4620
 1281.0000   -36.6390    10.6020     0.0140     2.5030     0.2340   -24.8960    89.9530     7.2670     7.5110     7.8660   -58.8530    90.0720   -58.3080
 1281.5000   -38.5850    10.6020     0.0210     2.4990     0.2350   -24.9610    90.7760     7.1250     7.4080     7.7680   -58.8530    90.5810   -58.1540
 1282.0000   -40.5310    10.6020     0.0190     2.4940     0.2400   -25.0760    92.3740     6.9840     7.3050     7.6700   -58.8530    90.8050   -58.0000
 1282.5000   -42.4780    10.6020     0.0100     2.4900     0.2450   -25.3340    93.9320     6.8430     7.2060     7.5820   -58.8530    91.5960   -57.8460
 1283.0000   -44.4240    10.6020    -0.0020     2.4850     0.2500   -25.5830    95.5130     6.7010     7.1300     7.5020   -58.8530    92.2750   -57.6920
 1283.5000   -46.3700    10.6020    -0.0130     2.4830     0.2550   -25.8300    95.8100     6.5240     7.0530     7.4220   -58.8530    92.9540   -57.5380
 1284.0000   -48.3160    10.6020    -0.0160     2.4850     0.2550   -25.9330    94.5730     6.6320     7.0050     7.3420   -58.8530    93.0500   -57.3840
 1284.5000   -50.2630    10.6020    -0.0120     2.4910     0.2550   -25.7760    93.2220     6.7730     6.9780     7.2620   -58.8530    92.7730   -57.2300
 1285.0000   -52.2090    10.6020    -0.0080     2.4970     0.2590   -25.6230    92.6040     6.8300     6.9420     7.1820   -58.8530    92.4950   -57.0760
 1285.5000   -54.1550    10.6020    -0.0080     2.4970     0.2650   -25.4700    95.1950     6.7420     6.8690     7.1020   -58.8530    92.2170   -56.9220
 1286.0000   -56.1010    10.6020    -0.0160     2.4920     0.2590   -25.3180    98.0720     6.6680     6.7960     7.0210   -58.8530    92.0940   -56.7680
 1286.5000   -58.0480    10.6020    -0.0210     2.4880     0.2590   -25.1930    98.1310     6.5940     6.7240     6.9410   -58.8530    92.4070   -56.6140
 1287.0000   -59.2370    10.6020    -0.0270     2.4910     0.2690   -25.1490    95.6770     6.5200     6.6510     6.8610   -58.8530    92.7200   -56.4600
 1287.5000   -58.9970    10.6020    -0.0130     2.4970     0.2800   -25.1020    95.4580     6.4550     6.5780     6.7810   -58.8530    93.0340   -56.3060
 1288.0000   -58.7560    10.6020     0.0020     2.5050     0.2770   -25.0530    95.8940     6.4200     6.5030     6.7060   -58.8530    93.3470   -56.1520
 1288.5000   -58.5140    10.6020     0.0190     2.5130     0.2690   -25.0070    96.0950     6.3850     6.4230     6.5100   -58.8530    93.6600   -55.9980
 1289.0000   -58.2730    10.6020     0.0200     2.5130     0.2670   -25.1660    95.4090     6.3500     6.3430     6.3260   -58.8530    93.9730   -55.8440
 1289.5000   -58.0320    10.6020     0.0230     2.5130     0.2660   -25.3550    95.3370     6.3150     6.2630     6.2120   -58.8530    94.2870   -55.6900
 1290.0000   -57.7900    10.6020     0.0230     2.5110     0.2590   -25.5460    95.9100     6.2800     6.1830     6.1740   -58.8530    94.6000   -55.5360
 1290.5000   -57.5490    10.6020     0.0290     2.5170     0.2550   -25.7430    96.5170     6.2450     6.1030     6.1350   -58.8530    94.9130   -55.3820
 1291.0000   -57.3070    10.6020     0.0420     2.5240     0.2570   -25.6860    95.6330     6.2100     6.0230     6.0970   -58.8530    95.2310   -55.2280
 1291.5000   -57.0660    10.6020     0.0290     2.5320     0.2590   -25.5470    94.2310     6.1750     5.9430     6.0590   -58.8530    95.4140   -55.0740
 1292.0000   -56.8240    10.6020    -0.0010     2.5330     0.2620   -25.4050    93.9080     6.1400     5.8640     6.0200   -58.8530    95.5990   -54.9200
 1292.5000   -56.5830    10.6020    -0.0030     2.5280     0.2640   -25.2620    95.9740     6.1170     5.8160     5.9820   -58.8530    95.7840   -54.7660
 1293.0000   -56.3410    10.6020     0.0070     2.5230     0.2640   -25.2510    99.6520     6.0940     5.7790     5.9430   -58.8530    95.9690   -54.6120
 1293.5000   -56.1000    10.6020     0.0150     2.5190     0.2650   -25.3420    98.9960     6.0530     5.7430     5.9050   -58.8530    95.9550   -54.4580
 1294.0000   -55.8580    10.6020     0.0240     2.5140     0.2660   -25.4340    97.1300     6.0110     5.7060     5.8670   -58.8530    95.8280   -54.3040
 1294.5000   -55.6170    10.6020     0.0320     2.5090     0.2800   -25.5260    97.5720     5.9690     5.6700     5.8390   -58.8530    95.7010   -54.1500
 1295.0000   -55.3760    10.6020     0.0350     2.4960     0.2940   -25.6190    99.1610     5.9280     5.6340     5.8180   -58.8530    95.8310   -53.9960
 1295.5000   -55.1340    10.6020     0.0120     2.4810     0.2980   -25.7110    98.0140     5.8860     5.5970     5.7960   -58.8530    96.2480   -53.8420
 1296.0000   -54.8930    10.6020    -0.0110     2.4740     0.2950   -25.8030    95.4400     5.8440     5.5610     5.7750   -58.8530    96.6640   -53.6880
 1296.5000   -54.6510    10.6020    -0.0230     2.4730     0.2900   -25.8960    93.2730     5.8020     5.5240     5.7540   -58.8530    97.0810   -53.5340
 1297.0000   -54.4100    10.6020    -0.0110     2.4710     0.2840   -25.9880    95.2210     5.7610     5.4880     5.7330   -58.8530    97.4970   -53.3800
 1297.5000   -54.1680    10.6020     0.0060     2.4720     0.2790   -26.0810    99.2020     5.7190     5.4510     5.7110   -58.8530    97.9140   -53.2260
 1298.0000   -53.9270    10.6020    -0.0040     2.4740     0.2690   -26.1720   102.2710     5.6770     5.4150     5.6900   -58.8530    98.3300   -53.0720
 1298.5000   -53.6850    10.6020    -0.0420     2.4760     0.2580   -26.0650   100.9410     5.6360     5.3780     5.6690   -58.8530    98.7470   -52.9180
 1299.0000   -53.4440    10.6010    -0.0440     2.4770     0.2550   -25.9270    99.5670     5.5940     5.3420     5.6470   -58.8530    99.1630   -52.7640
 1299.5000   -53.2020    10.6020    -0.0420     2.4770     0.2650   -25.7880    98.2560     5.5770     5.3300     5.6320   -58.8530    99.3350   -52.6100
