~VERSION INFORMATION
 VERS.                2.0:   CWLS LOG ASCII STANDARD - VERSION 2.0
 WRAP.                 NO:   ONE LINE PER DEPTH STEP
~WELL INFORMATION
#MNEM.UNIT      DATA TYPE    INFORMATION
#----------   ------------   ------------------------------
 STRT.F          197.0000:   START DEPTH
 STOP.F         3238.5000:   STOP DEPTH
 STEP.F            0.5000:   STEP LENGTH
 NULL.          -999.2500:   NO VALUE
 COMP.    FENIX & SCISSON:   COMPANY
 WELL. FENIX 28 "A" #28-11:   WELL
 FLD .              NPR-3:   FIELD
 LOC .      S11 T38N R78W:   LOCATION
 CNTY.            NATRONA:   COUNTY
 STAT.            WYOMING:   STATE
 CTRY. UNITED STATES OF AMERICA:   COUNTRY
 SRVC.              WELEX:   SERVICE COMPANY
 DATE.        25-OCT-1977:   LOGDATE
 API .     49025104350000:   API NUMBER
~CURVE INFORMATION
#MNEM.UNIT       API CODE    CURVE DESCRIPTION
#----------   ------------   ------------------------------
 DEPT.F                  :   
 SPR .MV     07 010 01 00:   SPONTANEOUS POTENTIAL
 TENR.LBS    07 635 01 00:   TENSION FROM RESISTIVITY
 ILM .OHMM   07 120 44 00:   INDUCTION LOG MEDIUM RESISTIVITY
 SGRD.OHMM   07 220 05 00:   SHALLOW SHORT GUARD RESISTIVITY
 ILD .OHMM   07 120 46 00:   INDUCTION LOG DEEP RESISTIVITY
 GRD .GAPI   45 310 01 00:   GAMMA RAY FROM DENSITY LOG
 CALD.IN     45 280 60 00:   CALIPER FROM DENSITY LOG
 CORR.G/C3   45 356 01 00:   DENSITY CORRECTION
 RHOB.G/C3   45 350 01 00:   BULK DENSITY
~PARAMETER INFORMATION
#MNEM.UNIT          VALUE    DESCRIPTION
#----------   ------------   ------------------------------
 EKB .F         5211.0000:   Kelly bushing
 EGL .F         5201.0000:   Ground level
 EDF .F            0.0000:   Drilling floor
 EPD .F         5201.0000:   Permanent datum
 TD  .F         3235.0000:   Total depth
 CLNT.            A2DTECH:   Client Code
 SL  . 330' FSL & 990' FWL:   Surface Location
 PD  .                 GL:   Permanent Datum
 DAPD.F                10:   Feet Above Permanent Datum
 DATE.        25-OCT-1977:   Date Logged [DD-MMM-YYYY]
 DD  .F              3235:   Depth driller
 DL  .F              3231:   Depth logger
 BLI .F              3229:   Bottom log interval
 TLI .F               200:   Top log interval
 CS1 .IN            8.625:   Casing size
 CBD1.      8.625" @ 217':   Casing driller 1
 CBL1.F               217:   Casing logger 1
 BS1 .              7.875:   Bit size
 BSD1.IN             3235:   Depth drilled with bit1
 DFT .            KCL MUD:   Type fluid in hole
 DFD .                8.9:   Density
 DFV .                 35:   Viscosity
 DFPH.               11.5:   pH
 DFL .               16.4:   Fluid loss
 MSS .           FLOWLINE:   Source of sample
 RMS .OHMM           1.18:   Rm
 MST .F                74:   Rm Meas. temp.
 RMF .OHMM           1.74:   Rmf
 MFST.F                74:   Rmf Meas. temp.
 MFSS.               MEAS:   Source Rmf.
 MCSS.               MEAS:   Source Rmc.
 RMB .OHMM           1.15:   Rm. at BHT
 BHT .F               116:   BHT.
 TCS .HRS               3:   Time Circ. stopped
 MRT .F               116:   Maximum recorded temp.
 LUN .               8611:   Logging unit number
 LUL .             CASPER:   Logging unit location
 ENGI.            C. DOAK:   Recorded By
 WITN.      W. PETTINGILL:   Witnessed by
 ORIG.           5" PRINT:   Origin of data
 UWI .     49025104350000:   Unique Well ID
 DICO. A2D TECHNOLOGIES, INC.:   Digitizing Company
~OTHER INFORMATION
~A   DEPT      SPR       TENR        ILM       SGRD        ILD         GRD      CALD       CORR       RHOB   
# ...
 1584.0000   -85.4342  1278.4597     5.8994     7.5478     4.8111   103.7474    10.0963    -0.0107     2.5103
 1584.5000   -85.4413  1279.1917     6.1093     7.5983     4.8429   103.7161    10.0939    -0.0123     2.5088
 1585.0000   -85.4471  1295.0416     6.0610     7.5959     4.8409   104.1394    10.1075    -0.0155     2.5035
 1585.5000   -85.4529  1295.7578     5.8118     7.6466     4.8393   104.9204    10.1101    -0.0187     2.4937
 1586.0000   -85.4587  1296.4741     5.6901     7.6444     4.8713   106.1800    10.1196    -0.0188     2.4893
 1586.5000   -85.3132  1297.1903     5.6489     7.6419     4.8697   107.9418    10.1173    -0.0157     2.4893
 1587.0000   -85.3192  1282.9366     5.7260     7.6399     4.8681   109.1540    10.1309    -0.0112     2.4923
 1587.5000   -85.4775  1283.8318     5.8041     7.6915     4.8660   110.6519    10.1289    -0.0066     2.5013
 1588.0000   -85.6346  1284.5482     5.7615     7.7967     4.8644   112.5226    10.1422    -0.0036     2.5103
 1588.5000   -85.4877  1285.2644     5.7596     7.7941     4.8293   113.4256    10.1402    -0.0005     2.5149
 1589.0000   -85.4949  1300.9508     5.7978     7.7382     4.8277   114.0322    10.1383     0.0009     2.5179
 1589.5000   -85.6520  1301.6670     5.7959     7.6750     4.8596   114.5991    10.1524     0.0024     2.5194
 1590.0000   -85.8105  1302.3953     5.8750     7.6273     4.9257   114.9974    10.1656     0.0023     2.5209
 1590.5000   -85.8163  1303.2786     5.9546     7.5726     4.9237   114.8477    10.1636     0.0038     2.5217
 1591.0000   -85.5196  1303.9950     5.8706     7.5706     4.9566   114.4998    10.1773     0.0022     2.5224
 1591.5000   -85.5254  1304.7112     5.7477     7.5686     4.9546   114.0249    10.1749     0.0021     2.5232
 1592.0000   -86.1363  1290.2783     5.6274     7.5661     5.0219   113.6569    10.1890     0.0005     2.5119
 1592.5000   -85.9908  1291.1736     5.5866     7.6171     5.0203   113.1099    10.2022    -0.0012     2.5036
 1593.0000   -85.8453  1306.8862     5.5847     7.6146     5.0186   112.4870    10.2002    -0.0043     2.5052
 1593.5000   -85.6999  1307.7552     5.5438     7.6126     4.9819   112.4587    10.2139    -0.0076     2.5029
 1594.0000   -85.4045  1308.4717     5.4656     7.6106     4.9803   112.3794    10.2119    -0.0125     2.4962
 1594.5000   -85.4103  1309.1879     5.5787     7.6085     4.9787   112.0757    10.2095    -0.0170     2.4954
 1595.0000   -85.4161  1309.9042     5.8545     7.6060     4.9770   112.0398    10.2076    -0.0186     2.4947
 1595.5000   -85.4221  1310.6288     6.0173     7.6040     4.9410   112.3214    10.2212    -0.0202     2.4902
 1596.0000   -86.0343  1311.5157     5.9732     7.3943     4.9049   112.6004    10.2193    -0.0203     2.4879
 1596.5000   -85.8874  1312.2319     5.8482     7.2907     4.8695   112.8793    10.2173    -0.0204     2.4895
 1597.0000   -85.7419  1308.4825     5.6862     7.1885     4.8343   112.8424    10.2153    -0.0174     2.4969
 1597.5000   -85.5964  1298.5154     5.5287     7.1836     4.7994   112.8081    10.2129    -0.0128     2.5045
 1598.0000   -85.4523  1269.4611     5.4506     7.1346     4.8311   112.4597    10.2109    -0.0113     2.5097
 1598.5000   -85.7832  1272.1171     5.4488     7.1327     4.8337   112.1146    10.2090    -0.0083     2.5128
 1599.0000   -86.0706  1301.0223     5.4849     7.1804     4.8615   111.6068    10.2070    -0.0084     2.5150
 1599.5000   -86.0764  1316.7089     5.5598     7.1785     4.8936   111.0816    10.2208    -0.0116     2.5165
 1600.0000   -85.7796  1317.4250     5.6353     7.1766     4.8916   110.7672    10.2188    -0.0133     2.5173
 1600.5000   -85.4826  1318.1412     5.7118     7.1742     4.9589   111.1947    10.2333    -0.0163     2.5197
 1601.0000   -85.8309  1288.5249     5.7483     7.1723     4.9923   110.7440    10.2479    -0.0164     2.5241
 1601.5000   -85.9192  1274.9973     5.7455     7.1684     4.9567   110.7349    10.2312    -0.0165     2.5259
 1602.0000   -85.0287  1276.4086     5.7822     7.1488     4.9215   110.7258    10.2300    -0.0150     2.5268
 1602.5000   -85.8119  1277.8375     5.8204     7.1293     4.8866   111.0310    10.2134    -0.0114     2.5277
 1603.0000   -86.1098  1278.8467     5.7768     7.2642     4.8519   111.3317    10.2124    -0.0089     2.5286
 1603.5000   -86.1142  1279.8560     5.7342     7.3641     4.8509   111.9470    10.2114    -0.0059     2.5331
 1604.0000   -85.9662  1280.8651     5.6525     7.3108     4.8836   111.9376    10.2104    -0.0028     2.5408
 1604.5000   -85.8204  1311.8264     5.6498     7.3089     4.8824   111.9282    10.2094    -0.0013     2.5497
 1605.0000   -85.6734  1313.0763     5.8055     7.3577     4.9838   112.2309    10.1927    -0.0030     2.5444
 1605.5000   -85.9804  1314.0853     5.9249     7.5102     5.0177   112.2215    10.1915    -0.0030     2.5369
 1606.0000   -86.1362  1315.0947     6.0056     7.4044     5.0513   112.2122    10.1749    -0.0093     2.5219
 1606.5000   -85.6877  1316.1038     6.0021     7.2502     5.0853   111.8899    10.1740    -0.0140     2.5159
 1607.0000   -85.6920  1317.1132     5.9992     7.0993     5.1196   111.5688    10.1572    -0.0156     2.5076
 1607.5000   -85.6964  1303.1521     5.9964     7.0974     5.1184   111.2481    10.1562    -0.0172     2.5016
 1608.0000   -85.8521  1305.9833     5.9521     6.9979     5.0820   110.9266    10.1510    -0.0204     2.5009
 1608.5000   -86.1590  1320.3929     5.9076     6.8998     5.0112   110.5902    10.1383    -0.0204     2.5024
 1609.0000   -86.3147  1321.4023     5.9466     7.1405     5.0102   110.2822    10.1283    -0.0189     2.5054
 1609.5000   -86.4705  1322.4114     5.9431     7.2885     4.9746   109.9611    10.1207    -0.0144     2.5114
 1610.0000   -86.3235  1323.4208     5.9824     7.2865     4.9348   110.0259    10.1041    -0.0098     2.5144
 1610.5000   -86.3289  1324.4298     5.9376     7.2846     4.8702   110.5692    10.1031    -0.0098     2.5152
 1611.0000   -86.3333  1325.4492     5.9348     7.2826     4.8024   110.9149    10.1021    -0.0099     2.5152
 1611.5000   -86.3377  1326.7006     5.8903     7.1799     4.8347   111.4342    10.1010    -0.0097     2.5183
 1612.0000   -86.4934  1327.7098     5.8468     6.9821     4.8338   112.0998    10.1000    -0.0069     2.5242
 1612.5000   -86.3464  1328.7190     5.8441     6.9320     4.8356   112.7210    10.0988    -0.0039     2.5295
 1613.0000   -86.1995  1314.7582     5.8414     7.0268     4.8318   113.3274    10.1137    -0.0024     2.5325
 1613.5000   -86.0526  1309.6790     5.8386     7.0743     4.8306   113.6326    10.1125    -0.0025     2.5340
 1614.0000   -85.7555  1301.7964     5.8359     7.2705     4.8297   113.3092    10.1146    -0.0041     2.5340
 1614.5000   -85.7599  1302.8444     5.8331     7.6296     4.8287   112.9881    10.1260    -0.0103     2.5333
 1615.0000   -85.7643  1288.8549     5.8297     7.7340     4.8277   112.2465    10.1363    -0.0150     2.5318
 1615.5000   -85.6174  1290.1163     5.8270     7.6780     4.8268   111.7219    10.1553    -0.0151     2.5287
 1616.0000   -85.7731  1306.0957     5.7440     7.3636     4.8593   111.0888    10.1578    -0.0152     2.5296
 1616.5000   -86.0811  1307.1049     5.6622     7.1605     4.8918   110.7676    10.1687    -0.0121     2.5303
 1617.0000   -86.2367  1308.1141     5.6595     7.1586     4.9593   110.4443    10.1833    -0.0091     2.5311
 1617.5000   -86.0898  1309.1317     5.6569     7.1567     5.0274   110.1233    10.2051    -0.0092     2.5318
 1618.0000   -85.7906  1295.4148     5.7732     7.3145     5.0962   109.8034    10.2125    -0.0108     2.5243
 1618.5000   -85.6436  1296.4238     5.8107     7.6124     5.1308   109.7931    10.2113    -0.0172     2.5168
 1619.0000   -85.9517  1297.4332     5.8484     7.6809     5.1651   109.7832    10.2103    -0.0264     2.5039
 1619.5000   -86.2587  1298.4423     5.8864     7.7684     5.1641   110.0884    10.2093    -0.0311     2.4913
 1620.0000   -85.8103  1299.4517     5.8830     7.5536     5.1628   110.3899    10.2240    -0.0327     2.4860
