~VERSION INFORMATION
 VERS.                2.0:   CWLS LOG ASCII STANDARD - VERSION 2.0
 WRAP.                 NO:   ONE LINE PER DEPTH STEP
~WELL INFORMATION
#MNEM.UNIT      DATA TYPE    INFORMATION
#----------   ------------   ------------------------------
 STRT.F          210.0000:   START DEPTH
 STOP.F         2998.0000:   STOP DEPTH
 STEP.F            0.5000:   STEP LENGTH
 NULL.          -999.2500:   NO VALUE
 COMP.    FENIX & SCISSON:   COMPANY
 WELL. FENIX & SCISSON "A" #41-28:   WELL
 FLD .          N.P.R. #3:   FIELD
 LOC .      S28 T39N R78W:   LOCATION
 CNTY.            NATRONA:   COUNTY
 STAT.            WYOMING:   STATE
 CTRY. UNITED STATES OF AMERICA:   COUNTRY
 SRVC.       SCHLUMBERGER:   SERVICE COMPANY
 DATE.        08-MAY-1977:   LOGDATE
 API .     49025103670000:   API NUMBER
~CURVE INFORMATION
#MNEM.UNIT       API CODE    CURVE DESCRIPTION
#----------   ------------   ------------------------------
 DEPT.F                  :   
 CALD.IN     45 280 60 00:   CALIPER FROM DENSITY LOG
 GRD .GAPI   45 310 01 00:   GAMMA RAY FROM DENSITY LOG
 CORR.G/C3   45 356 01 00:   DENSITY CORRECTION
 RHOB.G/C3   45 350 01 00:   BULK DENSITY
 SPR .MV     07 010 01 00:   SPONTANEOUS POTENTIAL
 LL8 .OHMM   07 220 08 00:   LATEROLOG-8 RES.
 ILM .OHMM   07 120 44 00:   INDUCTION LOG MEDIUM RESISTIVITY
 ILD .OHMM   07 120 46 00:   DEEP INDUCTION RESISTIVITY
~PARAMETER INFORMATION
#MNEM.UNIT          VALUE    DESCRIPTION
#----------   ------------   ------------------------------
 EKB .F         5012.0000:   Kelly bushing
 EGL .F         5002.0000:   Ground level
 TD  .F         3000.0000:   Total depth
 CLNT.            A2DTECH:   Client Code
 SL  . 330' FNL & 2310' FWL:   Surface Location
 DATE.        08-MAY-1977:   Date Logged [DD-MMM-YYYY]
 DD  .F              3000:   Depth driller
 DL  .F              2999:   Depth logger
 BLI .F              2993:   Bottom log interval
 TLI .F               222:   Top log interval
 CS1 .              8.625:   Casing size
 CBD1.      8.625" @ 112':   Casing driller 1
 CBL1.IN              222:   Casing logger 1
 BS1 .IN            7.875:   Bit size
 BSD1.F              3000:   Depth drilled with bit1
 DFT .                KCL:   Type fluid in hole
 DFD .                8.8:   Density
 DFV .                 32:   Viscosity
 DFPH.                8.0:   pH
 DFL .                8.8:   Fluid loss
 MSS .           FLOWLINE:   Source of sample
 RMS .OHMM          0.124:   Rm
 MST .F                80:   Rm Meas. temp.
 RMF .OHMM          0.117:   Rmf
 MFST.F                80:   Rmf Meas. temp.
 MFSS.               MEAS:   Source Rmf.
 RMB .OHMM         0.0886:   Rm. at BHT
 BHT .F               112:   BHT.
 TCS .HRS            0200:   Time Circ. stopped
 TLAB.HRS            0515:   Time logger at bottom
 MRT .F               112:   Maximum recorded temp.
 LUN .               5642:   Logging unit number
 LUL .               CSPR:   Logging unit location
 ENGI.            MARATIN:   Recorded By
 WITN.         PETTINGILL:   Witnessed by
 ORIG.      2.5" 5" PRINT:   Origin of data
 UWI .     49025103670000:   Unique Well ID
 DICO. A2D TECHNOLOGIES, INC.:   Digitizing Company
 PD  .                 GL:   Permanent Datum
 EPD .               5002:   Elevation Permanent Datum
 LMF .                 KB:   Log Measured From
 DMF .                 KB:   Drilling Measured From
 DAPD.                 10:   Feet Above Permanent Datum
~OTHER INFORMATION
~A   DEPT     CALD         GRD      CORR       RHOB        SPR        LL8        ILM        ILD   
# ...
  939.0000     8.9546   109.0014     0.1026     2.5125   -84.9444    11.4138    10.6803     8.7850
  939.5000     8.9423   109.6202     0.1035     2.5104   -84.3077    11.3597    10.6803     8.6613
  940.0000     8.9465   109.4948     0.1074     2.5195   -83.7037    11.2488    10.5291     8.6023
  940.5000     8.9499   108.0302     0.1158     2.5435   -83.3920    11.2472    10.5291     8.4192
  941.0000     8.9533   107.0120     0.1281     2.5466   -83.3600    11.2456    10.5291     8.3633
  941.5000     8.9567   105.2391     0.1274     2.5639   -83.0771    11.2440    10.5291     8.3610
  942.0000     8.9601   106.8173     0.1215     2.5518   -83.0741    11.2424    10.5291     8.3587
  942.5000     8.9635   109.2560     0.1163     2.5229   -83.0710    11.2408    10.5291     8.3564
  943.0000     8.9669   110.2368     0.1141     2.5258   -83.1131    11.2392    10.6803     8.4207
  943.5000     8.9703   109.6592     0.1135     2.5471   -83.3737    11.2376    10.6803     8.5857
  944.0000     8.9737   109.8373     0.1165     2.5263   -83.3703    11.2360    10.6803     8.7026
  944.5000     8.9771   108.9679     0.1175     2.5219   -83.6762    11.2344    10.8337     8.8212
  945.0000     8.9813   108.0927     0.1106     2.5452   -84.0432    11.2328    10.8337     9.0652
  945.5000     8.9847   108.5685     0.1055     2.5490   -84.6615    11.2312    10.8337     9.1892
  946.0000     8.9881   109.9312     0.1054     2.5155   -84.9016    11.2296    10.8337     9.3139
  946.5000     8.9915   110.8476     0.1079     2.5148   -85.2072    11.2279    10.8337     9.3114
  947.0000     8.9948   110.2758     0.1133     2.5097   -85.2037    11.2990    10.8337     9.1811
  947.5000     8.9982   108.2101     0.1170     2.5060   -85.1183    11.3862    10.8337     9.1786
  948.0000     9.0016   108.8347     0.1194     2.5175   -84.8889    11.3846    10.8337     9.0503
  948.5000     9.0050   110.6439     0.1202     2.5362   -84.8858    11.3829    10.8337     9.0478
  949.0000     9.0084   112.8995     0.1143     2.5550   -84.5740    11.3813    10.8337     9.0453
  949.5000     9.0118   115.4527     0.1091     2.5634   -84.2623    11.3797    10.8337     9.0428
  950.0000     9.0144   117.8571     0.1046     2.5350   -83.8477    11.3781    10.8337     9.0399
  950.5000     9.0007   118.2353     0.1025     2.5187   -83.5319    11.3765    10.8337     9.0365
  951.0000     8.9890   116.1363     0.1033     2.5240   -82.9074    11.3748    10.8337     9.0331
  951.5000     8.9791   110.6604     0.1086     2.5375   -82.2829    11.3732    10.8337     9.0295
  952.0000     8.9830   112.1784     0.1155     2.5309   -82.0864    11.3716    10.8337     9.0760
  952.5000     8.9704   113.9284     0.1200     2.5228   -82.0833    11.3700    10.8337     9.2004
  953.0000     8.9744   115.5060     0.1119     2.5198   -82.0803    11.3684    10.8337     9.2708
  953.5000     8.9618   113.7467     0.1158     2.5267   -82.0772    11.3667    10.8337     9.2669
  954.0000     8.9657   111.3979     0.1240     2.5395   -82.0741    11.3650    10.8337     9.2631
  954.5000     8.9689   111.8889     0.1181     2.5149   -82.0710    11.3634    10.8337     9.2593
  955.0000     8.9720   110.8531     0.1001     2.5127   -82.2120    11.3618    10.8337     9.2555
  955.5000     8.9901   111.5118     0.1130     2.5209   -82.3735    11.5236    10.8337     9.2516
  956.0000     8.9775   113.6052     0.1182     2.5298   -82.3704    11.5216    10.8337     9.1210
  956.5000     8.9815   114.5239     0.1124     2.5426   -82.6759    11.5200    10.8337     9.0484
  957.0000     8.9540   113.9586     0.1140     2.5538   -82.9815    11.5183    10.8337     8.9884
  957.5000     8.9579   109.9707     0.1208     2.5680   -82.9784    11.5167    10.8337     8.9847
  958.0000     8.9312   110.5959     0.1246     2.5417   -82.6667    11.5151    10.8337     8.9802
  958.5000     8.9187   113.0069     0.1180     2.5477   -82.6636    11.5134    10.8337     8.9766
  959.0000     8.9226   115.4178     0.1127     2.5334   -82.6605    11.5118    10.8337     8.8498
  959.5000     8.9257   115.9187     0.1136     2.5262   -82.6574    11.5102    10.8337     8.8462
  960.0000     8.9289   113.0967     0.1174     2.5363   -82.6537    11.5085    10.8337     8.8425
  960.5000     8.9163   111.1922     0.1257     2.5635   -82.6506    11.5069    10.8337     8.7177
  961.0000     8.9352   110.7682     0.1221     2.5560   -82.3389    11.5053    10.8337     8.7141
  961.5000     8.9383   110.8057     0.1161     2.5362   -82.3359    11.5036    10.8337     8.7105
  962.0000     8.9415   111.5722     0.1185     2.5470   -82.0242    11.5020    10.8337     8.7070
  962.5000     8.9446   110.7093     0.1321     2.5717   -81.7124    11.5003    10.6803     8.7034
  963.0000     8.9478   112.6813     0.1426     2.5889   -81.0921    11.4987    10.6803     8.6998
  963.5000     8.9509   114.1993     0.1443     2.5748   -81.0890    11.4971    10.6762     8.6962
  964.0000     8.9535   115.1221     0.1351     2.5607   -80.7773    11.3325    10.5291     8.5735
  964.5000     8.9565   111.8783     0.1183     2.5279   -80.7743    11.3308    10.5212     8.5699
  965.0000     8.9597   110.8591     0.1120     2.5429   -80.7712    11.3292    10.3801     8.4489
  965.5000     8.9628   113.1287     0.1092     2.5460   -80.7681    11.3276    10.3683     8.4455
  966.0000     8.9660   115.5396     0.1110     2.5506   -80.7651    11.3260    10.2196     8.4420
  966.5000     8.9691   116.6112     0.1170     2.5582   -80.7620    11.3244     9.9304     8.4385
  967.0000     8.9572   115.1531     0.1247     2.5762   -81.0676    11.3228     9.8047     8.4351
  967.5000     8.9754   111.0164     0.1297     2.5662   -81.0645    11.1607     9.8047     8.3160
  968.0000     8.9785   110.5924     0.1228     2.5442   -81.0614    11.1591     9.8047     8.3126
  968.5000     8.9667   111.8204     0.1126     2.5219   -81.0584    10.9993     9.6659     8.3091
  969.0000     8.9698   114.5289     0.1105     2.5392   -81.0553    10.9977     9.6659     8.3057
  969.5000     8.9730   119.1720     0.1204     2.5475   -81.0522    10.8403     9.6659     8.3023
  970.0000     8.9761   122.3269     0.1159     2.5378   -81.0492    10.8387     9.6659     8.1851
  970.5000     8.9643   123.6962     0.1100     2.5462   -80.7375    10.6835     9.6367     8.1817
  971.0000     8.9227   124.1651     0.1092     2.5567   -80.4258    10.6820     9.5290     8.1783
  971.5000     8.9259   123.5456     0.1116     2.5710   -80.4227    10.6805     9.5290     8.1749
  972.0000     8.9290   122.8631     0.1223     2.5345   -80.1110    10.5276     9.5290     8.1716
  972.5000     8.9322   123.2539     0.1268     2.5435   -79.7993    10.5261     9.5290     8.1682
  973.0000     8.9353   123.8393     0.1186     2.5399   -79.7962    10.3754     9.5290     8.1647
  973.5000     8.9234   123.8690     0.1029     2.5250   -79.4845    10.3739     9.5290     8.1614
  974.0000     8.9117   123.9067     0.1023     2.5386   -78.8642    10.2253     9.5290     8.1580
  974.5000     8.9149   124.5278     0.1181     2.5708   -78.8611    10.2239     9.5290     8.0428
  975.0000     8.9180   125.8929     0.1309     2.5754   -78.8580    10.2224     9.5746     8.0395
  975.5000     8.9361   127.7085     0.1302     2.5478   -79.1636    10.2210     9.6659     8.0362
  976.0000     8.9393   129.3754     0.1244     2.5255   -79.1686    10.2195     9.6659     8.0108
  976.5000     8.9424   130.1494     0.1176     2.5181   -79.4783    10.2181     9.6659     7.9194
  977.0000     8.9298   130.0306     0.1133     2.5331   -80.0966    10.0718     9.6659     7.7579
  977.5000     8.9487   128.1260     0.1088     2.5272   -80.4063    10.0703     9.6659     7.4876
  978.0000     8.9519   123.0964     0.1059     2.5123   -80.7161    10.0689     9.4183     7.4845
  978.5000     8.9393   121.3115     0.1051     2.5334   -80.9971     9.9247     9.0748     7.4814
  979.0000     8.9432   122.5611     0.1060     2.5395   -80.9609     9.7826     8.6933     7.4476
