~VERSION INFORMATION
 VERS.                2.0:   CWLS LOG ASCII STANDARD - VERSION 2.0
 WRAP.                 NO:   ONE LINE PER DEPTH STEP
~WELL INFORMATION
#MNEM.UNIT      DATA TYPE    INFORMATION
#----------   ------------   ------------------------------
 STRT.F           63.5000:   START DEPTH
 STOP.F         4112.0000:   STOP DEPTH
 STEP.F            0.5000:   STEP LENGTH
 NULL.          -999.2500:   NO VALUE
 COMP. LAWRENCE-ALLISON & ASSOC:   COMPANY
 WELL. LAWRENCE "X" #34-34:   WELL
 FLD .           N.P.R.#3:   FIELD
 LOC .      S34 T39N R78W:   LOCATION
 CNTY.            NATRONA:   COUNTY
 STAT.            WYOMING:   STATE
 CTRY. UNITED STATES OF AMERICA:   COUNTRY
 SRVC.      DRESSER ATLAS:   SERVICE COMPANY
 DATE.        19-OCT-1983:   LOGDATE
 API .     49025109440000:   API NUMBER
~CURVE INFORMATION
#MNEM.UNIT       API CODE    CURVE DESCRIPTION
#----------   ------------   ------------------------------
 DEPT.F                  :   
 AC  .US/F   60 250 00 00:   ACCOUSTIC
 TENS.LBS    60 635 01 00:   TENSION FROM SONIC
 ILD .OHMM   07 120 46 00:   DEEP INDUCTION RESISTIVITY
 ILM .OHMM   07 120 44 00:   INDUCTION LOG MEDIUM RESISTIVITY
 RFOC.OHMM   07 220 04 00:   RESISTIVITY FOCUSED LOG RES.
 TENR.LBS    07 635 01 00:   TENSION FROM RESISTIVITY
 SPR .MV     07 010 01 00:   SPONTANEOUS POTENTIAL
 GRR .GAPI   07 310 01 00:   GAMMA RAY FROM RESISTIVITY
 CALD.IN     45 280 60 00:   CALIPER FROM DENSITY LOG
 RHOB.G/C3   45 350 01 00:   BULK DENSITY
 CORR.G/C3   45 356 01 00:   DENSITY CORRECTION
 TEND.LBS    45 635 01 00:   TENSION FROM DENSITY LOG
 NPHI.DEC    42 890 03 00:   NEUTRON POROSITY SANDSTONE
~PARAMETER INFORMATION
#MNEM.UNIT          VALUE    DESCRIPTION
#----------   ------------   ------------------------------
 EKB .F         5100.0000:   Kelly bushing
 EGL .F         5090.0000:   Ground level
 TD  .F         4107.0000:   Total depth
 DATE.        19-OCT-1983:   Date logged
 CLNT.            A2DTECH:   Client Code
 SL  . 1997' FNL & 1661' FWL:   Surface Location
 PD  .                 GL:   Permanent Datum
 EPD .F              5090:   Elevation Permanent Datum
 LMF .                 KB:   Log Measured From
 DMF .                 KB:   Drilling Measured From
 DAPD.F                10:   Feet Above Permanent Datum
 DD  .F              4107:   Depth driller
 DL  .F              4102:   Depth logger
 BLI .F              4100:   Bottom log interval
 CS1 .IN            9.625:   Casing size
 CBD1.      9.625" @ 695':   Casing driller 1
 CBL1.F               696:   Casing logger 1
 BS1 .IN            7.875:   Bit size
 BSD1.F              4107:   Depth drilled with bit1
 DFT .            GEL-KCL:   Type fluid in hole
 DFD .                  9:   Density
 DFV .                 43:   Viscosity
 DFPH.                  9:   pH
 DFL .                 11:   Fluid loss
 MSS .           FLOWLINE:   Source of sample
 RMS .OHMM          0.313:   Rm
 MST .F                72:   Rm Meas. temp.
 RMF .OHMM          0.265:   Rmf
 MFST.F                68:   Rmf Meas. temp.
 RMC .OHMM          0.598:   Rmc
 MCST.F                68:   Rmc Meas. temp.
 MFSS.               MEAS:   Source Rmf.
 MCSS.               MEAS:   Source Rmc.
 RMB .OHMM          0.173:   Rm. at BHT
 BHT .F               130:   BHT.
 TCS .HRS               4:   Time Circ. stopped
 MRT .F               130:   Maximum recorded temp.
 LUN .               6774:   Logging unit number
 LUL .               GLTE:   Logging unit location
 ENGI.           FAHLEING:   Recorded By
 WITN.           JENNINGS:   Witnessed by
 ORIG.           5" PRINT:   Origin of data
 UWI .     49025109440000:   Unique Well ID
 DICO. A2D TECHNOLOGIES, INC.:   Digitizing Company
~OTHER INFORMATION
~A   DEPT       AC       TENS        ILD        ILM       RFOC       TENR        SPR         GRR      CALD       RHOB       CORR       TEND       NPHI   
# ...
 2273.5000  -999.2500  -999.2500     3.6470     3.7990     4.4520   -69.2150   -66.5660   110.9610    10.4790     2.5550     0.0950   -42.3000     0.2460
 2274.0000  -999.2500  -999.2500     3.7090     3.8390     4.4930   -71.6060   -66.7390   112.3760    10.4870     2.5560     0.1080   -42.3000     0.2630
 2274.5000  -999.2500  -999.2500     3.7710     3.8910     4.5360   -73.9970   -66.9120   113.5270    10.4950     2.5510     0.0950   -42.3000     0.2630
 2275.0000  -999.2500  -999.2500     3.8700     3.9430     4.4310   -76.3880   -67.0850   113.6560    10.4900     2.5460     0.0810   -42.3000     0.2600
 2275.5000  -999.2500  -999.2500     3.8580     3.9740     4.3920   -78.7790   -67.2580   112.9650    10.4860     2.5420     0.0680   -42.3000     0.2590
 2276.0000  -999.2500  -999.2500     3.8260     4.0050     4.3700   -81.1700   -67.4310   111.5630    10.4810     2.5380     0.0560   -42.3000     0.2630
 2276.5000  -999.2500  -999.2500     3.7940     4.0360     4.4940   -83.5610   -67.6040   111.2230    10.4760     2.5350     0.0590   -42.3000     0.2650
 2277.0000  -999.2500  -999.2500     3.7640     4.0670     4.4110   -85.9510   -67.7570   111.1960    10.4720     2.5290     0.0570   -42.3000     0.2620
 2277.5000  -999.2500  -999.2500     3.8370     4.0980     4.2760   -88.3420   -67.7850   111.2800    10.4670     2.5190     0.0510   -42.3000     0.2580
 2278.0000  -999.2500  -999.2500     3.9070     4.1290     4.0930   -90.7330   -67.8120   114.5250    10.4620     2.5120     0.0460   -42.3000     0.2540
 2278.5000  -999.2500  -999.2500     3.9770     4.1600     4.2280   -92.9580   -67.8390   118.8470    10.4580     2.5110     0.0500   -42.3000     0.2530
 2279.0000  -999.2500  -999.2500     4.0480     4.1910     4.4310   -91.8190   -67.8670   120.6250    10.4580     2.5160     0.0720   -42.3000     0.2520
 2279.5000  -999.2500  -999.2500     4.1180     4.2220     4.5490   -90.7530   -67.8940   119.4550    10.4700     2.5260     0.0870   -42.3000     0.2510
 2280.0000  -999.2500  -999.2500     4.1890     4.2520     4.5780   -89.6870   -67.9210   115.3430    10.4820     2.5370     0.0850   -42.3000     0.2500
 2280.5000  -999.2500  -999.2500     4.2570     4.2830     4.7190   -88.6210   -67.9490   111.3300    10.4940     2.5460     0.0840   -42.3000     0.2520
 2281.0000  -999.2500  -999.2500     4.3290     4.3290     4.8870   -87.5550   -67.9760   111.2600    10.5060     2.5440     0.0910   -38.7370     0.2540
 2281.5000  -999.2500  -999.2500     4.3480     4.3140     4.7990   -86.4890   -68.0030   113.9340    10.5180     2.5370     0.0960   -34.4650     0.2560
 2282.0000  -999.2500  -999.2500     4.3700     4.2680     4.6210   -85.4230   -68.0310   115.8010    10.5310     2.5360     0.0960   -30.1930     0.2580
 2282.5000  -999.2500  -999.2500     4.1780     4.1210     4.6650   -84.3570   -68.0580   115.3860    10.5360     2.5350     0.0960   -25.9200     0.2610
 2283.0000  -999.2500  -999.2500     3.9740     3.9730     4.6040   -83.2910   -68.0850   113.6660    10.5370     2.5340     0.0970   -22.0360     0.2620
 2283.5000  -999.2500  -999.2500     3.7640     3.8260     4.4190   -82.1110   -68.1130   112.0860    10.5390     2.5340     0.0980   -22.4100     0.2560
 2284.0000  -999.2500  -999.2500     3.6540     3.6780     4.0930   -80.8420   -68.1390   112.6660    10.5400     2.5380     0.1000   -22.7520     0.2500
 2284.5000  -999.2500  -999.2500     3.5410     3.5510     3.6260   -79.5740   -68.1140   113.2980    10.5410     2.5460     0.0870   -23.0950     0.2490
 2285.0000  -999.2500  -999.2500     3.4280     3.4850     3.6260   -78.3050   -67.8950   114.1070    10.5420     2.5490     0.0730   -23.4370     0.2570
 2285.5000  -999.2500  -999.2500     3.3160     3.2800     3.7290   -77.0370   -67.5920   116.4780    10.5440     2.5440     0.0590   -23.7790     0.2680
 2286.0000  -999.2500  -999.2500     3.1760     3.1150     3.7130   -75.7680   -67.7460   119.3870    10.5450     2.5350     0.0490   -24.1220     0.2770
 2286.5000  -999.2500  -999.2500     3.0190     2.9580     3.6760   -74.4990   -67.9410   120.1920    10.5460     2.5240     0.0400   -24.4640     0.2840
 2287.0000  -999.2500  -999.2500     2.8620     2.8010     3.6390   -73.2310   -68.1320   118.5650    10.5470     2.5130     0.0310   -24.8060     0.2880
 2287.5000  -999.2500  -999.2500     2.7060     2.6450     3.4970   -71.9620   -68.3220   120.0530    10.5490     2.5040     0.0450   -25.1490     0.2860
 2288.0000  -999.2500  -999.2500     2.5490     2.4050     3.3040   -70.6940   -68.5210   125.2830    10.5500     2.4940     0.0690   -25.4910     0.2810
 2288.5000  -999.2500  -999.2500     2.4630     2.4150     2.9720   -69.4250   -68.4310   128.6130    10.5510     2.4840     0.0720   -25.8330     0.2800
 2289.0000  -999.2500  -999.2500     2.4270     2.4390     2.6100   -68.1570   -68.2450   127.1140    10.5520     2.4850     0.0760   -26.1760     0.2780
 2289.5000  -999.2500  -999.2500     2.3790     2.4800     2.5200   -66.8880   -68.0560   123.9620    10.5540     2.4940     0.0800   -26.5180     0.2730
 2290.0000  -999.2500  -999.2500     2.3380     2.5210     2.6150   -65.6200   -67.8670   120.6260    10.5550     2.5020     0.0840   -26.8600     0.2670
 2290.5000  -999.2500  -999.2500     2.3590     2.5630     3.2420   -64.3510   -67.6780   117.3150    10.5580     2.5110     0.0870   -27.2030     0.2590
 2291.0000  -999.2500  -999.2500     2.3770     2.6040     3.2940   -63.0820   -67.4890   114.1630    10.5630     2.5150     0.0910   -27.5450     0.2530
 2291.5000  -999.2500  -999.2500     2.4610     2.6430     3.3340   -61.8140   -67.3020   114.5930    10.5680     2.5150     0.0850   -27.8880     0.2490
 2292.0000  -999.2500  -999.2500     2.5690     2.6690     3.1530   -60.5450   -67.1440   116.2260    10.5740     2.5150     0.0780   -28.2300     0.2440
 2292.5000  -999.2500  -999.2500     2.6430     2.6940     3.0140   -59.2770   -67.1800   116.8960    10.5790     2.5150     0.0710   -28.5720     0.2470
 2293.0000  -999.2500  -999.2500     2.6520     2.7200     3.0370   -58.0080   -67.2120   116.9060    10.5840     2.5150     0.0640   -28.9150     0.2500
 2293.5000  -999.2500  -999.2500     2.6610     2.7450     3.1180   -56.7400   -67.2430   116.9890    10.5900     2.5140     0.0730   -29.2570     0.2520
 2294.0000  -999.2500  -999.2500     2.6700     2.7690     3.2420   -55.4710   -67.2740   117.4250    10.5950     2.5140     0.0830   -29.5990     0.2510
 2294.5000  -999.2500  -999.2500     2.6780     2.7870     3.1540   -54.2030   -67.3060   117.8510    10.6000     2.5210     0.0920   -29.9420     0.2550
 2295.0000  -999.2500  -999.2500     2.6860     2.8040     3.0650   -52.9340   -67.3350   118.2690    10.6060     2.5160     0.0830   -30.2840     0.2590
 2295.5000  -999.2500  -999.2500     2.6900     2.8180     3.1080   -52.6970   -67.3240   117.6730    10.6110     2.5110     0.0670   -30.6260     0.2590
 2296.0000  -999.2500  -999.2500     2.6900     2.8180     3.1750   -53.1370   -67.5300   115.6310    10.6160     2.5060     0.0590   -30.9690     0.2530
 2296.5000  -999.2500  -999.2500     2.6900     2.8180     3.1420   -53.5770   -67.8090   114.2470    10.6160     2.5120     0.0540   -31.3110     0.2440
 2297.0000  -999.2500  -999.2500     2.6900     2.8180     3.0940   -54.0160   -68.0800   114.0640    10.6150     2.5220     0.0500   -31.6530     0.2410
 2297.5000  -999.2500  -999.2500     2.6900     2.8180     3.0940   -54.4560   -68.3500   114.7540    10.6140     2.5290     0.0460   -31.9960     0.2440
 2298.0000  -999.2500  -999.2500     2.6900     2.8060     3.0940   -54.8960   -68.6150   116.6940    10.6140     2.5270     0.0480   -32.3380     0.2510
 2298.5000  -999.2500  -999.2500     2.6970     2.7740     3.1440   -55.3350   -68.8810   118.1910    10.6130     2.5180     0.0520   -32.6800     0.2670
 2299.0000  -999.2500  -999.2500     2.7050     2.8210     3.0950   -55.7750   -69.1470   118.0490    10.6120     2.5090     0.0560   -33.0230     0.2840
