~VERSION INFORMATION
 VERS.                2.0:   CWLS LOG ASCII STANDARD - VERSION 2.0
 WRAP.                 NO:   ONE LINE PER DEPTH STEP
~WELL INFORMATION
#MNEM.UNIT      DATA TYPE    INFORMATION
#----------   ------------   ------------------------------
 STRT.F           10.0000:   START DEPTH
 STOP.F         3180.0000:   STOP DEPTH
 STEP.F            0.5000:   STEP LENGTH
 NULL.          -999.2500:   NO VALUE
 COMP. LAWRENCE - ALLISON WEST:   COMPANY
 WELL. LAWRENCE ALLISON NPR 3 "AX" #17-2:   WELL
 FLD .                NPR:   FIELD
 LOC .       S2 T38N R78W:   LOCATION
 CNTY.            NATRONA:   COUNTY
 STAT.            WYOMING:   STATE
 CTRY. UNITED STATES OF AMERICA:   COUNTRY
 SRVC.      DRESSER ATLAS:   SERVICE COMPANY
 DATE.        16-FEB-1987:   LOGDATE
 API .     49025111210000:   API NUMBER
~CURVE INFORMATION
#MNEM.UNIT       API CODE    CURVE DESCRIPTION
#----------   ------------   ------------------------------
 DEPT.F                  :   
 DEN .LBS    45 350 01 00:   BULK DENSITY
 CORR.G/C3   45 356 01 00:   DENSITY CORRECTION
 TEND.LBS    45 635 01 00:   TENSION FROM DENSITY LOG
 CNC .DEC    42 890 01 00:   NEUTRON PORISITY LIMESTONE
 CALR.IN     07 280 01 00:   CALIPER FROM RESISTIVITY
 SPR .MV     07 010 01 00:   SPONTANEOUS POTENTIAL
 GRR .GAPI   07 310 01 00:   GAMMA RAY FROM RESISTIVITY
 RFOC.OHMM   07 220 04 00:   RESISTIVITY FOCUSED LOG RES.
 ILD .OHMM   07 120 46 00:   DEEP INDUCTION RESISTIVITY
 ILM .OHMM   07 120 44 00:   INDUCTION LOG MEDIUM RESISTIVITY
 TENR.LBS    07 635 01 00:   TENSION FROM RESISTIVITY
~PARAMETER INFORMATION
#MNEM.UNIT          VALUE    DESCRIPTION
#----------   ------------   ------------------------------
 EKB .F         5141.0000:   Kelly bushing
 EGL .F         5129.0000:   Ground level
 EDF .F            0.0000:   Drilling floor
 EPD .F            0.0000:   Permanent datum
 TD  .F         3161.0000:   Total depth
 DATE.        16-FEB-1987:   Date logged
 CLNT.            A2DTECH:   Client Code
 SL  . 1125' FSL & 220' FWL:   Surface Location
 PD  .                 GL:   Permanent Datum
 DAPD.F                12:   Feet Above Permanent Datum
 DD  .F              3161:   Depth driller
 DL  .F              3158:   Depth logger
 BLI .F              3156:   Bottom log interval
 TLI .F                12:   Top log interval
 CS1 .IN            8.625:   Casing size
 CBD1.      8.625" @ 626':   Casing driller 1
 CBL1.F               626:   Casing logger 1
 BS1 .IN            7.875:   Bit size
 BSD1.F              3161:   Depth drilled with bit1
 DFT .        KCL/POLYMER:   Type fluid in hole
 DFD .                8.8:   Density
 DFV .                 39:   Viscosity
 DFPH.                 10:   pH
 DFL .                8.4:   Fluid loss
 MSS .           FLOWLINE:   Source of sample
 RMS .OHMM           .292:   Rm
 MST .F                82:   Rm Meas. temp.
 RMF .OHMM           .231:   Rmf
 MFST.F                82:   Rmf Meas. temp.
 RMC .OHMM           .365:   Rmc
 MCST.F                82:   Rmc Meas. temp.
 MFSS.               MEAS:   Source Rmf.
 MCSS.               CALC:   Source Rmc.
 RMB .OHMM           .203:   Rm. at BHT
 BHT .F               118:   BHT.
 TCS .HRS               3:   Time Circ. stopped
 MRT .F               118:   Maximum recorded temp.
 LUN .            HL-6274:   Logging unit number
 LUL .           GALLETTE:   Logging unit location
 ENGI.            PANASUK:   Recorded By
 WITN.             STRONG:   Witnessed by
 ORIG.           5" PRINT:   Origin of data
 UWI .     49025111210000:   Unique Well ID
 DICO. A2D TECHNOLOGIES, INC.:   Digitizing Company
~OTHER INFORMATION
~A   DEPT      DEN       CORR       TEND        CNC       CALR        SPR          GRR     RFOC        ILD        ILM       TENR   
# ...
 2785.5000     2.5553     0.0182   -39.0007     0.1556     8.3063   -13.5177    86.2847    16.1725    10.5652    10.9220   -65.1419
 2786.0000     2.5463     0.0022   -39.0404     0.1596     8.3063   -13.5177    77.1396    17.7308    10.8614    11.0233   -55.1511
 2786.5000     2.5333    -0.0178   -39.1000     0.1688     8.3063   -13.5177    74.7539    14.3521    10.8620    11.0239   -55.1532
 2787.0000     2.5273    -0.0257   -39.1496     0.1704     8.2800   -13.1201    77.9348    12.9723    10.8625    11.0245   -55.1553
 2787.5000     2.5234    -0.0277   -39.1894     0.1672     8.2665   -12.7225    80.3205    12.7366    10.8630    11.0250   -55.1574
 2788.0000     2.5234    -0.0277   -39.2589     0.1656     8.2466   -12.5237    81.9109    13.0934    10.8637    11.0257   -55.1595
 2788.5000     2.5324    -0.0257   -39.3085     0.1600     8.2466   -12.5237    85.4895    13.5845    10.8642    11.0262   -55.1616
 2789.0000     2.5443    -0.0217   -39.3383     0.1580     8.2107   -12.7225    85.8871    13.9651    10.8648    11.0267   -55.1637
 2789.5000     2.5473    -0.0137   -39.4078     0.1580     8.2268   -13.1201    84.2966    14.4889    10.5697    10.9265   -55.1658
 2790.0000     2.5424    -0.0077   -29.4675     0.1612     8.1671   -13.1201    83.8990    14.8948    10.4733    10.5327   -55.1679
 2790.5000     2.5424    -0.0137   -39.5272     0.1742     8.2069   -13.5177    80.7181    14.3577     9.7310    10.1532   -55.1700
 2791.0000     2.5394    -0.0217   -39.5768     0.1928     8.2069   -13.7165    81.5133    13.5879     9.1246     9.6978   -55.1720
 2791.5000     2.5354    -0.0256   -39.6265     0.2032     8.2069   -13.9153    85.4895    12.0579     8.2471     8.9287   -55.1741
 2792.0000     2.5264    -0.0017   -39.6761     0.2116     8.2069   -14.1141    93.4417    10.7003     7.3181     7.9970   -55.1762
 2792.5000     2.5244     0.0103   -39.7258     0.2188     8.2069   -14.1141   102.1893     9.4086     6.7993     7.7089   -55.1783
 2793.0000     2.5274     0.0064   -39.7754     0.2256     8.1870   -14.3129   110.9368     9.1532     6.3173     6.8414   -55.1805
 2793.5000     2.5254    -0.0056   -39.8251     0.2320     8.1870   -14.3129   114.9129     8.8232     5.8695     6.1840   -55.1809
 2794.0000     2.5214    -0.0176   -39.8747     0.2408     8.1870   -14.3129   118.8891     8.4273     5.4535     5.9067   -45.1934
 2794.5000     2.5094    -0.0196   -39.9244     0.2468     8.1870   -14.3129   121.2748     7.1426     5.3054     5.5391   -45.1939
 2795.0000     2.5064    -0.0156   -39.9740     0.2448     8.1870   -14.1141   128.0342     7.0129     5.0672     5.5907   -45.1967
 2795.5000     2.5084    -0.0096   -69.9936     0.2360     8.1671   -14.1141   131.2151     7.4109     5.0212     5.6947   -45.1996
 2796.0000     2.5085    -0.0036   -70.0433     0.2368     8.1671   -13.9153   125.6971     8.4292     4.9754     5.3403   -55.1930
 2796.5000     2.5125     0.0044   -70.0929     0.2384     8.1870   -13.9153   119.6819     7.9773     5.0681     5.4900   -55.1947
 2797.0000     2.5085     0.0044   -80.1326     0.2380     8.1671   -13.7446   122.7731     7.5497     5.2584     5.9089   -51.6235
 2797.5000     2.5025     0.0124   -80.1822     0.2320     8.1553   -13.7165   127.8499     7.0796     5.6084     6.3599   -48.0524
 2798.0000     2.5075     0.0204   -80.2319     0.2112     8.1472   -13.5177   132.9268     6.3408     6.0368     6.6592   -55.2014
 2798.5000     2.5215     0.0185   -80.2815     0.1868     8.1472   -13.5177   133.9960     8.2779     6.5582     7.0368   -55.2035
 2799.0000     2.5355     0.0005   -80.3312     0.1792     8.1274   -13.5177   118.4915    11.5253     7.1903     7.4361   -55.2047
 2799.5000     2.5405    -0.0155   -90.3708     0.1796     8.1075   -13.7165   104.9726    12.1792     7.5291     7.9304   -48.0493
 2800.0000     2.5435    -0.0175   -90.4205     0.1836     8.0876   -12.7225    94.6345    11.7402     7.8116     8.6938   -45.2197
 2800.5000     2.5452    -0.0083  -100.3635     0.1884     8.0692   -13.5941    92.6504    11.4466     8.2921     8.7900   -53.5764
 2801.0000     2.5465     0.0025  -100.4238     0.1935     8.0282   -13.9323    97.4258    11.0106     8.5657     8.9073   -55.4080
 2801.5000     2.5475     0.0085  -100.4258     0.1984     7.9888   -13.9095    99.4178    10.2310     8.7254     9.0218   -55.5073
 2802.0000     2.5475     0.0185  -100.4279     0.1984     7.9691   -13.9075    99.8194    10.0455     8.7259     9.0226   -45.6165
 2802.5000     2.5515     0.0225   -90.4402     0.1988     7.9693   -13.9056    99.0281    10.0464     8.5679     9.0234   -45.6960
 2803.0000     2.5515     0.0125   -80.4527     0.1988     8.0092   -13.9036    97.8392    10.2338     8.6479     8.7794   -55.8052
 2803.5000     2.5515    -0.0015   -80.4548     0.1988     7.9100   -13.7028    97.8431    10.9148     8.5695     8.7797   -55.9045
 2804.0000     2.5535    -0.0135   -80.4570     0.1992     7.9102   -13.8996    98.6423    11.0166     8.3371     8.6205   -46.0137
 2804.5000     2.5515    -0.0255   -80.4592     0.2020     7.9104   -13.8977    99.0438    11.1193     7.9631     8.3871   -46.1130
 2805.0000     2.5515     0.0005   -70.4718     0.2088     8.0101   -13.6977    97.0597    11.1204     7.7472     8.1599   -56.2024
 2805.5000     2.5465     0.0145   -70.4740     0.2172     7.9904   -14.4500    94.6779    11.0194     7.4684     7.9388   -46.3116
 2806.0000     2.5345     0.0185   -40.4868     0.2232     7.9906   -14.4882    97.0676    10.5260     7.4005     7.5832   -46.4109
 2806.5000     2.5295     0.0165   -40.4891     0.2360     8.0107   -14.6850   101.8429     8.1382     7.1998     7.5839   -56.5003
 2807.0000     2.5335     0.0125   -30.5007     0.2304     8.0506   -14.6830   109.4016     7.6318     7.0692     7.6546   -66.5896
 2807.5000     2.5515     0.0065   -30.5044     0.2172     8.0309   -14.4823   115.3714     7.9914     6.9409     7.7260   -66.6889
 2808.0000     2.5595     0.0005   -30.5067     0.2136     8.0311   -14.2815   115.3730     8.6020     6.8151     7.9429   -76.7782
 2808.5000     2.5615    -0.0035   -30.5090     0.2144     8.0114   -14.2795   105.0397    11.2304     6.8786     7.9430   -56.8975
 2809.0000     2.5585    -0.0054   -30.5114     0.2156     7.9719   -14.0783   100.2722    11.2312     7.1371     7.9439   -47.0067
 2809.5000     2.5515    -0.0054   -40.5028     0.2168     7.9721   -13.5760   102.6618    10.8270     7.4735     7.8721   -57.0961
 2810.0000     2.5485    -0.0034   -40.5050     0.2192     7.9126   -12.8815   106.2443    10.2468     7.7544     8.0928   -57.1954
 2810.5000     2.5485     0.0045   -40.5073     0.2200     7.8731   -13.4760   113.4062     9.8780     7.9720     8.2436   -57.2947
 2811.0000     2.5505     0.0165   -40.5100     0.2176     7.8534   -13.4740   110.2284     9.6990     8.0463     8.3972   -57.3940
 2811.5000     2.5545     0.0345   -40.5123     0.2156     7.8735   -13.6709   106.6538     9.7894     8.1215     8.4753   -57.4933
 2812.0000     2.5575     0.0485   -40.5146     0.2112     7.9333   -13.8677   105.0673     9.7903     8.1221     8.5543   -57.5926
 2812.5000     2.5545     0.0345   -40.5169     0.2080     7.9732   -14.2633   103.0831    10.2517     8.1979     8.7139   -57.6919
 2813.0000     2.5505     0.0126   -40.5191     0.2048     7.9932   -14.4602   101.4974    10.9340     8.4279     8.8761   -47.8011
 2813.5000     2.5505     0.0086   -30.5327     0.2016     7.9935   -14.4590    99.9109    11.5549     8.5066     9.0415   -47.8607
 2814.0000     2.5515     0.0046   -30.5351     0.1992     8.0136   -14.4562   100.3124    11.8791     8.6653     9.1260   -57.9898
 2814.5000     2.5525     0.0006   -30.5374     0.1980     7.9740   -14.6531    99.1235    11.7714     8.7463     9.1267   -58.0891
 2815.0000     2.5525    -0.0014   -30.5397     0.1984     7.9742   -14.4523    97.9346    11.5581     8.6675     9.1275   -58.1884
 2815.5000     2.5515     0.0006   -30.5651     0.2016     7.9943   -14.6491    97.9386    11.4534     8.5883     9.0450   -58.2877
