~VERSION INFORMATION
 VERS.                2.0:   CWLS LOG ASCII STANDARD - VERSION 2.0
 WRAP.                 NO:   ONE LINE PER DEPTH STEP
~WELL INFORMATION
#MNEM.UNIT      DATA TYPE    INFORMATION
#----------   ------------   ------------------------------
 STRT.F          200.0000:   START DEPTH
 STOP.F         2968.0000:   STOP DEPTH
 STEP.F            0.5000:   STEP LENGTH
 NULL.          -999.2500:   NO VALUE
 COMP. FENIX & SCISSON U.S. NAVY:   COMPANY
 WELL.   FENIX "A" #23-28:   WELL
 FLD .              NPR 3:   FIELD
 LOC .      S28 T39N R78W:   LOCATION
 CNTY.            NATRONA:   COUNTY
 STAT.            WYOMING:   STATE
 CTRY. UNITED STATES OF AMERICA:   COUNTRY
 SRVC.       SCHLUMBERGER:   SERVICE COMPANY
 DATE.        10-JUN-1977:   LOGDATE
 API .     49025103860000:   API NUMBER
~CURVE INFORMATION
#MNEM.UNIT       API CODE    CURVE DESCRIPTION
#----------   ------------   ------------------------------
 DEPT.F                  :   
 SPR .MV     07 010 01 00:   SPONTANEOUS POTENTIAL
 RILM.OHMM   07 120 44 00:   INDUCTION LOG MEDIUM RESISTIVITY
 RILD.OHMM   07 120 46 00:   DEEP INDUCTION RESISTIVITY
 LL8 .None   99 022 08 00:   LATEROLOG
 GRD .GAPI   45 310 01 00:   GAMMA RAY FROM DENSITY LOG
 CALD.IN     45 280 60 00:   CALIPER FROM DENSITY LOG
 RHOB.G/C3   45 350 01 00:   BULK DENSITY
 DRHO.G/C3   45 356 01 00:   DENSITY CORRECTION
~PARAMETER INFORMATION
#MNEM.UNIT          VALUE    DESCRIPTION
#----------   ------------   ------------------------------
 EKB .F         5019.0000:   Kelly bushing
 EGL .F         5009.0000:   Ground level
 EDF .F            0.0000:   Drilling floor
 EPD .F         5009.0000:   Permanent datum
 TD  .F         2971.0000:   Total depth
 DATE.        10-JUN-1977:   Date logged
 CLNT.            A2DTECH:   Client Code
 SL  . 1650' FNL & 990' FWL:   Surface Location
 DAPD.F                10:   Feet Above Permanent Datum
 DD  .F              2970:   Depth driller
 DL  .F              2971:   Depth logger
 BLI .F              2905:   Bottom log interval
 TLI .F               216:   Top log interval
 CS1 .IN            8.625:   Casing size
 CBD1.      9.625" @ 216':   Casing driller 1
 CBL1.F               216:   Casing logger 1
 BS1 .IN            7.875:   Bit size
 BSD1.F              2970:   Depth drilled with bit1
 DFT .            KCL MUD:   Type fluid in hole
 DFD .                8.8:   Density
 DFV .                 32:   Viscosity
 DFPH.                8.5:   pH
 DFL .                7.4:   Fluid loss
 MSS .               CIRC:   Source of sample
 RMS .OHMM           1.87:   Rm
 MST .F                85:   Rm Meas. temp.
 RMF .OHMM           1.69:   Rmf
 MFST.F                85:   Rmf Meas. temp.
 RMC .OHMM           2.80:   Rmc
 MCST.F                85:   Rmc Meas. temp.
 MFSS.               MEAS:   Source Rmf.
 MCSS.               CALC:   Source Rmc.
 RMB .OHMM           1.43:   Rm. at BHT
 BHT .F               111:   BHT.
 TCS .HRS            1600:   Time Circ. stopped
 TLAB.HRS            0945:   Time logger at bottom
 MRT .F               111:   Maximum recorded temp.
 LUN .               7711:   Logging unit number
 LUL .               CSPR:   Logging unit location
 ENGI.             SAYLER:   Recorded By
 WITN.         HARRINGTON:   Witnessed by
 ORIG.           5" PRINT:   Origin of data
 UWI .     49025103860000:   Unique Well ID
 DICO. A2D TECHNOLOGIES, INC.:   Digitizing Company
~OTHER INFORMATION
~A  DEPTH      SPR       RILM       RILD        LL8        GRD       CALD       RHOB       DRHO
# ...
 1091.0000   -94.4140    10.7400    10.2520    11.0420    99.8340     9.9780     2.5490     0.0050
 1091.5000   -94.3880    10.7390    10.3020    11.2500    99.3400     9.9710     2.5450     0.0030
 1092.0000   -94.3620    10.8890    10.3520    11.5070    98.8690     9.9760     2.5420     0.0070
 1092.5000   -94.3320    11.0420    10.1690    11.5620    98.0860     9.9810     2.5460     0.0090
 1093.0000   -94.2520    10.8190     9.9360    11.1300    96.7860     9.9860     2.5500     0.0060
 1093.5000   -94.1720    10.5290     9.7030    10.8620    94.8330     9.9900     2.5460     0.0070
 1094.0000   -94.0920    10.2390     9.3550    10.9400    92.9420    10.0010     2.5480     0.0130
 1094.5000   -94.0120     9.9780     9.4920    10.5450    92.9040     9.9980     2.5550     0.0180
 1095.0000   -93.9320    10.2570     9.7810    10.4480    94.0710     9.9650     2.5500     0.0160
 1095.5000   -93.8520    10.1720     9.6960    10.4480    95.3130     9.9330     2.5440     0.0130
 1096.0000   -93.7720     9.9920     9.5820    10.2490    96.5380     9.9130     2.5420     0.0170
 1096.5000   -93.6920     9.7060     9.4680     9.9780    97.3240     9.9680     2.5510     0.0170
 1097.0000   -93.6130     9.8520     9.3550    10.2480    96.6800     9.8940     2.5520     0.0140
 1097.5000   -93.5330    10.2050     9.6590    10.6850    96.7300     9.8060     2.5460     0.0100
 1098.0000   -93.4530    10.5580    10.0370    11.1220    98.0650     9.7620     2.5400     0.0040
 1098.5000   -93.3730    10.9110    10.4150    11.6690    99.9430     9.7500     2.5380     0.0040
 1099.0000   -93.2930    11.1440    10.7310    11.4560    99.2050     9.7400     2.5390     0.0050
 1099.5000   -93.2130    11.0420    10.6420    11.4560    98.4940     9.7310     2.5420     0.0060
 1100.0000   -93.1330    11.1050    10.7120    11.5440   100.1280     9.7210     2.5410     0.0020
 1100.5000   -93.0530    11.2470    10.8400    11.7770    99.4370     9.7120     2.5360    -0.0020
 1101.0000   -92.9740    11.0660    10.4760    11.6050    98.5460     9.7120     2.5330     0.0000
 1101.5000   -92.8940    10.7920    10.3370    11.3510    97.8120     9.7120     2.5330     0.0040
 1102.0000   -92.8140    10.7130    10.3010    11.2160    97.3450     9.7120     2.5360     0.0060
 1102.5000   -92.7340    10.6670    10.2650    11.0500    96.7440     9.7120     2.5450     0.0050
 1103.0000   -92.6540    10.6210    10.2280    10.9400    95.9320     9.7030     2.5570     0.0080
 1103.5000   -92.5740    10.5750    10.1920    10.9150    94.6820     9.6910     2.5580     0.0160
 1104.0000   -92.4940    10.5290    10.1560    10.8880    94.5920     9.6790     2.5640     0.0240
 1104.5000   -92.4150    10.4830    10.1200    10.8610    95.5530     9.6670     2.5740     0.0200
 1105.0000   -92.3350    10.4480    10.0840    10.8400    96.3680     9.6550     2.5710     0.0150
 1105.5000   -92.2550    10.5440    10.0700    11.0700    96.6520     9.6430     2.5660     0.0150
 1106.0000   -92.1750    10.6420    10.0700    11.2470    96.3540     9.6310     2.5650     0.0190
 1106.5000   -92.0950    10.5180    10.0240    10.9600    94.9030     9.6190     2.5580     0.0130
 1107.0000   -92.0150    10.3550     9.9410    10.5450    93.8040     9.6070     2.5520     0.0140
 1107.5000   -91.9350    10.1910     9.8570    10.3520    94.8360     9.5950     2.5570     0.0170
 1108.0000   -91.8550    10.0700     9.7960    10.3520    96.1700     9.5840     2.5620     0.0160
 1108.5000   -91.7760    10.2770     9.9250    10.6230    98.2050     9.5730     2.5530     0.0180
 1109.0000   -91.6960    10.5250    10.0700    10.8290    98.1640     9.5580     2.5580     0.0230
 1109.5000   -91.6160    10.4400     9.9420    11.0420    97.5950     9.5360     2.5580     0.0250
 1110.0000   -91.5360    10.1650     9.7230    10.8090    97.4190     9.5140     2.5520     0.0190
 1110.5000   -91.4560     9.9750     9.5270    10.5690    97.7350     9.4920     2.5470     0.0140
 1111.0000   -91.3760     9.9490     9.5120    10.4230    97.5680     9.4700     2.5580     0.0200
 1111.5000   -91.2960     9.9230     9.4980    10.3740    96.8040     9.4490     2.5680     0.0250
 1112.0000   -91.2160     9.8970     9.4830    10.3240    96.5480     9.4340     2.5580     0.0200
 1112.5000   -91.1360     9.8710     9.4680    10.2750    97.2560     9.4380     2.5540     0.0160
 1113.0000   -91.0560     9.8450     9.4540    10.2260    97.0780     9.4410     2.5560     0.0210
 1113.5000   -90.9750     9.8190     9.4420    10.1630    96.3380     9.4450     2.5440     0.0190
 1114.0000   -90.9230     9.7990     9.4510    10.2200    95.5900     9.4490     2.5330     0.0110
 1114.5000   -90.8340     9.9150     9.4680    10.2970    95.6450     9.4520     2.5320     0.0090
 1115.0000   -90.7440    10.0220     9.4860    10.3750    96.0850     9.4490     2.5310     0.0160
 1115.5000   -90.6540    10.1290     9.5040    10.4520    97.2970     9.4380     2.5300     0.0220
 1116.0000   -90.5640    10.2570     9.5290    10.5450    98.5190     9.4270     2.5350     0.0170
 1116.5000   -90.4740    10.0770     9.4150    10.3330    99.7750     9.4160     2.5430     0.0120
 1117.0000   -90.3840     9.8860     9.2240    10.1630    99.7640     9.4050     2.5480     0.0080
 1117.5000   -90.2940     9.9780     9.0160    10.3520    99.6540     9.3940     2.5410     0.0080
 1118.0000   -90.2030     9.5920     8.9400     9.8560    99.8600     9.3830     2.5320     0.0060
 1118.5000   -90.1130     9.3410     8.8330     9.4840   100.2090     9.3720     2.5230     0.0040
 1119.0000   -90.0230     9.1000     8.7260     9.3550   100.5140     9.3610     2.5210     0.0020
 1119.5000   -89.9330     9.2600     8.6190     9.6680   100.2900     9.3500     2.5240     0.0060
 1120.0000   -89.8430     9.4540     8.5320     9.8860   100.6940     9.3390     2.5300     0.0100
 1120.5000   -89.7530     9.6170     8.9340    10.0700   101.8690     9.3270     2.5300     0.0070
 1121.0000   -89.6630     9.3470     8.7710     9.8060   103.0730     9.3160     2.5230     0.0030
 1121.5000   -89.5730     9.1840     8.3760     9.4410   103.7880     9.3050     2.5170     0.0030
 1122.0000   -89.4820     9.3470     8.5110     9.6100   103.3790     9.2950     2.5280     0.0150
 1122.5000   -89.3920     9.4960     8.7900     9.9610   103.8350     9.2890     2.5410     0.0210
 1123.0000   -89.3020     9.6450     9.0700    10.1800   104.5850     9.2830     2.5530     0.0240
 1123.5000   -89.2120     9.7960     9.3550    10.2570   103.1670     9.2780     2.5560     0.0320
 1124.0000   -89.1220     9.6200     8.7920    10.0970   101.6990     9.2720     2.5660     0.0360
 1124.5000   -89.0320     9.4410     8.5840     9.8910   100.9520     9.2660     2.5820     0.0530
 1125.0000   -88.9850     9.1120     8.5500     9.7060   100.4930     9.2610     2.5920     0.0400
 1125.5000   -88.9890     9.1730     8.5320     9.7060   101.4920     9.2550     2.5750     0.0230
 1126.0000   -88.7690     9.2540     8.7420     9.7620   102.4740     9.2500     2.5670     0.0170
 1126.5000   -88.7300     9.3350     8.8940     9.8860   102.4210     9.2440     2.5560     0.0050
 1127.0000   -88.6000     9.4170     9.0160    10.0090   102.2110     9.2380     2.5510     0.0070
 1127.5000   -88.4670     9.4980     8.9830    10.1330   102.2290     9.2290     2.5440     0.0080
 1128.0000   -88.3330     9.5790     8.9340    10.1800   103.4540     9.2140     2.5440     0.0100
 1128.5000   -88.1980     9.6600     9.1250    10.2020   104.6990     9.2000     2.5560     0.0090
 1129.0000   -88.0700     9.7420     9.2740    10.2250   105.0890     9.1840     2.5530     0.0080
 1129.5000   -87.7750     9.8230     9.3550    10.2470   105.9790     9.1760     2.5480     0.0110
 1130.0000   -87.7160     9.9040     9.2520    10.2700   106.9310     9.1760     2.5430     0.0180
 1130.5000   -87.6410     9.9860     9.1540    10.2920   105.7650     9.1760     2.5490     0.0250
 1131.0000   -87.5640    10.0700     9.0560    10.3140   103.6420     9.1760     2.5550     0.0290
