~VERSION INFORMATION
 VERS.                2.0:   CWLS LOG ASCII STANDARD - VERSION 2.0
 WRAP.                 NO:   ONE LINE PER DEPTH STEP
~WELL INFORMATION
#MNEM.UNIT      DATA TYPE    INFORMATION
#----------   ------------   ------------------------------
 STRT.F          482.0000:   START DEPTH
 STOP.F         4000.0000:   STOP DEPTH
 STEP.F            0.5000:   STEP LENGTH
 NULL.          -999.2500:   NO VALUE
 COMP.    FENIX & SCISSON:   COMPANY
 WELL. FENIX  NPR 3 "LX" #56-10:   WELL
 FLD .              N P R:   FIELD
 LOC .      S10 T38N R78W:   LOCATION
 CNTY.            NATRONA:   COUNTY
 STAT.            WYOMING:   STATE
 CTRY. UNITED STATES OF AMERICA:   COUNTRY
 SRVC.       SCHLUMBERGER:   SERVICE COMPANY
 DATE.        11-JUL-1978:   LOGDATE
 API .     49025107100000:   API NUMBER
~CURVE INFORMATION
#MNEM.UNIT       API CODE    CURVE DESCRIPTION
#----------   ------------   ------------------------------
 DEPT.F                  :   
 GRD .GAPI   45 310 01 00:   GAMMA RAY FROM DENSITY LOG
 CALD.IN     45 280 60 00:   CALIPER FROM DENSITY LOG
 RHOB.G/C3   45 350 01 00:   BULK DENSITY
 NPHI.DEC    42 890 03 00:   NEUTRON POROSITY SANDSTONE
 DRHO.G/C3   45 356 01 00:   DENSITY CORRECTION
 TEND.LBS    45 635 01 00:   TENSION FROM DENSITY LOG
 SPR .MV     07 010 01 00:   SPONTANEOUS POTENTIAL
 TENR.LBS    07 635 01 00:   TENSION FROM RESISTIVITY
 ILD .OHMM   07 120 46 00:   DEEP INDUCTION RESISTIVITY
 ILM .OHMM   07 120 44 00:   INDUCTION LOG MEDIUM RESISTIVITY
 SFLU.OHMM   07 220 01 00:   SPHERICALLY FOCUSED LOG UNAVERAGED RESISTIVITY
~PARAMETER INFORMATION
#MNEM.UNIT          VALUE    DESCRIPTION
#----------   ------------   ------------------------------
 EKB .F         5212.0000:   Kelly bushing
 EGL .F         5202.0000:   Ground level
 EDF .F            0.0000:   Drilling floor
 TD  .F         4000.0000:   Total depth
 DATE.        11-JUL-1978:   Date logged
 CLNT.            A2DTECH:   Client Code
 SL  . 1144' FSL & 2183' FEL:   Surface Location
 PD  .                 GL:   Permanent Datum
 EPD .F              5202:   Elevation Permanent Datum
 LMF .                 KB:   Log Measured From
 DMF .                 KB:   Drilling Measured From
 DD  .F              4000:   Depth driller
 DL  .F              3990:   Depth logger
 BLI .F              3985:   Bottom log interval
 TLI .F               501:   Top log interval
 CS1 .IN            9.625:   Casing size
 CBD1.      9.625" @ 500':   Casing driller 1
 CBL1.F               501:   Casing logger 1
 BS1 .IN            7.875:   Bit size
 DFT .                FGM:   Type fluid in hole
 DFD .                9.1:   Density
 DFV .                 50:   Viscosity
 DFPH.                 12:   pH
 DFL .                4.4:   Fluid loss
 MSS .           MUD/TANK:   Source of sample
 RMS .OHMM           .714:   Rm
 MST .F                83:   Rm Meas. temp.
 RMF .OHMM           .585:   Rmf
 MFST.F                83:   Rmf Meas. temp.
 MFSS.               MEAS:   Source Rmf.
 RMB .OHMM            .42:   Rm. at BHT
 BHT .F               140:   BHT.
 TCS .HRS            1000:   Time Circ. stopped
 MRT .F               140:   Maximum recorded temp.
 LUN .               8035:   Logging unit number
 LUL .       ROCK SPRINGS:   Logging unit location
 ENGI.             MARTIN:   Recorded By
 WITN.           MCCINLEY:   Witnessed by
 ORIG.           5" PRINT:   Origin of data
 UWI .     49025107100000:   Unique Well ID
 DICO. A2D TECHNOLOGIES, INC.:   Digitizing Company
 DAPD.F                10:   Feet Above Permanent Datum
 BSD1.F              4000:   Depth drilled with bit1
 TLAB.HRS            1300:   Time logger at bottom
~OTHER INFORMATION
~A   DEPT       GRD      CALD       RHOB         NPHI     DRHO       TEND        SPR       TENR        ILD        ILM       SFLU   
# ...
 2098.5000   124.5550     9.9210     2.5000     0.3360     0.0260  1026.3210   -48.6870   780.1580     6.7230     6.3090     9.5870
 2099.0000   127.2730     9.9140     2.4900     0.3370     0.0170  1026.4460   -48.6100   780.6380     6.8980     6.4700     9.7650
 2099.5000   127.8280     9.9080     2.4800     0.3370     0.0080  1026.5710   -48.2400   781.1180     7.0730     6.6310     9.5120
 2100.0000   125.6110     9.9020     2.4760     0.3380     0.0060  1026.6960   -47.7740   781.5980     7.1440     6.7600     8.8720
 2100.5000   123.6760     9.8960     2.4760     0.3440     0.0070  1026.8220   -47.3100   782.0780     7.0030     6.7600     8.2330
 2101.0000   122.0760     9.8930     2.4780     0.3530     0.0260  1026.9470   -46.8560   782.5580     6.6520     6.5450     7.9770
 2101.5000   121.6530     9.8950     2.4860     0.3550     0.0360  1027.0720   -46.3780   783.0380     6.3010     6.1860     7.7610
 2102.0000   121.2370     9.9010     2.4880     0.3560     0.0470  1027.1970   -46.1810   783.5180     5.9500     5.8270     7.6190
 2102.5000   120.8490     9.9060     2.4830     0.3680     0.0580  1027.3220   -46.2050   783.9980     5.5990     5.4680     6.5640
 2103.0000   120.4470     9.9120     2.4800     0.3780     0.0320  1027.4470   -46.2030   784.4780     5.2480     5.0380     5.3340
 2103.5000   120.0170     9.9170     2.4930     0.3710     0.0280  1027.5720   -46.4860   784.9580     4.9990     5.0380     4.5950
 2104.0000   119.9630     9.9230     2.5090     0.3540     0.0270  1027.6980   -46.8720   785.4380     4.9020     4.8560     4.5950
 2104.5000   120.6330     9.9280     2.5280     0.3380     0.0270  1027.8230   -47.2530   785.9180     4.7670     4.8560     5.5510
 2105.0000   121.3470     9.9330     2.5220     0.3190     0.0210  1027.9480   -47.6300   786.3980     4.8270     4.8560     6.3470
 2105.5000   123.3550     9.9390     2.5060     0.3270     0.0160  1028.0730   -48.0140   786.8780     4.9260     4.9690     7.1440
 2106.0000   124.2520     9.9440     2.4850     0.3400     0.0090  1028.1980   -48.3900   787.3580     5.0250     5.1110     6.8870
 2106.5000   122.9720     9.9500     2.4930     0.3350     0.0140  1028.3230   -48.7680   787.8380     5.1250     5.2520     6.4580
 2107.0000   121.9200     9.9550     2.5140     0.3320     0.0290  1028.4480   -49.1760   788.3180     5.2240     5.4220     5.9440
 2107.5000   120.8220     9.9600     2.5270     0.3270     0.0440  1028.5740   -49.4630   788.7980     5.3230     5.3880     6.2870
 2108.0000   120.3550     9.9660     2.5130     0.3340     0.0640  1028.6990   -49.5660   789.2780     5.2290     5.3450     6.7150
 2108.5000   120.1600     9.9730     2.4770     0.3590     0.0550  1028.8240   -49.6930   789.7580     5.1350     5.3020     7.1440
 2109.0000   119.9620    10.0080     2.4290     0.3870     0.0400  1028.9490   -49.7970   790.2380     5.0400     5.2590     6.6040
 2109.5000   119.1790    10.0510     2.4410     0.3980     0.0460  1029.0740   -49.8110   790.7180     4.9460     5.2170     6.0640
 2110.0000   116.6480    10.1010     2.4590     0.3990     0.0610  1029.1990   -49.6700   791.1970     5.0850     5.1740     5.5230
 2110.5000   114.2330    10.1290     2.4660     0.3960     0.0720  1029.3240   -49.3740   791.6770     5.2240     5.1310     4.9830
 2111.0000   111.9660    10.1120     2.4410     0.3890     0.0540  1029.4500   -49.0970   792.1570     5.3630     5.2310     4.7670
 2111.5000   113.8540     9.8720     2.4520     0.3730     0.0240  1029.5750   -48.8200   792.6370     5.5020     5.3320     4.9460
 2112.0000   118.0650     9.6690     2.4640     0.3520     0.0170  1029.7000   -48.5380   793.1170     5.6410     5.4320     6.0660
 2112.5000   122.2960     9.6610     2.4810     0.3270     0.0200  1029.8250   -48.2610   793.5970     5.7800     5.5330     7.4660
 2113.0000   126.1400     9.6610     2.4870     0.3180     0.0250  1029.9500   -47.9800   794.0770     5.9190     5.6330     8.5850
 2113.5000   126.6840     9.6680     2.4920     0.3080     0.0290  1030.0750   -47.7010   794.5570     6.0590     5.7330     7.8810
 2114.0000   125.9090     9.6700     2.4970     0.3080     0.0330  1030.2000   -47.4280   795.0370     6.2810     5.8340     7.3440
 2114.5000   123.2930     9.6730     2.4840     0.3070     0.0230  1030.3260   -47.1280   795.5170     6.2490     5.9340     7.6460
 2115.0000   121.3880     9.6770     2.4720     0.3070     0.0150  1030.4510   -46.9840   795.9970     6.1680     6.0540     7.8310
 2115.5000   120.5610     9.6800     2.4580     0.3120     0.0060  1030.5760   -47.0190   796.4770     6.0860     6.0540     7.5950
 2116.0000   119.9250     9.6840     2.4540     0.3200     0.0110  1030.7010   -46.9560   796.9570     6.0050     6.0240     6.8860
 2116.5000   119.1940     9.6870     2.4680     0.3170     0.0230  1030.8260   -47.3470   797.4370     5.9240     5.9730     6.8860
 2117.0000   119.2990     9.6910     2.4920     0.3090     0.0370  1030.9510   -47.5150   797.9170     5.8430     5.9220     7.5680
 2117.5000   120.0870     9.6950     2.5090     0.3160     0.0560  1031.0760   -47.6150   798.3970     5.7620     5.8720     7.9770
 2118.0000   120.6340     9.6910     2.4910     0.3350     0.0500  1031.2020   -47.6890   798.8770     5.7290     5.8210     6.5540
 2118.5000   121.2830     9.6810     2.4710     0.3510     0.0320  1031.3270   -47.7890   799.3570     5.7810     5.7700     5.1310
 2119.0000   119.0710     9.6720     2.4530     0.3420     0.0180  1031.4520   -47.8780   799.8370     5.8240     5.7290     5.3230
 2119.5000   117.6860     9.6630     2.4540     0.3240     0.0180  1031.5770   -47.9670   800.3170     5.8660     5.7490     6.7920
 2120.0000   114.3810     9.6540     2.4510     0.3160     0.0170  1031.7020   -48.0580   800.7970     5.9090     5.7730     8.0160
 2120.5000   115.3590     9.6450     2.4440     0.3200     0.0130  1031.8270   -48.1530   801.2770     5.9520     5.7970     9.2410
 2121.0000   117.1250     9.6350     2.4390     0.3210     0.0050  1031.9520   -48.2100   801.7570     5.9950     5.8210     8.7140
 2121.5000   121.6960     9.6270     2.4440     0.3190     0.0060  1032.0770   -48.2170   802.2370     6.0540     5.8360     8.1870
 2122.0000   124.3770     9.6190     2.4550     0.3170     0.0230  1032.2030   -48.2310   802.7170     5.8670     5.5350     7.9040
 2122.5000   126.5350     9.6520     2.4590     0.3290     0.0330  1032.3280   -48.2440   803.1960     5.5540     5.2340     7.2590
 2123.0000   127.5840     9.6880     2.4550     0.3460     0.0360  1032.4530   -48.2560   803.6760     5.2420     4.9330     6.5430
 2123.5000   126.9310     9.7260     2.4500     0.3630     0.0400  1032.5780   -48.2690   804.1560     4.9290     4.6320     5.8280
 2124.0000   123.9540     9.7060     2.4440     0.3770     0.0500  1032.7030   -48.2810   804.6360     4.6170     4.5120     5.1120
 2124.5000   120.0580     9.6640     2.4390     0.3760     0.0590  1032.8280   -48.2940   805.1160     4.4290     4.5120     4.3960
 2125.0000   116.1250     9.6250     2.4370     0.3560     0.0360  1032.9530   -48.3060   805.5960     4.5350     4.5120     3.8240
 2125.5000   112.2910     9.5810     2.4580     0.3280     0.0130  1033.0790   -48.3190   806.0760     4.7100     4.5120     5.7720
 2126.0000   108.4460     9.5780     2.4780     0.3100     0.0140  1033.2040   -48.3320   806.5560     4.8850     4.5120     7.3960
 2126.5000   104.3210     9.5760     2.4860     0.2990     0.0210  1033.3290   -48.3440   807.0360     5.0610     4.3910     9.0190
 2127.0000   102.4770     9.5780     2.4900     0.2990     0.0320  1033.4540   -48.3570   807.5160     5.1310     4.2410    10.2240
 2127.5000   104.6450     9.5780     2.4880     0.3000     0.0420  1033.5790   -48.3690   807.9960     5.1310     4.0900     8.5850
 2128.0000   107.2460     9.6270     2.4680     0.3260     0.0520  1033.7040   -48.3820   808.4760     4.6580     3.9390     6.8260
 2128.5000   109.6200     9.6830     2.4460     0.3590     0.0610  1033.8290   -48.3950   808.9560     4.1860     3.7890     5.0670
