~VERSION INFORMATION
 VERS.                2.0:   CWLS LOG ASCII STANDARD - VERSION 2.0
 WRAP.                 NO:   ONE LINE PER DEPTH STEP
~WELL INFORMATION
#MNEM.UNIT      DATA TYPE    INFORMATION
#----------   ------------   ------------------------------
 STRT.F          648.0000:   START DEPTH
 STOP.F         3196.0000:   STOP DEPTH
 STEP.F            0.5000:   STEP LENGTH
 NULL.          -999.2500:   NO VALUE
 COMP.    FENIX & SCISSON:   COMPANY
 WELL.   FENIX "AX" #18-2:   WELL
 FLD .             NPR #3:   FIELD
 LOC .       S2 T38N R78W:   LOCATION
 CNTY.            NATRONA:   COUNTY
 STAT.            WYOMING:   STATE
 CTRY. UNITED STATES OF AMERICA:   COUNTRY
 SRVC.              WELEX:   SERVICE COMPANY
 DATE.        05-OCT-1980:   LOGDATE
 API .     49025108500000:   API NUMBER
~CURVE INFORMATION
#MNEM.UNIT       API CODE    CURVE DESCRIPTION
#----------   ------------   ------------------------------
 DEPT.F                  :   
 GRD .GAPI   45 310 01 00:   GAMMA RAY FROM DENSITY LOG
 CALD.IN     45 280 60 00:   CALIPER FROM DENSITY LOG
 CORR.G/C3   45 356 01 00:   DENSITY CORRECTION
 RHOB.G/C3   45 350 01 00:   BULK DENSITY
 SPR .MV     07 010 01 00:   SPONTANEOUS POTENTIAL FROM RES.
 ILD .OHMM   07 120 46 00:   INDUCTION LOG DEEP RESISTIVITY
 ILM .OHMM   07 120 44 00:   INDUCTION LOG MEDIUM RESISTIVITY
 SGRD.OHMM   07 220 05 00:   SHORT GUARD RESISTIVITY
~PARAMETER INFORMATION
#MNEM.UNIT          VALUE    DESCRIPTION
#----------   ------------   ------------------------------
 EKB .F         5162.0000:   Kelly bushing
 EGL .F         5152.0000:   Ground level
 EDF .F            0.0000:   Drilling floor
 TD  .F         3200.0000:   Total depth
 CLNT.            A2DTECH:   Client Code
 PD  .                 GL:   Permanent Datum
 EPD .F              5152:   Elevation Permanent Datum
 LMF .                 KB:   Log Measured From
 DMF .                 KB:   Drilling Measured From
 DAPD.F                10:   Feet Above Permanent Datum
 DATE.        05-OCT-1980:   Date Logged [DD-MMM-YYYY]
 DD  .F              3200:   Depth driller
 DL  .F              3198:   Depth logger
 BLI .F              3196:   Bottom log interval
 TLI .F               646:   Top log interval
 CS1 .IN            8.625:   Casing size
 CBD1.      8.625" @ 647':   Casing driller 1
 CBL1.F               650:   Casing logger 1
 BS1 .IN            7.875:   Bit size
 BSD1.F              3200:   Depth drilled with bit1
 DFT .           CHEM GEL:   Type fluid in hole
 DFD .                8.6:   Density
 DFV .                 38:   Viscosity
 DFPH.                9.5:   pH
 MSS .           FLOWLINE:   Source of sample
 MFSS.               MEAS:   Source Rmf.
 MCSS.               MEAS:   Source Rmc.
 RMB .OHMM           1.24:   Rm. at BHT
 BHT .F               118:   BHT.
 TCS .HRS               5:   Time Circ. stopped
 MRT .F               118:   Maximum recorded temp.
 LUN .               1892:   Logging unit number
 LUL .             CASPER:   Logging unit location
 ORIG.           5" PRINT:   Origin of data
 UWI .     49025108500000:   Unique Well ID
 DICO. A2D TECHNOLOGIES, INC.:   Digitizing Company
 SL  . 313' FSL & 565' FWL:   Surface Location
 RMS .               2.34:   Rm
~OTHER INFORMATION
~A   DEPT       GRD      CALD       CORR       RHOB        SPR        ILD        ILM       SGRD   
# ...
 2146.5000    93.2788    10.6128     0.0631     2.4784   -37.4474     9.5805     9.6046    10.9973
 2147.0000    90.8871    10.6000     0.0617     2.4635   -37.4280     9.5171     9.7429    10.4148
 2147.5000    89.5952    10.5722     0.0558     2.4516   -37.4122     9.4549     9.7492    10.2073
 2148.0000    88.9631    10.5738     0.0484     2.4562   -37.5485     9.3931     9.8209    11.4081
 2148.5000    87.8911    10.5606     0.0470     2.4645   -37.6809     9.4619     9.7585    12.0638
 2149.0000    86.1244    10.5474     0.0517     2.4729   -37.8133     9.4651     9.7650    12.4104
 2149.5000    84.4344    10.5494     0.0579     2.4812   -37.9422     9.4690     9.7019    12.1651
 2150.0000    84.2352    10.5509     0.0611     2.4850   -38.0741     9.4991     9.7084    12.4307
 2150.5000    81.8505    10.5227     0.0612     2.4866   -38.2065     9.5668     9.7136    12.7877
 2151.0000    80.1187    10.5099     0.0621     2.4777   -38.2102     9.7015    10.0592    12.8856
 2151.5000    89.5919    10.4967     0.0589     2.4516   -38.2315     9.6368    10.0646    12.6311
 2152.0000    95.9935    10.4836     0.0429     2.4398   -38.2528     9.5612    10.0009    12.0449
 2152.5000   101.2954    10.4704     0.0340     2.4346   -38.2741     9.5087     9.9376    11.6453
 2153.0000   105.4977    10.4573     0.0251     2.4310   -38.2836     9.5110     9.8748    11.9893
 2153.5000   106.4010    10.4402     0.0192     2.4311   -38.2655     9.4471     9.8123    12.4112
 2154.0000   103.7906    10.4110     0.0179     2.4327   -38.2519     9.4495     9.7502    12.1661
 2154.5000   100.5148    10.3818     0.0150     2.4365   -38.2366     9.3864     9.6885    12.0083
 2155.0000    97.8988    10.3563     0.0107     2.4404   -38.0740     9.3238     9.5625    12.1003
 2155.5000    96.1626    10.3427     0.0049     2.4389   -37.9065     9.2616     9.4368    12.3622
 2156.0000    94.8663    10.3293    -0.0025     2.4301   -37.7363     9.1998     9.3128    12.1181
 2156.5000    92.6902    10.3158    -0.0084     2.4148   -37.5825     9.0757     9.2538    11.7936
 2157.0000    89.7894    10.3022    -0.0127     2.4003   -37.4199     9.0780     9.1953    11.3158
 2157.5000    88.1180    10.2886    -0.0126     2.3944   -37.4054     9.0798     9.2005    10.9517
 2158.0000    90.1267    10.2750    -0.0123     2.3930   -37.3910     9.1444     9.2065    11.5016
 2158.5000    91.6837    10.2467    -0.0092     2.3984   -37.5283     9.2095     9.2114    10.0294
 2159.0000    91.2672    10.2331    -0.0045     2.3992   -37.6583     9.2751     9.2163     9.4330
 2159.5000    93.0559    10.2050     0.0002     2.3993   -37.6439     9.3412     9.2388    10.5408
 2160.0000    96.3783    10.1767     0.0033     2.4054   -37.7778     9.4081     9.2900    12.0781
 2160.5000    99.1078    10.1468     0.0035     2.4070   -37.9112     9.3449     9.4238    13.2155
 2161.0000    97.3105    10.1204     0.0036     2.3966   -38.0444     9.2825     9.5596    13.3150
 2161.5000    93.3749    10.1065     0.0022     2.3900   -38.1786     9.2849     9.6308    12.8717
 2162.0000    89.8792    10.0784    -0.0005     2.3871   -38.1605     9.2225     9.7026    12.2727
 2162.5000    87.7031    10.0648    -0.0034     2.3894   -38.2963     9.2248     9.6412    11.9461
 2163.0000    87.0666    10.0513    -0.0062     2.3843   -38.3746     9.1632     9.5802    11.8713
 2163.5000    91.0812    10.0524    -0.0091     2.3889   -38.4170     9.1021     9.5866    12.2969
 2164.0000    95.2569    10.0536    -0.0119     2.3958   -38.3989     9.0418     9.5918    12.0525
 2164.5000    97.2597    10.0549    -0.0163     2.3988   -38.3845     9.0437     9.6632    11.3343
 2165.0000    98.1627    10.0561    -0.0194     2.3937   -38.3700     9.0455     9.8024    10.8069
 2165.5000    98.4002    10.0422    -0.0235     2.3848   -38.2074     9.1099     9.9437    11.5852
 2166.0000    97.3296    10.0436    -0.0233     2.3789   -38.0305     9.1117    10.0869    11.7532
 2166.5000    97.1327    10.0291    -0.0216     2.3786   -37.7304     9.1766    10.1620    12.0060
 2167.0000    96.9151    10.0017    -0.0200     2.3858   -37.5562     9.1784    10.3085    12.1801
 2167.5000    96.0857     9.9881    -0.0153     2.3866   -37.4052     9.1172    10.3974    12.7022
 2168.0000    94.7894     9.9895    -0.0120     2.3875   -37.2426     9.0564    10.1100    12.3598
 2168.5000    94.5870     9.9757    -0.0044     2.3921   -37.2281     8.9959     9.6395    11.7079
 2169.0000    94.8361     9.9771    -0.0007     2.4034   -37.2148     8.8136     9.1910    11.3980
 2169.5000    97.2787     9.9929     0.0050     2.4147   -37.1992     8.6349     8.9450    11.0185
 2170.0000    96.6422     9.9774     0.0097     2.4238   -37.3333     8.4602     8.8884    10.7979
 2170.5000    93.7412     9.9366     0.0128     2.4209   -37.4667     8.2887     8.9558    11.1851
 2171.0000    91.6360     9.9227     0.0130     2.4188   -37.6002     8.1207     8.9606    10.5913
 2171.5000    91.8793     9.9091     0.0131     2.4316   -37.7564     7.9561     8.9654    10.3808
 2172.0000    94.3220     9.8955     0.0118     2.4339   -37.8676     7.7952     9.0323    10.1046
 2172.5000    92.5858     9.9117     0.0060     2.4221   -38.0013     7.6896     8.9035    10.2511
 2173.0000    91.5094     9.9128     0.0046     2.4154   -37.9852     7.5858     8.5586    10.3282
 2173.5000    94.4813     9.9142     0.0063     2.4163   -37.9687     7.5352     8.3306    10.5506
 2174.0000    98.3742     9.9301     0.0095     2.4366   -37.9556     7.5371     8.2768     9.9806
 2174.5000    95.9840     9.9403     0.0126     2.4449   -37.9765     7.5386     8.4552     9.8596
 2175.0000    94.4677     9.9618     0.0143     2.4400   -38.0741     7.5401     8.5770    10.2838
 2175.5000    93.3913     9.9629     0.0145     2.4264   -37.9109     7.5417     8.7006    10.3612
 2176.0000    93.6346     9.9789     0.0132     2.4242   -37.8963     7.6482     8.7654    10.4392
 2176.5000    93.4380     9.9800     0.0118     2.4288   -37.7333     7.8096     8.8917    10.3722
 2177.0000    92.0977     9.9811     0.0089     2.4342   -37.5675     7.9196     8.9580    10.5970
 2177.5000    91.0653     9.9823     0.0061     2.4350   -37.4049     8.0312     8.9629    11.2046
 2178.0000    94.1736     9.9836     0.0027     2.4269   -37.2423     8.1443     8.9688    11.3670
 2178.5000    92.8773     9.9848     0.0004     2.4193   -37.2279     8.2023     9.0356    11.2182
 2179.0000    90.4812     9.9859    -0.0009     2.4166   -37.2134     8.3179     9.0404    10.6903
 2179.5000    89.4040     9.9870    -0.0007     2.4249   -37.1989     8.3196     9.1707    10.6291
 2180.0000    91.6276     9.9734    -0.0001     2.4385   -37.3333     8.3792     9.3028    11.0864
 2180.5000    91.1460     9.9598     0.0011     2.4453   -37.4663     8.4388     9.3078    11.4822
 2181.0000    87.2812     9.9613     0.0042     2.4364   -37.6000     8.5577     9.2489    11.4085
 2181.5000    84.2253     9.9624     0.0076     2.4178   -37.8141     8.6186     9.1903    11.1834
 2182.0000    83.8030     9.9635     0.0136     2.4339   -38.0155     8.6204     9.1322    10.8111
 2182.5000    87.3512     9.9794     0.0198     2.4510   -38.1492     8.6817     9.1374    10.6679
 2183.0000    92.8730     9.9814     0.0260     2.4608   -38.3097     8.6835     9.2065    10.6760
 2183.5000    96.2180     9.9978     0.0312     2.4676   -38.4165     8.6946     9.3391    10.8307
 2184.0000    97.1044    10.0125     0.0354     2.4722   -38.5502     8.8080     9.4736    11.0638
 2184.5000    96.0280    10.0213     0.0370     2.4760   -38.6839     8.8098     9.6101    10.9944
 2185.0000    91.4325    10.0295     0.0372     2.4746   -38.6658     8.8725     9.6817    10.9255
 2185.5000    87.0570    10.0454     0.0374     2.4574   -38.6519     8.8743     9.6869    11.2395
 2186.0000    84.8809    10.0613     0.0360     2.4486   -38.4178     8.9375     9.6255    11.8024
 2186.5000    83.5846    10.0774     0.0302     2.4465   -38.1735     9.0011     9.6308    11.9735
