~VERSION INFORMATION
 VERS.                2.0:   CWLS LOG ASCII STANDARD - VERSION 2.0
 WRAP.                 NO:   ONE LINE PER DEPTH STEP
~WELL INFORMATION
#MNEM.UNIT      DATA TYPE    INFORMATION
#----------   ------------   ------------------------------
 STRT.F           50.0000:   START DEPTH
 STOP.F         3270.0000:   STOP DEPTH
 STEP.F            0.5000:   STEP LENGTH
 NULL.          -999.2500:   NO VALUE
 COMP.   LAWRENCE ALLISON:   COMPANY
 WELL. LAWRENCE NPR 3 "AX" #12-11:   WELL
 FLD .                NPR:   FIELD
 LOC .      S11 T38N R78W:   LOCATION
 CNTY.            NATRONA:   COUNTY
 STAT.            WYOMING:   STATE
 CTRY. UNITED STATES OF AMERICA:   COUNTRY
 SRVC.      DRESSER ATLAS:   SERVICE COMPANY
 DATE.        18-JUL-1985:   LOGDATE
 API .     49025110460000:   API NUMBER
~CURVE INFORMATION
#MNEM.UNIT       API CODE    CURVE DESCRIPTION
#----------   ------------   ------------------------------
 DEPT.F                  :   
 TEND.LBS    45 635 01 00:   TENSION FROM DENSITY LOG
 RHOB.G/C3   45 350 01 00:   BULK DENSITY
 CORR.G/C3   45 356 01 00:   DENSITY CORRECTION
 NPHI.DEC    42 890 03 00:   NEUTRON POROSITY SANDSTONE
 TENR.LBS    07 635 01 00:   TENSION
 GRR .GAPI   07 310 01 00:   GAMMA RAY FROM RESISTIVITY
 RFOC.OHMM   07 220 01 00:   RESISTIVITY FOCUSED LOG RES.
 RILD.OHMM   07 120 46 00:   INDUCTION LOG DEEP RESISTIVITY
 RILM.OHMM   07 120 44 00:   INDUCTION LOG MEDIUM RESISTIVITY
 SN  .OHMM   01 040 00 00:   SHORT NORMAL
 ILD .OHMM   07 120 46 00:   INDUCTION LOG DEEP RESISTIVITY
 TENS.LBS    60 635 01 00:   TENSION FROM SONIC LOG
 DT  .US/F   60 520 00 00:   DELTA TIME
 SPR .MV     07 010 01 00:   SPONTANEOUS POTENTIAL
~PARAMETER INFORMATION
#MNEM.UNIT          VALUE    DESCRIPTION
#----------   ------------   ------------------------------
 EKB .F         5152.0000:   Kelly bushing
 EGL .F         5140.0000:   Ground level
 EDF .F            0.0000:   Drilling floor
 TD  .F         3271.0000:   Total depth
 DATE.        18-JUL-1985:   Date logged
 CLNT.            A2DTECH:   Client Code
 SL  . 1050' FNL & 150' FWL:   Surface Location
 PD  .                 GL:   Permanent Datum
 EPD .F              5140:   Elevation Permanent Datum
 LMF .                 KB:   Log Measured From
 DMF .                 KB:   Drilling Measured From
 DAPD.F                12:   Feet Above Permanent Datum
 DD  .F              3271:   Depth driller
 DL  .F              3262:   Depth logger
 BLI .F              3259:   Bottom log interval
 CS1 .IN            8.625:   Casing size
 CBD1.      8.625" @ 560':   Casing driller 1
 CBL1.F               560:   Casing logger 1
 BS1 .IN            7.875:   Bit size
 BSD1.F              3271:   Depth drilled with bit1
 DFT .            GEL/KCL:   Type fluid in hole
 DFD .                8.8:   Density
 DFV .                 40:   Viscosity
 DFPH.                  8:   pH
 DFL .                  8:   Fluid loss
 MSS .           MUD/TANK:   Source of sample
 RMS .OHMM            .31:   Rm
 MST .F                82:   Rm Meas. temp.
 RMF .OHMM            .25:   Rmf
 MFST.F                82:   Rmf Meas. temp.
 RMC .OHMM            .39:   Rmc
 MCST.F                82:   Rmc Meas. temp.
 MFSS.               MEAS:   Source Rmf.
 MCSS.               CALC:   Source Rmc.
 RMB .OHMM           .198:   Rm. at BHT
 BHT .F               128:   BHT.
 TCS .HRS               3:   Time Circ. stopped
 MRT .F               128:   Maximum recorded temp.
 LUN .            HL-6274:   Logging unit number
 LUL .           GILLETTE:   Logging unit location
 ENGI.             RAUTIO:   Recorded By
 WITN.             STRONG:   Witnessed by
 ORIG.           5" PRINT:   Origin of data
 UWI .     49025110460000:   Unique Well ID
 DICO. A2D TECHNOLOGIES, INC.:   Digitizing Company
~OTHER INFORMATION
~A   DEPT     TEND       RHOB       CORR       NPHI       TENR        GRR       RFOC       RILD       RILM           SN        ILD     TENS         DT         SPR  
# ...
 2402.0000   -46.3160     2.5250     0.0130     0.2410   -21.6600    87.6470     5.6560     5.2270     4.9610  -999.2500  -999.2500   -61.3410    86.8630    58.0420
 2402.5000   -48.8770     2.5120     0.0170     0.2480   -19.5760    91.3690     6.0480     5.1060     4.8630  -999.2500  -999.2500   -61.6670    86.8630    58.4710
 2403.0000   -51.4390     2.4860    -0.0060     0.2600   -17.4920    97.3920     6.2310     4.8590     4.5490  -999.2500  -999.2500   -61.9930    86.9850    58.9450
 2403.5000   -54.0010     2.4520    -0.0210     0.2720    -5.7330   102.6500     5.9530     4.6110     4.2130  -999.2500  -999.2500   -62.3190    87.2400    59.4180
 2404.0000   -56.5620     2.4050    -0.0050     0.2840   -10.7520   106.1010     5.5510     4.3630     3.8760  -999.2500  -999.2500   -62.6440    87.6720    59.8250
 2404.5000   -59.1240     2.3830     0.0310     0.2970   -17.5030   103.8310     4.9970     4.1160     3.5880  -999.2500  -999.2500   -62.9700    89.2880    59.6970
 2405.0000   -61.6850     2.4060     0.0270     0.2940   -24.2540   100.8400     4.4430     3.8680     3.5640  -999.2500  -999.2500   -63.2960    90.6110    59.5310
 2405.5000   -64.2470     2.4370     0.0080     0.2820   -31.0050   100.3690     3.8890     3.6920     3.5410  -999.2500  -999.2500   -63.6220    91.9340    59.3640
 2406.0000   -65.2790     2.4730     0.0030     0.2740   -37.7560   100.6410     3.7600     3.6390     3.5180  -999.2500  -999.2500   -63.9480    93.0380    59.1990
 2406.5000   -63.4290     2.4870     0.0060     0.2730   -44.5070   103.1200     3.7940     3.5670     3.4940  -999.2500  -999.2500   -64.2740    93.0580    59.0220
 2407.0000   -61.5790     2.4930     0.0050     0.2710   -51.2580   105.7320     3.8830     3.5260     3.4300  -999.2500  -999.2500   -64.6000    92.3480    58.5410
 2407.5000   -59.7290     2.5010     0.0040     0.2610   -58.0090   106.8370     3.9730     3.6640     3.4930  -999.2500  -999.2500   -64.9260    91.6390    58.0410
 2408.0000   -57.8790     2.5130     0.0030     0.2450   -64.7600   104.3000     4.3950     3.8050     3.6530  -999.2500  -999.2500   -65.2510    90.9300    57.5420
 2408.5000   -56.0290     2.5200     0.0090     0.2510   -71.5100    99.8560     4.3170     3.9450     3.8140  -999.2500  -999.2500   -65.5770    90.2200    57.0420
 2409.0000   -54.1790     2.5160     0.0030     0.2580   -68.7440    98.9940     4.1600     4.0300     3.9730  -999.2500  -999.2500   -65.7370    89.4520    56.5430
 2409.5000   -52.3290     2.5070    -0.0030     0.2750   -71.6750    98.1940     4.2370     4.1260     4.1220  -999.2500  -999.2500   -65.7370    88.6270    56.0460
 2410.0000   -50.4790     2.5060    -0.0080     0.2900   -75.6710    97.0670     4.6000     4.2230     4.2010  -999.2500  -999.2500   -65.7370    87.7270    55.5790
 2410.5000   -48.6290     2.5120    -0.0110     0.2950   -76.0240   100.6750     5.0910     4.3190     4.2790  -999.2500  -999.2500   -65.7370    86.9170    55.2710
 2411.0000   -46.7790     2.5130    -0.0140     0.2950   -76.3770   105.0940     5.0490     4.4220     4.3550  -999.2500  -999.2500   -65.7370    86.6800    54.9550
 2411.5000   -54.8560     2.5190    -0.0060     0.2810   -76.7300   108.3540     4.9510     4.4840     4.3870  -999.2500  -999.2500   -65.7370    86.8700    54.6400
 2412.0000   -69.8410     2.5280     0.0140     0.2550   -77.0840   106.9880     4.8540     4.5600     4.4590  -999.2500  -999.2500   -65.7370    87.4860    54.0720
 2412.5000   -75.8710     2.5380     0.0260     0.2560   -77.4370   105.7180     4.7560     4.6290     4.5320  -999.2500  -999.2500   -65.7370    87.9910    53.2970
 2413.0000   -69.5440     2.5410     0.0220     0.2600   -77.7900   104.6620     4.6580     4.6950     4.6050  -999.2500  -999.2500   -65.7370    88.2570    52.5140
 2413.5000   -59.0290     2.5380     0.0180     0.2650   -78.1430   106.6390     4.8010     4.6870     4.6770  -999.2500  -999.2500   -65.7370    88.1910    52.2950
 2414.0000   -48.5130     2.5330     0.0130     0.2690   -78.4960   108.6410     4.9830     4.8780     4.8350  -999.2500  -999.2500   -65.7370    87.8950    51.8750
 2414.5000   -37.9970     2.5270     0.0090     0.2600   -78.8490   108.9960     5.1650     5.0580     5.0060  -999.2500  -999.2500   -65.7370    87.5980    51.9380
 2415.0000   -36.6300     2.5230     0.0040     0.2520   -79.2030   106.7360     5.3470     5.2380     5.1780  -999.2500  -999.2500   -65.7370    87.3020    52.1670
 2415.5000   -37.5390     2.5250     0.0040     0.2530   -79.5560   105.3770     5.5290     5.4180     5.3490  -999.2500  -999.2500   -65.7370    86.7510    52.3890
 2416.0000   -38.4470     2.5270     0.0080     0.2530   -79.9090   106.3420     5.7110     5.5980     5.5200  -999.2500  -999.2500   -65.7370    86.1600    52.6290
 2416.5000   -39.3550     2.5270     0.0030     0.2500   -80.2620   107.3490     5.8930     5.7770     5.6910  -999.2500  -999.2500   -65.7370    85.5680    52.1430
 2417.0000   -40.2630     2.5270    -0.0020     0.2500   -80.6150   109.6430     6.0760     5.9570     5.8630  -999.2500  -999.2500   -65.7370    84.9760    51.3860
 2417.5000   -41.1710     2.5240    -0.0030     0.2490   -80.9680   110.2680     6.3460     6.1190     6.0340  -999.2500  -999.2500   -65.7370    84.5080    50.6260
 2418.0000   -42.0800     2.5170     0.0020     0.2490   -81.3220   107.2810     6.3340     6.1340     6.1170  -999.2500  -999.2500   -65.7370    84.4160    50.0920
 2418.5000   -42.9880     2.5100    -0.0020     0.2560   -81.6750   105.3680     6.3100     6.1490     6.1170  -999.2500  -999.2500   -65.7370    84.5490    50.4250
 2419.0000   -43.8960     2.5040    -0.0050     0.2610   -82.0280   105.7120     6.2880     6.1640     6.1170  -999.2500  -999.2500   -65.7370    84.6810    50.7910
 2419.5000   -44.8040     2.5090     0.0000     0.2550   -82.3810   104.9190     6.3790     6.1800     6.1170  -999.2500  -999.2500   -65.7370    84.8140    51.2550
 2420.0000   -45.7120     2.5140    -0.0020     0.2440   -82.7340   101.1650     6.4640     6.2310     6.1170  -999.2500  -999.2500   -65.7370    84.7550    51.1270
 2420.5000   -44.5520     2.5120     0.0010     0.2310   -83.0870   101.6810     6.4050     6.1740     6.1170  -999.2500  -999.2500   -65.7370    84.5530    50.8980
 2421.0000   -42.3320     2.5020    -0.0130     0.2330   -83.4410   103.8750     6.4670     6.2310     6.1180  -999.2500  -999.2500   -65.7370    84.1210    50.6690
 2421.5000   -40.1120     2.4910    -0.0130     0.2360   -83.7940   112.3370     6.6450     6.3960     6.1130  -999.2500  -999.2500   -65.7370    83.8210    50.4460
 2422.0000   -37.8920     2.4800    -0.0010     0.2460   -84.1470   120.6220     6.5180     6.5910     6.0620  -999.2500  -999.2500   -65.7370    83.9330    50.4720
 2422.5000   -35.6720     2.4740    -0.0060     0.2560   -84.5000   118.1020     6.2930     6.7850     6.2800  -999.2500  -999.2500   -65.7370    84.0450    50.9810
 2423.0000   -33.4520     2.4810    -0.0150     0.2630   -84.8530   113.3150     6.0620     6.9800     6.5670  -999.2500  -999.2500   -65.7370    84.1570    51.4720
 2423.5000   -31.2320     2.4910    -0.0230     0.2650   -85.2060   109.6810     6.0080     7.1740     6.8540  -999.2500  -999.2500   -65.7370    84.0460    51.4890
 2424.0000   -29.0120     2.4980    -0.0210     0.2630   -75.5230   108.5540     5.9510     7.3690     7.1410  -999.2500  -999.2500   -65.7370    83.6990    51.4920
 2424.5000   -26.7920     2.4990    -0.0130     0.2570   -65.5530   109.7340     6.6650     7.5140     7.4280  -999.2500  -999.2500   -65.7370    83.3530    51.7110
 2425.0000   -27.9520     2.5000    -0.0050     0.2510   -65.5530   111.6810     7.2670     7.6550     7.5710  -999.2500  -999.2500   -65.7370    83.2270    52.9320
 2425.5000   -30.5810     2.4990    -0.0050     0.2430   -65.5530   112.8790     7.8680     7.7670     7.7120  -999.2500  -999.2500   -65.7370    83.5600    54.1280
 2426.0000   -33.2100     2.4930    -0.0060     0.2450   -65.5530   112.9430     7.9840     7.5880     7.7670  -999.2500  -999.2500   -65.7370    84.1200    55.0140
