~VERSION INFORMATION
 VERS.                2.0:   CWLS LOG ASCII STANDARD - VERSION 2.0
 WRAP.                 NO:   ONE LINE PER DEPTH STEP
~WELL INFORMATION
#MNEM.UNIT      DATA TYPE    INFORMATION
#----------   ------------   ------------------------------
 STRT.F          200.0000:   START DEPTH
 STOP.F         3120.0000:   STOP DEPTH
 STEP.F            0.5000:   STEP LENGTH
 NULL.          -999.2500:   NO VALUE
 COMP.    FENIX & SCISSON:   COMPANY
 WELL. FENIX NPR 3 "AX" #83-28:   WELL
 FLD .                NPR:   FIELD
 LOC .      S28 T39N R78W:   LOCATION
 CNTY.            NATRONA:   COUNTY
 STAT.            WYOMING:   STATE
 CTRY. UNITED STATES OF AMERICA:   COUNTRY
 SRVC.              WELEX:   SERVICE COMPANY
 DATE.        29-SEP-1977:   LOGDATE
 API .     49025104240000:   API NUMBER
~CURVE INFORMATION
#MNEM.UNIT       API CODE    CURVE DESCRIPTION
#----------   ------------   ------------------------------
 DEPT.F                  :   
 CALD.IN     45 280 60 00:   CALIPER FROM DENSITY LOG
 GRD .GAPI   45 310 01 00:   GAMMA RAY FROM DENSITY LOG
 RHOB.G/C3   45 350 01 00:   BULK DENSITY
 CORR.G/C3   45 356 01 00:   DENSITY CORRECTION
 SPR .MV     07 010 01 00:   SPONTANEOUS POTENTIAL
 SGRD.MV     07 220 05 00:   SHLLOW GUARD
 ILD .OHMM   07 120 46 00:   DEEP INDUCTION RESISTIVITY
 ILM .OHMM   07 120 44 00:   INDUCTION LOG MEDIUM RESISTIVITY
~PARAMETER INFORMATION
#MNEM.UNIT          VALUE    DESCRIPTION
#----------   ------------   ------------------------------
 EKB .F         5034.0000:   Kelly bushing
 EGL .F         5024.0000:   Ground level
 TD  .F         3110.0000:   Total depth
 DATE.        29-SEP-1977:   Date logged
 CLNT.            A2DTECH:   Client Code
 SL  . 1650' FNL & 330' FEL:   Surface Location
 PD  .                 GL:   Permanent Datum
 EPD .F              5024:   Elevation Permanent Datum
 LMF .                 KB:   Log Measured From
 DMF .                 KB:   Drilling Measured From
 DAPD.F                10:   Feet Above Permanent Datum
 DD  .F              3110:   Depth driller
 DL  .F              3110:   Depth logger
 BLI .F              3108:   Bottom log interval
 TLI .F               210:   Top log interval
 CS1 .IN            8.625:   Casing size
 CBD1.      8.625" @ 201':   Casing driller 1
 CBL1.F               210:   Casing logger 1
 BS1 .IN            7.875:   Bit size
 BSD1.F              3110:   Depth drilled with bit1
 DFT .          KCL/WATER:   Type fluid in hole
 DFD .                  9:   Density
 DFV .                 40:   Viscosity
 DFPH.                 11:   pH
 DFL .                6.4:   Fluid loss
 MSS .            MUD/PIT:   Source of sample
 RMS .OHMM            .56:   Rm
 MST .F                60:   Rm Meas. temp.
 RMF .OHMM            .34:   Rmf
 MFST.F                60:   Rmf Meas. temp.
 RMC .OHMM            .61:   Rmc
 MCST.F                60:   Rmc Meas. temp.
 MFSS.               MEAS:   Source Rmf.
 MCSS.               MEAS:   Source Rmc.
 RMB .OHMM            .28:   Rm. at BHT
 BHT .F               120:   BHT.
 TCS .HRS               3:   Time Circ. stopped
 MRT .F               120:   Maximum recorded temp.
 LUN .               9685:   Logging unit number
 LUL .             CASPER:   Logging unit location
 ENGI. G. BENTSEN/T. JOYNER:   Recorded By
 WITN.         PETTINGILL:   Witnessed by
 ORIG.   1" 2.5" 5" PRINT:   Origin of data
 UWI .     49025104240000:   Unique Well ID
 DICO. A2D TECHNOLOGIES, INC.:   Digitizing Company
~OTHER INFORMATION
~A   DEPT     CALD         GRD      RHOB       CORR        SPR       SGRD        ILD        ILM   
# ...
  564.5000     9.9349    98.7137     2.4675     0.0587   -81.2206     7.1573     6.5275     7.4264
  565.0000     9.9356    98.7256     2.4675     0.0588   -81.2225     7.2230     6.7100     7.4944
  565.5000     9.9366    98.7335     2.4735     0.0588   -81.2248     7.4248     6.8975     7.5634
  566.0000     9.9766   101.0379     2.4794     0.0589   -81.2267     7.4930     6.9607     7.5625
  566.5000     9.9777   102.6168     2.4815     0.0629   -81.2286     7.6314     7.0245     7.5617
  567.0000     9.9784   103.0195     2.4815     0.0590   -81.2305     7.6310     7.0239     7.5610
  567.5000     9.9794   103.4191     2.4736     0.0551   -81.2328     7.6303     7.0231     7.5605
  568.0000     9.9801   102.6423     2.4676     0.0512   -81.2348     7.6295     6.9580     7.4906
  568.5000     9.9811   101.8623     2.4637     0.0512   -81.2367     7.6289     6.8305     7.4210
  569.0000     9.9818   101.4755     2.4617     0.0473   -81.2386     7.6282     6.5825     7.3521
  569.5000    10.0615   101.8782     2.4578     0.0473   -81.2405     7.6273     6.4618     7.2173
  570.0000    10.0229   102.6710     2.4538     0.0434   -81.2428     7.6265     6.3431     7.1504
  570.5000     9.9846   101.1077     2.4499     0.0355   -81.2447     7.5559     6.4010     7.0841
  571.0000    10.0640    99.5411     2.4419     0.0356   -81.2466     7.5552     6.4008     7.0837
  571.5000     9.9077    98.4586     2.4523     0.0396   -81.2486     7.4852     6.4004     7.0830
  572.0000     9.9772    97.6800     2.4638     0.0516   -81.2509     7.3479     6.2828     7.0824
  572.5000     9.9881    96.9053     2.4798     0.0675   -81.2528     7.3473     6.2247     6.9523
  573.0000     9.9888    96.1227     2.4917     0.0764   -81.2547     7.2790     6.2240     6.8247
  573.5000    10.0685    96.1306     2.4997     0.0875   -81.2566     7.0800     6.2232     6.8241
  574.0000    10.1475    95.8884     2.5017     0.0916   -81.2585     7.0793     6.2227     6.8233
  574.5000    10.1489    95.3715     2.5037     0.0916   -81.2608     7.0787     6.2224     6.8227
  575.0000    10.1496    95.3793     2.5037     0.0996   -81.2628     7.0781     6.3374     6.6361
  575.5000    10.1506    95.7844     2.5037     0.0957   -81.2647     7.2757     6.3957     6.6969
  576.0000    10.1513    96.1855     2.5018     0.0918   -81.2666     7.4104     6.5137     6.8211
  576.5000    10.1524    96.5906     2.4998     0.0852   -81.2689     7.4786     6.5131     7.1418
  577.0000    10.1531    96.2052     2.4979     0.0800   -81.2708     7.4778     6.5126     7.1412
  577.5000    10.0751    94.6436     2.4979     0.0800   -81.2727     7.4769     6.5120     7.1408
  578.0000    10.1548    94.6515     2.4959     0.0801   -81.2746     7.6154     6.5115     7.1399
  578.5000    10.1949    93.8765     2.4920     0.0762   -81.2769     7.4757     6.5109     6.9447
  579.0000    10.1959    92.7043     2.4880     0.0762   -81.2789     7.3385     6.5104     6.8805
  579.5000    10.0786    90.7454     2.4841     0.0723   -81.2808     7.2037     6.5097     6.6920
  580.0000    10.1583    91.5437     2.4781     0.0723   -81.2827     7.0715     6.5090     6.5089
  580.5000    10.1980    91.5515     2.4722     0.0644   -81.2846     7.0063     6.3896     6.4489
  581.0000    10.1994    92.3499     2.4643     0.0646   -81.2869     7.0055     6.2724     6.3890
  581.5000    10.2001    92.3577     2.4608     0.0566   -81.2888     6.8137     6.1571     6.3300
  582.0000    10.1218    92.7628     2.4573     0.0567   -81.2908     6.7506     5.9888     6.2711
  582.5000    10.2019    91.9838     2.4524     0.0567   -81.2927     6.6269     5.8249     6.2705
  583.0000    10.1636    92.3889     2.4485     0.0568   -81.2950     6.0428     5.7182     6.1555
  583.5000    10.1643    92.3967     2.4465     0.0529   -81.2969     5.8236     5.5616     6.0425
  584.0000    10.2043    92.8018     2.4426     0.0529   -81.2988     5.4594     5.4095     5.8233
  584.5000    10.1660    93.2030     2.4426     0.0530   -80.7003     5.4088     5.2615     5.5096
  585.0000    10.1671    93.6082     2.4426     0.0570   -80.7011     5.5596     5.2128     5.5091
  585.5000    10.1678    93.2225     2.4387     0.0610   -80.7030     5.5594     5.2123     5.5596
  586.0000    10.1688    93.2342     2.4443     0.0611   -80.3049     6.2088     5.2118     5.7679
  586.5000    10.0515    92.4551     2.4500     0.0651   -80.3068     6.6220     5.3083     6.1514
  587.0000     9.9742    92.4668     2.4557     0.0691   -80.3087     7.0624     5.6094     6.2080
  587.5000     9.9352    92.4746     2.4614     0.0652   -80.3110     7.1932     5.8734     6.3814
  588.0000     9.8965    92.0928     2.4666     0.0693   -80.3129     7.6013     6.1498     6.5598
  588.5000     9.8189    92.1006     2.4726     0.0693   -80.3149     8.0327     6.1489     6.7428
  589.0000     9.8199    92.1123     2.4746     0.0694   -80.3168     8.2570     6.2631     6.9311
  589.5000     9.8202    92.1201     2.4786     0.0694   -80.3187     8.4098     6.3790     7.1245
  590.0000     9.9397    91.7383     2.4815     0.0655   -80.3210     8.4091     6.5571     7.3239
  590.5000     9.9404    91.3525     2.4843     0.0695   -80.3229     8.7239     6.8026     7.4592
  591.0000     9.9808    91.3642     2.4886     0.0696   -80.3248     8.8039     7.0574     7.5276
  591.5000     9.9421    91.3720     2.4906     0.0696   -80.3267     8.8031     7.1880     7.5969
  592.0000     9.9432    91.3836     2.4816     0.0618   -80.3290     8.8023     7.2540     7.6666
  592.5000     9.9439    92.1785     2.4751     0.0618   -80.3310     8.8830     7.3203     7.7366
  593.0000     9.9446    92.5838     2.4687     0.0539   -79.7317     8.8823     7.3197     7.8797
  593.5000     9.9062    93.3787     2.4589     0.0540   -79.7336     8.8813     7.3191     7.8793
  594.0000     9.9463    92.9968     2.4554     0.0540   -79.7355     8.8809     7.3187     7.9515
  594.5000     9.9473    93.3982     2.4539     0.0541   -79.7378     8.8796     7.3176     8.0240
  595.0000     9.9480    93.4099     2.4530     0.0541   -79.7397     8.8792     7.3171     8.0977
  595.5000     9.9491    91.8434     2.4550     0.0502   -79.7417     8.8784     7.3165     8.1718
  596.0000     9.9498    91.0639     2.4571     0.0542   -79.7436     8.8771     7.2489     8.2467
  596.5000     9.9902    89.5011     2.4650     0.0543   -79.7459     8.8764     7.1813     8.2460
  597.0000     9.9512    88.7216     2.4671     0.0583   -79.7478     8.8758     7.1808     8.2453
  597.5000     9.9526    88.3396     2.4730     0.0584   -79.7497     8.8751     7.1801     8.2444
  598.0000     9.9926    88.3474     2.4770     0.0624   -79.7516     8.8742     7.1133     8.2437
  598.5000     9.9937    89.1462     2.4870     0.0625   -79.7536     8.7919     7.1129     8.2433
  599.0000    10.0337    88.7603     2.4890     0.0625   -79.7559     8.7106     7.1125     8.1668
  599.5000     9.9560    87.9846     2.4930     0.0666   -79.7578     8.6298     7.0464     8.0168
  600.0000    10.0355    89.5670     2.4950     0.0666   -79.5277     8.4712     7.0458     7.9419
  600.5000    10.0060    90.1912     2.4951     0.0667   -79.4949     8.5230     6.9947     7.9415
  601.0000     9.9974    89.9738     2.4951     0.0668   -79.4621     8.3663     6.9791     7.7954
  601.5000     9.9587    88.4062     2.4912     0.0629   -79.4293     8.2126     6.9785     7.5820
  602.0000    10.0377    87.2299     2.4892     0.0630   -79.3965     8.0612     6.9775     7.4423
  602.5000     9.9993    87.2370     2.4833     0.0630   -79.3637     7.9368     6.9764     7.4412
  603.0000     9.9997    87.2418     2.4774     0.0631   -79.3309     7.9357     6.9752     7.3720
  603.5000    10.0792    88.0362     2.4715     0.0592   -79.2981     7.9344     6.9746     7.3713
  604.0000    10.0794    87.2536     2.4715     0.0554   -79.2653     7.9333     6.9734     7.3023
  604.5000    10.1591    87.2608     2.4616     0.0515   -79.2325     7.9325     6.9724     7.3011
