~VERSION INFORMATION
 VERS.                2.0:   CWLS LOG ASCII STANDARD - VERSION 2.0
 WRAP.                 NO:   ONE LINE PER DEPTH STEP
~WELL INFORMATION
#MNEM.UNIT      DATA TYPE    INFORMATION
#----------   ------------   ------------------------------
 STRT.F          186.0000:   START DEPTH
 STOP.F         3060.0000:   STOP DEPTH
 STEP.F            0.5000:   STEP LENGTH
 NULL.          -999.2500:   NO VALUE
 COMP.    FENIX & SCISSON:   COMPANY
 WELL. FENIX NPR 3 "AX" #63-29:   WELL
 FLD .              N P R:   FIELD
 LOC .      S29 T39N R78W:   LOCATION
 CNTY.            NATRONA:   COUNTY
 STAT.            WYOMING:   STATE
 CTRY. UNITED STATES OF AMERICA:   COUNTRY
 SRVC.           BIRDWELL:   SERVICE COMPANY
 DATE.        28-FEB-1978:   LOGDATE
 API .     49025105960000:   API NUMBER
~CURVE INFORMATION
#MNEM.UNIT       API CODE    CURVE DESCRIPTION
#----------   ------------   ------------------------------
 DEPT.F                  :   
 CALD.IN     45 280 60 00:   CALIPER FROM DENSITY LOG
 GRD .GAPI   45 310 01 00:   GAMMA RAY FROM DENSITY LOG
 DEN .LBS    07 635 01 00:   
 CORR.G/C3   45 356 01 00:   DENSITY CORRECTION
 SPR .MV     05 010 01 00:   SPONTANEOUS POTENTIAL
 SN  .OHMM   05 040 00 00:   SHORT NORMAL
 ILD .OHMM   05 120 46 00:   DEEP INDUCTION RESISTIVITY
~PARAMETER INFORMATION
#MNEM.UNIT          VALUE    DESCRIPTION
#----------   ------------   ------------------------------
 EKB .F         4993.0000:   Kelly bushing
 EGL .F         4983.0000:   Ground level
 EDF .F            0.0000:   Drilling floor
 TD  .F         3060.0000:   Total depth
 DATE.        28-FEB-1978:   Date logged
 CLNT.            A2DTECH:   Client Code
 SL  . 1300' FNL & 1050' FEL:   Surface Location
 PD  .                 GL:   Permanent Datum
 DD  .F              3060:   Depth driller
 DL  .F              3056:   Depth logger
 BLI .F              5050:   Bottom log interval
 CS1 .IN            8.625:   Casing size
 CBD1.      8.625" @ 214':   Casing driller 1
 CBL1.F               218:   Casing logger 1
 BS1 .IN            7.875:   Bit size
 DFT .     LIGNOSULFONATE:   Type fluid in hole
 DFD .                  9:   Density
 DFV .                 34:   Viscosity
 DFPH.               10.5:   pH
 DFL .                  9:   Fluid loss
 MSS .           FLOWLINE:   Source of sample
 RMS .OHMM            1.8:   Rm
 MST .F                58:   Rm Meas. temp.
 RMF .OHMM             .9:   Rmf
 MFST.F                65:   Rmf Meas. temp.
 RMC .OHMM            2.5:   Rmc
 MCST.F                70:   Rmc Meas. temp.
 MFSS.               MEAS:   Source Rmf.
 RMB .OHMM             88:   Rm. at BHT
 BHT .F               118:   BHT.
 TCS .HRS               8:   Time Circ. stopped
 MRT .F               118:   Maximum recorded temp.
 LUN .               2959:   Logging unit number
 LUL .               CASP:   Logging unit location
 ENGI.             MILLER:   Recorded By
 WITN.         HARRINGTON:   Witnessed by
 ORIG.           5" PRINT:   Origin of data
 UWI .     49025105960000:   Unique Well ID
 DICO. A2D TECHNOLOGIES, INC.:   Digitizing Company
 BSD1.F              3060:   Depth drilled with bit1
 EPD .F              4983:   Elevation Permanent Datum
 LMF .                 KB:   Log Measured From
 DMF .                 KB:   Drilling Measured From
 TLI .F               800:   Top log interval
~OTHER INFORMATION
~A   DEPT     CALD         GRD       DEN       CORR        SPR         SN        ILD   
# ...
 1141.5000    11.7360    83.2630     2.5520     0.0560   -52.0330     7.7380     6.7600
 1142.0000    11.7350    85.0600     2.5550     0.0550   -52.0210     7.7330     6.7600
 1142.5000    11.7340    86.8230     2.5580     0.0540   -52.2020     7.7280     6.7600
 1143.0000    11.7320    87.5640     2.5610     0.0580   -52.3550     7.7230     6.7600
 1143.5000    11.7310    85.7880     2.5620     0.0650   -52.5240     7.7190     6.7600
 1144.0000    11.7300    84.3140     2.5530     0.0700   -52.6850     7.7140     6.7600
 1144.5000    11.7280    82.8630     2.5350     0.0630   -52.8070     7.7090     6.7600
 1145.0000    11.7270    82.0550     2.5330     0.0560   -52.7000     7.7040     6.7600
 1145.5000    11.7260    82.2990     2.5370     0.0480   -52.5720     7.6990     6.7600
 1146.0000    11.7240    82.8890     2.5410     0.0460   -52.4380     7.6950     6.7600
 1146.5000    11.7230    83.5090     2.5450     0.0470   -52.3770     7.6900     6.7600
 1147.0000    11.7220    82.7070     2.5350     0.0480   -52.3370     7.6850     6.7600
 1147.5000    11.7210    83.5500     2.5220     0.0490   -52.2960     7.6800     6.7600
 1148.0000    11.7190    85.6080     2.5200     0.0510   -52.2550     7.6750     6.7600
 1148.5000    11.7180    86.2120     2.5310     0.0520   -52.2150     7.6710     6.7600
 1149.0000    11.7170    86.4530     2.5350     0.0530   -52.1740     7.6660     6.7600
 1149.5000    11.7150    86.7060     2.5290     0.0540   -52.1340     7.6610     6.7600
 1150.0000    11.7140    86.9700     2.5320     0.0550   -52.0920     7.6560     6.7600
 1150.5000    11.7060    87.2980     2.5370     0.0560   -52.0540     7.6510     6.7600
 1151.0000    11.6890    87.2820     2.5410     0.0580   -52.0120     7.6470     6.7600
 1151.5000    11.6710    85.6120     2.5410     0.0560   -52.0490     7.6420     6.7600
 1152.0000    11.6540    83.8290     2.5410     0.0500   -52.0940     7.6370     6.7600
 1152.5000    11.6370    82.0790     2.5410     0.0450   -52.1410     7.6320     6.7600
 1153.0000    11.6320    81.2690     2.5410     0.0420   -52.1870     7.6270     6.7600
 1153.5000    11.6300    81.5150     2.5360     0.0420   -52.2320     7.6230     6.7600
 1154.0000    11.6280    82.6910     2.5310     0.0430   -52.2780     7.6180     6.7600
 1154.5000    11.6260    83.8330     2.5250     0.0440   -52.3250     7.6130     6.7600
 1155.0000    11.6250    84.7880     2.5210     0.0450   -52.3690     7.6080     6.7600
 1155.5000    11.6230    84.4220     2.5160     0.0460   -52.4080     7.6040     6.7600
 1156.0000    11.6210    83.9130     2.5180     0.0520   -52.3510     7.6110     6.7600
 1156.5000    11.6190    83.4020     2.5250     0.0780   -52.2700     7.6180     6.7600
 1157.0000    11.6170    82.8650     2.5290     0.0870   -52.1870     7.6250     6.7600
 1157.5000    11.6150    82.8450     2.5300     0.0630   -52.1080     7.6320     6.7600
 1158.0000    11.6140    82.8090     2.5310     0.0400   -52.0270     7.6390     6.7600
 1158.5000    11.6120    82.8180     2.5320     0.0260   -52.0070     7.6460     6.7600
 1159.0000    11.6100    82.2710     2.5330     0.0270   -52.0080     7.6530     6.7600
 1159.5000    11.6080    81.5330     2.5300     0.0280   -52.0080     7.6600     6.7600
 1160.0000    11.6060    81.3370     2.5220     0.0290   -52.0080     7.6670     6.7600
 1160.5000    11.6040    81.7200     2.5180     0.0300   -52.0080     7.6740     6.7600
 1161.0000    11.6030    82.0060     2.5160     0.0300   -52.0080     7.6810     6.7620
 1161.5000    11.6010    82.2810     2.5130     0.0310   -52.0080     7.6880     6.7660
 1162.0000    11.5990    83.1900     2.5160     0.0320   -52.0080     7.6950     6.7700
 1162.5000    11.5970    86.1390     2.5210     0.0330   -52.0080     7.7020     6.7750
 1163.0000    11.5950    89.8820     2.5250     0.0340   -52.0070     7.7090     6.7790
 1163.5000    11.5920    88.8840     2.5290     0.0350   -52.0080     7.7160     6.7830
 1164.0000    11.5680    84.4270     2.5280     0.0360   -52.0080     7.7230     6.7870
 1164.5000    11.5480    79.4650     2.5250     0.0370   -52.0030     7.7300     6.7920
 1165.0000    11.5260    80.4910     2.5220     0.0380   -52.0710     7.7370     6.7960
 1165.5000    11.5040    82.3010     2.5170     0.0290   -52.2410     7.7430     6.8000
 1166.0000    11.4830    84.2300     2.5210     0.0260   -52.3990     7.7540     6.8040
 1166.5000    11.4610    86.1210     2.5300     0.0260   -52.5600     7.7800     6.8090
 1167.0000    11.4390    86.8560     2.5250     0.0270   -52.7380     7.8050     6.8130
 1167.5000    11.4180    87.2180     2.5180     0.0290   -52.7450     7.8300     6.8170
 1168.0000    11.3960    88.2620     2.5130     0.0300   -52.5540     7.8550     6.8210
 1168.5000    11.3950    88.8720     2.5170     0.0310   -52.3770     7.8800     6.8260
 1169.0000    11.3940    86.4640     2.5240     0.0330   -52.2110     7.8940     6.8300
 1169.5000    11.3940    86.4730     2.5330     0.0340   -52.0200     7.9010     6.8340
 1170.0000    11.3940    86.3890     2.5330     0.0360   -52.0100     7.9080     6.8380
 1170.5000    11.3940    86.3720     2.5280     0.0370   -52.0050     7.9150     6.8430
 1171.0000    11.3940    85.2900     2.5220     0.0370   -52.0090     7.9220     6.8470
 1171.5000    11.3940    83.9950     2.5220     0.0290   -52.0070     7.9290     6.8510
 1172.0000    11.3940    82.6410     2.5250     0.0220   -52.0070     7.9360     6.8550
 1172.5000    11.3940    82.0010     2.5280     0.0140   -52.0080     7.9430     6.8600
 1173.0000    11.3940    82.5670     2.5310     0.0180   -52.0080     7.9500     6.8640
 1173.5000    11.3940    83.0710     2.5340     0.0240   -52.0080     7.9580     6.8680
 1174.0000    11.3940    83.5820     2.5330     0.0300   -52.0080     7.9650     6.8720
 1174.5000    11.3940    83.9940     2.5290     0.0300   -52.0080     7.9720     6.8770
 1175.0000    11.3940    83.7200     2.5250     0.0310   -52.0080     7.9790     6.8810
 1175.5000    11.3940    83.2840     2.5230     0.0310   -52.0080     7.9860     6.8860
 1176.0000    11.3940    83.9360     2.5250     0.0310   -52.0080     7.9930     6.8960
 1176.5000    11.3940    84.7700     2.5280     0.0320   -52.0080     8.0000     6.9090
 1177.0000    11.3940    85.6440     2.5300     0.0320   -52.0080     8.0070     6.9210
 1177.5000    11.3940    86.4410     2.5330     0.0320   -52.0080     8.0140     6.9330
 1178.0000    11.3940    87.1500     2.5330     0.0320   -52.0080     8.0210     6.9460
 1178.5000    11.3940    86.6710     2.5320     0.0330   -52.0080     8.0280     6.9580
 1179.0000    11.3940    86.0650     2.5310     0.0330   -52.0080     8.0340     6.9700
 1179.5000    11.3940    85.3940     2.5300     0.0330   -52.0080     8.0540     6.9820
 1180.0000    11.3940    86.0080     2.5290     0.0340   -52.0080     8.0890     6.9950
 1180.5000    11.3940    87.1500     2.5300     0.0340   -52.0080     8.1230     7.0090
 1181.0000    11.3940    88.2780     2.5320     0.0340   -52.0080     8.1570     7.0170
 1181.5000    11.3940    89.3450     2.5330     0.0350   -52.0100     8.1910     7.0990
 1182.0000    11.3940    90.4930     2.5320     0.0350   -51.9840     8.2250     7.1720
 1182.5000    11.3940    89.4770     2.5300     0.0350   -51.9230     8.2600     7.2450
 1183.0000    11.3940    87.4900     2.5280     0.0360   -51.8650     8.2940     7.3190
 1183.5000    11.3940    85.5350     2.5260     0.0360   -51.8070     8.3280     7.3930
 1184.0000    11.3940    84.7440     2.5250     0.0360   -51.7480     8.3620     7.4140
 1184.5000    11.3940    84.6510     2.5310     0.0360   -51.6900     8.3960     7.4190
 1185.0000    11.3940    82.0800     2.5390     0.0370   -51.6310     8.4300     7.4230
 1185.5000    11.3940    80.0540     2.5370     0.0370   -51.5720     8.4640     7.4270
 1186.0000    11.3940    79.5770     2.5350     0.0370   -51.5140     8.4920     7.4310
 1186.5000    11.3940    80.3260     2.5320     0.0380   -51.4550     8.5000     7.4360
