~VERSION INFORMATION
 VERS.                2.0:   CWLS LOG ASCII STANDARD - VERSION 2.0
 WRAP.                 NO:   ONE LINE PER DEPTH STEP
~WELL INFORMATION
#MNEM.UNIT      DATA TYPE    INFORMATION
#----------   ------------   ------------------------------
 STRT.F          397.0000:   START DEPTH
 STOP.F         5516.0000:   STOP DEPTH
 STEP.F            0.5000:   STEP LENGTH
 NULL.          -999.2500:   NO VALUE
 COMP.  FENIX AND SCISSON:   COMPANY
 WELL.   FENIX TPX #54-10:   WELL
 FLD . NAVAL PETROLEUM RESERVE=3:   FIELD
 LOC .      S10 T38N R78W:   LOCATION
 CNTY.            NATRONA:   COUNTY
 STAT.            WYOMING:   STATE
 CTRY. UNITED STATES OF AMERICA:   COUNTRY
 SRVC.       SCHLUMBERGER:   SERVICE COMPANY
 DATE.        03-APR-1981:   LOGDATE
 API .     49025108690000:   API NUMBER
~CURVE INFORMATION
#MNEM.UNIT       API CODE    CURVE DESCRIPTION
#----------   ------------   ------------------------------
 DEPT.F                  :   
 SPR .MV     11 010 01 00:   SPONTANEOUS POTENTIAL FROM RES.
 TENR.LBS    11 635 01 00:   TENSION FROM RES.
 LLD .OHMM   11 220 10 00:   LATEROLOG DEEP
 LLS .OHMM   11 220 09 00:   LATEROLOG LOG SHALLOW
 TEND.LBS    45 635 01 00:   TENSION FORM DENSITY LOG
 GRD .GAPI   45 310 01 00:   GAMMA RAY FROM DENSITY LOG
 NPHI.DEC    42 890 03 00:   NEUTRON POROSITY SANDSTONE
 CALD.IN     45 280 60 00:   CALIPER FROM DENSITY LOG
 CORR.G/C3   45 356 01 00:   DENSITY CORRECTION
 RHOB.G/C3   45 350 01 00:   BULK DENSITY
~PARAMETER INFORMATION
#MNEM.UNIT          VALUE    DESCRIPTION
#----------   ------------   ------------------------------
 EKB .F         5206.0000:   Kelly bushing
 EGL .F         5196.0000:   Ground level
 EDF .F            0.0000:   Drilling floor
 TD  .F         5498.0000:   Total depth
 CLNT.            A2DTECH:   Client Code
 SL  . 2080' FNL & 2150' FEL:   Surface Location
 PD  .                 GL:   Permanent Datum
 EPD .F              5196:   Elevation Permanent Datum
 LMF .                 KB:   Log Measured From
 DMF .                 KB:   Drilling Measured From
 DAPD.F                10:   Feet Above Permanent Datum
 DATE.         3-APR-1981:   Date Logged [DD-MMM-YYYY]
 DD  .F              5485:   Depth driller
 DL  .F              5498:   Depth logger
 BLI .F              5496:   Bottom log interval
 TLI .F               397:   Top log interval
 CS1 .IN                7:   Casing size
 CBD1.         7" @ 3891':   Casing driller 1
 CBL1.F              3889:   Casing logger 1
 BS1 .IN            6.125:   Bit size
 BSD1.F              5485:   Depth drilled with bit1
 DFT .           CHEM GEL:   Type fluid in hole
 DFD .                9.1:   Density
 DFV .                 42:   Viscosity
 DFPH.                9.0:   pH
 DFL .                5.0:   Fluid loss
 MSS .           MUD TANK:   Source of sample
 RMS .OHMM           0.81:   Rm
 MST .F                62:   Rm Meas. temp.
 RMF .OHMM           0.64:   Rmf
 MFST.F                62:   Rmf Meas. temp.
 MFSS.               MEAS:   Source Rmf.
 RMB .OHMM          0.031:   Rm. at BHT
 BHT .F               174:   BHT.
 TCS .HRS            0830:   Time Circ. stopped
 TLAB.HRS            2130:   Time logger at bottom
 MRT .F               174:   Maximum recorded temp.
 LUN .               8035:   Logging unit number
 LUL .               CSPR:   Logging unit location
 ENGI.             BEATIE:   Recorded By
 WITN.              FIVAS:   Witnessed by
 ORIG.           5" PRINT:   Origin of data
 UWI .     49025108690000:   Unique Well ID
 DICO. A2D TECHNOLOGIES, INC:   Digitizing Company
~OTHER INFORMATION
~A   DEPT      SPR       TENR        LLD        LLS       TEND         GRD        NPHI     CALD       CORR       RHOB   
# ...
 4919.5000   -29.6065  1706.1641    37.3002    34.5572  1736.1616   114.6197     0.1552     7.5133     0.0081     2.6848
 4920.0000   -29.7264  1706.3282    36.2722    33.8499  1736.3779   115.5289     0.1607     7.4985     0.0044     2.6856
 4920.5000   -29.8126  1706.4924    33.8177    32.2416  1736.5909   116.1360     0.1688     7.4987     0.0006     2.6871
 4921.0000   -30.0122  1706.6567    32.4272    31.3606  1736.8181   116.7432     0.1722     7.5137    -0.0021     2.6887
 4921.5000   -30.0030  1706.8209    32.4316    30.7158  1737.0812   116.4446     0.1737     7.5178     0.0043     2.6953
 4922.0000   -29.9939  1706.9851    32.8955    30.7311  1737.2975   115.5405     0.1728     7.5290     0.0185     2.7148
 4922.5000   -29.9843  1707.1493    33.3651    31.1814  1737.5000   114.3356     0.1712     7.5291     0.0328     2.7351
 4923.0000   -29.9757  1707.3135    33.8414    32.3091  1737.7302   113.1300     0.1699     7.5293     0.0358     2.7280
 4923.5000   -29.9648  1707.4777    34.5682    33.0104  1737.9546   111.9244     0.1681     7.5294     0.0297     2.6960
 4924.0000   -29.7345  1707.6418    35.0608    33.4908  1738.2172   110.4174     0.1662     7.5296     0.0079     2.6862
 4924.5000   -29.5506  1707.8060    35.3125    33.7407  1738.4335   110.1175     0.1636     7.5297    -0.0004     2.6794
 4925.0000   -29.1790  1707.9702    35.3172    33.5175  1738.6364   110.7253     0.1627     7.5299    -0.0034     2.6779
 4925.5000   -29.0145  1708.1344    33.3929    32.3767  1738.8636   113.1451     0.1706     7.5300     0.0003     2.6832
 4926.0000   -28.7036  1708.2986    30.6308    30.8353  1739.0909   118.0657     0.1821     7.5301     0.0063     2.6944
 4926.5000   -28.6960  1708.4629    27.8301    28.7350  1739.3181   123.1214     0.1914     7.5303     0.0101     2.6989
 4927.0000   -28.6869  1708.6271    27.4449    26.6295  1739.5693   124.9369     0.2002     7.5304     0.0123     2.6989
 4927.5000   -28.8296  1708.7913    28.2311    26.0820  1739.7858   124.0335     0.2024     7.5306     0.0138     2.6944
 4928.0000   -28.9830  1708.9554    30.2882    27.9942  1755.1536   122.2237     0.2030     7.5307     0.0100     2.6898
 4928.5000   -29.2661  1709.1196    33.1880    31.3371  1755.4241   113.0374     0.1885     7.5458     0.0025     2.6853
 4929.0000   -29.4094  1709.2838    34.8642    34.8370  1755.6405   107.7286     0.1695     7.5460    -0.0006     2.6838
 4929.5000   -29.6589  1709.4480    36.5907    36.8657  1755.8568   106.2209     0.1608     7.5461     0.0047     2.6853
 4930.0000   -29.6960  1709.6122    38.4750    38.7720  1756.0731   106.5259     0.1560     7.5463     0.0174     2.6935
 4930.5000   -29.8394  1709.7764    39.7983    40.9954  1771.4412   106.8309     0.1563     7.5464     0.0211     2.7063
 4931.0000   -29.8298  1709.9406    41.2854    42.4352  1771.7117   105.6044     0.1575     7.5466     0.0196     2.6973
 4931.5000   -29.9719  1710.1047    42.6242    44.0185  1771.9280   104.4205     0.1581     7.5467     0.0136     2.6836
 4932.0000   -29.8116  1710.2690    43.4898    44.6592  1772.1444   104.1205     0.1579     7.5469     0.0023     2.6792
 4932.5000   -29.8024  1710.4332    43.6877    44.3642  1772.3485   104.7283     0.1570     7.5470    -0.0022     2.6852
 4933.0000   -29.7933  1710.5974    42.4851    43.1323  1757.4241   106.5439     0.1558     7.5472     0.0278     2.7460
 4933.5000   -29.7832  1710.7616    40.7382    40.5282  1742.4902   106.8688     0.1555     7.5473     0.0443     2.7627
 4934.0000   -29.6225  1710.9258    38.7899    38.0601  1742.7609   110.4779     0.1576     7.5475     0.0451     2.7640
 4934.5000   -29.5780  1711.1068    36.6763    35.2437  1742.9772   115.0125     0.1610     7.5476     0.0292     2.7385
 4935.0000   -29.4529  1711.3492    34.9222    32.8657  1743.1819   116.8280     0.1649     7.5328     0.0097     2.7069
 4935.5000   -29.2905  1711.5917    33.7569    32.4201  1743.4099   118.0394     0.1680     7.5330     0.0014     2.6879
 4936.0000   -29.4338  1711.8341    32.9079    32.6649  1743.6804   119.2706     0.1689     7.5331    -0.0020     2.6821
 4936.5000   -29.4244  1712.0765    32.3399    32.4459  1743.8635   120.7649     0.1701     7.5333    -0.0039     2.6881
 4937.0000   -29.4688  1712.3190    32.3331    31.3416  1744.1132   121.6741     0.1726     7.5334    -0.0039     2.6926
 4937.5000   -29.5783  1712.5614    32.3507    29.6434  1729.1238   121.9791     0.1774     7.5336    -0.0024     2.6948
 4938.0000   -29.7021  1712.8038    32.1276    28.6316  1729.3943   122.2841     0.1907     7.5337     0.0043     2.7031
 4938.5000   -29.8443  1713.0463    31.2432    27.8465  1729.6213   122.8912     0.1989     7.5339     0.0133     2.7076
 4939.0000   -29.9878  1713.2887    29.5408    27.0883  1729.8485   121.9884     0.2041     7.5340     0.0133     2.6978
 4939.5000   -30.1873  1713.5311    28.3262    26.7210  1730.0975   118.3659     0.2047     7.5342     0.0080     2.6948
 4940.0000   -30.2743  1713.7736    27.9350    27.1126  1730.3140   112.6286     0.1932     7.5343     0.0050     2.6977
 4940.5000   -30.4154  1714.0160    28.3347    28.2912  1730.5482   111.1209     0.1796     7.5345     0.0023     2.7007
 4941.0000   -30.4068  1714.2584    30.3993    30.1498  1745.9520   109.2913     0.1628     7.5346    -0.0003     2.7045
 4941.5000   -30.3982  1714.5009    33.0755    32.1456  1746.1686   108.4077     0.1531     7.5348    -0.0004     2.7105
 4942.0000   -30.2354  1714.7433    35.2743    34.9741  1746.3850   109.0155     0.1498     7.5349     0.0019     2.7135
 4942.5000   -30.2267  1714.9857    37.5418    37.0108  1746.5908   109.3205     0.1507     7.5351     0.0044     2.7119
 4943.0000   -30.2181  1715.2281    38.8881    38.6196  1746.8181   109.0211     0.1520     7.5352     0.0048     2.7029
 4943.5000   -30.2097  1715.4706    39.7210    39.1817  1747.0454   109.0640     0.1565     7.5354     0.0040     2.6984
 4944.0000   -30.2006  1715.7130    40.5790    39.4776  1732.1349   111.7467     0.1599     7.5355     0.0033     2.7001
 4944.5000   -30.1914  1715.9554    41.1510    39.2129  1732.3484   114.7708     0.1632     7.5439     0.0066     2.7164
 4945.0000   -30.1813  1716.1979    40.5840    38.4142  1732.5758   116.8885     0.1690     7.5508     0.0190     2.7344
 4945.5000   -30.1719  1716.4403    40.0235    37.6281  1732.8030   119.3083     0.1730     7.5509     0.0242     2.7494
 4946.0000   -30.1641  1716.6827    39.4706    36.5999  1748.2239   122.0899     0.1748     7.5511     0.0242     2.7439
 4946.5000   -30.1550  1716.9252    39.1998    36.3582  1748.4403   125.0549     0.1772     7.5661     0.0107     2.7321
 4947.0000   -30.0489  1717.1676    39.4826    36.8910  1748.6364   125.3599     0.1811     7.5663     0.0076     2.7291
 4947.5000   -29.9848  1717.4100    39.7660    37.1659  1764.0247   124.7585     0.1842     7.5664     0.0069     2.7230
 4948.0000   -30.1272  1717.6525    40.3336    37.7133  1749.0895   120.2297     0.1845     7.5666     0.0038     2.7133
 4948.5000   -30.1185  1717.8949    40.7672    38.2594  1749.3599   117.8157     0.1827     7.5667    -0.0014     2.7073
 4949.0000   -30.2597  1718.1372    41.2044    38.6651  1749.5762   118.1214     0.1797     7.5589    -0.0022     2.7081
 4949.5000   -30.2867  1718.3796    41.4994    39.1055  1749.7727   118.1243     0.1785     7.5521     0.0113     2.7208
 4950.0000   -30.4249  1718.6221    41.0363    39.1181  1750.0089   116.0747     0.1782     7.5522     0.0203     2.7419
 4950.5000   -30.6049  1718.8645    39.8535    39.1315  1750.2272   113.9548     0.1795     7.5524     0.0248     2.7524
 4951.0000   -30.7849  1719.1069    38.4386    37.7940  1750.4958   110.8440     0.1834     7.5675     0.0113     2.7449
 4951.5000   -30.9622  1719.3494    35.3401    34.5043  1750.6818   109.3560     0.1871     7.5527     0.0014     2.7374
 4952.0000   -30.6444  1719.5918    32.9508    31.7230  1750.9091   111.7700     0.1907     7.5529     0.0044     2.7426
 4952.5000   -30.6292  1719.8342    32.2704    30.6360  1735.9849   114.1841     0.1950     7.5530     0.0127     2.7525
