~VERSION INFORMATION
 VERS.                2.0:   CWLS LOG ASCII STANDARD - VERSION 2.0
 WRAP.                 NO:   ONE LINE PER DEPTH STEP
~WELL INFORMATION
#MNEM.UNIT      DATA TYPE    INFORMATION
#----------   ------------   ------------------------------
 STRT.F           40.0000:   START DEPTH
 STOP.F         3326.0000:   STOP DEPTH
 STEP.F            0.5000:   STEP LENGTH
 NULL.          -999.2500:   NO VALUE
 COMP.    FENIX & SCISSON:   COMPANY
 WELL.  FENIX "AX" #53-15:   WELL
 FLD .              NPR-3:   FIELD
 LOC .      S15 T38N R78W:   LOCATION
 CNTY.            NATRONA:   COUNTY
 STAT.            WYOMING:   STATE
 CTRY. UNITED STATES OF AMERICA:   COUNTRY
 SRVC.              WELEX:   SERVICE COMPANY
 DATE.        02-MAR-1977:   LOGDATE
 API .     49025102640000:   API NUMBER
~CURVE INFORMATION
#MNEM.UNIT       API CODE    CURVE DESCRIPTION
#----------   ------------   ------------------------------
 DEPT.F                  :   
 CALD.IN     42 280 60 00:   CALIPER
 TEND.LBS    42 635 01 00:   TENSION FROM NEUTRON POROSITY LOG
 GRD .GAPI   42 310 30 00:   GAMMA RAY
 NPHI.DEC    42 890 03 00:   NEUTRON POROSITY SANDSTONE
 DPHI.DEC    45 890 12 00:   DENSITY POROSITY SANDSTONE
 SPR .MV     07 010 01 00:   SPONTANEOUS POTENTIAL
 ILD .OHMM   07 120 46 00:   DEEP INDUCTION RESISTIVITY
 ILM .OHMM   07 120 44 00:   INDUCTION LOG MEDIUM RESISTIVITY
 SGRD.OHMM   07 220 05 00:   SHALLOW SHORT GUARD RESISTIVITY
~PARAMETER INFORMATION
#MNEM.UNIT          VALUE    DESCRIPTION
#----------   ------------   ------------------------------
 EKB .F            0.0000:   Kelly bushing
 EGL .F         5251.0000:   Ground level
 EDF .F            0.0000:   Drilling floor
 TD  .F          750.0000:   Total depth
 DATE.        02-MAR-1977:   Date logged
 CLNT.            A2DTECH:   Client Code
 SL  . 1650' FNL & 2360' FEL:   Surface Location
 PD  .                 GL:   Permanent Datum
 EPD .F              5253:   Elevation Permanent Datum
 LMF .                 GL:   Log Measured From
 DMF .                 GL:   Drilling Measured From
 DD  .F               750:   Depth driller
 DL  .F               747:   Depth logger
 BLI .F               745:   Bottom log interval
 CS1 .IN            8.625:   Casing size
 CBD1.       8.625" @ 40':   Casing driller 1
 CBL1.F                44:   Casing logger 1
 BS1 .IN            7.875:   Bit size
 BSD1.F               750:   Depth drilled with bit1
 DFT .           CHEM-GEL:   Type fluid in hole
 MSS .           FLOWLINE:   Source of sample
 RMS .OHMM          0.425:   Rm
 MST .F                56:   Rm Meas. temp.
 RMF .OHMM          0.466:   Rmf
 MFST.F                56:   Rmf Meas. temp.
 RMC .OHMM          0.712:   Rmc
 MCST.F                56:   Rmc Meas. temp.
 MFSS.               MEAS:   Source Rmf.
 MCSS.               MEAS:   Source Rmc.
 RMB .OHMM          0.350:   Rm. at BHT
 BHT .F                68:   BHT.
 TCS .HRS               2:   Time Circ. stopped
 MRT .F                68:   Maximum recorded temp.
 LUN .               8611:   Logging unit number
 LUL .            GILLETH:   Logging unit location
 ENGI.          D. LAWSON:   Recorded By
 WITN.           S. BURKL:   Witnessed by
 ORIG.           5" PRINT:   Origin of data
 UWI .     49025102640000:   Unique Well ID
 DICO. A2D TECHNOLOGIES, INC.:   Digitizing Company
~OTHER INFORMATION
~A   DEPT     CALD       TEND         GRD        NPHI     DPHI        SPR        ILD        ILM       SGRD   
   40.0000  -999.2500  -999.2500    53.2800     0.4880  -999.2500  -999.2500  -999.2500  -999.2500  -999.2500
   40.5000  -999.2500  -999.2500    53.2800     0.4880  -999.2500  -999.2500  -999.2500  -999.2500  -999.2500
   41.0000  -999.2500  -999.2500    53.2800     0.4880  -999.2500  -999.2500  -999.2500  -999.2500  -999.2500
   41.5000  -999.2500  -999.2500    53.2800     0.4880  -999.2500  -999.2500  -999.2500  -999.2500  -999.2500
   42.0000  -999.2500  -999.2500    53.2810     0.4880  -999.2500  -999.2500  -999.2500  -999.2500  -999.2500
   42.5000  -999.2500  -999.2500    53.2830     0.4880  -999.2500  -999.2500  -999.2500  -999.2500  -999.2500
   43.0000  -999.2500  -999.2500    53.2770     0.4880  -999.2500  -999.2500  -999.2500  -999.2500  -999.2500
   43.5000  -999.2500  -999.2500    53.2410     0.4880  -999.2500  -999.2500  -999.2500  -999.2500  -999.2500
   44.0000  -999.2500  -999.2500    54.3590     0.5200  -999.2500   -19.4200  -999.2500  -999.2500     0.8930
   44.5000  -999.2500  -999.2500    55.6690     0.5140  -999.2500   -21.0870     0.9930     7.8430     1.9660
   45.0000  -999.2500  -999.2500    54.1810     0.5120  -999.2500   -22.7540     1.0280     4.0070     2.9540
   45.5000  -999.2500  -999.2500    53.7430     0.5240  -999.2500   -24.4220     0.7870     2.0280     3.0920
   46.0000  -999.2500  -999.2500    53.9200     0.5130  -999.2500   -25.6690     0.6180     2.3630     3.0810
   46.5000  -999.2500  -999.2500    53.9290     0.4980  -999.2500   -27.3340     0.3960     2.5320     3.0920
   47.0000  -999.2500  -999.2500    54.5790     0.4980  -999.2500   -29.0150     0.2970     2.7450     2.9070
   47.5000  -999.2500  -999.2500    53.8510     0.4980  -999.2500   -29.6290     0.2640     2.6300     2.7300
   48.0000  -999.2500  -999.2500    54.0810     0.4940  -999.2500   -29.6510     0.3520     2.5040     2.5530
   48.5000  -999.2500  -999.2500    57.4020     0.5000  -999.2500   -29.0570     0.4970     2.9390     2.2850
   49.0000  -999.2500  -999.2500    55.7720     0.5000  -999.2500   -28.3930     0.6850     3.3460     2.3190
   49.5000  -999.2500  -999.2500    54.6770     0.4790  -999.2500   -27.5070     1.3210     3.7520     3.2080
   50.0000  -999.2500  -999.2500    55.5240     0.4560  -999.2500   -26.3860     2.0150     4.1590     6.3830
   50.5000    14.3220  -999.2500    59.1540     0.4390  -999.2500   -25.2670     2.5900     4.5650     7.4440
   51.0000    13.1830    64.9350    62.7270     0.4320  -999.2500   -24.1480     2.8820     4.9370     7.8100
   51.5000    12.0440    64.9350    62.9280     0.4140  -999.2500   -23.0280     3.2610     5.3190     7.4120
   52.0000    11.5490    64.9350    63.8430     0.3950  -999.2500   -21.9070     3.8670     5.6980     7.1020
   52.5000    11.5120    64.8850    69.9550     0.3810     0.2800   -20.7870     4.4720     5.5710     7.0610
   53.0000    11.5370    64.9350    76.0770     0.3730     0.2350   -19.6730     5.0780     5.4110     7.0610
   53.5000    11.8440    64.9350    80.6200     0.3650     0.1670   -18.1930     5.1690     5.5430     7.0610
   54.0000    12.2090    64.9350    81.5220     0.3580     0.1740   -16.5230     4.9880     5.6380     7.0610
   54.5000    12.4110    64.9350    82.4640     0.3530     0.1710   -14.8530     4.5760     5.7340     7.0610
   55.0000    12.3250    64.9350    85.1010     0.3520     0.1680   -13.1810     4.5040     5.7700     7.0610
   55.5000    12.2430    64.9350    86.0060     0.3530     0.1650   -11.5110     4.5040     5.7070     7.0610
   56.0000    12.1610    65.2030    86.1870     0.3570     0.1680    -9.8410     4.3400     5.4140     7.0610
   56.5000    12.1080    66.3140    82.4430     0.3640     0.1780    -8.1650     4.0710     5.1210     7.0610
   57.0000    12.0580    67.4250    83.3470     0.3720     0.1970    -6.4650     3.8020     4.8270     6.7890
   57.5000    12.0100    68.5360    83.5420     0.3790     0.2240    -6.1560     3.5320     4.5340     6.2610
   58.0000    11.9610    69.6470    87.9830     0.3870     0.2500    -6.2060     3.2630     4.2400     5.7330
   58.5000    11.9120    70.7580    89.2980     0.3780     0.2640    -6.2680     2.9940     3.9470     5.2040
   59.0000    11.8690    71.8690    86.4880     0.3650     0.2310    -6.3310     2.8190     3.6530     4.6230
   59.5000    11.8750    72.9800    81.0870     0.3600     0.1680    -6.3960     2.8030     3.5810     3.7540
   60.0000    11.8840    74.0910    83.2770     0.3540     0.1580    -6.4610     2.7950     3.8110     2.9540
   60.5000    11.8930    75.2020    85.6560     0.3480     0.1640    -6.5260     2.8270     4.0530     4.6030
   61.0000    11.9020    76.3130    85.2900     0.3510     0.1730    -6.5900     2.9500     4.2960     6.8380
   61.5000    11.9040    77.4240    83.6640     0.3470     0.1800    -6.6550     3.1450     4.5380     7.5290
   62.0000    11.8160    78.5350    82.5990     0.3400     0.1730    -6.7180     3.3400     4.8030     7.2090
   62.5000    11.6990    79.6460    83.6530     0.3200     0.1630    -6.7800     3.5360     4.9980     6.8590
   63.0000    11.5830    80.7570    83.6870     0.3080     0.1660    -6.8430     3.7310     5.2130     6.6820
   63.5000    11.4660    81.8680    83.6750     0.2930     0.1730    -6.5040     3.9260     5.4290     6.7900
   64.0000    11.3480    82.9790    83.3770     0.3050     0.1690    -5.6170     4.1210     5.6440     6.9450
   64.5000    11.2530    84.0900    81.1160     0.3220     0.1680    -4.7370     4.3160     5.8590     7.1010
   65.0000    11.2260    84.4570    78.5050     0.3380     0.1680    -3.8570     4.3610     6.0970     7.2560
   65.5000    11.2160    82.6730    80.1260     0.3450     0.1660    -2.9750     4.3830     6.0970     7.4120
   66.0000    11.2030    80.8890    81.9460     0.3480     0.1580    -2.0930     4.4050     6.0970     7.5290
   66.5000    11.1910    79.1040    80.8030     0.3510     0.1540    -1.4670     4.4220     6.0970     7.5290
   67.0000    11.1900    77.3200    81.2750     0.3570     0.1620    -0.9110     4.4220     6.0080     7.5290
   67.5000    11.2160    75.5360    83.8830     0.3630     0.1790    -0.3530     4.3130     5.8020     7.4050
   68.0000    11.3040    73.7520    81.3660     0.3680     0.2010    -0.1020     4.1810     5.5960     7.2580
   68.5000    11.8030    71.9680    85.7440     0.3780     0.2170    -0.0970     4.0490     5.3910     6.5690
   69.0000    11.8050    70.1840    85.7750     0.3910     0.2060    -0.0880     3.9170     5.1850     6.0410
   69.5000    11.9920    68.4000    87.7360     0.3700     0.1920     0.0350     3.7850     4.9790     5.6140
   70.0000    12.2430    66.6160    86.7110     0.3490     0.1920     1.2040     3.6530     4.7740     6.0970
   70.5000    12.4980    64.8320    89.6220     0.3450     0.2010     1.7290     3.5210     4.5680     6.0970
   71.0000    12.6230    63.0480    88.3920     0.3480     0.1860     2.2080     3.3900     4.3620     5.3970
   71.5000    12.0570    61.2630    82.9590     0.3510     0.1620     2.6830     3.2580     4.1470     4.1650
   72.0000    11.6020    59.4790    78.2840     0.3420     0.1650     3.1600     3.1260     4.0870     3.6140
   72.5000    11.6500    57.6950    78.6420     0.3320     0.1610     3.6360     3.0270     4.0230     4.4900
   73.0000    11.6410    55.9110    79.0720     0.3220     0.1730     4.0780     2.9400     3.9580     5.1380
   73.5000    11.6080    60.0950    82.1790     0.3400     0.1840     4.0720     2.8520     3.8890     5.3620
   74.0000    11.6300    71.3290    77.4370     0.3600     0.1870     4.5120     2.7650     3.7880     4.9090
   74.5000    12.0000    73.8840    80.4440     0.3800     0.2160     4.8040     2.6780     3.6600     4.0400
   75.0000    12.3670    72.3520    81.0040     0.4000     0.2130     4.8960     2.5910     3.5330     3.7840
   75.5000    12.7340    70.8200    80.3980     0.4250     0.2070     4.5430     2.5030     3.4050     3.7840
   76.0000    12.9310    69.2880    78.0170     0.4220     0.2020     3.2740     2.4360     3.2780     3.7490
