~VERSION INFORMATION
 VERS.                2.0:   CWLS LOG ASCII STANDARD - VERSION 2.0
 WRAP.                 NO:   ONE LINE PER DEPTH STEP
~WELL INFORMATION
#MNEM.UNIT      DATA TYPE    INFORMATION
#----------   ------------   ------------------------------
 STRT.F          637.0000:   START DEPTH
 STOP.F         3158.0000:   STOP DEPTH
 STEP.F            0.5000:   STEP LENGTH
 NULL.          -999.2500:   NO VALUE
 COMP.    FENIX & SCISSON:   COMPANY
 WELL.  FENIX "AX" #34-33:   WELL
 FLD .             NPR #3:   FIELD
 LOC .      S33 T39N R78W:   LOCATION
 CNTY.            NATRONA:   COUNTY
 STAT.            WYOMING:   STATE
 CTRY. UNITED STATES OF AMERICA:   COUNTRY
 SRVC.       SCHLUMBERGER:   SERVICE COMPANY
 DATE.        15-APR-1977:   LOGDATE
 API .     49025103450000:   API NUMBER
~CURVE INFORMATION
#MNEM.UNIT       API CODE    CURVE DESCRIPTION
#----------   ------------   ------------------------------
 DEPT.F                  :   
 CALD.IN     45 280 60 00:   CALIPER FROM DENSITY LOG
 GRD .GAPI   45 310 01 00:   GAMMA RAY FROM DENSITY LOG
 RHOB.G/C3   45 350 01 00:   BULK DENSITY
 CORR.G/C3   45 356 01 00:   DENSITY CORRECTION
 SPR .MV     07 010 01 00:   SPONTANEOUS POTENTIAL
 SFLU.OHMM   07 220 01 00:   SPHERICALLY FOCUSED LOG UNAVERAGED RESISTIVITY
 ILD .OHMM   07 120 46 00:   INDUCTION LOG DEEP RESISTIVITY
 ILM .OHMM   07 120 44 00:   INDUCTION LOG MEDIUM RESISTIVITY
~PARAMETER INFORMATION
#MNEM.UNIT          VALUE    DESCRIPTION
#----------   ------------   ------------------------------
 EKB .F         5196.0000:   Kelly bushing
 EGL .F         5185.0000:   Ground level
 EDF .F            0.0000:   Drilling floor
 TD  .F         3159.0000:   Total depth
 DATE.        15-APR-1977:   Date logged
 CLNT.            A2DTECH:   Client Code
 SL  . 2132' FNL & 1750' FWL:   Surface Location
 PD  .                 GL:   Permanent Datum
 EPD .F              5185:   Elevation Permanent Datum
 LMF .                 KB:   Log Measured From
 DMF .                 KB:   Drilling Measured From
 DAPD.F                11:   Feet Above Permanent Datum
 DD  .F              3156:   Depth driller
 DL  .F              3159:   Depth logger
 BLI .F              3153:   Bottom log interval
 TLI .F               637:   Top log interval
 CS1 .IN            8.625:   Casing size
 CBD1.      8.625" @ 637':   Casing driller 1
 CBL1.F               637:   Casing logger 1
 BS1 .IN            7.875:   Bit size
 BSD1.F              3156:   Depth drilled with bit1
 DFT .                FGM:   Type fluid in hole
 DFD .                7.5:   Density
 DFV .                 35:   Viscosity
 DFPH.                8.5:   pH
 DFL .                  9:   Fluid loss
 MSS .                PIT:   Source of sample
 RMS .OHMM            .48:   Rm
 MST .F                60:   Rm Meas. temp.
 RMF .OHMM            .28:   Rmf
 MFST.F                60:   Rmf Meas. temp.
 MFSS.               MEAS:   Source Rmf.
 RMB .OHMM            .24:   Rm. at BHT
 BHT .F               120:   BHT.
 TCS .HRS            0200:   Time Circ. stopped
 MRT .F               120:   Maximum recorded temp.
 LUN .               7680:   Logging unit number
 LUL .               CSPR:   Logging unit location
 ENGI.             TAYLOR:   Recorded By
 WITN.         PETTINGILL:   Witnessed by
 ORIG.           5" PRINT:   Origin of data
 UWI .     49025103450000:   Unique Well ID
 DICO. A2D TECHNOLOGIES, INC.:   Digitizing Company
 TLAB.               0530:   Time logger at bottom
~OTHER INFORMATION
~A   DEPT       CALD      GRD       RHOB       CORR        SPR         SFLU        ILD        ILM 
# ...
 2135.5000     7.8007   142.1071     2.4913     0.0433   -49.0032    13.2185    10.6489     9.7857
 2136.0000     7.8014   145.0875     2.4703     0.0353   -48.8040    12.6832    10.6489    10.1701
 2136.5000     7.8021   135.1444     2.4593     0.0353   -48.8040    13.2803    10.5513    10.0769
 2137.0000     7.8028   129.3772     2.4513     0.0233   -48.8040    15.9053    10.4547    10.0769
 2137.5000     7.8035   127.1884     2.4653     0.0233   -48.8040    16.3530    10.4547    10.0769
 2138.0000     7.8042   121.4209     2.4693     0.0203   -48.8040    16.0532    10.3589    10.0769
 2138.5000     7.8049   120.8225     2.4743     0.0253   -48.8040    15.1863    10.3589    10.0769
 2139.0000     7.8056   122.6098     2.4873     0.0234   -48.8040    13.9730    10.2641     9.8932
 2139.5000     7.8063   124.5958     2.5133     0.0234   -48.8040    12.9762    10.1701     9.8932
 2140.0000     7.8070   128.3690     2.5403     0.0234   -49.0032    11.7206    10.0769     9.1911
 2140.5000     7.8077   127.5734     2.5223     0.0324   -49.0032    11.3573     9.9846     8.9409
 2141.0000     7.8084   123.1983     2.5093     0.0334   -49.0032    12.2249     9.9846     9.0025
 2141.5000     7.8091   121.2083     2.5083     0.0314   -49.0032    14.6346     9.8932     9.0645
 2142.0000     7.8098   119.6156     2.5073     0.0464   -49.2024    14.4998     9.8932     9.1270
 2142.5000     7.8105   119.4148     2.5073     0.0365   -49.2024    13.4654     9.8932     9.1911
 2143.0000     7.8112   116.8284     2.4933     0.0264   -49.2024    12.8567     9.8932     9.1911
 2143.5000     7.8119   115.2361     2.4853     0.0034   -49.2024    13.0968     9.8932     9.1911
 2144.0000     7.7719   112.8481     2.4783     0.0014   -49.0032    13.7169     9.8932     9.1911
 2144.5000     7.7518   112.0510     2.4703     0.0098   -49.0032    13.7169     9.8932     9.1911
 2145.0000     7.7516   112.8442     2.4903     0.0154   -48.8040    13.3414     9.9005     9.1069
 2145.5000     7.7513   113.6374     2.5093     0.0224   -48.8040    12.9762     9.9079     9.0235
 2146.0000     7.7712   114.8278     2.5273     0.0314   -48.8040    12.9762     9.9153     9.1069
 2146.5000     7.7715   111.2479     2.5233     0.0234   -48.8040    13.0381     9.9227     9.1069
 2147.0000     7.7718   114.4267     2.5013     0.0234   -48.6048    13.4031     9.9301     9.1069
 2147.5000     7.7721   117.8048     2.4923     0.0264   -48.0072    14.2340     9.9375     9.1069
 2148.0000     7.7724   121.5800     2.4772     0.0304   -47.6088    14.3663     9.9449     9.1911
 2148.5000     7.7727   123.5660     2.4642     0.0144   -47.6088    14.3663     9.9523     9.2761
 2149.0000     7.7730   123.1664     2.4592     0.0214   -47.8080    14.3663     9.9597     9.1911
 2149.5000     7.7733   123.9597     2.4992     0.0254   -47.8080    13.8444     9.9672     9.1911
 2150.0000     7.7736   123.7589     2.4992     0.0304   -47.2104    12.6210     9.9746     9.1911
 2150.5000     7.7739   123.1605     2.4992     0.0404   -47.6088    12.6210     9.9846     9.1911
 2151.0000     7.7742   120.9714     2.5032     0.0374   -47.6088    12.7383     9.9846     9.1911
 2151.5000     7.7745   120.7706     2.5032     0.0304   -47.8080    13.4654     9.8932     9.1911
 2152.0000     7.7748   119.3771     2.4972     0.0274   -48.6048    13.7169     9.8026     9.1911
 2152.5000     7.7751   119.1763     2.4842     0.0284   -48.8040    13.5905     9.6238     9.1069
 2153.0000     7.7754   119.3731     2.4782     0.0154   -48.8040    13.8444     9.6238     9.0235
 2153.5000     7.7757   119.9676     2.4902     0.0124   -48.6048    13.8444     9.8932     8.9409
 2154.0000     7.7760   118.9716     2.4942     0.0384   -48.6048    12.8567     9.8026     8.5389
 2154.5000     7.7763   116.1864     2.5012     0.0184   -48.8040    11.9395     9.8932     8.3832
 2155.0000     7.7766   111.4129     2.5122     0.0274   -48.8040    11.6126    10.3589     8.3064
 2155.5000     7.7769   108.6277     2.5232     0.0534   -48.8040    12.1624    10.6489     8.5389
 2156.0000     7.7772   102.0650     2.5172     0.0204   -47.8080    13.7169    11.1502     9.0235
 2156.5000     7.7775   100.0751     2.5202     0.0414   -47.6088    14.1029    11.5683     9.3618
 2157.0000     7.7778    97.0907     2.5302     0.0624   -47.4096    13.4654    11.8920     9.8026
 2157.5000     7.7781    96.8880     2.5342     0.0544   -47.2104    13.4654    12.6832    10.1701
 2158.0000     7.7784   100.0692     2.5242     0.0204   -47.2104    14.6346    13.4031    10.7473
 2158.5000     7.7787   115.9715     2.4872     0.0374   -47.2104    15.6137    14.1638    11.1502
 2159.0000     7.7790   128.6931     2.4732     0.0514   -47.0112    17.4471    14.2947    11.5683
 2159.5000     7.7793   136.8415     2.4682     0.0294   -46.8120    16.6584    14.4269    11.8920
 2160.0000     7.7796   142.4047     2.4702     0.0334   -46.4135    15.7589    14.2947    12.1129
 2160.5000     7.7799   142.4043     2.4752     0.0344   -46.4135    14.1029    13.7782    12.5670
 2161.0000     7.7802   134.4508     2.4892     0.0344   -46.6127    15.1863    13.0381    12.8004
 2161.5000     7.7805   128.6833     2.5012     0.0224   -46.6127    16.3530    12.4519    12.8004
 2162.0000     7.7808   123.7113     2.4942     0.0194   -46.4135    16.2024    11.7831    12.6832
 2162.5000     7.7811   121.7210     2.4962     0.0194   -46.4135    14.7706    11.4623    12.3379
 2163.0000     7.7814   120.1286     2.5002     0.0344   -46.4135    13.4654    10.4547    11.5683
 2163.5000     7.7817   120.5242     2.4792     0.0274   -46.6127    12.9762     9.8932    10.8467
 2164.0000     7.7820   123.1071     2.4722     0.0094   -47.2104    12.7383     9.6238    10.0618
 2164.5000     7.7823   131.2558     2.4631     0.0274   -47.4096    12.0504     9.2761     9.3338
 2165.0000     7.7826   133.6395     2.4772     0.0294   -47.0112    10.5865     9.1911     8.6585
 2165.5000     7.7829   132.0471     2.4802     0.0465   -46.8120    10.3924     9.2761     7.8602
 2166.0000     7.7632   126.6772     2.4832     0.0635   -46.8120    11.0877     9.2644     8.0062
 2166.5000     7.7630   123.2956     2.4661     0.0515   -47.0112    11.7206     9.3618     8.4606
 2167.0000     7.7628   120.7093     2.4571     0.0264   -47.0112    13.5905     9.3618     8.8590
 2167.5000     7.7626   121.6993     2.4902     0.0214   -47.2104    13.5905     9.2761     9.1069
 2168.0000     7.7624   119.7110     2.4921     0.0174   -47.2104    13.0968     9.2761     9.1069
 2168.5000     7.7622   117.3234     2.4982     0.0164   -47.0112    12.5047     9.1911     9.0235
 2169.0000     7.7620   115.1323     2.4921     0.0204   -47.0112    11.7206     9.0235     8.9409
 2169.5000     7.7817   116.7227     2.4821     0.0114   -47.2104    11.5057     8.9409     8.7778
 2170.0000     7.7815   120.6784     2.4791     0.0054   -47.6088    11.5057     8.8590     8.5389
 2170.5000     7.7813   123.6775     2.4731     0.0204   -47.6088    11.1907     8.6178     8.3064
 2171.0000     7.7613   120.8920     2.4741     0.0285   -47.4096    10.3924     8.5389     8.1549
 2171.5000     7.7808   118.7032     2.5152     0.0415   -47.4096    10.2967     8.5389     8.0802
 2172.0000     7.7806   113.7309     2.4971     0.0615   -47.4096    10.3924     8.6974     8.0802
 2172.5000     7.7606   111.9397     2.4941     0.0305   -47.6088    11.1907     8.6974     8.2303
 2173.0000     7.7604   110.9438     2.5222     0.0175   -47.6088    11.8295     8.6974     8.3064
 2173.5000     7.7602   110.7430     2.5302     0.0305   -47.8080    12.0504     8.6974     8.3064
 2174.0000     7.7600   109.3495     2.5071     0.0535   -47.6088    11.7206     8.7778     8.3064
 2174.5000     7.7795   107.7567     2.4891     0.0114   -47.6088    11.6126     8.6178     8.2303
 2175.0000     7.7793   106.3631     2.5051     0.0175   -47.8080    11.2948     8.4606     8.1549
 2175.5000     7.7792   106.1624     2.5302     0.0345   -48.0072    10.9856     8.2303     8.0802
