~VERSION INFORMATION
 VERS.                2.0:   CWLS LOG ASCII STANDARD - VERSION 2.0
 WRAP.                 NO:   ONE LINE PER DEPTH STEP
~WELL INFORMATION
#MNEM.UNIT      DATA TYPE    INFORMATION
#----------   ------------   ------------------------------
 STRT.F          492.0000:   START DEPTH
 STOP.F         3008.0000:   STOP DEPTH
 STEP.F            0.5000:   STEP LENGTH
 NULL.          -999.2500:   NO VALUE
 COMP.    FENIX & SCISSON:   COMPANY
 WELL. FENIX & SCISSON AX #24-28:   WELL
 FLD .             TEAPOT:   FIELD
 LOC .      S28 T39N R78W:   LOCATION
 CNTY.            NATRONA:   COUNTY
 STAT.            WYOMING:   STATE
 CTRY. UNITED STATES OF AMERICA:   COUNTRY
 SRVC.              WELEX:   SERVICE COMPANY
 DATE.        03-AUG-1980:   LOGDATE
 API .     49025108490000:   API NUMBER
~CURVE INFORMATION
#MNEM.UNIT       API CODE    CURVE DESCRIPTION
#----------   ------------   ------------------------------
 DEPT.F                  :   
 SPR .MV     07 010 01 00:   SPONTANEOUS POTENTIAL
 ILD .OHMM   07 120 46 00:   DEEP INDUCTION RESISTIVITY
 ILM .OHMM   07 120 44 00:   INDUCTION LOG MEDIUM RESISTIVITY
 SGRD.OHMM   07 220 05 00:   SHALLOW SHORT GUARD RESISTIVITY
 GRD .GAPI   45 310 01 00:   GAMMA RAY FROM DENSITY LOG
 CALD.IN     45 280 60 00:   CALIPER FROM DENSITY LOG
 CORR.G/C3   45 356 01 00:   DENSITY CORRECTION
 RHOB.G/C3   45 350 01 00:   BULK DENSITY
~PARAMETER INFORMATION
#MNEM.UNIT          VALUE    DESCRIPTION
#----------   ------------   ------------------------------
 EKB .F         5061.0000:   Kelly bushing
 EGL .F         5051.0000:   Ground level
 TD  .F         3000.0000:   Total depth
 CLNT.            A2DTECH:   Client Code
 SL  . 2350' FNL & 1000' FWL:   Surface Location
 DATE.         3-AUG-1980:   Date Logged [DD-MMM-YYYY]
 DD  .F              3000:   Depth driller
 DL  .F              3010:   Depth logger
 BLI .F              3008:   Bottom log interval
 TLI .F               308:   Top log interval
 CS1 .              8.625:   Casing size
 CBD1.      8.625" @ 393':   Casing driller 1
 BS1 .IN            7.875:   Bit size
 BSD1.F              3000:   Depth drilled with bit1
 DFT .     WATER BASE MUD:   Type fluid in hole
 DFD .                8.9:   Density
 TCS .HRS               8:   Time Circ. stopped
 MRT .F               115:   Maximum recorded temp.
 ENGI.           WACHTELL:   Recorded By
 WITN.           DINSMORE:   Witnessed by
 ORIG.      2.5" 5" PRINT:   Origin of data
 UWI .     49025108490000:   Unique Well ID
 DICO. A2D TECHNOLOGIES, INC.:   Digitizing Company
 PD  .                 GL:   Permanent Datum
 EPD .F              3051:   Elevation Permanent Datum
 LMF .                 KB:   Log Measured From
 DMF .                 KB:   Drilling Measured From
 DAPD.F                10:   Feet Above Permanent Datum
 DFV .                 43:   Viscosity
 DFPH.                9.5:   pH
 DFL .                7.2:   Fluid loss
 MSS .           FLOWLINE:   Source of sample
 RMS .OHMM             .9:   Rm
 MST .F                80:   Rm Meas. temp.
 RMF .OHMM            .72:   Rmf
 MFST.F                80:   Rmf Meas. temp.
 MFSS.               MEAS:   Source Rmf.
 RMC .OHMM           1.08:   Rmc
 MCST.F                80:   Rmc Meas. temp.
 MCSS.               MEAS:   Source Rmc.
 RMB .OHMM            .06:   Rm. at BHT
 BHT .F               115:   BHT.
 LUN .               1892:   Logging unit number
 LUL .             CASPER:   Logging unit location
~OTHER INFORMATION
~A   DEPT      SPR        ILD        ILM       SGRD        GRD       CALD       CORR       RHOB   
  492.0000  -999.2500  -999.2500  -999.2500  -999.2500  -999.2500  -999.2500  -999.2500  -999.2500
  492.5000   -71.7267    25.7108  1775.3934     0.4092  -999.2500  -999.2500  -999.2500  -999.2500
  493.0000   -71.7297    26.1083  1777.4554     0.4147  -999.2500  -999.2500  -999.2500  -999.2500
  493.5000   -72.0336    26.7829  1798.8464     0.4146  -999.2500  -999.2500  -999.2500  -999.2500
  494.0000   -72.0365    26.7686  1798.0303     0.4144  -999.2500  -999.2500  -999.2500  -999.2500
  494.5000   -72.3398    26.2679  1797.2788     0.4142  -999.2500  -999.2500  -999.2500  -999.2500
  495.0000   -72.6430    25.1586  1796.5277     0.4140  -999.2500  -999.2500  -999.2500  -999.2500
  495.5000   -72.9462    24.5857  1795.7770     0.4139  -999.2500  -999.2500  -999.2500  -999.2500
  496.0000   -73.2494    24.4014  1795.0264     0.4195  -999.2500  -999.2500  -999.2500  -999.2500
  496.5000   -73.5526    24.4150  1794.2761     0.4252  -999.2500  -999.2500  -999.2500  -999.2500
  497.0000   -74.4565    24.5497  1793.3882     0.4310    64.5865     8.6848  -999.2500     1.8884
  497.5000   -75.0751    24.5360  1792.6617     0.4308    64.8091     8.7424  -999.2500     1.8989
  498.0000   -75.6957    24.5244  1791.9354     0.4366    64.8168     8.7567  -999.2500     1.8367
  498.5000   -76.0160    24.1736  1791.2096     0.4395    64.8231     8.7854  -999.2500     1.8135
  499.0000   -76.3363    24.1621  1790.4840     0.4520    64.8294     8.8430  -999.2500     1.7978
  499.5000   -76.6566    23.8165  1789.7585     0.4611    64.6180     8.9006  -999.2500     1.7625
  500.0000   -76.8769    22.5148  1764.2782     0.4805    64.8420     8.6407  -999.2500     1.7423
  500.5000   -77.1802    21.5641  1739.1381     0.4870    64.6306     8.6261  -999.2500     1.7910
  501.0000   -77.7518    20.0186  1738.4113     0.5147    65.2869     8.6548  -999.2500     1.8509
  501.5000   -78.6897    18.4034  1737.6847     0.5439    66.5942     8.6980  -999.2500     1.8899
  502.0000   -79.4595    16.5859  1736.9585     0.5828    69.2680     8.7267  -999.2500     1.9199
  502.5000   -80.1958    14.2711  1736.2325     0.6333    71.7916     8.7987  -999.2500     1.8667
  503.0000   -80.4990    11.9564  1735.5070     0.6793    72.0140     8.8563  -999.2500     1.8787
  503.5000   -81.7031    10.1441  1734.7815     0.7624    67.4814     8.9860  -999.2500     1.8891
  504.0000   -82.9072     8.7725  1586.9635     0.8777    62.0842     8.5674  -999.2500     1.8650
  504.5000   -85.6128     7.4010  1083.7795     1.0608    61.4406     8.6105  -999.2500     1.8365
  505.0000   -87.1173     6.0878   552.6498     1.2607    62.0969     8.6825  -999.2500     1.7880
  505.5000   -88.6217     5.1408   348.8002     1.8692    63.6161     8.8267  -999.2500     1.7730
  506.0000   -90.7347     4.1939   246.1018     3.0128    65.3629     8.8121  -999.2500     1.8689
  506.5000   -91.6727     3.4487   155.3250     7.5754    66.0670     8.6965  -999.2500     1.9416
  507.0000   -92.5726     1.9250    81.7898     8.3890    67.3110     8.6531  -999.2500     1.9910
  507.5000   -93.1932     1.4200    54.5798     9.0172    67.7496     8.6818  -999.2500     2.1483
  508.0000   -93.7417     0.8792    29.9007     9.7710    68.1881     8.7273    -0.4587     2.2060
  508.5000   -94.4345     0.5440    20.9130     9.7670    69.0590     8.8547    -0.3239     2.2712
  509.0000   -94.7548     0.4124    15.4071     9.9004    72.0912     8.8978     0.0221     2.4144
  509.5000   -94.9520     0.3815    10.9752     9.8958    77.5010     8.8544     0.1138     2.6587
  510.0000   -95.3954     0.4917    11.4812     9.8918    80.5332     9.0563     0.1544     2.5655
  510.5000   -95.8589     0.6600    11.6478    10.0263    81.8466     9.0994     0.1364     2.4951
  511.0000   -96.1622     1.0927    11.8167    10.0222    82.9582     9.3013     0.1169     2.5393
  511.5000   -97.0666     1.6218    11.8365    10.0182    81.2022     9.6619     0.1018     2.4936
  512.0000   -97.1611     3.2373    11.1763    10.0140    77.1018    10.1974     0.0490     2.5333
  512.5000   -96.4718     6.5376     9.8876    10.1500    75.8113    10.2821     0.0432     2.5041
  513.0000   -96.1745     9.6346     9.0027    10.1248    75.8176    10.3541     0.0553     2.5034
  513.5000   -95.8771     9.9495     8.5112    10.1416    76.0401    10.4983     0.0733     2.5199
  514.0000   -94.9791     9.1037     8.6275    10.2793    76.4786    10.0508     0.0989     2.5356
  514.5000   -94.3814     8.7268     9.5072    10.8746    77.3495    10.0795     0.1065     2.5453
  515.0000   -93.7837     9.0951    11.5503    11.4934    78.0187    10.1659     0.1125     2.5536
  515.5000   -93.7868     9.4788    11.8969    11.6363    78.8767    10.2672     0.1125     2.5513
  516.0000   -93.4455     9.6073    10.1769    11.2499    79.9636    10.3267     0.0988     2.5543
  516.5000   -93.1311     9.6027    10.3454    10.6193    80.6184    10.4397     0.0990     2.5552
  517.0000   -92.5942     9.5851    10.9775    10.1645    81.2731    10.4684     0.0900     2.5312
  517.5000   -92.5976     9.4398    11.5270     9.6946    81.4955    10.3239     0.0780     2.5094
  518.0000   -92.9369     9.0412    10.8417     9.3682    80.6373     9.9919     0.0855     2.5004
  518.5000   -94.6637     8.7471     9.5630     9.0385    79.3468    10.0495     0.1006     2.5116
  519.0000   -96.9489     8.2547     9.1596     8.2886    77.8401    10.1936     0.1006     2.5251
  519.5000   -98.4785     8.0550     9.0212     8.1459    76.2958    10.2522     0.0991     2.5206
  520.0000   -98.6192     7.7729     8.6406     8.4172    74.8268    10.3521     0.0523     2.4449
  520.5000   -98.6221     7.5978     8.7005     8.5317    75.4831    10.5107     0.0074     2.4210
  521.0000   -98.3247     7.4390     9.5880     8.6481    77.6508     9.9045     0.0224     2.4485
  521.5000   -97.7271     7.4355     9.6218     8.6442    80.2507     9.9620     0.0646     2.4824
  522.0000   -97.4297     7.4320     9.4476     8.6407    79.3925    10.1206     0.1172     2.5049
  522.5000   -97.1323     7.4285     9.0572     8.6372    76.1567    10.2648     0.0676     2.5064
  523.0000   -96.5346     7.3222     8.6828     8.6337    74.6500    10.3512     0.0496     2.4816
  523.5000   -96.2372     7.2175     8.6766     8.6301    73.3595    10.4088     0.0421     2.4644
  524.0000   -95.9399     7.2141     8.9259     8.6265    72.7174    10.3365     0.0683     2.4794
  524.5000   -95.6096     7.2106     9.0554     8.4812    72.7253    10.2498     0.0977     2.4741
  525.0000   -95.2953     7.2071     9.1657     8.2384    73.8123    10.2785     0.1008     2.4632
  525.5000   -95.0477     7.2036     8.7309     8.0025    76.2416    10.3794     0.1023     2.4404
  526.0000   -95.0511     7.2001     8.3221     7.7733    77.8290    10.4514     0.1083     2.4307
  526.5000   -95.0541     7.1699     7.8852     7.4464    79.8494    10.4945     0.1128     2.4487
  527.0000   -95.0571     6.9320     7.5897     7.2818    81.4280    10.5383     0.1113     2.3850
  527.5000   -95.0601     6.5771     7.5763     7.2788    81.8821    10.6428     0.1098     2.3625
  528.0000   -95.0631     6.4774     7.8542     7.3771    81.2106    10.7538     0.1223     2.3873
  528.5000   -95.0661     6.4249     8.4050     7.3741    81.4409    10.7970     0.1264     2.4196
  529.0000   -95.0696     6.4218     8.5200     7.3711    83.0315    10.5659     0.1099     2.4270
  529.5000   -95.0725     6.4181     8.3982     7.3681    84.8239    10.4648     0.1069     2.4839
  530.0000   -95.0755     6.4151     8.0511     7.4685    85.0531    10.4935     0.1084     2.5079
  530.5000   -95.3787     6.4120     7.8266     7.4653    83.9330    10.5078     0.0979     2.5094
  531.0000   -95.3816     6.4090     7.8235     7.4622    83.4865    10.5158     0.0724     2.4854
  531.5000   -95.0842     6.4959     7.8203     7.5637    84.8412    10.5764     0.0648     2.4727
  532.0000   -95.0872     6.4928     7.9327     7.6666    85.5201    10.6524     0.1012     2.4772
