~VERSION INFORMATION
 VERS.                2.0:   CWLS LOG ASCII STANDARD - VERSION 2.0
 WRAP.                 NO:   ONE LINE PER DEPTH STEP
~WELL INFORMATION
#MNEM.UNIT      DATA TYPE    INFORMATION
#----------   ------------   ------------------------------
 STRT.F          150.0000:   START DEPTH
 STOP.F         2929.0000:   STOP DEPTH
 STEP.F            0.5000:   STEP LENGTH
 NULL.          -999.2500:   NO VALUE
 COMP.    FENIX & SCISSON:   COMPANY
 WELL.    FENIX AX #12-28:   WELL
 FLD .        TEAPOT DOME:   FIELD
 LOC .      S28 T39N R78W:   LOCATION
 CNTY.            NATRONA:   COUNTY
 STAT.            WYOMING:   STATE
 CTRY. UNITED STATES OF AMERICA:   COUNTRY
 SRVC.           BIRDWELL:   SERVICE COMPANY
 DATE.        06-JUN-1978:   LOGDATE
 API .     49025106420000:   API NUMBER
~CURVE INFORMATION
#MNEM.UNIT       API CODE    CURVE DESCRIPTION
#----------   ------------   ------------------------------
 DEPT.F                  :   
 SPR .MV     05 010 01 00:   SPONTANEOUS POTENTIAL
 SN  .OHMM   05 040 16 00:   SHORT NORMAL 16"
 ILD .OHMM   05 120 46 00:   INDUCTION LOG DEEP RESISTIVITY
 RHOB.G/C3   45 350 01 00:   BULK DENSITY
 CORR.G/C3   45 356 01 00:   DENSITY CORRECTION
 GRD .GAPI   45 310 01 00:   GAMMA RAY FROM DENSITY LOG
 CALD.IN     45 280 60 00:   CALIPER FROM DENSITY LOG
~PARAMETER INFORMATION
#MNEM.UNIT          VALUE    DESCRIPTION
#----------   ------------   ------------------------------
 EKB .F         5000.0000:   Kelly bushing
 EGL .F         4990.0000:   Ground level
 EDF .F            0.0000:   Drilling floor
 EPD .F         5005.0000:   Permanent datum
 TD  .F         2911.0000:   Total depth
 DATE.        06-JUN-1978:   Date logged
 CLNT.            A2DTECH:   Client Code
 SL  . 1250' FNL & 225' FWL:   Surface Location
 PD  .                 GL:   Permanent Datum
 LMF .                 KB:   Log Measured From
 DMF .                 KB:   Drilling Measured From
 DAPD.F                10:   Feet Above Permanent Datum
 DD  .F              2911:   Depth driller
 DL  .F              2912:   Depth logger
 BLI .F              2906:   Bottom log interval
 TLI .F               200:   Top log interval
 CS1 .IN            8.625:   Casing size
 CBD1.      8.625" @ 225':   Casing driller 1
 CBL1.F               225:   Casing logger 1
 BS1 .IN            7.875:   Bit size
 BSD1.F              2911:   Depth drilled with bit1
 DFT .       OIL BASE MUD:   Type fluid in hole
 DFD .                9.2:   Density
 DFV .                 35:   Viscosity
 DFPH.               10.5:   pH
 DFL .                  2:   Fluid loss
 TCS .HRS             3.5:   Time Circ. stopped
 LUN .               2958:   Logging unit number
 LUL .               CASP:   Logging unit location
 ENGI.            POINTER:   Recorded By
 WITN.           MCGINLEY:   Witnessed by
 ORIG.           5" PRINT:   Origin of data
 UWI .     49025106420000:   Unique Well ID
 DICO. A2D TECHNOLOGIES, INC.:   Digitizing Company
~OTHER INFORMATION
~A   DEPT      SPR         SN        ILD       RHOB       CORR         GRD      CALD   
# ...
 2015.5000   -27.4510     5.6890     4.2390     2.4880     0.0370   115.5440     9.0430
 2016.0000   -27.1860     5.6770     4.1980     2.4830     0.0380   118.7630     9.1230
 2016.5000   -26.8770     5.6770     4.1900     2.4780     0.0400   121.1050     9.0280
 2017.0000   -26.5700     5.6770     4.1900     2.4810     0.0460   122.3990     8.9250
 2017.5000   -26.3080     5.6770     4.1900     2.4840     0.0520   123.6890     8.9360
 2018.0000   -26.7000     5.6770     4.2350     2.4860     0.0580   125.1110     8.9720
 2018.5000   -27.0950     5.6750     4.3320     2.4870     0.0590   119.5850     8.8980
 2019.0000   -27.4860     5.6740     4.4290     2.4850     0.0590   117.6800     8.7310
 2019.5000   -27.4130     5.7950     4.5260     2.4850     0.0570   115.9220     8.8660
 2020.0000   -26.9120     6.1640     4.6600     2.4860     0.0490   114.1140     9.0390
 2020.5000   -26.4160     6.5320     4.8090     2.4770     0.0410   114.2740     9.1460
 2021.0000   -26.2660     6.9010     4.9580     2.4720     0.0370   115.4520     8.7260
 2021.5000   -26.7800     7.2700     5.1070     2.4660     0.0360   119.0250     9.4520
 2022.0000   -27.2890     7.4980     5.2740     2.4650     0.0350   117.1750     9.1000
 2022.5000   -27.3130     7.6890     5.3920     2.4670     0.0340   114.9230     8.6390
 2023.0000   -27.0480     7.8350     5.5740     2.4670     0.0340   114.2580     8.7400
 2023.5000   -26.7660     7.8350     5.5460     2.4640     0.0330   114.8480     8.8290
 2024.0000   -26.8550     7.8350     5.4820     2.4640     0.0320   114.4740     8.9210
 2024.5000   -27.1030     7.8350     5.4190     2.4670     0.0310   114.4560     9.0120
 2025.0000   -27.3560     7.8350     5.3550     2.4700     0.0310   114.9300     9.1040
 2025.5000   -27.6220     7.7460     5.2920     2.4740     0.0300   114.5940     9.0420
 2026.0000   -27.4190     7.5700     5.2510     2.4740     0.0290   113.9490     8.8370
 2026.5000   -27.0680     7.3950     5.2070     2.4660     0.0300   115.0670     8.7970
 2027.0000   -26.7140     7.2130     5.1630     2.4580     0.0320   116.6550     8.9380
 2027.5000   -26.6010     7.3180     5.1190     2.4540     0.0330   118.2450     9.0920
 2028.0000   -26.9240     7.4280     5.0840     2.4500     0.0340   120.1180     8.9100
 2028.5000   -27.2340     7.5380     5.1760     2.4540     0.0330   118.1410     8.8350
 2029.0000   -27.3900     7.6470     5.2530     2.4580     0.0300   115.9360     8.7500
 2029.5000   -26.9040     7.7570     5.3300     2.4540     0.0260   114.8580     9.2190
 2030.0000   -26.4330     7.8670     5.4310     2.4490     0.0240   115.6190     8.7990
 2030.5000   -26.0070     7.9770     5.5590     2.4490     0.0300   116.4840     8.7920
 2031.0000   -25.7330     8.0610     5.6300     2.4560     0.0350   113.8010     8.8330
 2031.5000   -26.4940     8.0820     5.6380     2.4640     0.0340   111.8210     8.9150
 2032.0000   -27.2480     8.1030     5.6470     2.4710     0.0340   112.9390     8.9990
 2032.5000   -27.0200     8.1240     5.6550     2.4730     0.0330   111.7990     8.6690
 2033.0000   -26.7780     8.1700     5.6640     2.4670     0.0320   109.9840     8.6540
 2033.5000   -26.5280     8.2430     5.6720     2.4620     0.0320   113.6710     8.6370
 2034.0000   -26.7830     8.3170     5.7210     2.4590     0.0310   112.6370     8.6190
 2034.5000   -27.1570     8.3910     5.8340     2.4610     0.0270   112.0380     8.6520
 2035.0000   -27.5430     8.5560     5.9450     2.4630     0.0220   114.4840     8.7480
 2035.5000   -27.4240     8.8510     6.0000     2.4580     0.0170   116.7610     9.2390
 2036.0000   -27.0240     9.2470     6.0120     2.4540     0.0120   116.9920     9.0810
 2036.5000   -26.6020     9.1560     6.0240     2.4490     0.0130   116.7910     8.8870
 2037.0000   -26.6480     9.0160     6.0350     2.4530     0.0170   117.8950     8.8810
 2037.5000   -26.8760     8.8760     6.0470     2.4580     0.0230   115.7090     8.8720
 2038.0000   -27.2250     8.7370     6.0550     2.4630     0.0280   113.3240     8.8630
 2038.5000   -28.0300     8.4350     5.7120     2.4660     0.0340   111.0860     8.8540
 2039.0000   -27.8030     7.9870     5.4500     2.4660     0.0360   110.1870     8.8450
 2039.5000   -27.3280     7.5380     5.1780     2.4670     0.0380   109.3010     8.8360
 2040.0000   -26.3080     7.0810     5.1550     2.4680     0.0400   109.8980     8.8270
 2040.5000   -26.2250     7.1920     5.1310     2.4690     0.0420   109.0390     8.8170
 2041.0000   -26.7600     7.3050     5.1650     2.4720     0.0450   107.9070     8.8060
 2041.5000   -27.0420     7.4140     5.2000     2.4780     0.0370   110.1450     8.8010
 2042.0000   -26.9490     7.7520     5.2350     2.4870     0.0270   111.9890     9.1490
 2042.5000   -26.7320     8.0550     5.2700     2.4800     0.0170   111.3830     9.7200
 2043.0000   -26.0730     7.8350     5.3050     2.4740     0.0180   110.9840     8.7250
 2043.5000   -25.5200     7.6280     5.3230     2.4750     0.0200   112.0080     8.7690
 2044.0000   -25.9910     7.4200     5.1630     2.4790     0.0220   113.0840     8.7990
 2044.5000   -26.4750     7.1410     4.8870     2.4840     0.0290   111.8990     8.8090
 2045.0000   -26.8010     6.7060     4.7060     2.4900     0.0330   110.1410     8.7900
 2045.5000   -27.0510     6.2720     4.5330     2.4950     0.0360   108.3520     8.7700
 2046.0000   -26.7520     6.1150     4.4110     2.5010     0.0430   108.8550     8.7500
 2046.5000   -26.4660     6.0200     4.2880     2.5060     0.0490   109.6570     8.7330
 2047.0000   -26.4530     5.9450     4.1900     2.5110     0.0510   107.9520     8.8240
 2047.5000   -26.8810     5.9450     4.2020     2.5150     0.0460   108.3050     8.9450
 2048.0000   -27.2660     5.9450     4.2120     2.5100     0.0400   111.7580     9.4420
 2048.5000   -27.0410     5.9450     4.2220     2.5040     0.0340   114.2180     8.8420
 2049.0000   -26.8000     5.8140     4.2320     2.4990     0.0370   115.7610     8.8430
 2049.5000   -26.5550     5.6610     4.2420     2.4930     0.0430   115.9610     8.8350
 2050.0000   -26.5550     5.5230     4.2510     2.4880     0.0480   115.3600     8.8280
 2050.5000   -26.6850     5.6900     4.2620     2.4830     0.0530   115.9790     8.8200
 2051.0000   -26.8160     5.8420     4.2680     2.4820     0.0590   116.5390     8.8130
 2051.5000   -26.9500     6.0000     4.1720     2.4850     0.0580   115.7650     8.9920
 2052.0000   -27.1090     6.0000     4.1140     2.4880     0.0510   112.9490     9.2710
 2052.5000   -26.2910     6.0000     4.2610     2.4910     0.0450   112.8500     9.4210
 2053.0000   -25.7920     6.0000     4.4280     2.4940     0.0440   112.8780     8.8280
 2053.5000   -26.0020     6.0330     4.4970     2.4970     0.0430   112.7160     8.7070
 2054.0000   -26.2100     6.1670     4.5790     2.5000     0.0410   109.8280     8.7400
 2054.5000   -26.4370     6.3010     4.6370     2.4990     0.0340   110.1040     8.8490
 2055.0000   -26.2090     6.5550     4.7450     2.4900     0.0290   110.5060     8.6980
 2055.5000   -25.8260     7.0810     4.8660     2.4810     0.0310   109.0900     9.0210
 2056.0000   -25.4830     7.0560     4.9910     2.4810     0.0320   108.2980     8.7200
 2056.5000   -25.4970     7.0230     4.9100     2.4820     0.0330   109.4250     8.6670
 2057.0000   -25.6210     6.8560     4.8260     2.4840     0.0340   108.1840     8.6210
 2057.5000   -26.2770     6.6520     4.7430     2.4860     0.0350   106.9700     8.5970
 2058.0000   -26.8640     6.4490     4.6800     2.4880     0.0360   105.7450     8.6310
 2058.5000   -26.5580     6.3400     4.6800     2.4900     0.0370   104.4670     8.6650
 2059.0000   -26.2300     6.6440     4.6800     2.4850     0.0380   104.6400     8.6980
 2059.5000   -25.9120     6.7620     4.7060     2.4790     0.0390   105.2850     8.7320
 2060.0000   -26.4310     6.7620     4.7350     2.4740     0.0350   104.7850     8.7660
 2060.5000   -27.0280     6.7620     4.7640     2.4680     0.0290   103.4460     8.8410
