~VERSION INFORMATION
 VERS.                2.0:   CWLS LOG ASCII STANDARD - VERSION 2.0
 WRAP.                 NO:   ONE LINE PER DEPTH STEP
~WELL INFORMATION
#MNEM.UNIT      DATA TYPE    INFORMATION
#----------   ------------   ------------------------------
 STRT.F           10.0000:   START DEPTH
 STOP.F         2950.0000:   STOP DEPTH
 STEP.F            0.5000:   STEP LENGTH
 NULL.          -999.2500:   NO VALUE
 COMP.    FENIX & SCISSON:   COMPANY
 WELL.   PENIX SHX #11-23:   WELL
 FLD .  TEAPOT DOME NPR-3:   FIELD
 LOC .      S23 T38N R78W:   LOCATION
 CNTY.            NATRONA:   COUNTY
 STAT.            WYOMING:   STATE
 CTRY. UNITED STATES OF AMERICA:   COUNTRY
 SRVC.           BIRDWELL:   SERVICE COMPANY
 DATE.        19-MAY-1979:   LOGDATE
 API .     49025107790000:   API NUMBER
~CURVE INFORMATION
#MNEM.UNIT       API CODE    CURVE DESCRIPTION
#----------   ------------   ------------------------------
 DEPT.F                  :   
 ILD .OHMM   05 120 46 00:   INDUCTION LOG DEEP
 SN  .OHMM   05 040 16 00:   SHORT NORMAL 16"
 CALD.IN     45 280 60 00:   CALIPER FROM DENSITY LOG
 GRD .GAPI   45 310 01 00:   GAMMA RAY FROM DENSITY LOG
 RHOB.G/C3   45 350 01 00:   BULK DENSITY
 CORR.G/C3   45 356 01 00:   DENSITY CORRECTION
~PARAMETER INFORMATION
#MNEM.UNIT          VALUE    DESCRIPTION
#----------   ------------   ------------------------------
 EKB .F         5275.0000:   Kelly bushing
 EGL .F         5265.0000:   Ground level
 EDF .F            0.0000:   Drilling floor
 TD  .F         2995.0000:   Total depth
 DATE.        19-MAY-1979:   Date logged
 CLNT.            A2DTECH:   Client Code
 SL  . 337' FNL & 237' FWL:   Surface Location
 PD  .                 GL:   Permanent Datum
 EPD .F              5265:   Elevation Permanent Datum
 LMF .                 KB:   Log Measured From
 DMF .                 KB:   Drilling Measured From
 DAPD.F                10:   Feet Above Permanent Datum
 DD  .F              2995:   Depth driller
 DL  .F              2950:   Depth logger
 BLI .F              2944:   Bottom log interval
 TLI .F              1050:   Top log interval
 CS1 .IN            9.625:   Casing size
 CBD1.     9.625" @ 2050':   Casing driller 1
 CBL1.F              1050:   Casing logger 1
 BS1 .IN             8.75:   Bit size
 BSD1.F              2995:   Depth drilled with bit1
 DFT . AIR/FORRATION FLUIDS:   Type fluid in hole
 TCS .HRS              12:   Time Circ. stopped
 LUN .               3029:   Logging unit number
 LUL .             CASPER:   Logging unit location
 ENGI.         B. ROLLINS:   Recorded By
 ORIG.         2.5" PRINT:   Origin of data
 UWI .     49025107790000:   Unique Well ID
 DICO. A2D TECHNOLOGIES, INC.:   Digitizing Company
~OTHER INFORMATION
~A   DEPT      ILD         SN       CALD        GRD       RHOB         CORR 
# ...
 2662.0000     7.9550    11.0190     8.8030   135.6570     2.5230     0.0300
 2662.5000     8.0060    10.6640     8.9180   133.5220     2.5130     0.0320
 2663.0000     8.0820    10.8100     9.0920   131.4390     2.5030     0.0490
 2663.5000     8.1560    10.8580     8.9750   129.1840     2.5390     0.0770
 2664.0000     8.1560    10.9170     8.8820   125.3250     2.5320     0.0650
 2664.5000     8.1560    11.0060     8.8220   115.6920     2.5130     0.0270
 2665.0000     8.1560    10.8990     8.7740   125.2620     2.5210     0.0350
 2665.5000     7.4830    10.4630     8.7100   142.8290     2.5240     0.0520
 2666.0000     6.6550    10.0270     8.6980   142.3360     2.5140     0.0780
 2666.5000     6.6550     9.5910     8.7120   164.7750     2.4700     0.1500
 2667.0000     6.5330     9.1550     8.8820   181.2310     2.4540     0.2070
 2667.5000     6.3460     8.7190     9.1460   178.0990     2.4940     0.2580
 2668.0000     6.1490     8.1010     8.9790   167.1810     2.4050     0.1620
 2668.5000     6.0670     8.2790     8.7920   155.6230     2.4470     0.0730
 2669.0000     6.0670     8.5820     8.6900   156.9240     2.4280     0.0580
 2669.5000     6.1230     8.5820     8.9530   157.2430     2.4880     0.0700
 2670.0000     6.1780     9.2680     9.2400   155.1570     2.4760     0.1120
 2670.5000     6.2330     9.1430     9.0470   154.5630     2.4390     0.0660
 2671.0000     6.2880     8.9500     8.9050   159.7170     2.4590     0.0810
 2671.5000     6.3440     8.7560     8.8440   157.8110     2.4750     0.1050
 2672.0000     6.3990     8.5010     8.7350   152.4960     2.4380     0.1220
 2672.5000     6.4540     8.6990    10.0210   150.5480     2.3920     0.1470
 2673.0000     6.5100     9.0940     9.8790   147.8360     2.4380     0.1620
 2673.5000     6.5650     9.4890     8.6550   143.5550     2.3610     0.0450
 2674.0000     6.6550     9.8190     8.8870   139.6820     2.4130    -0.0040
 2674.5000     6.5810     9.6030     8.8860   148.0370     2.5070     0.0680
 2675.0000     6.3880     9.2680     8.8790   154.6660     2.5010     0.0690
 2675.5000     6.1940     8.9250     8.8840   149.3210     2.5220     0.0710
 2676.0000     6.0000     8.4970     8.8490   140.7160     2.5090     0.0510
 2676.5000     5.8060     8.1140     8.8330   139.0940     2.5190     0.0510
 2677.0000     5.6030     7.7880     8.8120   145.4950     2.5110     0.0420
 2677.5000     5.3960     7.4610     8.7910   158.3390     2.4890     0.0270
 2678.0000     5.3020     7.0650     8.7700   157.1260     2.4950     0.0180
 2678.5000     5.2600     6.6840     8.7500   153.7910     2.4990     0.0230
 2679.0000     5.2170     7.1450     8.7300   155.8190     2.4830     0.0270
 2679.5000     5.1690     7.5010     8.7320   150.7910     2.4750     0.0400
 2680.0000     5.1210     6.8140     8.7360   148.5040     2.5080     0.0530
 2680.5000     5.0730     7.2180     8.7400   149.8240     2.4720     0.0290
 2681.0000     5.0260     6.8140     8.7430   150.2640     2.4770     0.0170
 2681.5000     4.9500     6.9160     8.7470   150.7500     2.4870     0.0160
 2682.0000     5.0420     7.0190     8.7500   148.7390     2.4990     0.0200
 2682.5000     5.3410     7.1210     8.7540   143.1740     2.5080     0.0220
 2683.0000     5.3870     7.2180     8.7570   146.9300     2.5090     0.0250
 2683.5000     5.4340     7.8100     8.7610   151.8950     2.5080     0.0240
 2684.0000     5.4800     8.1010     8.7650   144.7790     2.4910     0.0150
 2684.5000     5.5310     8.4330     8.7660   138.7350     2.4830     0.0240
 2685.0000     5.7470     8.6920     8.7930   130.3570     2.5090     0.0370
 2685.5000     5.9860     8.9190     8.8390   138.8360     2.5200     0.0410
 2686.0000     6.2240     9.1620     8.8150   140.6290     2.5090     0.0270
 2686.5000     6.4630     9.4480     8.7610   141.9760     2.4830     0.0140
 2687.0000     6.7020     9.6550     8.7110   142.0190     2.4840     0.0110
 2687.5000     7.0340     9.8680     8.6430   146.7900     2.4880     0.0190
 2688.0000     6.8800    10.2040     8.6100   153.0540     2.4940     0.0270
 2688.5000     6.5330    10.1350     8.6390   152.5180     2.5000     0.0360
 2689.0000     6.6950     9.9740     8.6410   153.3220     2.4980     0.0450
 2689.5000     7.0340     9.8120     8.6890   151.5720     2.4920     0.0550
 2690.0000     6.9630     9.6320     8.7040   147.5720     2.4830     0.0710
 2690.5000     6.8570     9.6320     8.9010   144.1980     2.3950     0.0880
 2691.0000     6.7510     9.6320     8.7670   145.8220     2.4150     0.1910
 2691.5000     6.6450     9.7780     9.7240   150.2250     2.4800     0.1670
 2692.0000     6.5330     9.9380     9.2510   150.1010     2.3970     0.0280
 2692.5000     6.6660    10.0090     8.7870   153.6860     2.4280     0.0550
 2693.0000     6.8080    10.0090     8.9320   159.8630     2.4750     0.1070
 2693.5000     6.9490    10.0090     9.1840   157.5060     2.5310     0.1520
 2694.0000     7.0340    10.0090     8.9930   150.2200     2.4110     0.0430
 2694.5000     6.8320     9.9740     8.8560   151.3800     2.4470     0.0040
 2695.0000     6.7130     9.8190     8.7310   153.4150     2.4730     0.0180
 2695.5000     6.5940     9.4360     8.6940   155.4430     2.4610     0.0120
 2696.0000     6.4750     8.8430     8.8020   151.6940     2.4450     0.0390
 2696.5000     6.3550     8.5090     9.1470   147.8010     2.4770     0.1010
 2697.0000     6.2950     8.8260     9.1370   148.2200     2.5340     0.1530
 2697.5000     6.2950     9.0780     8.8430   151.6490     2.4810     0.1030
 2698.0000     6.2950     9.4480     8.8360   156.2000     2.4480     0.0610
 2698.5000     6.2950     9.3300     8.8070   155.8640     2.4790     0.0480
 2699.0000     6.2950     8.9880     8.8110   155.6970     2.4700     0.0320
 2699.5000     6.1320     8.6450     8.8100   161.5210     2.4550     0.0160
 2700.0000     5.9560     8.3030     8.8090   164.8580     2.4620     0.0180
 2700.5000     5.8100     7.9820     8.8100   162.8790     2.4700     0.0210
 2701.0000     5.6890     8.1010     8.8090   163.9930     2.4790     0.0260
 2701.5000     5.5670     7.7780     8.8100   165.7180     2.4730     0.0250
 2702.0000     4.9500     6.9460     8.8090   159.4200     2.4710     0.0230
 2702.5000     5.0130     7.2130     8.8090   157.4180     2.4780     0.0320
 2703.0000     5.1480     7.5210     8.8120   159.9140     2.4740     0.0190
 2703.5000     5.2820     7.7960     8.8040   157.6040     2.4620     0.0240
 2704.0000     5.4160     7.2180     8.8160   150.3050     2.4650     0.0400
 2704.5000     5.5310     8.1010     8.8270   151.4700     2.4660     0.0710
 2705.0000     5.6340     8.2760     9.0730   157.3980     2.5090     0.1020
 2705.5000     5.7230     8.3270     8.7210   152.1580     2.4740     0.0570
 2706.0000     5.8130     8.3780     8.6600   139.9530     2.4320     0.0110
 2706.5000     5.9030     8.4190     8.8510   136.9880     2.4700     0.0110
 2707.0000     5.9760     8.3510     8.8130   138.3980     2.4930     0.0210
 2707.5000     6.0240     8.1010     8.7720   142.2120     2.4870     0.0130
 2708.0000     6.0720     8.3270     8.7670   142.1120     2.4660     0.0060
 2708.5000     6.1190     8.8300     8.7620   142.4640     2.4730     0.0070
 2709.0000     6.1670     9.0920     8.7600   147.7330     2.4800     0.0080
 2709.5000     6.2150     9.1740     8.7560   152.4900     2.4820     0.0090
 2710.0000     6.2630     9.2490     8.7530   157.8480     2.4730     0.0100
 2710.5000     6.3330     9.3250     8.7490   159.3590     2.4730     0.0100
 2711.0000     6.4470     9.4480     8.7450   155.0970     2.4760     0.0130
 2711.5000     6.5610     9.2680     8.7450   156.4200     2.4730     0.0190
 2712.0000     6.6550     9.2680     8.7370   158.9180     2.4730     0.0330
 2712.5000     6.5330     9.7130     8.7350   159.4750     2.4790     0.0410
 2713.0000     6.5330     9.9110     8.7460   156.1320     2.4430     0.0390
 2713.5000     6.6550     9.4490     8.7160   152.2850     2.3740     0.0520
