~VERSION INFORMATION
 VERS.                2.0:   CWLS LOG ASCII STANDARD - VERSION 2.0
 WRAP.                 NO:   ONE LINE PER DEPTH STEP
~WELL INFORMATION
#MNEM.UNIT      DATA TYPE    INFORMATION
#----------   ------------   ------------------------------
 STRT.F          196.5000:   START DEPTH
 STOP.F         2376.0000:   STOP DEPTH
 STEP.F            0.5000:   STEP LENGTH
 NULL.          -999.2500:   NO VALUE
 COMP.    FENIX & SCISSON:   COMPANY
 WELL. FENIX & SCISSON NPR-3 #55-10:   WELL
 FLD .  TEAPOT DOME NPR-3:   FIELD
 LOC .      S10 T38N R78W:   LOCATION
 CNTY.            NATRONA:   COUNTY
 STAT.            WYOMING:   STATE
 CTRY. UNITED STATES OF AMERICA:   COUNTRY
 SRVC.           BIRDWELL:   SERVICE COMPANY
 DATE.        09-MAY-1979:   LOGDATE
 API .     49025107780000:   API NUMBER
~CURVE INFORMATION
#MNEM.UNIT       API CODE    CURVE DESCRIPTION
#----------   ------------   ------------------------------
 DEPT.F                  :   
 CALD.IN     45 280 60 00:   CALIPER FROM DENSITY LOG
 GRD .GAPI   45 310 01 00:   GAMMA RAY FROM DENSITY LOG
 RHOB.G/C3   45 350 01 00:   BULK DENSITY
 CORR.G/C3   45 356 01 00:   DENSITY CORRECTION
~PARAMETER INFORMATION
#MNEM.UNIT          VALUE    DESCRIPTION
#----------   ------------   ------------------------------
 EKB .F         5203.0000:   Kelly bushing
 EGL .F         5193.0000:   Ground level
 EDF .F            0.0000:   Drilling floor
 TD  .F         2376.0000:   Total depth
 CLNT.            A2DTECH:   Client Code
 SL  . 2283' FSL & 2107' FEL:   Surface Location
 PD  .                 GL:   Permanent Datum
 EPD .F              5193:   Elevation Permanent Datum
 LMF .                 KB:   Log Measured From
 DMF .                 KB:   Drilling Measured From
 DAPD.F                10:   Feet Above Permanent Datum
 DATE.        09-MAY-1979:   Date Logged [DD-MMM-YYYY]
 DD  .F              2360:   Depth driller
 DL  .F              2376:   Depth logger
 BLI .F              2376:   Bottom log interval
 TLI .F               196:   Top log interval
 CS1 .IN            9.625:   Casing size
 CBD1.             9.625":   Casing driller 1
 CBL1.F               545:   Casing logger 1
 BS1 .IN             8.75:   Bit size
 BSD1.F              2360:   Depth drilled with bit1
 DFT .                AIR:   Type fluid in hole
 TCS .HRS               3:   Time Circ. stopped
 LUN .               2959:   Logging unit number
 LUL .             CASPER:   Logging unit location
 ENGI.         B. ROLLINS:   Recorded By
 WITN.             RHODES:   Witnessed by
 ORIG.           5" PRINT:   Origin of data
 UWI .     49025107780000:   Unique Well ID
 DICO. A2D TECHNIOLOGIES,INC.:   Digitizing Company
~OTHER INFORMATION
~A  DEPTH     CALD        GRD       RHOB       CORR
# ...
 2313.5000     8.7380   161.5385     2.5520     0.0334
 2314.0000     8.7075   166.3650     2.5640     0.0801
 2314.5000     8.7072   168.0241     2.5723     0.1283
 2315.0000     8.7069   162.7451     2.5806     0.1463
 2315.5000     8.7066   155.2036     2.5896     0.1599
 2316.0000     8.7063   153.3937     2.6019     0.1915
 2316.5000     8.6909   148.4163     2.6187     0.2322
 2317.0000     8.6906   144.3319     2.6331     0.2909
 2317.5000     8.6903   143.2731     2.6060     0.2803
 2318.0000     8.6900   145.3379     2.3494     0.1582
 2318.5000     8.6897   153.6953     2.3439     0.0542
 2319.0000     8.6866   161.5385     2.3976     0.0044
 2319.5000     8.6740   168.7783     2.4445     0.0010
 2320.0000     8.6737   176.1689     2.4916     0.0209
 2320.5000     8.6734   179.6380     2.5091     0.0392
 2321.0000     8.6731   169.6833     2.4913     0.0263
 2321.5000     8.6879   152.9412     2.4443     0.0018
 2322.0000     8.6876   139.2157     2.4337    -0.0199
 2322.5000     8.6873   130.7692     2.4518    -0.0275
 2323.0000     8.6870   125.9427     2.4759    -0.0215
 2323.5000     8.6867   125.4630     2.4940    -0.0034
 2324.0000     8.6713   126.6968     2.4917     0.0011
 2324.5000     8.6710   127.9035     2.4744    -0.0095
 2325.0000     8.6405   129.1101     2.4571    -0.0126
 2325.5000     8.6402   130.3353     2.4518    -0.0036
 2326.0000     8.6399   122.6477     2.4902     0.0266
 2326.5000     8.6396   118.2653     2.5316     0.0507
 2327.0000     8.6393   115.8371     2.5452     0.0567
 2327.5000     8.6390   118.0995     2.5459     0.0536
 2328.0000     8.6387   119.9095     2.5392     0.0506
 2328.5000     8.6535   120.2112     2.5429     0.0505
 2329.0000     8.6532   117.4962     2.5512     0.0565
 2329.5000     8.6529   112.5189     2.5625     0.0671
 2330.0000     8.6526   109.8039     2.5768     0.0791
 2330.5000     8.6674   112.0664     2.5873     0.0926
 2331.0000     8.6671   112.2172     2.5692     0.0757
 2331.5000     8.6668   111.4630     2.5526     0.0650
 2332.0000     8.6664   109.8039     2.5435     0.0533
 2332.5000     8.6661   100.4525     2.5357     0.0443
 2333.0000     8.6507    98.4917     2.5294     0.0367
 2333.5000     8.6353   100.0681     2.5271     0.0321
 2334.0000     8.6350   103.1674     2.5595     0.0547
 2334.5000     8.6347   111.9155     2.5700     0.0622
 2335.0000     8.6344   112.6697     2.5505     0.0501
 2335.5000     8.6190   112.0664     2.5467     0.0426
 2336.0000     8.6187   114.4796     2.5595     0.0471
 2336.5000     8.6184   117.9487     2.5512     0.0531
 2337.0000     8.6181   120.2112     2.5505     0.0606
 2337.5000     8.6178   120.3620     2.5542     0.0575
 2338.0000     8.6175   120.0603     2.5497     0.0409
 2338.5000     8.6172   119.9095     2.5211     0.0243
 2339.0000     8.6169   119.4549     2.5136     0.0183
 2339.5000     8.6166   118.3458     2.5354     0.0273
 2340.0000     8.6163   114.5503     2.5505     0.0423
 2340.5000     8.6160   112.5189     2.5482     0.0438
 2341.0000     8.6157   111.7647     2.5346     0.0421
 2341.5000     8.6154   111.4630     2.5211     0.0375
 2342.0000     8.6151   111.4630     2.5120     0.0331
 2342.5000     8.6148   111.3122     2.5213     0.0482
 2343.0000     8.6145   111.4630     2.5507     0.0678
 2343.5000     8.6293   111.9155     2.5666     0.0496
 2344.0000     8.6290   112.9713     2.5504     0.0315
 2344.5000     8.6286   114.9321     2.5324     0.0187
 2345.0000     8.6283   116.7421     2.5151     0.0043
 2345.5000     8.6280   117.0437     2.4985    -0.0048
 2346.0000     8.6277   116.7421     2.4910    -0.0033
 2346.5000     8.6274   116.8929     2.5068     0.0072
 2347.0000     8.6120   116.8929     2.5196     0.0253
 2347.5000     8.6117   117.0437     2.5324     0.0434
 2348.0000     8.6114   116.2615     2.5452     0.0509
 2348.5000     8.5960   115.0140     2.5505     0.0493
 2349.0000     8.5957   113.7255     2.5361     0.0388
 2349.5000     8.5954   113.2730     2.5241     0.0282
 2350.0000     8.5951   113.2730     2.5211     0.0191
 2350.5000     8.5948   113.1222     2.5271     0.0176
 2351.0000     8.5794   113.1222     2.5301     0.0190
 2351.5000     8.5791   112.8205     2.5279     0.0257
 2352.0000     8.5788   113.2730     2.5331     0.0431
 2352.5000     8.5634   118.0995     2.5467     0.0549
 2353.0000     8.5631   119.1554     2.5565     0.0701
 2353.5000     8.5477   116.8929     2.5633     0.0808
 2354.0000     8.5323   116.1388     2.5715     0.0984
 2354.5000     8.5471   115.5354     2.5761     0.1149
 2355.0000     8.5468   116.2896     2.5429     0.0922
 2355.5000     8.5465   118.5520     2.5331     0.0710
 2356.0000     8.5462   121.1161     2.5264     0.0529
 2356.5000     8.5459   124.9248     2.5188     0.0362
 2357.0000     8.5456   127.2493     2.5113     0.0226
 2357.5000     8.5604   129.7134     2.5158     0.0119
 2358.0000     8.5601   131.6742     2.5211     0.0254
 2358.5000     8.5447   127.4510     2.5187     0.0299
 2359.0000     8.5595   117.4962     2.5125     0.0132
 2359.5000     8.5592   114.4796     2.5083     0.0112
 2360.0000     8.5589   113.8763     2.5331     0.0357
 2360.5000     8.5738   113.1222     2.5429     0.0277
 2361.0000     8.5734   112.0664     2.5301     0.0095
 2361.5000     8.5580   111.3122     2.5226    -0.0007
 2362.0000     8.5577   114.6305     2.5339     0.0052
 2362.5000     8.5574   116.6165     2.5392     0.0172
 2363.0000     8.5571   116.8929     2.5271     0.0111
 2363.5000     8.5568   116.5913     2.5151     0.0050
 2364.0000     8.5414   116.2896     2.5241     0.0230
 2364.5000     8.5411   115.9879     2.5422     0.0184
 2365.0000     8.5408   115.6863     2.5294     0.0078
 2365.5000     8.5254   115.5354     2.5173     0.0002
 2366.0000     8.5251   115.5354     2.5151    -0.0029
 2366.5000     8.5097  -999.2500     2.5098     0.0061
 2367.0000     8.5094  -999.2500     2.5354     0.0226
 2367.5000     8.5091  -999.2500     2.5520     0.0345
 2368.0000     8.4937  -999.2500     2.5655     0.0450
 2368.5000     8.4934  -999.2500     2.5339     0.0142
 2369.0000     8.4931  -999.2500     2.5248    -0.0034
 2369.5000     8.4776  -999.2500     2.5444    -0.0080
 2370.0000     8.4471  -999.2500     2.5625     0.0432
 2370.5000     8.4015  -999.2500     2.5700     0.0477
 2371.0000     8.3407  -999.2500     2.5557     0.0370
 2371.5000     8.2951  -999.2500     2.5422     0.0234
 2372.0000     8.2495  -999.2500     2.5392     0.0173
 2372.5000     8.2190  -999.2500     2.5572     0.0745
 2373.0000     8.1885  -999.2500     2.5956     0.1046
 2373.5000     8.1882  -999.2500     2.6122     0.1467
 2374.0000     8.1728  -999.2500     2.6206     0.1768
 2374.5000     8.1121  -999.2500     2.6032     0.1420
 2375.0000     8.0513  -999.2500     2.5683     0.0922
 2375.5000     8.0057  -999.2500  -999.2500     0.0680
 2376.0000     7.9752  -999.2500  -999.2500     0.1204
