~VERSION INFORMATION
 VERS.                2.0:   CWLS LOG ASCII STANDARD - VERSION 2.0
 WRAP.                 NO:   ONE LINE PER DEPTH STEP
~WELL INFORMATION
#MNEM.UNIT      DATA TYPE    INFORMATION
#----------   ------------   ------------------------------
 STRT.F          212.0000:   START DEPTH
 STOP.F         3042.0000:   STOP DEPTH
 STEP.F            0.5000:   STEP LENGTH
 NULL.          -999.2500:   NO VALUE
 COMP.    FENIX & SCISSON:   COMPANY
 WELL.   FENIX "A" #74-28:   WELL
 FLD .             NPR #3:   FIELD
 LOC .      S28 T39N R78W:   LOCATION
 CNTY.            NATRONA:   COUNTY
 STAT.            WYOMING:   STATE
 CTRY. UNITED STATES OF AMERICA:   COUNTRY
 SRVC.              WELEX:   SERVICE COMPANY
 DATE.        03-AUG-1977:   LOGDATE
 API .     49025104080000:   API NUMBER
~CURVE INFORMATION
#MNEM.UNIT       API CODE    CURVE DESCRIPTION
#----------   ------------   ------------------------------
 DEPT.F                  :   
 SPR .MV     07 010 01 00:   SPONTANEOUS POTENTIAL
 ILD .OHMM   07 120 46 00:   INDUCTION LOG DEEP RESISTIVITY
 ILM .OHMM   07 120 44 00:   INDUCTION LOG MEDIUM RESISTIVITY
 SFLU.OHMM   07 220 01 00:   SPHERICALLY FOCUSED LOG UNAVERAGED RESISTIVITY
 CALD.IN     45 280 60 00:   CALIPER FROM DENSITY LOG
 GRD .GAPI   45 310 01 00:   GAMMA RAY FROM DENSITY LOG
 CORR.G/C3   45 356 01 00:   DENSITY CORRECTION
 RHOB.G/C3   45 350 01 00:   BULK DENSITY
~PARAMETER INFORMATION
#MNEM.UNIT          VALUE    DESCRIPTION
#----------   ------------   ------------------------------
 EKB .F         5050.0000:   Kelly bushing
 EGL .F         5040.0000:   Ground level
 EDF .F            0.0000:   Drilling floor
 TD  .F         3044.0000:   Total depth
 DATE.        03-AUG-1977:   Date logged
 CLNT.            A2DTECH:   Client Code
 SL  . 2310' FNL & 930' FEL:   Surface Location
 PD  .                 GL:   Permanent Datum
 EPD .F              5040:   Elevation Permanent Datum
 LMF .                 KB:   Log Measured From
 DMF .                 KB:   Drilling Measured From
 DAPD.F                10:   Feet Above Permanent Datum
 DD  .F              3044:   Depth driller
 DL  .F              3044:   Depth logger
 BLI .F              3042:   Bottom log interval
 TLI .F               238:   Top log interval
 CS1 .IN            8.625:   Casing size
 CBD1.      8.625" @ 220':   Casing driller 1
 CBL1.F               238:   Casing logger 1
 BS1 .IN            7.875:   Bit size
 BSD1.F              3044:   Depth drilled with bit1
 DFT .            KCL MUD:   Type fluid in hole
 DFV .                 35:   Viscosity
 DFPH.               10.5:   pH
 DFL .                7.2:   Fluid loss
 MSS .           FLOWLINE:   Source of sample
 RMS .OHMM           1.13:   Rm
 MST .F                84:   Rm Meas. temp.
 RMF .OHMM           0.77:   Rmf
 MFST.F                70:   Rmf Meas. temp.
 MFSS.           FANN KIT:   Source Rmf.
 MCSS.           FANN KIT:   Source Rmc.
 RMB .OHMM            .82:   Rm. at BHT
 BHT .F               118:   BHT.
 TCS .HRS               7:   Time Circ. stopped
 MRT .F               116:   Maximum recorded temp.
 LUN .               8611:   Logging unit number
 LUL .             CASPER:   Logging unit location
 ENGI.            C. DOAK:   Recorded By
 WITN.      W. PETTINGILL:   Witnessed by
 ORIG.         2.5" PRINT:   Origin of data
 UWI .     49025104080000:   Unique Well ID
 DICO. A2D TECHNOLOGIES, INC.:   Digitizing Company
~OTHER INFORMATION
~A   DEPT      SPR        ILD        ILM       SFLU         CALD       GRD       CORR        RHOB 
# ...
  576.5000   -46.2000     6.1220     6.7200     9.5760     9.0980   116.7710     0.0260     2.4840
  577.0000   -46.2000     6.1210     6.7200     9.5760     9.0970   117.4480     0.0260     2.4830
  577.5000   -46.2000     6.1220     6.7200     9.5760     9.0950   118.2380     0.0260     2.4780
  578.0000   -46.2000     6.1230     6.8210     9.5760     9.0940   119.1690     0.0260     2.4720
  578.5000   -46.2000     6.1550     6.9500     9.5760     9.0930   120.1690     0.0260     2.4670
  579.0000   -46.2000     6.1880     7.0800     9.5760     9.0920   121.5140     0.0280     2.4630
  579.5000   -46.2000     6.2230     7.2090     9.5760     9.0910   119.4700     0.0300     2.4660
  580.0000   -46.2000     6.2570     7.1300     9.5760     9.0900   118.7590     0.0320     2.4800
  580.5000   -46.1990     6.2910     6.9860     9.5760     9.0880   121.5050     0.0340     2.4920
  581.0000   -46.2010     6.3250     6.8420     9.5760     9.0870   122.4650     0.0340     2.4900
  581.5000   -46.1990     6.3540     6.7200     9.5760     9.0860   120.6370     0.0310     2.4860
  582.0000   -46.1950     6.3640     6.9040     9.5770     9.0850   117.1960     0.0290     2.4810
  582.5000   -46.1310     6.3720     7.1060     9.5790     9.0840   113.5780     0.0270     2.4700
  583.0000   -46.0710     6.3800     7.1000     9.5750     9.0830   114.5450     0.0240     2.4540
  583.5000   -46.0080     6.3880     7.0820     9.6290     9.0810   116.7200     0.0220     2.4530
  584.0000   -45.9460     6.3970     7.0640     9.7320     9.0800   118.9640     0.0220     2.4580
  584.5000   -45.8850     6.4050     7.0460     9.8360     9.0790   119.9610     0.0250     2.4700
  585.0000   -45.8240     6.4130     7.0270     9.9390     9.0780   120.0070     0.0270     2.4730
  585.5000   -45.7710     6.4210     7.0090    10.0430     9.0770   120.1210     0.0300     2.4700
  586.0000   -45.6630     6.4300     6.9910    10.1460     9.0760   120.3470     0.0330     2.4680
  586.5000   -45.5580     6.4380     6.9750    10.2460     9.0740   119.3520     0.0340     2.4640
  587.0000   -45.4350     6.4460     7.1330    10.3180     9.0730   117.2560     0.0330     2.4720
  587.5000   -45.4570     6.4550     7.2760    10.3640     9.0720   115.1120     0.0300     2.4780
  588.0000   -45.5790     6.4630     7.3760    10.4560     9.0720   113.7770     0.0280     2.4720
  588.5000   -45.6870     6.4710     7.3760    10.5490     9.0720   114.7780     0.0260     2.4700
  589.0000   -45.7970     6.4940     7.3760    10.6410     9.0730   115.7730     0.0230     2.4670
  589.5000   -45.9080     6.5650     7.3760    10.7330     9.0750   116.6890     0.0210     2.4440
  590.0000   -46.0160     6.6350     7.3760    10.8260     9.0770   117.8060     0.0180     2.4400
  590.5000   -46.1370     6.7060     7.3760    10.9110     9.0780   116.3000     0.0200     2.4480
  591.0000   -46.1880     6.7770     7.3760    10.9780     9.0800   116.4350     0.0240     2.4550
  591.5000   -46.1250     6.8470     7.3760    11.0410     9.0810   117.7000     0.0280     2.4620
  592.0000   -46.0750     6.9180     7.3760    11.1040     9.0830   116.9430     0.0320     2.4670
  592.5000   -46.0210     6.9890     7.3750    11.1660     9.0850   115.4830     0.0340     2.4710
  593.0000   -45.9660     7.0590     7.3930    11.2290     9.0860   117.5860     0.0350     2.4730
  593.5000   -45.9130     7.1300     7.4600    11.2910     9.0880   118.3210     0.0360     2.4710
  594.0000   -45.8600     7.2010     7.5260    11.3540     9.0900   118.2690     0.0380     2.4690
  594.5000   -45.8060     7.2400     7.5920    11.4160     9.0910   117.8770     0.0390     2.4670
  595.0000   -45.7520     7.2470     7.6590    11.4790     9.0930   116.8230     0.0410     2.4650
  595.5000   -45.6990     7.2580     7.7260    11.5390     9.0940   115.8010     0.0420     2.4660
  596.0000   -45.6450     7.2690     7.7920    11.6260     9.0960   115.6790     0.0430     2.4670
  596.5000   -45.5910     7.2800     7.8590    11.7100     9.0980   116.7150     0.0450     2.4720
  597.0000   -45.5380     7.2910     7.9250    11.7940     9.0990   117.6880     0.0460     2.4780
  597.5000   -45.4860     7.3020     7.9910    11.8780     9.1010   118.6850     0.0480     2.4810
  598.0000   -45.4270     7.3130     8.0580    11.9770     9.1020   119.7610     0.0490     2.4810
  598.5000   -45.3930     7.3240     8.0970    11.3260     9.1040   120.2130     0.0500     2.4800
  599.0000   -45.3320     7.3340     8.0440    11.3740     9.1060   119.8890     0.0500     2.4870
  599.5000   -45.2660     7.3450     7.9910    11.6060     9.1070   119.5090     0.0500     2.4950
  600.0000   -45.1990     7.3560     7.9380    11.8370     9.1090   120.2270     0.0500     2.5010
  600.5000   -45.1320     7.3670     7.8860    12.2030     9.1100   121.7390     0.0500     2.4980
  601.0000   -45.0670     7.3770     7.8330    11.8690     9.1120   123.0390     0.0500     2.4910
  601.5000   -45.0040     7.3890     7.8010    11.5320     9.1060   124.6210     0.0450     2.4830
  602.0000   -45.0010     7.3990     7.8010    11.1960     9.0960   124.0960     0.0400     2.4770
  602.5000   -44.9990     7.4090     7.9680    10.7100     9.0870   121.4860     0.0350     2.4670
  603.0000   -45.0000     7.4200     8.1110    11.1600     9.0780   121.7200     0.0310     2.4580
  603.5000   -45.0000     7.4300     8.2540    11.9680     9.0690   124.1480     0.0260     2.4490
  604.0000   -45.0000     7.4410     8.3970    13.1480     9.0600   126.8960     0.0220     2.4410
  604.5000   -45.0000     7.4510     8.5400    13.0370     9.0510   125.7810     0.0180     2.4390
  605.0000   -45.0000     7.4620     8.6830    12.7020     9.0430   123.5330     0.0200     2.4440
  605.5000   -45.0000     7.4720     8.4450    12.2030     9.0330   121.2870     0.0220     2.4570
  606.0000   -45.0000     7.4820     8.0970    12.2730     9.0360   122.1010     0.0240     2.4700
  606.5000   -45.0000     7.4930     8.2390    12.4110     9.0390   123.2580     0.0270     2.4740
  607.0000   -45.0000     7.5030     8.3670    12.5480     9.0430   124.0040     0.0290     2.4710
  607.5000   -45.0000     7.5120     8.4950    12.6860     9.0470   123.7720     0.0300     2.4720
  608.0000   -45.0000     7.5050     8.5630    12.8240     9.0510   125.2940     0.0270     2.4720
  608.5000   -45.0000     7.4940     8.5160    12.9620     9.0550   129.1910     0.0230     2.4730
  609.0000   -45.0000     7.4830     8.4730    13.1480     9.0580   129.1890     0.0180     2.4740
  609.5000   -45.0000     7.4720     8.4300    12.8920     9.0620   126.9410     0.0200     2.4750
  610.0000   -45.0000     7.4610     8.3870    12.5020     9.0660   124.8890     0.0250     2.4750
  610.5000   -45.0000     7.4500     8.3440    12.2330     9.0700   123.2630     0.0300     2.4760
  611.0000   -45.0000     7.4390     8.3000    12.3600     9.0740   124.8950     0.0340     2.4780
  611.5000   -45.0000     7.4280     8.2490    12.4880     9.0770   126.2020     0.0330     2.4800
  612.0000   -45.0000     7.4170     8.2810    12.6660     9.0810   127.7280     0.0300     2.4800
  612.5000   -45.0000     7.4060     8.3190    12.4710     9.0850   125.7320     0.0270     2.4750
  613.0000   -45.0000     7.3940     8.3580    12.1490     9.0890   123.4790     0.0240     2.4700
  613.5000   -45.0000     7.3820     8.3960    11.8260     9.0930   120.9990     0.0210     2.4640
  614.0000   -45.0000     7.3750     8.2090    11.2100     9.0960   120.3280     0.0170     2.4600
  614.5000   -45.0000     7.3310     7.9600    10.9110     9.1000   120.6130     0.0140     2.4530
  615.0000   -45.0000     7.2860     7.8010    11.9770     9.1040   120.2710     0.0110     2.4510
  615.5000   -45.0010     7.2410     7.9790    11.7690     9.1080   118.8640     0.0100     2.4510
  616.0000   -44.9990     7.1960     8.2490    11.5390     9.1120   117.3010     0.0100     2.4690
  616.5000   -45.0000     7.1510     8.1500    11.7100     9.1160   119.5010     0.0180     2.4870
