~VERSION INFORMATION
 VERS.                2.0:   CWLS LOG ASCII STANDARD - VERSION 2.0
 WRAP.                 NO:   ONE LINE PER DEPTH STEP
~WELL INFORMATION
#MNEM.UNIT      DATA TYPE    INFORMATION
#----------   ------------   ------------------------------
 STRT.F           10.0000:   START DEPTH
 STOP.F         3234.0000:   STOP DEPTH
 STEP.F            0.5000:   STEP LENGTH
 NULL.          -999.2500:   NO VALUE
 COMP. LAWRENCE ALLISON & ASSOSCIATES:   COMPANY
 WELL. 		  38-X-10:   WELL
 FLD .             NPR #3:   FIELD
 LOC .      S10 T38N R78W:   LOCATION
 CNTY.            NATRONA:   COUNTY
 STAT.            WYOMING:   STATE
 CTRY. UNITED STATES OF AMERICA:   COUNTRY
 SRVC.      DRESSER ATLAS:   SERVICE COMPANY
 DATE.        02-AUG-1986:   LOGDATE
 API .       490251120600:   API NUMBER
~CURVE INFORMATION
#MNEM.UNIT       API CODE    CURVE DESCRIPTION
#----------   ------------   ------------------------------
 DEPT.F                  :   
 GRR .GAPI   07 310 01 00:   GAMMA RAY FROM RESISTIVITY
 SPR .MV     07 010 01 00:   SPONTANEOUS POTENTIAL
 TENR.LBS    07 635 01 00:   TENSION FROM RESISTIVITY
 RILM.OHMM   07 120 44 00:   RESISTIVITY INDUCTION LOG MEDIUM
 CNC .DEC    42 890 03 00:   NEUTRON POROSITY SANDSTONE
 CALD.IN     45 280 60 00:   CALIPER FROM DENSITY LOG
 GRD .GAPI   45 310 01 00:   GAMMA RAY FROM DENSITY LOG
 RHOB.G/C3   45 350 01 00:   BULK DENSITY
 TEND.LBS    45 635 01 00:   TENSION FORM DENSITY LOG
 CORR.G/C3   45 356 01 00:   DENSITY CORRECTION
 RILD.OHMM   07 120 46 00:   RESISTIVITY INDUCTION LOG DEEP
 RFOC.OHMM   07 220 04 00:   RESISTIVITY FOCUSED
~PARAMETER INFORMATION
#MNEM.UNIT          VALUE    DESCRIPTION
#----------   ------------   ------------------------------
 EKB .F         5224.0000:   Kelly bushing
 EGL .F         5212.0000:   Ground level
 EDF .F            0.0000:   Drilling floor
 TD  .F         3231.0000:   Total depth
 CLNT.            A2DTECH:   Client Code
 SL  . 296' FSL & 1435' FWL:   Surface Location
 PD  .                 GL:   Permanent Datum
 EPD .F              5212:   Elevation Permanent Datum
 LMF .                 KB:   Log Measured From
 DMF .                 KB:   Drilling Measured From
 DAPD.F                12:   Feet Above Permanent Datum
 DATE.        02-AUG-1986:   Date Logged [DD-MMM-YYYY]
 DD  .F              3230:   Depth driller
 DL  .F              3231:   Depth logger
 BLI .F              3229:   Bottom log interval
 TLI .F                11:   Top log interval
 CS1 .IN            8.625:   Casing size
 CBD1.      8.625" @ 626':   Casing driller 1
 CBL1.F               626:   Casing logger 1
 BS1 .IN            7.875:   Bit size
 BSD1.F              3230:   Depth drilled with bit1
 DFT .            KCL-GEL:   Type fluid in hole
 DFD .                  9:   Density
 DFV .                 36:   Viscosity
 DFPH.               10.5:   pH
 DFL .                 12:   Fluid loss
 MSS .           FLOWLINE:   Source of sample
 RMS .OHMM          0.263:   Rm
 MST .F               100:   Rm Meas. temp.
 RMF .OHMM          0.197:   Rmf
 MFST.F               100:   Rmf Meas. temp.
 MFSS.               MEAS:   Source Rmf.
 RMC .OHMM          0.329:   Rmc
 MCST.F               100:   Rmc Meas. temp.
 MCSS.               CALC:   Source Rmc.
 RMB .OHMM          0.193:   Rm. at BHT
 BHT .F               136:   BHT.
 TCS .HRS               5:   Time Circ. stopped
 MRT .F               136:   Maximum recorded temp.
 LUN .            HL-6274:   Logging unit number
 LUL .           GILLETTE:   Logging unit location
 ENGI.            PANASUK:   Recorded By
 WITN.             STRONG:   Witnessed by
 ORIG.        2" 5" PRINT:   Origin of data
 UWI .       490251120600:   Unique Well ID
 DICO. A2D TECHNOLOGIES, INC.:   Digitizing Company
~OTHER INFORMATION
~A   DEPT       GRR       SPR       TENR       RILM        CNC       CALD        GRD       RHOB       TEND       CORR       RILD       RFOC   
# ...
 3034.0000   117.4666   -34.6364    -3.1698     6.5429     0.2277    10.0841   118.7436     2.5393    -8.6955     0.0077     6.9065     8.2216
 3034.5000   119.6255   -34.5560    -3.0967     6.4975     0.2346    10.0837   120.2457     2.5439    -8.4804     0.0023     6.7635     7.9400
 3035.0000   121.3929   -34.4089    -3.0211     6.5886     0.2371    10.0832   121.7851     2.5439     6.7951     0.0204     6.6699     7.5582
 3035.5000   122.9022   -34.3863    -2.9332     6.7746     0.2286    10.0827   123.2470     2.5408     7.0102     0.0265     6.6235     7.3027
 3036.0000   124.1100   -34.2661   -10.4314     7.0212     0.2295    10.0823   122.9336     2.5347     7.2289     0.0219     6.6235     7.3027
 3036.5000   124.4072   -34.1190   -10.3405     7.4164     0.2301    10.0818   122.0150     2.5318     7.4943     0.0080     6.6235     7.5092
 3037.0000   122.5817   -34.1244   -17.8387     7.5729     0.2286    10.0814   120.7939     2.5295     6.5080     0.0008     6.7166     7.7756
 3037.5000   120.4293   -33.9773   -17.7477     7.4682     0.2228    10.0872   118.9489     2.5234     0.3765     0.0023     6.8109     8.0515
 3038.0000   118.0231   -33.8063   -25.2278     7.1130     0.2140    10.0805   117.7438     2.5197    -6.9277     0.0098     6.9065     8.2792
 3038.5000   117.1082   -33.5315   -25.1368     6.6810     0.2159    10.0800   117.4304     2.5219   -14.2319     0.0115     7.0035     8.2792
 3039.0000   118.6175   -33.5369   -32.6351     6.3176     0.2189    10.0796   118.6298     2.5204   -13.9666    -0.0088     7.1018     8.1078
 3039.5000   120.4299   -33.3887   -40.1152     6.2752     0.2176    10.0791   119.8320     2.5166   -21.3353    -0.0310     7.1075     7.7756
 3040.0000   121.9392   -33.3942   -55.1299     6.2752     0.2198    10.0787   120.7262     2.5144   -21.0664    -0.0295     7.3538     7.3027
 3040.5000   123.1528   -33.0955   -55.0571     6.2212     0.2273    10.0835   122.5269     2.5144   -20.8512    -0.0295     7.7216     6.8109
 3041.0000   124.3503   -32.7788   -54.9843     6.0605     0.2349    10.0930   123.7326     2.5128   -20.6325    -0.0280     7.9955     6.5775
 3041.5000   124.6490   -32.3467   -38.9168     5.8126     0.2323    10.0924   122.2077     2.5045   -12.8765    -0.0234     8.0515     6.4864
 3042.0000   122.5205   -31.7461   -17.0561     5.4596     0.2297    10.0920   121.2904     2.4932    -5.0918    -0.0174     6.8109     6.4864
 3042.5000   121.6070   -31.2959    -9.4305     4.8702     0.2310    10.1067   122.4910     2.4856     2.5996    -0.0053     4.2841     6.6235
 3043.0000   124.6300   -30.6942    -9.3577     3.4244     0.2510    10.1061   125.3249     2.4198    -4.6687     0.0068     3.1853     6.8109
 3043.5000   129.7757   -29.9410   -16.8560     2.3189     0.3279    10.1057   130.6388     2.0106    -4.4464     0.0159     2.7901     6.2642
 3044.0000   137.7088   -29.1633   -16.7649     1.7071     0.3631    10.1355   137.5690     2.0000   -11.7613     0.0311     2.7133     3.9538
 3044.5000   147.3383   -27.9811   -16.6918     1.9349     0.3397    13.3568   145.7667     2.0000   -11.4924     0.0537     2.6945     2.0818
 3045.0000   148.2431   -26.9249   -24.1722     2.4178     0.3118    13.7050   148.4758     2.0000    -3.7471     0.0174     2.9093     1.9147
 3045.5000   140.9630   -26.1717   -24.0812     3.4007     0.3066    10.0282   146.9617     2.0000     3.9981    -0.1157     2.9521     2.3438
 3046.0000   128.8360   -26.6306   -24.0084     4.8502     0.2994    10.0127   126.4431     2.0000    11.7470    -0.1475     2.8690     3.0762
 3046.5000   117.6180   -27.2410   -16.3827     4.7500     0.2355    10.0425   113.7676     2.2852    12.0123    -0.0961     2.9501     6.4414
 3047.0000   108.7320   -28.0092     6.3486     4.5875     0.2185    10.0723   106.8627     2.3718    19.7576     0.0023     3.3214     8.3954
 3047.5000   102.4534   -28.7660    21.5272     4.9526     0.2043    10.1020    99.2749     2.4871    19.9727     0.0113     3.9538     8.0515
 3048.0000   100.0233   -29.3765    21.6012     5.3467     0.2006    10.1319    98.9674     2.5015    20.1807     0.0083     4.7131     7.5037
 3048.5000   103.0478   -29.6839    21.6910     5.6925     0.2034    10.1617   101.9782     2.5045    19.8975     0.0129     7.2491     7.0525
 3049.0000   105.4662   -30.1428    21.7638     5.8126     0.2079    10.1764   104.3857     2.5008    13.0880     0.0189     8.3933     6.8109
 3049.5000   106.0667   -30.6017     6.7127     5.7723     0.2115    10.1438   104.6818     2.4992    13.3570     0.0090     8.8759     6.6235
 3050.0000   102.4233   -31.2121   -15.8671     5.8941     0.2139    10.1286   103.4691     2.5011    11.1115    -0.0159     8.1079     6.4414
 3050.5000   103.9326   -31.2152   -31.0454     5.8130     0.2175    10.1094   103.5095     2.5076    -4.0554    -0.0267     6.3531     6.2202
 3051.0000   105.4419   -31.3702   -23.5649     5.5756     0.2222    10.0901   104.6641     2.5060   -16.7224    -0.0219     6.0092     6.0910
 3051.5000   106.6482   -31.2216   -31.1933     5.2740     0.2288    10.0819   105.2602     2.4947   -24.3246    -0.0158     5.8447     6.0483
 3052.0000   107.8545   -31.2245   -23.7102     5.0235     0.2336    10.0810   109.1759     2.4841   -16.8665    -0.0098     5.7646     5.9227
 3052.5000   112.2732   -30.9244   -23.8009     4.7849     0.2369    10.0953   114.2983     2.4796    -1.8963    -0.0052     5.6855     5.7997
 3053.0000   118.1445   -30.6242   -23.8735     4.4946     0.2387    10.0944   118.8174     2.4781    -1.9684    -0.0128     5.5688     5.7158
 3053.5000   122.3811   -30.3095   -23.9460     4.1059     0.2411    10.0935   121.2473     2.4789    -2.0404    -0.0309     5.4542     5.5613
 3054.0000   124.4964   -29.8733   -24.0186     3.6479     0.2469    10.0925   123.0275     2.4765    12.9477    -0.0181     5.3420     5.4458
 3054.5000   125.4012   -29.7247   -24.0937     3.2524     0.2539    10.1068   125.1333     2.4713     5.3456    -0.0052     5.1909     5.2956
 3055.0000   128.7272   -29.5761   -24.1819     2.8795     0.2611    10.1059   128.4458     2.4668   -10.7881    -0.0127     4.9838     5.1497
 3055.5000   133.9910   -29.2760   -24.2545     2.5405     0.2772    10.1050   133.8698     2.4509   -17.4069    -0.0218     4.6813     4.7691
 3056.0000   145.0778   -28.8243   -39.4328     2.3534     0.3075    10.1041   158.2984     2.4320    -9.9309    -0.0369     4.1010     4.1745
 3056.5000   170.5265   -28.2157   -47.0582     2.2572     0.3227    10.1030   180.9170     2.3965    -2.4728    -0.0247     3.4696     3.3649
 3057.0000   185.3691   -27.1642   -39.5770     2.3701     0.3244    10.1022   199.3115     2.3609    -2.5629     0.0191     2.8546     2.6731
 3057.5000   209.9088   -26.4096   -32.0976     2.5710     0.3129    10.0862   213.7853     2.3261    -2.6355     0.0978     2.5298     2.5456
 3058.0000   206.5696   -26.4125   -32.1883     3.0669     0.2938    10.0853   205.2097     2.3746    -5.7567     0.1008     2.5011     3.0727
 3058.5000   194.4421   -27.0215   -32.2609     3.6249     0.2720    10.0995   166.7144     2.4215   -10.3272     0.0010     2.7009     4.2848
 3059.0000   163.5272   -27.6304   -39.8863     3.9136     0.2502    10.0985   141.9725     2.4729   -10.3992    -0.0489     2.8964     5.7944
 3059.5000   133.2688   -28.5424   -55.0646     4.1381     0.2286    10.0825   120.2472     2.5107   -10.4713    -0.0426     3.3302     6.5688
 3060.0000   119.5747   -29.0203   -55.1371     4.4367     0.2250    10.0816   114.2081     2.5199   -10.5434    -0.0186     4.1055     6.4774
 3060.5000   116.2355   -29.4581   -46.9356     4.8574     0.2319    10.0656   115.7093     2.5206    -6.4298    -0.0035     4.7664     6.2116
 3061.0000   117.1388   -30.0671   -32.6237     5.0649     0.2407    10.0345   119.0217     2.5221    -3.1574    -0.0004     5.1333     6.0826
 3061.5000   119.5572   -30.6760   -32.7144     5.3554     0.2394    10.0336   120.2240     2.5229     4.2827    -0.0080     5.3161     5.9922
