~VERSION INFORMATION
 VERS.                2.0:   CWLS LOG ASCII STANDARD - VERSION 2.0
 WRAP.                 NO:   ONE LINE PER DEPTH STEP
~WELL INFORMATION
#MNEM.UNIT      DATA TYPE    INFORMATION
#----------   ------------   ------------------------------
 STRT.F          200.0000:   START DEPTH
 STOP.F         3248.0000:   STOP DEPTH
 STEP.F            0.5000:   STEP LENGTH
 NULL.          -999.2500:   NO VALUE
 COMP.    FENIX & SCISSON:   COMPANY
 WELL.   FENIX "AX" #28-3:   WELL
 FLD .              NPR-3:   FIELD
 LOC .       S3 T38N R78W:   LOCATION
 CNTY.            NATRONA:   COUNTY
 STAT.            WYOMING:   STATE
 CTRY. UNITED STATES OF AMERICA:   COUNTRY
 SRVC.              WELEX:   SERVICE COMPANY
 DATE.        30-JUN-1977:   LOGDATE
 API .     49025104200000:   API NUMBER
~CURVE INFORMATION
#MNEM.UNIT       API CODE    CURVE DESCRIPTION
#----------   ------------   ------------------------------
 DEPT.F                  :   
 CALD.IN     45 280 60 00:   CALIPER FROM DENSITY LOG
 GRD .GAPI   45 310 01 00:   GAMMA RAY FROM DENSITY LOG
 RHOB.G/C3   45 350 01 00:   BULK DENSITY
 CORR.G/C3   45 356 01 00:   DENSITY CORRECTION
 SPR .MV     07 010 01 00:   SPONTANEOUS POTENTIAL
 ILD .OHMM   07 120 46 00:   DEEP INDUCTION RESISTIVITY
 ILM .OHMM   07 120 44 00:   INDUCTION LOG MEDIUM RESISTIVITY
 SGRD.OHMM   07 220 05 00:   SHALLOW SHORT GUARD RESISTIVITY
~PARAMETER INFORMATION
#MNEM.UNIT          VALUE    DESCRIPTION
#----------   ------------   ------------------------------
 EKB .F         4969.0000:   Kelly bushing
 EGL .F         4959.0000:   Ground level
 TD  .F         3250.0000:   Total depth
 CLNT.            A2DTECH:   Client Code
 SL  . 500' FSL & 800' FWL:   Surface Location
 PD  .                 GL:   Permanent Datum
 EPD .F              4959:   Elevation Permanent Datum
 LMF .                 KB:   Log Measured From
 DMF .                 KB:   Drilling Measured From
 DAPD.F                10:   Feet Above Permanent Datum
 DATE.        30-JUN-1977:   Date Logged [DD-MMM-YYYY]
 DD  .F              3250:   Depth driller
 DL  .F              3250:   Depth logger
 BLI .F              3248:   Bottom log interval
 TLI .F               200:   Top log interval
 CS1 .IN            8.625:   Casing size
 CBD1.      8.625" @ 217':   Casing driller 1
 CBL1.F               225:   Casing logger 1
 BS1 .IN            7.875:   Bit size
 BSD1.F              3250:   Depth drilled with bit1
 DFT .                KCL:   Type fluid in hole
 DFD .                8.9:   Density
 RMS .OHMM           1.76:   Rm
 MST .F                63:   Rm Meas. temp.
 TCS .HRS             2.5:   Time Circ. stopped
 MRT .F                68:   Maximum recorded temp.
 LUN .               8611:   Logging unit number
 ENGI.         G. BENTSEN:   Recorded By
 WITN.         PETTINGILL:   Witnessed by
 ORIG.         2.5" PRINT:   Origin of data
 UWI .     49025104200000:   Unique Well ID
 DICO. A2D TECHNOLOGIES, INC.:   Digitizing Company
 DFV .                 30:   Viscosity
 DFPH.                  7:   pH
 DFL .                 10:   Fluid loss
 MSS .                PIT:   Source of sample
 RMF .OHMM           1.09:   Rmf
 MFST.F                68:   Rmf Meas. temp.
 MFSS.               MEAS:   Source Rmf.
 RMC .OHMM           2.01:   Rmc
 MCST.F                68:   Rmc Meas. temp.
 MCSS.               MEAS:   Source Rmc.
 RMB .OHMM           1.01:   Rm. at BHT
 BHT .F               118:   BHT.
 LUL .             CASPER:   Logging unit location
~OTHER INFORMATION
~A   DEPT       CALD       GRD        RHOB      CORR       SPR        ILD        ILM       SGRD   
# ...
 2589.5000     8.3499   125.0146     2.4800     0.0106   -59.3385     7.0747     7.8959     9.1568
 2590.0000     8.3480   125.6024     2.4799     0.0105   -59.3363     7.1735     8.0061     9.3177
 2590.5000     8.3461   126.1910     2.4799     0.0090   -59.3341     7.1745     8.1178     9.6964
 2591.0000     8.3442   127.4011     2.4717     0.0090   -59.3319     7.2746     8.3449     9.8360
 2591.5000     8.3423   128.5698     2.4597     0.0074   -59.3292     7.3761     8.3460     9.9417
 2592.0000     8.3404   127.8226     2.4590     0.0058   -59.3270     7.4791     8.4625     9.8063
 2592.5000     8.3385   124.8397     2.4650     0.0043   -59.6202     7.6900     8.5806     9.8063
 2593.0000     8.3365   122.8892     2.4751     0.0027   -59.6177     7.9099     8.7049     9.8063
 2593.5000     8.3343   121.7551     2.4813     0.0042   -59.6158     8.2367     8.8319     9.8653
 2594.0000     8.3324   122.4633     2.4875     0.0042   -59.6134     8.4843     9.1004    10.5677
 2594.5000     8.3306   125.0339     2.4950     0.0026   -59.6112     8.7040     9.4736    11.8254
 2595.0000     8.3287   126.2450     2.4955     0.0026   -59.3141     8.7332     9.8498    13.8234
 2595.5000     8.3269   127.0651     2.4873     0.0026   -59.3119     8.8604    10.0235    18.4527
 2596.0000     8.3250   127.8342     2.4796     0.0025   -59.3097     8.8277    10.2667    17.4146
 2596.5000     8.3232   125.2473     2.4703     0.0025   -59.3075     8.6231    10.2681    11.9742
 2597.0000     8.2921   121.8839     2.4795     0.0025   -59.3053     8.2665    10.1593    10.7634
 2597.5000     8.2610   119.6621     2.4825     0.0024   -59.3031     7.8168     9.5490     9.8963
 2598.0000     8.2558   117.4403     2.4657     0.0024   -59.0059     7.4935     9.1430     8.9800
 2598.5000     8.2279   115.1046     2.4580     0.0024   -59.0037     7.2828     9.0799     8.3115
 2599.0000     8.2260   120.5115     2.4549     0.0024   -58.9288     7.1342     9.2800     8.1411
 2599.5000     8.2241   124.1112     2.4518     0.0023   -58.7043     6.9974     9.5952     8.0942
 2600.0000     8.2269   127.7108     2.4518     0.0008   -58.7021     6.9771     9.6863     8.1159
 2600.5000     8.2539   130.0999     2.4597     0.0007   -58.4049     6.9040     9.9636     8.1154
 2601.0000     8.2825   131.8895     2.4734     0.0007   -58.4027     6.8107    10.1394     8.1148
 2601.5000     8.3082   133.0767     2.4792     0.0007   -58.4004     6.7188    10.4223     8.1028
 2602.0000     8.3076   133.6615     2.4792     0.0007   -58.3982     6.6281    10.4230     7.9884
 2602.5000     8.3070   133.6439     2.4807     0.0007   -58.3960     6.5386     9.8668     7.7506
 2603.0000     8.3064   133.6263     2.4791     0.0007   -58.3934     6.5395     8.8413     7.3516
 2603.5000     8.3058   132.3698     2.4791     0.0002   -58.3912     6.5409     8.0785     7.0524
 2604.0000     8.3053   131.1807     2.4641    -0.0014   -58.3890     6.6366     7.9228     6.8585
 2604.5000     8.3183   133.7315     2.4438    -0.0031   -58.3869     6.8268     7.9645     6.7909
 2605.0000     8.3333   136.2952     2.4350    -0.0040   -58.3847     6.9267     8.1914     7.6299
 2605.5000     8.3327   139.3816     2.4268    -0.0040   -58.0876     7.1449     8.3718     9.2177
 2606.0000     8.3614   142.2971     2.4360    -0.0040   -58.0854     7.3294     8.5467    10.5530
 2606.5000     8.3607   143.7440     2.4467    -0.0016   -57.7882     7.5395     8.7902    11.3979
 2607.0000     8.3602   142.8854     2.4575     0.0006   -57.4911     7.7556     8.8461    11.1067
 2607.5000     8.3596   137.0240     2.4826     0.0021   -57.4889     7.9349     8.9691    10.5799
 2608.0000     8.3590   127.1636     2.5068     0.0051   -57.4944     7.9842     8.9697    10.2271
 2608.5000     8.3584   118.6415     2.5126     0.0081   -57.8004     8.0467     8.9703    10.2263
 2609.0000     8.3579   117.1410     2.5139     0.0081   -58.0724     7.9381     8.9709    10.5089
 2609.5000     8.3573   117.1234     2.5104     0.0081   -58.0701     7.9392     8.9715    10.7994
 2610.0000     8.3567   116.5034     2.5057     0.0081   -58.0678     7.9405     8.9721    10.7987
 2610.5000     8.3561   116.4858     2.4994     0.0081   -58.0656     7.7265     8.9727    10.5068
 2611.0000     8.3848   115.2633     2.4963     0.0081   -58.0634     7.7276     9.0974     9.8122
 2611.5000     8.3842   115.2457     2.4915     0.0081   -58.0612     7.5193     9.0980     9.2897
 2612.0000     8.3836   116.4329     2.4891     0.0080   -58.0590     7.5203     9.0986     9.2689
 2612.5000     8.3916   117.0177     2.4938     0.0065   -58.0568     7.5213     8.7271     9.6771
 2613.0000     8.4118   118.8073     2.4991     0.0067   -58.0546     7.5223     8.4962    10.3607
 2613.5000     8.4111   119.3921     2.5043     0.0080   -58.0524     7.6273     8.6291    10.2194
 2614.0000     8.4105   120.0441     2.5089     0.0084   -58.0501     7.7338     8.8957     9.4143
 2614.5000     8.4099   121.1641     2.5134     0.0110   -58.0479     7.8418     9.2541     9.4176
 2615.0000     8.4255   121.8778     2.5153     0.0089   -58.0457     7.9512     9.3880    10.2317
 2615.5000     8.4380   122.4927     2.5057     0.0079   -58.0435     7.9704     9.6167    10.9520
 2616.0000     8.4373   123.5209     2.4980     0.0079   -58.3363     8.0871     9.6174    11.2415
 2616.5000     8.4368   123.2761     2.4980     0.0079   -58.3341     8.1759     9.7508    11.3954
 2617.0000     8.4655   122.0221     2.5041     0.0079   -58.3319     8.1770     9.6187    11.3946
 2617.5000     8.4649   121.3705     2.5117     0.0079   -58.3296     8.2912     9.4289    11.3589
 2618.0000     8.4643   120.1165     2.5148     0.0079   -58.3274     8.4069     9.3595    11.0081
 2618.5000     8.4637   119.4647     2.5162     0.0078   -58.3248     8.4081     9.1644    10.7862
 2619.0000     8.4631   119.1895     2.5085     0.0078   -58.3227     8.4092     9.1073    10.8345
 2619.5000     8.4333   118.5695     2.5004     0.0078   -58.6155     8.2957     9.1081    10.9333
 2620.0000     8.4327   118.5519     2.4931     0.0078   -58.6133     8.1838     9.1087    10.7255
 2620.5000     8.4614   118.5342     2.4869     0.0078   -58.6112     8.0733     9.2352    10.2890
 2621.0000     8.4608   117.9142     2.4838     0.0078   -58.3140     7.9645     9.2358    10.4164
 2621.5000     8.4602   117.8966     2.4853     0.0093   -58.3118     7.9656     9.1104    10.8567
 2622.0000     8.4596   117.2766     2.4945     0.0093   -58.0147     7.9666     8.9869    11.3157
 2622.5000     8.4591   117.2590     2.5067     0.0093   -58.0125     7.9677     8.8650    11.2971
 2623.0000     8.4585   117.2410     2.5143     0.0091   -58.0012     7.8601     8.5079    10.7795
 2623.5000     8.4579   116.6205     2.5189     0.0075   -57.7131     7.7540     8.1652    10.2054
 2624.0000     8.4573   116.6024     2.5204     0.0059   -57.7109     7.7551     7.9447    10.0662
 2624.5000     8.4567   116.5843     2.4910     0.0031   -57.7087     7.5461     7.8369    10.3444
 2625.0000     8.4561   115.9639     2.4834     0.0050   -57.7065     7.5471     7.8374    10.4861
 2625.5000     8.4555   115.9458     2.4889     0.0066   -57.7043     7.4452     7.8380    10.6297
 2626.0000     8.4549   115.9277     2.5014     0.0076   -57.7021     7.4463     7.7316    10.3423
 2626.5000     8.4543   115.9096     2.5049     0.0070   -57.8005     7.4240     7.6267    10.0628
 2627.0000     8.4537   115.8916     2.4983     0.0045   -57.9930     7.3466     7.6273     9.6580
 2627.5000     8.4532   116.1795     2.4956     0.0030   -57.9904     7.3478     7.6586     9.3970
 2628.0000     8.4526   116.4578     2.4883     0.0014   -57.9882     7.3488     7.7694     9.3963
 2628.5000     8.4520   117.0422     2.4829     0.0014   -57.9860     7.4514     7.9496     9.3957
 2629.0000     8.4515   118.2260     2.4718     0.0014   -57.9838     7.5554     7.9501     9.6593
 2629.5000     8.4509   118.2083     2.4632     0.0014   -57.9811     7.6105     7.9507     9.9310
