~VERSION INFORMATION
 VERS.                2.0:   CWLS LOG ASCII STANDARD - VERSION 2.0
 WRAP.                 NO:   ONE LINE PER DEPTH STEP
~WELL INFORMATION
#MNEM.UNIT      DATA TYPE    INFORMATION
#----------   ------------   ------------------------------
 STRT.F            0.5000:   START DEPTH
 STOP.F         3195.0000:   STOP DEPTH
 STEP.F            0.5000:   STEP LENGTH
 NULL.          -999.2500:   NO VALUE
 COMP.   TESORO PETROLEUM:   COMPANY
 WELL. TESORO NPR 3 "A" #15-10:   WELL
 FLD .        TEAPOT DOME:   FIELD
 LOC .      S10 T38N R78W:   LOCATION
 CNTY.            NATRONA:   COUNTY
 STAT.            WYOMING:   STATE
 CTRY. UNITED STATES OF AMERICA:   COUNTRY
 SRVC.       SCHLUMBERGER:   SERVICE COMPANY
 DATE.        03-JUL-1969:   LOGDATE
 API .     49025600130000:   API NUMBER
~CURVE INFORMATION
#MNEM.UNIT       API CODE    CURVE DESCRIPTION
#----------   ------------   ------------------------------
 DEPT.F                  :   
 SPR .MV     05 010 01 00:   SPONTANEOUS POTENTIAL FROM RES.
 ASN .OHMM   05 041 16 00:   AMPLIFIED SHORT NORMAL 16"
 ILD .OHMM   05 120 46 00:   INDUCTION LOG DEEP
 CALD.IN     45 280 60 00:   CALIPER FROM DENSITY LOG
 GRD .GAPI   45 310 01 00:   GAMMA RAY FROM DENSITY LOG
 RHOB.G/C3   45 350 01 00:   BULK DENSITY
~PARAMETER INFORMATION
#MNEM.UNIT          VALUE    DESCRIPTION
#----------   ------------   ------------------------------
 EKB .F         5250.0000:   Kelly bushing
 EGL .F         5237.0000:   Ground level
 EDF .F            0.0000:   Drilling floor
 TD  .F         3200.0000:   Total depth
 CLNT.            A2DTECH:   Client Code
 SL  . 990' FWL & 1980' FSL:   Surface Location
 PD  .                 GL:   Permanent Datum
 EPD .F              5237:   Elevation Permanent Datum
 LMF .                 KB:   Log Measured From
 DMF .                 KB:   Drilling Measured From
 DAPD.F                13:   Feet Above Permanent Datum
 DATE.        03-JUL-1969:   Date Logged [DD-MMM-YYYY]
 DD  .F              3200:   Depth driller
 DL  .F              3196:   Depth logger
 BLI .F              3195:   Bottom log interval
 TLI .F               676:   Top log interval
 CS1 .IN            10.75:   Casing size
 CBD1.      10.75" @ 675':   Casing driller 1
 CBL1.F               676:   Casing logger 1
 BS1 .IN            6.125:   Bit size
 BSD1.F              3200:   Depth drilled with bit1
 DFT .      FRESH GEL MUD:   Type fluid in hole
 DFD .                9.5:   Density
 DFV .                 46:   Viscosity
 DFPH.                9.5:   pH
 DFL .                6.4:   Fluid loss
 MSS .           FLOWLINE:   Source of sample
 RMS .OHMM           2.05:   Rm
 MST .F                76:   Rm Meas. temp.
 RMF .OHMM           1.49:   Rmf
 MFST.F                78:   Rmf Meas. temp.
 MFSS.               MEAS:   Source Rmf.
 RMB .OHMM           1.34:   Rm. at BHT
 BHT .F               116:   BHT.
 TCS .HRS               2:   Time Circ. stopped
 MRT .F               116:   Maximum recorded temp.
 LUN .               4507:   Logging unit number
 LUL .               CSPR:   Logging unit location
 ENGI.             KNOBEL:   Recorded By
 WITN.                MAY:   Witnessed by
 ORIG.        2" 5" PRINT:   Origin of data
 UWI .     49025600130000:   Unique Well ID
 DICO. A2D TECHNOLOGIES, INC.:   Digitizing Company
~OTHER INFORMATION
~A    DEPT     SPR          ASN      ILD       CALD        GRD       RHOB   
# ...
  468.5000   -46.7785     7.9560     7.2289  -999.2500  -999.2500  -999.2500
  469.0000   -46.5725     7.9868     7.3795  -999.2500  -999.2500  -999.2500
  469.5000   -46.3588     7.9572     7.2289  -999.2500  -999.2500  -999.2500
  470.0000   -46.1334     7.6561     6.7771  -999.2500  -999.2500  -999.2500
  470.5000   -45.9879     6.9085     6.3253  -999.2500  -999.2500  -999.2500
  471.0000   -45.7755     6.6921     5.8735  -999.2500  -999.2500  -999.2500
  471.5000   -45.8748     6.6624     5.7229  -999.2500  -999.2500  -999.2500
  472.0000   -45.9677     6.6631     5.7269  -999.2500  -999.2500  -999.2500
  472.5000   -45.9325     6.6939     6.0241  -999.2500  -999.2500  -999.2500
  473.0000   -45.8018     6.8906     6.1747  -999.2500  -999.2500  -999.2500
  473.5000   -45.8872     7.3285     6.6265  -999.2500  -999.2500  -999.2500
  474.0000   -45.9895     7.6996     7.0783  -999.2500  -999.2500  -999.2500
  474.5000   -46.2701     8.0538     7.5301  -999.2500  -999.2500  -999.2500
  475.0000   -46.3669     8.2353     7.7560  -999.2500  -999.2500  -999.2500
  475.5000   -46.2023     8.3264     7.8313  -999.2500  -999.2500  -999.2500
  476.0000   -46.0204     8.4478     7.9066  -999.2500  -999.2500  -999.2500
  476.5000   -46.0378     8.5388     7.9066  -999.2500  -999.2500  -999.2500
  477.0000   -46.1166     8.6299     7.9450  -999.2500  -999.2500  -999.2500
  477.5000   -46.1968     8.7707     7.9819  -999.2500  -999.2500  -999.2500
  478.0000   -46.2769     8.9027     7.9819  -999.2500  -999.2500  -999.2500
  478.5000   -46.3626     8.9635     7.9819  -999.2500  -999.2500  -999.2500
  479.0000   -46.3253     9.0395     7.9819  -999.2500  -999.2500  -999.2500
  479.5000   -46.1820     9.1458     8.1325  -999.2500  -999.2500  -999.2500
  480.0000   -46.1874     9.1162     8.1325  -999.2500  -999.2500  -999.2500
  480.5000   -46.3405     9.0865     8.2831  -999.2500  -999.2500  -999.2500
  481.0000   -46.1823     9.0403     8.2831  -999.2500  -999.2500  -999.2500
  481.5000   -46.1469     9.0125     8.2831  -999.2500  -999.2500  -999.2500
  482.0000   -46.0914     8.9978     8.2831  -999.2500  -999.2500  -999.2500
  482.5000   -46.0346     8.9683     8.2831  -999.2500  -999.2500  -999.2500
  483.0000   -45.9897     8.9387     8.2831  -999.2500  -999.2500  -999.2500
  483.5000   -45.9132     8.9091     8.2831  -999.2500  -999.2500  -999.2500
  484.0000   -45.8933     8.9098     8.2831  -999.2500  -999.2500  -999.2500
  484.5000   -45.9671     8.9104     8.2831  -999.2500  -999.2500  -999.2500
  485.0000   -45.9841     8.9413     8.2831  -999.2500  -999.2500  -999.2500
  485.5000   -45.8358     9.0022     8.2831  -999.2500  -999.2500  -999.2500
  486.0000   -45.6227     9.0329     8.2831  -999.2500  -999.2500  -999.2500
  486.5000   -45.6783     9.0485     8.2831  -999.2500  -999.2500  -999.2500
  487.0000   -45.8900     9.0040     8.2831  -999.2500  -999.2500  -999.2500
  487.5000   -45.9605     8.9895     8.2831  -999.2500  -999.2500  -999.2500
  488.0000   -45.9880     8.9448     8.2831  -999.2500  -999.2500  -999.2500
  488.5000   -45.9982     8.9152     8.2831  -999.2500  -999.2500  -999.2500
  489.0000   -45.8063     8.8555     8.1325  -999.2500  -999.2500  -999.2500
  489.5000   -45.5885     8.7354     7.9819  -999.2500  -999.2500  -999.2500
  490.0000   -45.4162     8.5552     7.6807  -999.2500  -999.2500  -999.2500
  490.5000   -45.3656     8.4351     7.5301  -999.2500  -999.2500  -999.2500
  491.0000   -45.1832     8.2245     7.3795  -999.2500  -999.2500  -999.2500
  491.5000   -45.3424     8.0402     7.1536  -999.2500  -999.2500  -999.2500
  492.0000   -45.4158     7.8939     6.9277  -999.2500  -999.2500  -999.2500
  492.5000   -45.3906     7.7738     6.5512  -999.2500  -999.2500  -999.2500
  493.0000   -45.1821     7.6537     6.1747  -999.2500  -999.2500  -999.2500
  493.5000   -45.0491     7.3226     5.8735  -999.2500  -999.2500  -999.2500
  494.0000   -44.9462     6.9310     5.5643  -999.2500  -999.2500  -999.2500
  494.5000   -44.8186     6.4791     5.4217  -999.2500  -999.2500  -999.2500
  495.0000   -44.5952     6.4193     5.4217  -999.2500  -999.2500  -999.2500
  495.5000   -44.6102     6.4200     5.4217  -999.2500  -999.2500  -999.2500
  496.0000   -44.8347     6.5412     5.5723  -999.2500  -999.2500  -999.2500
  496.5000   -45.1229     6.7228     5.8735  -999.2500  -999.2500  -999.2500
  497.0000   -45.4097     7.2363     6.1747  -999.2500  -999.2500  -999.2500
  497.5000   -45.4028     7.6592     6.6265  -999.2500  -999.2500  -999.2500
  498.0000   -45.6924     7.8106     6.9277  -999.2500  -999.2500  -999.2500
  498.5000   -45.6855     7.9059     7.2289  -999.2500  -999.2500  -999.2500
  499.0000   -45.8269     7.9928     7.4603  -999.2500  -999.2500  -999.2500
  499.5000   -45.6732     8.0236     7.5301  -999.2500  -999.2500  -999.2500
  500.0000   -45.3740     8.0392     7.5301  -999.2500  -999.2500  -999.2500
  500.5000   -45.2217     7.9947     7.5345  -999.2500  -999.2500  -999.2500
  501.0000   -45.0693     7.9198     7.4619  -999.2500  -999.2500  -999.2500
  501.5000   -45.2107     7.7243     7.3901  -999.2500  -999.2500  -999.2500
  502.0000   -45.0570     7.3328     6.9287  -999.2500  -999.2500  -999.2500
  502.5000   -45.0514     6.8808     6.1941  -999.2500  -999.2500  -999.2500
  503.0000   -44.7509     6.6655     5.7449  -999.2500  -999.2500  -999.2500
  503.5000   -44.7454     6.4715     5.2974  -999.2500  -999.2500  -999.2500
  504.0000   -44.7400     6.4887     5.1504  -999.2500  -999.2500  -999.2500
  504.5000   -44.7331     6.6271     5.4560  -999.2500  -999.2500  -999.2500
  505.0000   -44.8745     6.9761     5.7608  -999.2500  -999.2500  -999.2500
  505.5000   -45.1627     7.3251     6.2161  -999.2500  -999.2500  -999.2500
  506.0000   -45.3040     7.5238     6.6723  -999.2500  -999.2500  -999.2500
  506.5000   -45.2971     7.6460     6.8264  -999.2500  -999.2500  -999.2500
  507.0000   -45.2917     7.7542     6.9806  -999.2500  -999.2500  -999.2500
  507.5000   -45.2862     8.0434     7.1404  -999.2500  -999.2500  -999.2500
  508.0000   -45.2793     8.2717     7.2892  -999.2500  -999.2500  -999.2500
  508.5000   -45.2738     8.4548     7.4435  -999.2500  -999.2500  -999.2500
  509.0000   -45.2683     8.6384     7.5980  -999.2500  -999.2500  -999.2500
  509.5000   -45.2628     8.7914     7.6024  -999.2500  -999.2500  -999.2500
  510.0000   -45.2560     8.9744     7.9071  -999.2500  -999.2500  -999.2500
  510.5000   -45.3987     9.1581     8.0612  -999.2500  -999.2500  -999.2500
  511.0000   -45.3918     9.1903     8.2154  -999.2500  -999.2500  -999.2500
  511.5000   -45.5487     9.2226     8.2951  -999.2500  -999.2500  -999.2500
  512.0000   -45.9669     9.2549     8.3739  -999.2500  -999.2500  -999.2500
  512.5000   -46.1096     9.2876     8.3774  -999.2500  -999.2500  -999.2500
  513.0000   -46.1027     9.3199     8.3810  -999.2500  -999.2500  -999.2500
  513.5000   -45.8022     9.3538     8.4606  -999.2500  -999.2500  -999.2500
  514.0000   -45.7967     9.4151     8.5395  -999.2500  -999.2500  -999.2500
  514.5000   -45.7912     9.4775     8.5430  -999.2500  -999.2500  -999.2500
  515.0000   -46.0794     9.5399     8.5474  -999.2500  -999.2500  -999.2500
  515.5000   -46.3662     9.5422     8.5509  -999.2500  -999.2500  -999.2500
  516.0000   -46.5089     9.5446     8.5544  -999.2500  -999.2500  -999.2500
  516.5000   -46.3552     9.5467     8.5580  -999.2500  -999.2500  -999.2500
  517.0000   -46.0547     9.5493     8.5624  -999.2500  -999.2500  -999.2500
  517.5000   -46.0492     9.4609     8.5659  -999.2500  -999.2500  -999.2500
  518.0000   -46.3388     9.4022     8.5694  -999.2500  -999.2500  -999.2500
  518.5000   -46.4826     9.4053     8.7236  -999.2500  -999.2500  -999.2500
  519.0000   -46.6201     9.5582     8.8786  -999.2500  -999.2500  -999.2500
  519.5000   -46.4664     9.7115     9.0327  -999.2500  -999.2500  -999.2500
  520.0000   -46.3141     9.8948     9.0362  -999.2500  -999.2500  -999.2500
