~VERSION INFORMATION
 VERS.                2.0:   CWLS LOG ASCII STANDARD - VERSION 2.0
 WRAP.                 NO:   ONE LINE PER DEPTH STEP
~WELL INFORMATION
#MNEM.UNIT      DATA TYPE    INFORMATION
#----------   ------------   ------------------------------
 STRT.F            0.0000:   START DEPTH
 STOP.F         4000.0000:   STOP DEPTH
 STEP.F            0.5000:   STEP LENGTH
 NULL.          -999.2500:   NO VALUE
 COMP. LAWRENCE &  ALLISON ASSOC.:   COMPANY
 WELL. LAWRENCE NPR 3 "TX" #14-28:   WELL
 FLD .              N P R:   FIELD
 LOC .      S28 T39N R78W:   LOCATION
 CNTY.            NATRONA:   COUNTY
 STAT.            WYOMING:   STATE
 CTRY. UNITED STATES OF AMERICA:   COUNTRY
 SRVC.      DRESSER ATLAS:   SERVICE COMPANY
 DATE.        11-APR-1984:   LOGDATE
 API .     49025109710000:   API NUMBER
~CURVE INFORMATION
#MNEM.UNIT       API CODE    CURVE DESCRIPTION
#----------   ------------   ------------------------------
 DEPT.F                  :   
 RHOB.G/C3   45 350 01 00:   BULK DENSITY
 CORR.G/C3   45 356 01 00:   DENSITY CORRECTION
 TEND.LBS    45 635 01 00:   TENSION FROM DENSITY LOG
 CNC .DEC    42 890 03 00:   NEUTRON PORISITY SANDSTONE
 DT  .US/F   60 520 00 00:   DELTA TIME
 TENS.LBS    60 635 01 00:   TENSION FROM SONIC LOG
 GRR .GAPI   07 310 01 00:   GAMMA RAY FROM RESISTIVITY
 SPR .MV     07 010 01 00:   SPONTANEOUS POTENTIAL
 CALR.IN     07 280 01 00:   CALIPER FROM RESISTIVITY
 TENR.LBS    07 635 01 00:   TENSION
 RILD.OHMM   07 120 46 00:   INDUCTION LOG DEEP RESISTIVITY
 RILM.OHMM   07 120 44 00:   INDUCTION LOG MEDIUM RESISTIVITY
 RFOC.OHMM   07 220 01 00:   RESISTIVITY FOCUSED LOG RES.
~PARAMETER INFORMATION
#MNEM.UNIT          VALUE    DESCRIPTION
#----------   ------------   ------------------------------
 EKB .F         5024.0000:   Kelly bushing
 EGL .F         5014.0000:   Ground level
 TD  .F         3996.0000:   Total depth
 DATE.        11-APR-1984:   Date logged
 CLNT.            A2DTECH:   Client Code
 SL  . 250' FWL & 2100' FNL:   Surface Location
 PD  .                 GL:   Permanent Datum
 EPD .F              5014:   Elevation Permanent Datum
 LMF .                 KB:   Log Measured From
 DMF .                 KB:   Drilling Measured From
 DD  .F              3996:   Depth driller
 DL  .F              3994:   Depth logger
 BLI .F              3992:   Bottom log interval
 CS1 .IN            8.625:   Casing size
 CBD1.      8.625" @ 404':   Casing driller 1
 CBL1.F               404:   Casing logger 1
 BS1 .IN            7.875:   Bit size
 DFT .            GEL/KCL:   Type fluid in hole
 DFD .                9.1:   Density
 DFV .                 38:   Viscosity
 DFPH.                  8:   pH
 DFL .                 14:   Fluid loss
 MSS .           FLOWLINE:   Source of sample
 RMS .OHMM           .417:   Rm
 MST .F                90:   Rm Meas. temp.
 RMF .OHMM           .313:   Rmf
 MFST.F                90:   Rmf Meas. temp.
 RMC .OHMM           .521:   Rmc
 MCST.F                90:   Rmc Meas. temp.
 MFSS.               CALC:   Source Rmf.
 RMB .OHMM            .25:   Rm. at BHT
 BHT .F               150:   BHT.
 TCS .HRS               3:   Time Circ. stopped
 MRT .F               150:   Maximum recorded temp.
 LUN .               6307:   Logging unit number
 LUL .               GLTE:   Logging unit location
 ENGI.           FAHLSING:   Recorded By
 WITN.             STRONG:   Witnessed by
 ORIG.           5" PRINT:   Origin of data
 UWI .     49025109710000:   Unique Well ID
 DICO. A2D TECHNOLOGIES, INC.:   Digitizing Company
 DAPD.F                10:   Feet Above Permanent Datum
 BSD1.F              3996:   Depth drilled with bit1
 MCSS.               CALC:   Source Rmc.
~OTHER INFORMATION
~A    DEPT    RHOB       CORR       TEND        CNC         DT       TENS         GRR       SPR       CALR       TENR       RILD       RILM       RFOC   
# ...
 3744.0000     2.6970     0.0250    39.0770     0.1740    71.1110    42.0790    94.6130   -33.2700     8.3760   -38.7030     9.2720     9.4700    20.1350
 3744.5000     2.6670     0.0070    38.8240     0.1680    67.4070    42.0790    72.7320   -33.7660     8.3760   -38.6130    11.6430    14.3100    31.8360
 3745.0000     2.6370     0.0060    38.5710     0.1680    66.4850    42.0790    71.7120   -34.2410     8.3770   -38.5240    13.9210    16.6590    35.4840
 3745.5000     2.6160     0.0190    38.3170     0.1760    67.6160    42.0790    73.4100   -34.6450     8.3770   -38.4340    16.4780    19.0080    33.1000
 3746.0000     2.6040     0.0330    38.0640     0.1830    69.4300    42.0790    83.0460   -35.0480     8.3780   -38.3440    17.9980    19.7270    27.1410
 3746.5000     2.5940     0.0470    37.8110     0.1900    71.1360    42.0790    93.7320   -35.4510     8.3780   -38.2540    16.6140    18.4770    21.2290
 3747.0000     2.5890     0.0580    37.5580     0.2010    72.7050    42.0790    99.7590   -35.8540     8.3790   -38.1650    15.2980    17.2890    18.7930
 3747.5000     2.5830     0.0410    37.3040     0.2110    74.2730    42.0790   101.8930   -36.2590     8.3790   -38.0750    13.9820    16.2540    17.0140
 3748.0000     2.5770     0.0110    37.0510     0.2160    75.0000    42.0790   101.9630   -36.6650     8.3800   -37.9850    12.6670    15.6350    16.3560
 3748.5000     2.5720    -0.0160    36.7980     0.2210    75.1330    42.0790   101.7700   -36.6860     8.3800   -37.8960    11.9250    15.0160    15.6980
 3749.0000     2.5690    -0.0320    36.5440     0.2250    75.1980    42.0790   101.8550   -36.1090     8.3810   -37.8060    11.4560    14.2270    15.0400
 3749.5000     2.5670    -0.0370    36.2910     0.2250    75.9780    42.0790   103.6240   -35.5380     8.3810   -37.7160    10.9880    13.0130    14.1770
 3750.0000     2.5690    -0.0160    36.0380     0.2210    76.9670    42.0790   108.4240   -34.9710     8.3820   -37.6270    10.5190    11.7990    12.8190
 3750.5000     2.5760     0.0160    35.7850     0.2150    78.0690    42.0790   114.8510   -34.4050     8.3820   -37.5370     9.8830    10.4750    11.4610
 3751.0000     2.5830     0.0450    35.5310     0.2120    78.4650    42.0790   120.2470   -33.8370     8.3830   -37.4470     9.1770    10.0040    10.6000
 3751.5000     2.5880     0.0430    35.2780     0.2140    78.8600    42.0790   122.4710   -33.2720     8.3830   -37.3580     8.4700     9.4860    10.1170
 3752.0000     2.5860     0.0360    35.0250     0.2240    79.1530    42.0790   124.8560   -32.7100     8.3840   -37.2680     7.7640     8.9680     9.7950
 3752.5000     2.5800     0.0180    34.7720     0.2340    79.6810    42.0790   125.3830   -32.3040     8.3840   -37.1780     7.0570     8.4500     8.9650
 3753.0000     2.5740     0.0000    34.5180     0.2430    80.5450    42.0790   125.9870   -31.8860     8.3850   -37.0890     6.3510     7.9330     8.3880
 3753.5000     2.5700    -0.0080    34.2650     0.2500    81.6620    42.0790   127.3080   -31.4670     8.3850   -36.9990     5.6140     7.4150     7.8100
 3754.0000     2.5700    -0.0090    34.0120     0.2570    82.9850    42.0790   132.5360   -31.0460     8.3850   -36.9090     5.3740     6.8970     7.2330
 3754.5000     2.5700     0.0220    33.7580     0.2570    84.3080    42.0790   139.1850   -30.6260     8.3860   -36.8200     5.1420     6.3790     6.6750
 3755.0000     2.5700     0.0440    33.5050     0.2530    85.3960    42.0790   142.1170   -30.5220     8.3860   -36.7300     4.9110     5.8610     6.1500
 3755.5000     2.5700     0.0260    33.2520     0.2480    86.2870    42.0790   142.3480   -30.4310     8.3870   -36.6400     4.6790     5.3430     5.6650
 3756.0000     2.5670    -0.0140    32.9990     0.2430    85.6150    42.0790   137.8420   -30.4130     8.3870   -36.5510     4.4480     4.9820     5.6650
 3756.5000     2.5560    -0.0120    32.7450     0.2390    85.0780    42.0790   134.8120   -30.4130     8.3880   -36.4610     4.2630     4.9750     6.4430
 3757.0000     2.5440    -0.0010    32.4920     0.2460    84.4060    42.0790   135.1300   -30.4130     8.3880   -36.3710     4.2630     4.9370     6.7440
 3757.5000     2.5350     0.0420    32.2390     0.2500    84.4060    42.0790   135.9060   -30.4130     8.3890   -36.2810     4.2630     4.8990     6.1670
 3758.0000     2.5350     0.0800    32.1780     0.2530    85.3340    42.0790   135.0530   -30.4120     8.3890   -36.1920     4.3280     4.8610     5.6140
 3758.5000     2.5470     0.0780    32.1780     0.2410    86.0770  -999.2500   134.1090   -30.4200     8.3900   -36.1020     4.4790     4.8470     5.5620
 3759.0000     2.5620     0.0560    32.1780     0.2220    86.4740  -999.2500   131.0980   -30.6290     8.3900   -36.0120     5.0360     5.3510     6.2910
 3759.5000     2.5930     0.0330    32.1780     0.2060    87.3760  -999.2500   127.9180   -30.8470     8.3910   -35.9230     5.6700     6.1860     7.3520
 3760.0000     2.6370    -0.0240    32.1780     0.1880    84.0350  -999.2500   118.2450   -31.0640     8.3910   -35.8330     6.2670     7.3040     8.4130
 3760.5000     2.6590    -0.0430    32.1780     0.1770    79.5790  -999.2500   107.0710   -31.2800     8.3920   -35.7430     8.7030     9.3910    13.5310
 3761.0000     2.6640    -0.0540    32.1780     0.1790    74.0100  -999.2500    95.8420   -31.4970     8.3920   -35.6540    11.0020    12.4860    19.3030
 3761.5000     2.6340    -0.0470    32.1780     0.1820    72.6980  -999.2500    84.6140   -31.7100     8.3930   -35.5640    13.3010    15.5800    25.0750
 3762.0000     2.5980    -0.0110    32.1780     0.1840    70.9490  -999.2500    82.0800   -32.1470     8.3940   -35.4740    15.5990    18.6750    26.9470
 3762.5000     2.5700    -0.0030    32.1780     0.1830    68.7620  -999.2500    85.0050   -32.6930     8.3950   -35.3710    17.6700    21.7690    25.7960
 3763.0000     2.5570    -0.0100    32.1780     0.1820    69.5710  -999.2500    89.7210   -33.2430     8.3960   -35.2550    17.8330    23.9180    24.4630
 3763.5000     2.5540     0.0080    32.1780     0.1830    70.6490  -999.2500    94.4540   -33.7940     8.3970   -35.1390    17.8330    23.0670    23.1300
 3764.0000     2.5540     0.0470    32.1780     0.1870    71.7270  -999.2500    99.1150   -34.3440     8.3980   -35.0220    17.6260    17.5740    22.0590
 3764.5000     2.5580     0.0560    32.1780     0.1950    72.8050  -999.2500   102.7260   -34.8940     8.3990   -34.9060    17.3390    14.6620    20.7090
 3765.0000     2.5610     0.0490    32.1780     0.2040    73.6140  -999.2500   105.9770   -35.4420     8.4000   -34.7900    17.0340    14.0580    19.3580
 3765.5000     2.5650     0.0390    32.1780     0.2120    74.0520  -999.2500   110.5270   -35.6500     8.4010   -34.6730    16.2600    13.4540    18.0080
 3766.0000     2.5690     0.0310    32.1780     0.2150    74.4020  -999.2500   115.1110   -35.4830     8.4020   -34.5570    15.4370    12.8500    16.5000
 3766.5000     2.5720     0.0310    32.1780     0.2140    74.7520  -999.2500   119.7250   -35.3190     8.4030   -34.4400    14.6140    12.3920    14.9390
 3767.0000     2.5720     0.0410    32.1780     0.2120    75.1030  -999.2500   122.6340   -35.1530     8.4030   -34.3240    13.7900    11.9120    13.9940
 3767.5000     2.5690     0.0510    32.1780     0.2120    75.4530  -999.2500   124.2490   -34.9890     8.4040   -34.2080    12.9670    11.4330    13.6760
 3768.0000     2.5630     0.0110    32.1780     0.2170    75.8910  -999.2500   123.1900   -34.8230     8.4050   -34.0910    12.1440    10.9530    13.2890
 3768.5000     2.5620    -0.0070    32.1780     0.2210    76.2310  -999.2500   121.1390   -34.8650     8.4060   -33.9750    11.3810    10.4740    12.5920
 3769.0000     2.5650     0.0040    32.1780     0.2250    76.6830  -999.2500   120.6770   -35.0930     8.4070   -33.8580    10.8670     9.9940    11.8950
 3769.5000     2.5590     0.0210    32.1780     0.2300    77.1360  -999.2500   120.6430   -35.3230     8.4080   -33.7420    10.3530     9.5150    11.1980
