~VERSION INFORMATION
 VERS.                2.0:   CWLS LOG ASCII STANDARD - VERSION 2.0
 WRAP.                 NO:   ONE LINE PER DEPTH STEP
~WELL INFORMATION
#MNEM.UNIT      DATA TYPE    INFORMATION
#----------   ------------   ------------------------------
 STRT.F          200.0000:   START DEPTH
 STOP.F         3038.0000:   STOP DEPTH
 STEP.F            0.5000:   STEP LENGTH
 NULL.          -999.2500:   NO VALUE
 COMP.    FENIX & SCISSON:   COMPANY
 WELL. FENIX NPR 3 "A" #63-28:   WELL
 FLD .            WILDCAT:   FIELD
 LOC .      S28 T39N R78W:   LOCATION
 CNTY.            NATRONA:   COUNTY
 STAT.            WYOMING:   STATE
 CTRY. UNITED STATES OF AMERICA:   COUNTRY
 SRVC.              WELEX:   SERVICE COMPANY
 DATE.        29-MAY-1977:   LOGDATE
 API .     49025103740000:   API NUMBER
~CURVE INFORMATION
#MNEM.UNIT       API CODE    CURVE DESCRIPTION
#----------   ------------   ------------------------------
 DEPT.F                  :   
 SPR .MV     07 010 01 00:   SPONTANEOUS POTENTIAL
 ILM .OHMM   07 120 44 00:   INDUCTION LOG MEDIUM RESISTIVITY
 ILD .OHMM   07 120 46 00:   DEEP INDUCTION RESISTIVITY
 SGRD.OHMM   07 220 05 00:   SHALLOW SHORT GUARD RESISTIVITY
 GRD .GAPI   45 310 01 00:   GAMMA RAY FROM DENSITY LOG
 CALD.IN     45 280 60 00:   CALIPER FROM DENSITY LOG
 RHOB.G/C3   45 350 01 00:   BULK DENSITY
 CORR.G/C3   45 356 01 00:   DENSITY CORRECTION
~PARAMETER INFORMATION
#MNEM.UNIT          VALUE    DESCRIPTION
#----------   ------------   ------------------------------
 EKB .F         5040.0000:   Kelly bushing
 EGL .F         5029.0000:   Ground level
 EDF .F            0.0000:   Drilling floor
 EPD .F         5029.0000:   Permanent datum
 TD  .F         3040.0000:   Total depth
 DATE.        29-MAY-1977:   Date logged
 CLNT.            A2DTECH:   Client Code
 SL  . 1650' FNL & 1650' FEL:   Surface Location
 PD  .                 GL:   Permanent Datum
 LMF .                 KB:   Log Measured From
 DMF .                 KB:   Drilling Measured From
 DD  .F              3040:   Depth driller
 DL  .F              3038:   Depth logger
 BLI .F              3036:   Bottom log interval
 TLI .F               200:   Top log interval
 CS1 .IN            8.625:   Casing size
 BSD1.F              3040:   Depth drilled with bit1
 DFT .            KCL MUD:   Type fluid in hole
 ORIG.     2.5", 5" PRINT:   Origin of data
 UWI .     49025103740000:   Unique Well ID
 DICO. A2D TECHNOLOGIES, INC.:   Digitizing Company
 DAPD.                 11:   Feet Above Permanent Datum
 CBD1.      8.625" @ 220':   Casing driller 1
 BS1 .              7.875:   Bit size
 DFD .                8.7:   Density
 MRT .                108:   Maximum recorded temp.
 ENGI.            C. DOAK:   Recorded By
 WITN.      W. PETTINGILL:   Witnessed by
~OTHER INFORMATION
~A   DEPT      SPR        ILM          ILD     SGRD         GRD        CALD       RHOB      CORR  
# ...
 1131.5000   -62.8600     9.8300     8.5370    11.2680    87.7500    10.3110     2.4630     0.0280
 1132.0000   -62.9280     9.6310     8.5280    11.3640    88.8530    10.3540     2.4600     0.0210
 1132.5000   -62.9960     9.5430     8.5190    11.2910    90.2030    10.3970     2.4610     0.0180
 1133.0000   -63.0300     9.5430     8.5090    10.7720    90.2750    10.3830     2.4610     0.0210
 1133.5000   -62.9650     9.5430     8.5000    10.2710    89.4300    10.3250     2.4610     0.0250
 1134.0000   -62.9020     9.5400     8.4910    10.8530    88.2800    10.2810     2.4620     0.0300
 1134.5000   -62.8380     9.5230     8.4810    10.8530    87.1170    10.2410     2.4630     0.0340
 1135.0000   -62.7750     9.5060     8.4680    10.6950    86.0440    10.2010     2.4770     0.0380
 1135.5000   -62.7100     9.4890     8.5190    10.5580    84.9500    10.1600     2.4910     0.0410
 1136.0000   -62.6510     9.4720     8.6020    10.5580    84.7430    10.1290     2.5030     0.0450
 1136.5000   -62.7240     9.4560     8.6870    11.5750    84.0240    10.1280     2.5100     0.0490
 1137.0000   -62.8030     9.5350     8.7280    11.4560    84.1460    10.1280     2.5090     0.0530
 1137.5000   -62.8830     9.6150     8.8490    11.1570    84.0960    10.1260     2.5050     0.0550
 1138.0000   -62.9620     9.8460     8.9700    11.1570    84.1330    10.1450     2.5010     0.0540
 1138.5000   -63.0360    10.2710     9.0910    11.5650    84.0300    10.1800     2.4960     0.0520
 1139.0000   -62.9990    10.3750     9.2120    12.2310    84.8800    10.2120     2.4980     0.0490
 1139.5000   -62.9570    10.4170     9.2910    12.2310    86.3000    10.2450     2.4990     0.0460
 1140.0000   -62.9160    10.4590     9.3100    12.0710    87.8510    10.2920     2.4970     0.0430
 1140.5000   -62.8750    10.5010     9.3300    11.9400    87.9700    10.3420     2.4860     0.0410
 1141.0000   -62.8420    10.5580     9.3490    11.8090    88.0060    10.3620     2.4760     0.0380
 1141.5000   -62.8430    10.5430     9.3680    11.6810    87.9420    10.3600     2.4660     0.0350
 1142.0000   -62.8430    10.5090     9.3870    11.5750    87.5390    10.3590     2.4570     0.0320
 1142.5000   -62.8430    10.4740     9.4060    11.9120    87.0960    10.3190     2.4460     0.0290
 1143.0000   -62.8430    10.4400     9.4260    12.1190    86.6310    10.2630     2.4430     0.0270
 1143.5000   -62.8430    10.4050     9.4550    12.0080    86.2180    10.2100     2.4460     0.0240
 1144.0000   -62.8430    10.3710     9.4500    11.5500    85.6760    10.1740     2.4480     0.0220
 1144.5000   -62.8430    10.3150     9.4380    11.0550    85.9780    10.2440     2.4420     0.0200
 1145.0000   -62.8430    10.2710     9.4260    11.2570    86.8260    10.3020     2.4350     0.0190
 1145.5000   -62.8630    10.3840     9.4140    11.6460    87.6480    10.3670     2.4340     0.0200
 1146.0000   -62.9070    10.6290     9.4020    12.0080    88.4960    10.4270     2.4390     0.0210
 1146.5000   -62.9510    10.8740     9.3900    12.0080    89.2880    10.4920     2.4490     0.0230
 1147.0000   -62.9950    11.0100     9.3780    11.8120    90.2370    10.5170     2.4530     0.0230
 1147.5000   -63.0380    11.0550     9.3630    12.0080    90.2880    10.5150     2.4520     0.0230
 1148.0000   -63.0820    10.6740     9.3430    11.7630    90.3380    10.5160     2.4530     0.0210
 1148.5000   -63.1260    10.4610     9.3230    11.4040    90.3050    10.5100     2.4520     0.0200
 1149.0000   -63.1690    10.3910     9.3020    11.3210    90.1610    10.4930     2.4530     0.0190
 1149.5000   -63.2130    10.3260     9.2830    11.2600    89.4540    10.4770     2.4530     0.0220
 1150.0000   -63.2290    10.2610     9.1290    11.4870    89.5780    10.4610     2.4560     0.0260
 1150.5000   -63.2180    10.1960     8.9870    11.5750    89.4160    10.4450     2.4620     0.0300
 1151.0000   -63.2070    10.1530     8.8460    11.2910    89.1260    10.4290     2.4720     0.0340
 1151.5000   -63.1950    10.1070     8.7050    10.8530    88.8440    10.4120     2.4820     0.0380
 1152.0000   -63.1840     9.9870     8.5640    10.6670    88.5520    10.3960     2.4880     0.0390
 1152.5000   -63.1720     9.6770     8.4630    10.4630    88.2590    10.3800     2.4900     0.0400
 1153.0000   -63.1610     9.3680     8.4190    10.3240    87.9750    10.3640     2.4920     0.0410
 1153.5000   -63.1490     9.1980     8.3750    10.2710    87.6900    10.3480     2.4950     0.0420
 1154.0000   -63.1380     9.1660     8.3310    10.7540    87.3510    10.3300     2.5010     0.0450
 1154.5000   -63.1260     9.1210     8.2870    10.3660    87.5050    10.3290     2.5110     0.0520
 1155.0000   -63.1150     9.1800     8.2430    10.4520    88.4090    10.3530     2.5050     0.0550
 1155.5000   -63.1030     9.2380     8.2000    10.5580    89.3080    10.3740     2.4990     0.0540
 1156.0000   -63.0920     9.2960     8.1640    10.2710    90.1310    10.3970     2.4910     0.0530
 1156.5000   -63.0800     9.3550     8.1730    10.2710    91.0230    10.4190     2.4850     0.0510
 1157.0000   -63.0690     9.3780     8.1830    10.6350    91.2340    10.4380     2.4780     0.0480
 1157.5000   -63.0580     9.3890     8.1920    10.8530    91.9340    10.4370     2.4750     0.0450
 1158.0000   -63.0460     9.4010     8.2010    10.3140    91.8090    10.4330     2.4720     0.0430
 1158.5000   -63.0390     9.4130     8.2110    10.3910    90.9150    10.3690     2.4690     0.0400
 1159.0000   -63.0390     9.4250     8.2200    10.5410    89.4910    10.3130     2.4670     0.0380
 1159.5000   -63.0390     9.4360     8.2300    10.7540    88.1870    10.2500     2.4650     0.0350
 1160.0000   -63.0410     9.4480     8.2380    10.6910    86.8450    10.1940     2.4620     0.0310
 1160.5000   -62.9910     9.4660     8.2970    10.5580    86.1930    10.1320     2.4570     0.0270
 1161.0000   -62.9340     9.4920     8.3580    11.0550    86.2280    10.1280     2.4520     0.0230
 1161.5000   -62.8770     9.5190     8.4190    10.8780    87.7600    10.1270     2.4470     0.0190
 1162.0000   -62.8890     9.5460     8.4680    10.5580    89.0160    10.1280     2.4430     0.0150
 1162.5000   -62.9930     9.5720     8.4550    11.0260    90.4920    10.1290     2.4400     0.0160
 1163.0000   -63.0960     9.5990     8.4410    11.2600    91.0760    10.1330     2.4400     0.0190
 1163.5000   -63.2040     9.6310     8.4280    10.7990    91.6750    10.1360     2.4440     0.0220
 1164.0000   -63.2340     9.5800     8.4140    10.4610    91.8750    10.1400     2.4510     0.0270
 1164.5000   -63.2360     9.5170     8.4010    11.0550    91.8960    10.1440     2.4560     0.0310
 1165.0000   -63.2350     9.4550     8.3910    10.6860    91.6740    10.1470     2.4620     0.0300
 1165.5000   -63.2350     9.4210     8.4170    10.2710    90.9680    10.1510     2.4650     0.0310
 1166.0000   -63.2350     9.3880     8.4390    10.5870    89.6600    10.1540     2.4670     0.0270
 1166.5000   -63.2350     9.3690     8.4600    11.1570    88.0040    10.1580     2.4640     0.0210
 1167.0000   -63.2350     9.4550     8.5730    11.2600    86.4450    10.1620     2.4590     0.0160
 1167.5000   -63.2350     9.6930     8.7400    10.5580    86.9740    10.1650     2.4540     0.0110
 1168.0000   -63.2350    10.0650     8.8840    11.3840    87.8440    10.1690     2.4520     0.0120
 1168.5000   -63.2360    10.2790     8.9560    12.1790    88.7230    10.1730     2.4500     0.0160
 1169.0000   -63.2190    10.2960     9.0290    12.5730    89.6390    10.1760     2.4520     0.0190
 1169.5000   -63.1970    10.3140     9.1010    11.8710    90.3830    10.1800     2.4530     0.0230
 1170.0000   -63.1740    10.3320     9.1740    11.5750    90.2830    10.1840     2.4580     0.0260
 1170.5000   -63.1520    10.3490     9.1980    11.5750    90.3160    10.1870     2.4630     0.0300
 1171.0000   -63.1290    10.3660     9.1980    11.6810    90.3120    10.1910     2.4660     0.0310
 1171.5000   -63.1070    10.2710     9.1980    11.6810    90.3050    10.1950     2.4660     0.0310
