~VERSION INFORMATION
 VERS.                2.0:   CWLS LOG ASCII STANDARD - VERSION 2.0
 WRAP.                 NO:   ONE LINE PER DEPTH STEP
~WELL INFORMATION
#MNEM.UNIT      DATA TYPE    INFORMATION
#----------   ------------   ------------------------------
 STRT.F          417.0000:   START DEPTH
 STOP.F         4133.0000:   STOP DEPTH
 STEP.F            0.5000:   STEP LENGTH
 NULL.          -999.2500:   NO VALUE
 COMP.    FENIX & SCISSON:   COMPANY
 WELL. FENIX  "LX" #18-11:   WELL
 FLD .              NPR 3:   FIELD
 LOC .      S11 T38N R78W:   LOCATION
 CNTY.            NATRONA:   COUNTY
 STAT.            WYOMING:   STATE
 CTRY. UNITED STATES OF AMERICA:   COUNTRY
 SRVC.       SCHLUMBERGER:   SERVICE COMPANY
 DATE.        14-JAN-1978:   LOGDATE
 API .     49025105590000:   API NUMBER
~CURVE INFORMATION
#MNEM.UNIT       API CODE    CURVE DESCRIPTION
#----------   ------------   ------------------------------
 DEPT.F                  :   
 SPR .MV     07 010 01 00:   SPONTANEOUS POTENTIAL
 SFL .OHMM   07 220 01 00:   SHALLOW FOCUSED LOG RESISTIVITY
 ILD .OHMM   07 120 46 00:   DEEP INDUCTION RESISTIVITY
 ILM .OHMM   07 120 44 00:   INDUCTION LOG MEDIUM RESISTIVITY
 CALD.IN     45 280 60 00:   CALIPER FROM DENSITY LOG
 GRD .GAPI   45 310 01 00:   GAMMA RAY FROM DENSITY LOG
 RHOB.G/C3   45 350 01 00:   BULK DENSITY
 CORR.G/C3   45 356 01 00:   DENSITY CORRECTION
 NPHI.DEC    42 890 03 00:   NEUTRON POROSITY SANDSTONE
~PARAMETER INFORMATION
#MNEM.UNIT          VALUE    DESCRIPTION
#----------   ------------   ------------------------------
 EKB .F         5220.0000:   Kelly bushing
 EGL .F         5210.0000:   Ground level
 EDF .F            0.0000:   Drilling floor
 TD  .F         4125.0000:   Total depth
 DATE.        14-JAN-1978:   Date logged
 CLNT.            A2DTECH:   Client Code
 SL  . 330' FSL & 530' FWL:   Surface Location
 PD  .                 GL:   Permanent Datum
 EPD .F              5210:   Elevation Permanent Datum
 LMF .                 KB:   Log Measured From
 DMF .                 KB:   Drilling Measured From
 DAPD.F                10:   Feet Above Permanent Datum
 DD  .F              4125:   Depth driller
 DL  .F              4121:   Depth logger
 BLI .F              4116:   Bottom log interval
 TLI .F               427:   Top log interval
 CS1 .IN            8.625:   Casing size
 CBD1.      8.625" @ 513':   Casing driller 1
 CBL1.F               427:   Casing logger 1
 BS1 .IN            7.875:   Bit size
 BSD1.F              4125:   Depth drilled with bit1
 DFT .                KCL:   Type fluid in hole
 DFD .                8.8:   Density
 DFV .                 40:   Viscosity
 DFPH.                 12:   pH
 DFL .                7.4:   Fluid loss
 MSS .           MUD TANK:   Source of sample
 RMS .OHMM           .418:   Rm
 MST .F                60:   Rm Meas. temp.
 RMF .OHMM           .343:   Rmf
 MFST.F                60:   Rmf Meas. temp.
 MFSS.               MEAS:   Source Rmf.
 RMB .OHMM            .20:   Rm. at BHT
 BHT .F               123:   BHT.
 TCS .HRS            0600:   Time Circ. stopped
 TLAB.HRS            0845:   Time logger at bottom
 MRT .F               123:   Maximum recorded temp.
 LUN .               8035:   Logging unit number
 LUL .               CSPR:   Logging unit location
 ENGI.             MARTIN:   Recorded By
 WITN.         HARRINGTON:   Witnessed by
 ORIG.      2.5" 5" PRINT:   Origin of data
 UWI .     49025105590000:   Unique Well ID
 DICO. A2D TECHNOLOGIES, INC.:   Digitizing Company
~OTHER INFORMATION
~A   DEPT      SPR        SFL        ILD        ILM       CALD         GRD      RHOB       CORR       NPHI   
# ...
 1658.0000   -34.3770     8.9880     8.9050     7.3000    11.1300   107.2550     2.5420     0.0090     0.2920
 1658.5000   -34.2590     8.9880     8.9050     7.0020    11.1030   106.9230     2.5370     0.0080     0.2900
 1659.0000   -34.0170     8.9230     8.9050     7.1230    11.0800   110.6940     2.5330     0.0040     0.2880
 1659.5000   -33.7700     8.8270     8.4560     7.2210    11.0790   113.0960     2.5300     0.0020     0.2860
 1660.0000   -33.5230     8.7300     8.1940     7.3190    11.0770   112.3180     2.5290     0.0030     0.2860
 1660.5000   -33.2770     8.6340     8.1940     7.4160    11.0630   109.9910     2.5370     0.0080     0.2830
 1661.0000   -33.0310     8.5370     8.1940     7.5140    11.0490   107.6020     2.5480     0.0120     0.2780
 1661.5000   -32.7850     8.4400     8.1940     7.6120    11.0350   108.9250     2.5570     0.0160     0.2780
 1662.0000   -32.5370     8.3440     8.1940     7.7510    11.0210   111.4240     2.5480     0.0170     0.2840
 1662.5000   -32.4600     8.2470     8.1940     7.6290    11.0070   117.7820     2.5390     0.0130     0.2890
 1663.0000   -32.4970     8.1510     8.1940     7.4150    10.9930   122.2070     2.5330     0.0090     0.2990
 1663.5000   -32.5370     8.0540     8.1940     7.2010    10.9800   124.1450     2.5470     0.0060     0.3000
 1664.0000   -32.5770     7.9450     8.1940     6.9880    10.9660   125.8580     2.5620     0.0140     0.3080
 1664.5000   -32.6170     7.8960     8.1940     6.8100    10.9520   127.7330     2.5680     0.0130     0.3110
 1665.0000   -32.6570     8.2980     8.1940     6.8680    10.9380   127.3480     2.5640     0.0100     0.3050
 1665.5000   -32.6970     8.7080     8.1940     6.9180    10.9240   122.0880     2.5570     0.0080     0.2960
 1666.0000   -32.7360     9.1550     8.1940     6.9670    10.9100   113.5230     2.5540     0.0120     0.2920
 1666.5000   -32.7760     8.9850     8.1940     7.0170    10.8960   105.4960     2.5540     0.0170     0.2940
 1667.0000   -32.8160     8.7970     8.2000     7.0660    10.8820   103.2910     2.5590     0.0140     0.2960
 1667.5000   -32.9410     8.5810     8.2180     7.1160    10.8680   109.6330     2.5570     0.0110     0.2980
 1668.0000   -33.1380     8.6580     8.2360     7.1650    10.8540   119.0340     2.5530     0.0070     0.2990
 1668.5000   -33.3350     8.7740     8.2540     7.2150    10.8440   117.1080     2.5550     0.0070     0.2930
 1669.0000   -33.5320     8.8900     8.2710     7.2660    10.8520   111.2910     2.5590     0.0080     0.2930
 1669.5000   -33.7290     9.0060     8.2890     7.3330    10.8580   105.7410     2.5600     0.0100     0.2930
 1670.0000   -33.9260     9.0710     8.3070     7.3400    10.8660   103.4090     2.5580     0.0100     0.2960
 1670.5000   -34.1230     9.0570     8.3250     7.3500    10.8730   104.7770     2.5500     0.0050     0.2930
 1671.0000   -34.3180     9.0460     8.3420     7.3610    10.8800   105.9990     2.5440     0.0020     0.2860
 1671.5000   -34.4030     9.0350     8.3810     7.3720    10.8790   105.6050     2.5400    -0.0020     0.2840
 1672.0000   -34.3320     9.0240     8.4270     7.3820    10.8720   104.4660     2.5390     0.0020     0.2860
 1672.5000   -34.2650     9.0130     8.4720     7.3930    10.8670   103.3180     2.5410     0.0050     0.2900
 1673.0000   -33.9880     9.0020     8.5180     7.4040    10.8610   102.4520     2.5490     0.0090     0.2960
 1673.5000   -33.5360     8.9900     8.5640     7.4140    10.8550   103.2860     2.5590     0.0130     0.2990
 1674.0000   -33.0850     8.9790     8.6090     7.4250    10.8490   104.0280     2.5630     0.0170     0.2960
 1674.5000   -32.8000     8.9680     8.6610     7.4360    10.8440   104.8580     2.5570     0.0140     0.2900
 1675.0000   -32.7270     8.9570     8.6040     7.4460    10.8530   105.5000     2.5480     0.0080     0.2830
 1675.5000   -32.6530     8.9460     8.5380     7.4570    10.8620   105.0050     2.5430     0.0040     0.2820
 1676.0000   -32.5790     8.9350     8.4720     7.4680    10.8720   103.7110     2.5410    -0.0010     0.2880
 1676.5000   -32.5040     8.9240     8.4060     7.4700    10.8820   102.4320     2.5390    -0.0060     0.2920
 1677.0000   -32.4430     8.9120     8.3410     7.4700    10.8920   102.2690     2.5370    -0.0020     0.2900
 1677.5000   -32.6100     8.8370     8.2750     7.3840    10.9010   104.9230     2.5350     0.0020     0.2870
 1678.0000   -32.7820     8.6150     8.2090     7.2860    10.9110   107.6390     2.5470     0.0060     0.2910
 1678.5000   -32.9520     8.3930     8.1940     7.1880    10.9210   110.1500     2.5560     0.0090     0.3030
 1679.0000   -33.1210     8.1710     8.1940     7.0910    10.9300   114.6070     2.5570     0.0060     0.3070
 1679.5000   -33.2910     7.9700     8.1940     7.0020    10.9400   115.6070     2.5520     0.0020     0.3100
 1680.0000   -33.4610     7.9700     8.2250     7.0020    10.9500   115.6800     2.5510    -0.0020     0.3130
 1680.5000   -33.6310     8.3020     8.3200     7.1050    10.9600   114.0490     2.5510     0.0000     0.3020
 1681.0000   -33.8000     8.7450     8.4150     7.2150    10.9690   112.5750     2.5520     0.0020     0.2960
 1681.5000   -33.9700     9.1870     8.5100     7.3250    10.9790   110.1640     2.5540     0.0030     0.2930
 1682.0000   -34.1400     9.3450     8.6050     7.4350    10.9890   107.1480     2.5550     0.0050     0.2880
 1682.5000   -34.3110     9.3830     8.7010     7.5450    10.9990   104.2910     2.5560     0.0060     0.2920
 1683.0000   -34.4810     9.5000     8.7960     7.6540    11.0000   101.5350     2.5580     0.0060     0.2960
 1683.5000   -34.6060     9.5890     8.8910     7.7640    11.0000   100.9040     2.5660     0.0060     0.2950
 1684.0000   -34.3380     9.5890     8.9880     7.8740    11.0000   101.6270     2.5750     0.0060     0.2900
 1684.5000   -34.0700     9.2740     8.9880     7.9700    11.0000   102.2660     2.5770     0.0060     0.2890
 1685.0000   -33.8040     8.9050     8.9880     7.9470    11.0000   102.9450     2.5740     0.0060     0.2930
 1685.5000   -33.5380     8.9050     8.9800     7.9270    11.0000   102.8970     2.5610     0.0060     0.2950
 1686.0000   -33.2720     9.0990     8.9450     7.9060    11.0000   102.0200     2.5570     0.0060     0.3050
 1686.5000   -33.0090     9.2880     8.9110     7.9700    11.0000   101.2970     2.5530     0.0060     0.2990
 1687.0000   -32.8380     9.5000     8.8760     7.9400    11.0000   100.4840     2.5510     0.0070     0.2910
 1687.5000   -32.8570     9.5000     8.8410     7.9120    11.0070   100.1350     2.5540     0.0080     0.2840
 1688.0000   -32.8730     9.2420     8.8070     7.8850    11.0130   105.6610     2.5540     0.0100     0.2860
 1688.5000   -32.8890     9.0710     8.7720     7.8580    11.0190   115.8770     2.5500     0.0110     0.2890
 1689.0000   -32.9060     9.1030     8.7420     7.8310    11.0240   117.7880     2.5460     0.0130     0.2880
 1689.5000   -32.9220     9.1660     8.7950     7.8040    11.0300   114.7010     2.5490     0.0140     0.2860
 1690.0000   -32.9390     9.2290     8.8230     7.7770    11.0360   115.3890     2.5560     0.0110     0.2780
 1690.5000   -32.9550     9.3260     8.5320     7.7510    11.0420   117.9080     2.5500     0.0080     0.2740
 1691.0000   -32.9710     9.0910     8.3260     7.5210    11.0480   120.3220     2.5410     0.0040     0.2820
 1691.5000   -32.9880     8.7440     8.1940     7.3030    11.0540   119.3800     2.5370     0.0110     0.2950
 1692.0000   -33.0030     8.5570     8.1940     7.0860    11.0600   113.2470     2.5400     0.0190     0.3060
 1692.5000   -33.0200     8.4200     8.1180     6.9370    11.0660   106.1660     2.5420     0.0270     0.3100
 1693.0000   -33.0900     8.3470     8.1180     7.0650    11.0710   101.7300     2.5320     0.0210     0.3120
 1693.5000   -33.4240     8.3470     8.0440     7.1540    11.0770   104.9950     2.5250     0.0160     0.3030
 1694.0000   -33.7540     8.4090     8.0440     7.2440    11.0670   107.8100     2.5310     0.0140     0.2960
