~VERSION INFORMATION
 VERS.                2.0:   CWLS LOG ASCII STANDARD - VERSION 2.0
 WRAP.                 NO:   ONE LINE PER DEPTH STEP
~WELL INFORMATION
#MNEM.UNIT      DATA TYPE    INFORMATION
#----------   ------------   ------------------------------
 STRT.F           50.0000:   START DEPTH
 STOP.F         5698.0000:   STOP DEPTH
 STEP.F            0.5000:   STEP LENGTH
 NULL.          -999.2500:   NO VALUE
 COMP. LAWRENCE - ALLISON:   COMPANY
 WELL. LAWRENCE TPX #57-3:   WELL
 FLD .              NPR 3:   FIELD
 LOC .       S3 T38N R78W:   LOCATION
 CNTY.            NATRONA:   COUNTY
 STAT.            WYOMING:   STATE
 CTRY. UNITED STATES OF AMERICA:   COUNTRY
 SRVC.       SCHLUMBERGER:   SERVICE COMPANY
 DATE.        09-AUG-1982:   LOGDATE
 API .     49025108900000:   API NUMBER
~CURVE INFORMATION
#MNEM.UNIT       API CODE    CURVE DESCRIPTION
#----------   ------------   ------------------------------
 DEPT.F                  :   
 TEND.LBS    45 635 01 00:   TENSION FROM DENSITY LOG
 CALD.IN     45 280 60 00:   CALIPER FROM DENSITY LOG
 NPHI.DEC    42 890 03 00:   NEUTRON POROSITY SANDSTONE
 CORR.G/C3   45 356 01 00:   DENSITY CORRECTION
 RHOB.G/C3   45 350 01 00:   BULK DENSITY
 SPR .MV     11 010 01 00:   SPONTANEOUS POTENTIAL FROM RESISTIVITY
 TENR.LBS    11 635 01 00:   TENSION FROM RESISTIVITY
 GRR .GAPI   11 310 01 00:   GAMMA RAY FROM RESISTIVITY
 LLD .OHMM   11 220 10 00:   LATEROLOG DEEP
 LLS .OHMM   11 220 09 00:   LATEROLOG LOG SHALLOW
 MSFL.OHMM   11 270 04 00:   MICRO SPHERICALLY FOCUSED
~PARAMETER INFORMATION
#MNEM.UNIT          VALUE    DESCRIPTION
#----------   ------------   ------------------------------
 EKB .F         5190.0000:   Kelly bushing
 EGL .F         5180.0000:   Ground level
 EDF .F         5189.0000:   Drilling floor
 TD  .F         5686.0000:   Total depth
 CLNT.            A2DTECH:   Client Code
 SL  . 1002' FSL & 2479' FEL:   Surface Location
 PD  .                 GL:   Permanent Datum
 EPD .F              5180:   Elevation Permanent Datum
 LMF .                 KB:   Log Measured From
 DMF .                 KB:   Drilling Measured From
 DAPD.F                10:   Feet Above Permanent Datum
 DATE.        09-AUG-1982:   Date Logged [DD-MMM-YYYY]
 DD  .F              5685:   Depth driller
 DL  .F              5686:   Depth logger
 BLI .F              5683:   Bottom log interval
 TLI .F               494:   Top log interval
 CS1 .IN            9.625:   Casing size
 CBD1.      9.625" @ 500':   Casing driller 1
 CBL1.F               494:   Casing logger 1
 BS1 .IN             8.75:   Bit size
 BSD1.F              5685:   Depth drilled with bit1
 DFT .                KCL:   Type fluid in hole
 DFD .                9.0:   Density
 DFV .                 38:   Viscosity
 DFPH.                8.5:   pH
 DFL .                9.0:   Fluid loss
 MSS .            MUDTANK:   Source of sample
 RMS .OHMM           0.27:   Rm
 MST .F                79:   Rm Meas. temp.
 RMF .OHMM           0.27:   Rmf
 MFST.F                79:   Rmf Meas. temp.
 MFSS.               MEAS:   Source Rmf.
 RMB .OHMM            .13:   Rm. at BHT
 BHT .F               164:   BHT.
 TCS .HRS            1300:   Time Circ. stopped
 MRT .F               164:   Maximum recorded temp.
 LUN .               8035:   Logging unit number
 LUL .               CSPR:   Logging unit location
 ENGI.            PERAKIS:   Recorded By
 WITN.           L. FIVAS:   Witnessed by
 ORIG.        2" 5" PRINT:   Origin of data
 UWI .     49025108900000:   Unique Well ID
 DICO. A2D TECHNIOLOGIES,INC.:   Digitizing Company
 RMC .OHMM           0.41:   Rmc
 MCST.F                79:   Rmc Meas. temp.
 MCSS.               CALC:   Source Rmc.
 TLAB.HRS            2000:   Time logger at bottom
~OTHER INFORMATION
~A  DEPTH     TEND       CALD       NPHI       CORR       RHOB        SPR       TENR        GRR        LLD        LLS       MSFL
# ...
 1178.5000   680.4463     9.6885     0.2817     0.0015     2.5204   -77.6400   664.1025   100.5441     9.2163     8.4370     9.3139
 1179.0000   679.4839     9.6992     0.2778     0.0023     2.5182   -77.7016   678.9414   104.1127     9.4108     8.6162     9.7121
 1179.5000   678.5216     9.7138     0.2765     0.0039     2.5160   -77.7001   678.7602   106.8469     9.4863     8.7992     9.9204
 1180.0000   677.5593     9.6460     0.2831     0.0099     2.5176   -77.7002   678.6152   110.7859     9.5463     8.8027     9.9268
 1180.5000   676.5969     9.6493     0.2846     0.0174     2.5199   -77.6991   693.4178   111.1045     9.5493     8.7459     9.9321
 1181.0000   675.6346     9.6069     0.2810     0.0287     2.5236   -77.7589   693.2728   108.7240     9.6177     8.7495    10.0055
 1181.5000   674.6723     9.6100     0.2801     0.0310     2.5222   -77.8411   693.1240   107.2413     9.5538     8.7538    10.0806
 1182.0000   673.7100     9.5676     0.2878     0.0235     2.5185   -77.8826   692.9465   106.0122     9.4263     8.6964    10.0860
 1182.5000   672.6907     9.5694     0.2935     0.0159     2.5119   -77.8211   692.8015   101.5708     9.2365     8.6245    10.0913
 1183.0000   672.6907     9.5406     0.2901     0.0103     2.5111   -77.7615   692.6565    95.2688     8.9807     8.5266     9.8732
 1183.5000   672.6907     9.5098     0.2791     0.0133     2.5261   -77.7003   692.5115    92.8825     8.6876     8.4135     9.5617
 1184.0000   672.6907     9.4960     0.2748     0.0253     2.5381   -77.6238   692.3665    96.2190     8.6298     8.1886     9.2428
 1184.5000   672.6907     9.5096     0.2775     0.0276     2.5366   -77.5468   677.2739    98.3508     8.6327     8.0194     9.1212
 1185.0000   672.6907     9.5043     0.2838     0.0232     2.5277   -77.5342   677.1288    97.7711     8.6350     7.9183     9.0622
 1185.5000   672.6907     9.4995     0.2910     0.0195     2.5263   -77.6204   676.9806    96.8913     8.6969     7.9222     9.0683
 1186.0000   672.6907     9.4947     0.2940     0.0144     2.5241   -77.6992   676.8026    97.2217     8.7592     7.9801     9.1358
 1186.5000   672.6907     9.4899     0.2952     0.0047     2.5107   -77.6968   691.6415    97.8474     8.8908     8.0938     9.2040
 1187.0000   672.6907     9.4850     0.2978     0.0025     2.5078   -77.6175   706.4442    96.9671     9.1334     8.2091     9.2100
 1187.5000   674.6988     9.4802     0.3002     0.0049     2.5093   -77.5383   706.2629    97.5928     9.2623     8.3260     9.2149
 1188.0000   681.4993     9.4754     0.2990     0.0057     2.5131   -77.5695   706.1179   101.2306     9.2648     8.2723     9.2835
 1188.5000   688.2999     9.4708     0.2906     0.0042     2.5087   -77.7042   705.9729   101.5974     9.2672     8.1634     9.5480
 1189.0000   692.7711     9.4635     0.2785     0.0035     2.5057   -77.8396   705.8279    99.7711     9.2697     8.1099     9.8199
 1189.5000   692.7711     9.4560     0.2743     0.0036     2.5071   -77.9753   704.5361    99.1920     9.1455     8.0576     9.8931
 1190.0000   692.7711     9.4485     0.2800     0.0074     2.5244   -78.1106   690.5540   100.7272     8.7545     7.9507     9.8304
 1190.5000   692.7711     9.4411     0.2860     0.0156     2.5327   -78.2472   690.4089   101.3470     8.1980     7.7390     9.7023
 1191.0000   692.7711     9.4335     0.2881     0.0194     2.5312   -78.2997   690.2639    98.0629     7.9231     7.4805     9.4436
 1191.5000   692.7711     9.4311     0.2859     0.0156     2.5223   -78.3000   690.1189    92.0621     7.8704     7.2302     9.1288
 1192.0000   692.7711     9.4329     0.2835     0.0076     2.5246   -78.2645   689.9739    87.2662     7.8730     7.0789     8.6439
 1192.5000   692.7711     9.4348     0.2808     0.0107     2.5351   -78.0986   704.7766    85.1807     7.9295     7.0402     8.3555
 1193.0000   692.7711     9.4368     0.2763     0.0115     2.5411   -78.0014   704.6316    87.0905     7.9863     7.2401     8.8948
 1193.5000   692.7711     9.4387     0.2720     0.0026     2.5326   -77.9081   704.4843    92.4624     8.0511     7.3938     9.2116
 1194.0000   692.7711     9.4406     0.2783    -0.0041     2.5077   -77.9603   704.3053   101.8230     8.1016     7.4478     9.1531
 1194.5000   692.7711     9.4426     0.2819    -0.0055     2.4965   -78.0301   704.1603   104.8584     8.1038     7.3996     9.0951
 1195.0000   692.7711     9.4445     0.2843    -0.0039     2.5025   -78.0923   704.0153   103.3756     7.9953     7.4027     9.0387
 1195.5000   692.7711     9.4464     0.2846    -0.0009     2.5182   -77.8120   703.8703   100.0857     7.9974     7.3549     8.9802
 1196.0000   692.7711     9.4483     0.2837     0.0038     2.5242   -77.5171   688.7776    98.0005     7.9995     7.3075     8.8630
 1196.5000   692.7711     9.4503     0.2878     0.0126     2.5280   -77.6903   673.6849   101.3897     8.0016     7.2113     8.7466
 1197.0000   692.7711     9.4522     0.2935     0.0179     2.5325   -77.7007   673.5400   106.4867     8.0038     7.1889     8.5642
 1197.5000   692.7711     9.4541     0.2962     0.0239     2.5333   -77.7003   673.3931   109.5220     7.9511     7.1178     8.3448
 1198.0000   692.7711     9.4560     0.2956     0.0143     2.5214   -77.7000   673.2437   108.3405     7.8446     7.0719     8.1223
 1198.5000   692.7711     9.4580     0.2965     0.0039     2.5177   -77.7000   673.0687   106.2554     7.7929     7.0269     7.7440
 1199.0000   692.7711     9.4599     0.3009     0.0032     2.5282   -77.7000   672.9237   103.8691     7.7416     7.0326     7.7482
 1199.5000   692.7711     9.4618     0.3051     0.0175     2.5409   -77.7000   672.7787   100.8803     7.7976     7.1798     7.5416
 1200.0000   692.7711     9.4637     0.3075     0.0294     2.5499   -77.6999   672.6337   104.2208     7.8534     7.2820     6.9952
 1200.5000   692.7711     9.4657     0.3068     0.0261     2.5313   -77.6986   658.3438   104.5395     7.9176     7.4880     7.2432
 1201.0000   692.7711     9.4676     0.3051     0.0162     2.5128   -77.7608   658.0533   102.4602     8.0772     7.6998     7.6567
 1201.5000   692.7767     9.4696     0.3026     0.0154     2.5106   -77.8461   672.8055   100.0739     8.1350     7.8634     7.9891
 1202.0000   692.7950     9.4686     0.2999     0.0081     2.5153   -78.0098   657.4724    97.0852     8.1933     7.8665     8.7637
 1202.5000   692.7617     9.4584     0.2801     0.0007     2.5181   -78.3255   657.1820    98.0121     8.2490     7.7081     8.6788
 1203.0000   686.5400     9.4492     0.2764     0.0097     2.5122   -78.6450   656.8862   101.4514     8.1942     7.5469     8.0486
 1203.5000   680.1483     9.4456     0.2816     0.0142     2.5115   -78.6497   656.5285   104.9924     8.1397     7.5059     7.8322
 1204.0000   673.7335     9.4419     0.2932     0.0113     2.5138   -78.5865   656.2380   105.9193     8.0855     7.5615     7.9449
 1204.5000   672.6907     9.4381     0.2920     0.0024     2.5153   -78.5234   655.9476   105.3402     8.2560     7.5652     8.2835
 1205.0000   672.6907     9.4344     0.2917    -0.0021     2.5094   -78.3786   655.6572   104.1588     8.5464     7.7201     8.5772
 1205.5000   672.6907     9.4307     0.2928    -0.0012     2.5087   -78.1957   655.3667   102.6761     8.7864     7.8296     8.8248
 1206.0000   675.9839     9.4260     0.2940     0.0004     2.5095   -78.1001   655.0763    99.9886     8.9712     7.9406     9.7173
 1206.5000   682.7845     9.4212     0.2940     0.0034     2.5147   -78.0908   654.7858    96.6697     8.9116     7.9433     9.3285
 1207.0000   689.5850     9.4163     0.2915     0.0072     2.5208   -78.0066   654.4910    93.7099     8.6127     7.9459     9.0163
 1207.5000   692.7711     9.4115     0.2885     0.0139     2.5271   -77.9200   654.1323   100.6668     8.3234     7.8400     8.7748
 1208.0000   692.7742     9.4100     0.2855     0.0170     2.5321   -77.8496   653.8922   105.5095     8.1547     7.6300     8.4811
 1208.5000   692.7730     9.4100     0.2837     0.0103     2.5240   -77.7816   653.5514   106.7318     8.1005     7.3747     8.3684
