~VERSION INFORMATION
 VERS.                2.0:   CWLS LOG ASCII STANDARD - VERSION 2.0
 WRAP.                 NO:   ONE LINE PER DEPTH STEP
~WELL INFORMATION
#MNEM.UNIT      DATA TYPE    INFORMATION
#----------   ------------   ------------------------------
 STRT.F           31.0000:   START DEPTH
 STOP.F         2926.0000:   STOP DEPTH
 STEP.F            0.5000:   STEP LENGTH
 NULL.          -999.2500:   NO VALUE
 COMP. LAWERNCE ALLISON AND ASSOCIATES:   COMPANY
 WELL.   FENIX "X" #17-21:   WELL
 FLD .             NPR #3:   FIELD
 LOC .      S21 T39N R78W:   LOCATION
 CNTY.            NATRONA:   COUNTY
 STAT.            WYOMING:   STATE
 CTRY. UNITED STATES OF AMERICA:   COUNTRY
 SRVC.      WESTERN ATLAS:   SERVICE COMPANY
 DATE.        02-NOV-1987:   LOGDATE
 API .     49025111960000:   API NUMBER
~CURVE INFORMATION
#MNEM.UNIT       API CODE    CURVE DESCRIPTION
#----------   ------------   ------------------------------
 DEPT.F                  :   
 CALD.IN     45 280 60 00:   CALIPER FROM DENSITY LOG
 TEND.LBS    45 635 01 00:   TENSION FROM DENSITY LOG
 CORR.G/C3   45 356 01 00:   DENSITY CORRECTION
 RHOB.G/C3   45 350 01 00:   BULK DENSITY
 CNC .DEC    42 890 03 00:   NEUTRON POROSITY SANDSTONE
 SPR .MV     07 010 01 00:   SPONTANEOUS POTENTIAL
 GRR .GAPI   07 310 01 00:   GAMMA RAY FROM RESISTIVITY
 TENR.LBS    07 635 01 00:   TENSION FROM RESISTIVITY
 RFOC.OHMM   07 220 04 00:   RESISTIVITY FOCUSED LOG RES.
 RILD.OHMM   07 120 46 00:   DEEP INDUCTION RESISTIVITY
 RILM.OHMM   07 120 44 00:   INDUCTION LOG MEDIUM RESISTIVITY
~PARAMETER INFORMATION
#MNEM.UNIT          VALUE    DESCRIPTION
#----------   ------------   ------------------------------
 EKB .F         5006.0000:   Kelly bushing
 EGL .F         4995.0000:   Ground level
 EDF .F            0.0000:   Drilling floor
 TD  .F         2915.0000:   Total depth
 DATE.        02-NOV-1987:   Date logged
 CLNT.            A2DTECH:   Client Code
 SL  . 1824' FSL & 399' FWL:   Surface Location
 PD  .                 GL:   Permanent Datum
 DD  .F              2911:   Depth driller
 DL  .F              2915:   Depth logger
 BLI .F              2913:   Bottom log interval
 CS1 .IN            8.625:   Casing size
 CBD1.      8.625" @ 350':   Casing driller 1
 CBL1.F               350:   Casing logger 1
 BS1 .IN            7.875:   Bit size
 DFT .        KCL-POLYMER:   Type fluid in hole
 DFD .                8.8:   Density
 DFV .                 42:   Viscosity
 DFPH.                9.5:   pH
 DFL .                 11:   Fluid loss
 MSS .           FLOWLINE:   Source of sample
 RMS .OHMM           0.41:   Rm
 MST .F                78:   Rm Meas. temp.
 RMF .OHMM           0.29:   Rmf
 MFST.F                78:   Rmf Meas. temp.
 RMC .OHMM           0.51:   Rmc
 MCST.F                78:   Rmc Meas. temp.
 MFSS.               MEAS:   Source Rmf.
 RMB .OHMM           0.29:   Rm. at BHT
 BHT .F               108:   BHT.
 TCS .HRS               5:   Time Circ. stopped
 MRT .F               108:   Maximum recorded temp.
 LUN .            HL-6274:   Logging unit number
 LUL .           GILLETTE:   Logging unit location
 WITN.             STRONG:   Witnessed by
 ORIG.           5" PRINT:   Origin of data
 UWI .     49025111960000:   Unique Well ID
 DICO. A2D TECHNOLOGIES, INC.:   Digitizing Company
 DAPD.                 11:   Feet Above Permanent Datum
 BSD1.               2911:   Depth drilled with bit1
 MCSS.               CALC:   Source Rmc.
 EPD .               4995:   Elevation Permanent Datum
 LMF .                 KB:   Log Measured From
 DMF .                 KB:   Drilling Measured From
 TLI .                 11:   Top log interval
~OTHER INFORMATION
~A   DEPT     CALD       TEND       CORR       RHOB        CNC        SPR         GRR      TENR       RFOC       RILD       RILM   
# ...
 2379.5000     8.0140   -70.5770     0.0150     2.3800     0.2440    -7.7080    85.9550   -30.5080    14.2380    18.9550    19.2620
 2380.0000     8.0170  -100.8950     0.0130     2.3730     0.2330    -8.0100    84.0590   -49.8510    14.5910    19.8720    19.8690
 2380.5000     8.0210  -100.8950     0.0190     2.3670     0.2220    -8.0240    82.1690   -65.5340    15.0230    20.6900    20.3610
 2381.0000     8.0240  -100.8950     0.0250     2.4000     0.2100    -8.7260    81.8100   -65.5340    19.0490    21.4830    22.3090
 2381.5000     8.0280  -100.8950     0.0220     2.4300     0.1990    -9.3150    80.9890   -65.5340    22.4340    21.8710    23.9460
 2382.0000     8.0310  -100.8950     0.0160     2.4630     0.1850    -9.9420    81.0770   -65.5340    28.0930    21.6770    27.1060
 2382.5000     8.0340  -100.8950     0.0100     2.4910     0.1900   -10.5570    83.5080   -65.5340    26.5170    21.2790    24.8810
 2383.0000     8.0380  -100.8950     0.0040     2.4690     0.2030   -11.1710    87.2470   -65.5340    21.7130    20.7280    22.8580
 2383.5000     8.0410  -100.8950     0.0010     2.4500     0.2170   -11.7890    90.7430   -65.5340    16.9090    20.0000    20.8360
 2384.0000     8.0450  -102.2200     0.0040     2.4320     0.2310   -12.4120    92.1200   -65.5340    13.2550    19.3070    18.9550
 2384.5000     8.0480  -105.9750     0.0060     2.4290     0.2380   -13.0520    93.1210   -65.5340    13.2550    18.2890    18.5680
 2385.0000     8.0510  -109.7310     0.0090     2.4330     0.2320   -13.6960    92.9710   -65.5340    14.2420    17.6470    18.1140
 2385.5000     8.0550  -113.4860     0.0070     2.4390     0.2260   -14.3390    92.7790   -65.5340    15.1560    17.6470    17.6600
 2386.0000     8.0580  -117.2410     0.0050     2.4460     0.2210   -14.9570    90.1580   -65.5340    16.4280    16.7250    17.2050
 2386.5000     8.0600  -120.9960     0.0030     2.4490     0.2160   -15.3350    88.1010   -65.5340    15.8210    15.8510    16.4330
 2387.0000     8.0650  -124.7510     0.0010     2.4460     0.2190   -15.4350    87.7880   -65.5340    14.8200    15.5700    15.4530
 2387.5000     8.0690  -128.5070     0.0030     2.4420     0.2260   -15.6010    89.7130   -65.5340    13.8190    15.2940    14.7570
 2388.0000     8.0730  -132.2620     0.0050     2.4380     0.2300   -15.7500    92.2610   -65.5340    12.8180    14.8300    13.6060
 2388.5000     8.0770  -136.0170     0.0070     2.4340     0.2230   -15.9010    94.4860   -65.5340    12.5630    14.3170    12.7900
 2389.0000     8.0810  -139.7720     0.0090     2.4320     0.2210   -16.0690    98.1720   -65.5340    13.2550    13.8030    13.0200
 2389.5000     8.0850  -133.6070     0.0110     2.4300     0.2270   -16.1690    99.6610   -65.5340    12.7900    13.2890    12.8080
 2390.0000     8.0890  -124.3900     0.0130     2.4330     0.2340   -16.1030   101.3370   -65.5340    11.9770    12.7760    12.3120
 2390.5000     8.0940  -115.1730     0.0120     2.4360     0.2380   -16.4810   102.8950   -65.5340    11.2850    12.2620    11.8160
 2391.0000     8.0980  -105.9550     0.0110     2.4430     0.2380   -16.4960   104.6700   -65.5340    11.0850    11.6960    11.4880
 2391.5000     8.1020  -101.3430     0.0110     2.4460     0.2390   -16.8640   106.0500   -65.5340    11.1590    11.4880    11.5640
 2392.0000     8.1060  -102.3370     0.0100     2.4480     0.2380   -16.9190   107.0230   -65.5340    11.2890    11.5920    11.6960
 2392.5000     8.1100  -103.3310     0.0090     2.4490     0.2350   -16.9400   108.0840   -65.5340    11.4200    11.8450    11.9540
 2393.0000     8.1140  -104.3250     0.0100     2.4520     0.2350   -16.9180   108.6520   -65.5340    11.6960    12.0980    12.1410
 2393.5000     8.1180  -105.3190     0.0120     2.4510     0.2370   -16.9390   108.4880   -65.5340    12.5630    12.3510    12.3400
 2394.0000     8.1230  -106.3130     0.0130     2.4490     0.2350   -16.8190   107.4900   -65.5340    12.5030    12.5630    12.3400
 2394.5000     8.1270  -107.3070     0.0140     2.4500     0.2320   -16.5850   103.8650   -65.5340    12.4390    12.3400    12.2580
 2395.0000     8.1310  -108.3010     0.0150     2.4500     0.2370   -16.3680   100.2600   -65.5340    12.3400    12.1210    12.1870
 2395.5000     8.1350  -109.2950     0.0160     2.4490     0.2360   -16.1500    97.6660   -65.5340    12.3970    12.1210    12.1210
 2396.0000     8.1480  -110.2890     0.0180     2.4480     0.2340   -15.9290    96.8070   -65.5340    12.5220    12.2090    12.3400
 2396.5000     8.1750  -111.2830     0.0190     2.4500     0.2340   -15.7100    96.9380   -65.5340    12.6470    12.3370    12.5630
 2397.0000     8.1750  -112.2770     0.0200     2.4500     0.2350   -15.4900    97.4670   -65.5340    12.7720    12.4640    12.6640
 2397.5000     8.1730  -113.2710     0.0210     2.4500     0.2360   -15.2740    98.1700   -65.5340    12.8960    12.5920    12.7530
 2398.0000     8.1710  -114.2650     0.0230     2.4490     0.2370   -15.0500    99.0970   -65.5340    13.0210    12.7200    12.8420
 2398.5000     8.1700  -115.2590     0.0240     2.4480     0.2380   -14.9740    97.4760   -65.5340    13.1460    12.8470    12.9310
 2399.0000     8.1680  -116.2530     0.0250     2.4460     0.2360   -14.9560    96.0420   -65.5340    13.2550    12.9750    13.0200
 2399.5000     8.1660  -117.2470     0.0260     2.4440     0.2350   -14.9300    95.2390   -65.5340    13.3100    13.1030    13.1090
 2400.0000     8.1640  -118.2420     0.0280     2.4450     0.2340   -14.9020    95.3730   -65.5340    13.4940    13.2550    13.1980
 2400.5000     8.1630  -119.2360     0.0290     2.4450     0.2310   -14.8760    95.3340   -65.5340    13.7380    13.2550    13.2870
 2401.0000     8.1610  -120.2300     0.0270     2.4460     0.2290   -14.8490    95.1450   -65.5340    13.9860    13.5130    13.3760
 2401.5000     8.1590  -114.5400     0.0240     2.4440     0.2310   -14.8220    94.8340   -65.5340    14.2380    13.7380    13.4940
 2402.0000     8.1570  -100.7140     0.0200     2.4420     0.2340   -14.7960    95.7980   -65.5340    14.1610    13.5050    13.4400
 2402.5000     8.1560   -86.8880     0.0170     2.4360     0.2370   -14.7680    96.6060   -65.5340    13.8780    13.2850    13.2400
 2403.0000     8.1540   -73.0620     0.0140     2.4300     0.2390   -14.7410    96.6200   -65.5340    13.5960    13.0650    13.0400
 2403.5000     8.1520   -61.1330     0.0110     2.4240     0.2400   -14.7150    94.7860   -65.5340    13.3140    12.8460    12.7900
 2404.0000     8.1500   -62.5860     0.0090     2.4190     0.2390   -14.6860    94.1120   -65.5340    13.0200    12.7900    12.8750
 2404.5000     8.1490   -64.5360     0.0100     2.4140     0.2350   -14.6610    93.7220   -65.5340    13.0200    12.9420    13.1170
 2405.0000     8.1470   -66.4860     0.0120     2.4120     0.2300   -14.6350    93.8590   -65.5340    13.3420    13.2110    13.3590
 2405.5000     8.1450   -68.4360     0.0130     2.4120     0.2260   -14.5940    93.7810   -65.5340    13.6160    13.4800    13.6000
 2406.0000     8.1430   -70.3850     0.0140     2.4160     0.2220   -14.7260    96.5200   -65.5340    13.8890    13.7380    13.7380
 2406.5000     8.1420   -72.3350     0.0160     2.4260     0.2220   -15.1160   100.4650   -65.5340    13.9860    13.5790    13.4940
 2407.0000     8.1400   -74.2850     0.0170     2.4300     0.2240   -15.4880   101.7770   -65.5340    13.9860    13.3330    13.7380
 2407.5000     8.1380   -76.2350     0.0190     2.4370     0.2240   -15.8650    99.4630   -65.5340    13.9860    13.2550    14.1840
 2408.0000     8.1370   -78.1850     0.0200     2.4510     0.2220   -16.2440    97.4450   -65.5340    14.4950    13.9330    14.7570
 2408.5000     8.1370   -80.1350     0.0210     2.4700     0.2180   -16.6180    97.0960   -65.5340    15.3890    15.0230    15.2200
 2409.0000     8.1320   -81.0140     0.0190     2.4820     0.2150   -16.9990   100.2340   -65.5340    16.4280    14.6690    15.5700
 2409.5000     8.1260   -82.6900     0.0160     2.4760     0.2190   -17.3740   103.5800   -65.5340    15.3790    14.0260    14.4270
