~VERSION INFORMATION
 VERS.                2.0:   CWLS LOG ASCII STANDARD - VERSION 2.0
 WRAP.                 NO:   ONE LINE PER DEPTH STEP
~WELL INFORMATION
#MNEM.UNIT      DATA TYPE    INFORMATION
#----------   ------------   ------------------------------
 STRT.F            1.5000:   START DEPTH
 STOP.F          985.0000:   STOP DEPTH
 STEP.F            0.5000:   STEP LENGTH
 NULL.          -999.2500:   NO VALUE
 COMP.       FLUOR DANIEL:   COMPANY
 WELL.  FLUOR 41 "X" #1-2:   WELL
 FLD .          N.P.R. #3:   FIELD
 LOC .       S2 T38N R78W:   LOCATION
 CNTY.            NATRONA:   COUNTY
 STAT.            WYOMING:   STATE
 CTRY. UNITED STATES OF AMERICA:   COUNTRY
 SRVC.     ATLAS WIRELINE:   SERVICE COMPANY
 DATE.        09-AUG-1994:   LOGDATE
 API .     49025226450000:   API NUMBER
~CURVE INFORMATION
#MNEM.UNIT       API CODE    CURVE DESCRIPTION
#----------   ------------   ------------------------------
 DEPT.F                  :   
 GRR .GAPI   07 310 01 00:   GAMMA RAY FROM RESISTIVITY
 TENR.LBS    07 635 01 00:   TENSION FROM RESISTIVITY
 RILD.OHMM   07 120 46 00:   INDUCTION LOG DEEP RESISTIVITY
 RILM.OHMM   07 120 44 00:   INDUCTION LOG MEDIUM RESISTIVITY
~PARAMETER INFORMATION
#MNEM.UNIT          VALUE    DESCRIPTION
#----------   ------------   ------------------------------
 EKB .F         5143.0000:   Kelly bushing
 EGL .F         5133.0000:   Ground level
 EDF .F         5142.0000:   Drilling floor
 TD  .F          970.0000:   Total depth
 CLNT.            A2DTECH:   Client Code
 PD  .                 GL:   Permanent Datum
 EPD .F              5133:   Elevation Permanent Datum
 LMF .                 KB:   Log Measured From
 DMF .                 KB:   Drilling Measured From
 DAPD.F                10:   Feet Above Permanent Datum
 DATE.        09-AUG-1994:   Date Logged [DD-MMM-YYYY]
 DD  .F               970:   Depth driller
 DL  .F               970:   Depth logger
 BLI .F               962:   Bottom log interval
 TLI .F                 0:   Top log interval
 CS1 .IN            9.625:   Casing size
 CBD1.       9.625" @ 56':   Casing driller 1
 CBL1.F                59:   Casing logger 1
 BS1 .IN             8.75:   Bit size
 BSD1.F               970:   Depth drilled with bit1
 DFT .                AIR:   Type fluid in hole
 MRT .F                94:   Maximum recorded temp.
 LUN .            HL 6530:   Logging unit number
 LUL .             CASPER:   Logging unit location
 ENGI.      PAT RASMUSSEN:   Recorded By
 WITN.        GARY STRONG:   Witnessed by
 ORIG.           5" PRINT:   Origin of data
 UWI .     49025226450000:   Unique Well ID
 DICO. A2D TECHNOLOGIES, INC.:   Digitizing Company
 SL  . 173' FNL & 2204' FWL:   Surface Location
~OTHER INFORMATION
~A    DEPT      GRR      TENR       RILD       RILM   
# ...
  293.5000   123.3030   -43.0313     4.0651     4.1051
  294.0000   123.9315   -42.7389     3.7174     3.8279
  294.5000   129.6890   -42.4465     3.6395     3.6703
  295.0000   134.5360   -42.1541     3.6896     3.6952
  295.5000   140.2935   -41.8616     3.7667     3.7726
  296.0000   146.6601   -41.5663     3.8719     3.8808
  296.5000   144.8281   -41.2651     3.9802     3.9873
  297.0000   143.6053   -48.5144     4.1490     4.4570
  297.5000   144.2236   -48.1489     4.4204     4.7501
  298.0000   145.1051   -55.4597     5.2183     5.1934
  298.5000   138.7208   -47.5640     5.5933     5.7251
  299.0000   132.0352   -47.2716     5.9123     5.8446
  299.5000   128.0809   -39.4491     6.1630     6.0931
  300.0000   122.9128   -31.6265     6.3496     6.3079
  300.5000   122.9071   -47.4330     6.4912     6.5751
  301.0000   124.4187   -60.8434     6.6328     6.7119
  301.5000   124.1093   -60.3916     6.7853     6.7565
  302.0000   120.9793   -59.9398     6.8781     6.8485
  302.5000   119.5437   -59.4056     6.9245     7.0398
  303.0000   119.2343   -58.9666     6.9705     7.1369
  303.5000   119.8354   -58.5276     7.0654     7.0843
  304.0000   123.7749   -58.0886     7.0139     7.0819
  304.5000   125.2864   -57.6496     6.9145     6.9815
  305.0000   125.6719   -49.6805     6.7687     6.9306
  305.5000   126.1851   -56.7771     6.5347     6.6863
  306.0000   128.9306   -63.8627     6.3974     6.4141
  306.5000   137.0975   -63.3140     6.2195     6.2355
  307.0000   136.7881   -62.8750     6.0888     6.0620
  307.5000   133.7473   -62.4360     5.8783     5.8523
  308.0000   124.9402   -54.4668     5.8356     5.8918
  308.5000   119.7750   -46.4977     5.8335     5.8484
  309.0000   120.0726   -38.5286     5.6709     5.6461
  309.5000   123.7086   -38.0896     5.5517     5.6441
  310.0000   127.0814   -37.6506     5.4350     5.6813
  310.5000   128.2491   -37.1988     5.4332     5.6794
  311.0000   125.2069   -44.3027     5.4313     5.6775
  311.5000   123.3800   -58.8142     5.4295     5.6361
  312.0000   123.0706   -58.3752     5.3526     5.5176
  312.5000   123.3697   -65.5761     5.1287     5.3267
  313.0000   123.6673   -65.0273     4.8515     4.6627
  313.5000   127.6053   -64.5883     4.3991     4.3181
  314.0000   135.8503   -49.0891     3.9613     3.8880
  314.5000   139.7331   -41.1145     3.5670     3.5997
  315.0000   139.4223   -40.6626     3.4198     3.4033
  315.5000   141.5408   -47.7721     3.3479     3.2859
  316.0000   143.9629   -47.2233     3.3468     3.4248
  316.5000   144.2619   -54.4242     3.3707     3.5205
  317.0000   136.6668   -53.8754     3.4390     3.5958
  317.5000   128.7702   -45.9063     3.5843     3.8248
  318.0000   121.1770   -45.4673     3.7622     3.9868
  318.5000   117.2258   -52.5584     4.1462     4.2870
  319.0000   115.3989   -52.1084     4.6336     4.6771
  319.5000   114.7860   -51.5706     4.7299     4.9094
  320.0000   118.0576   -51.1316     4.8282     4.9421
  320.5000   123.2705   -50.6927     4.8962     4.9750
  321.0000   124.4786   -50.2536     4.9608     5.0081
  321.5000   125.0797   -49.8147     4.9247     5.0060
  322.0000   125.0738   -57.0155     4.9231     4.9350
  322.5000   122.3365   -71.5270     4.8872     4.8990
  323.0000   120.8131   -78.6181     4.7845     4.8634
  323.5000   120.7992   -63.1024     4.7497     4.8279
  324.0000   121.4648   -47.5099     4.5855     4.6610
  324.5000   126.5603   -39.5408     4.3028     4.3412
  325.0000   128.3754   -39.1017     4.0612     4.0187
  325.5000   128.9779   -38.6628     3.6144     3.6224
  326.0000   128.9706   -38.2237     3.4412     3.3305
  326.5000   130.4821   -30.2546     3.4401     3.2604
  327.0000   132.9041   -29.8156     3.4632     3.2824
  327.5000   132.8982   -29.3766     3.4377     3.4212
  328.0000   132.2529   -51.5280     3.3890     3.5662
  328.5000   123.9151   -50.9792     3.3403     3.5383
  329.0000   116.7941   -50.5402     3.2936     3.4654
  329.5000   117.0917   -50.1012     3.2467     3.3926
  330.0000   117.6928   -49.6622     3.1785     3.1852
  330.5000   118.5988   -49.2232     3.1117     3.0536
  331.0000   119.5019   -41.2541     3.0251     3.0103
  331.5000   123.4416   -25.7548     2.8802     2.9062
  332.0000   126.4825   -40.3761     2.7042     2.6720
  332.5000   126.7680   -47.4672     2.4686     2.4892
  333.0000   125.5467   -54.5583     2.3838     2.4049
  333.5000   124.9353   -54.0096     2.3997     2.4041
  334.0000   127.3559   -38.5103     2.4837     2.4541
  334.5000   130.9918   -38.0713     2.6436     2.6488
  335.0000   131.8979   -30.1022     2.7748     2.7418
  335.5000   126.7312   -37.1988     2.8722     3.1510
  336.0000   119.7450   -44.2844     2.9730     3.2864
  336.5000   117.0076   -51.3755     3.4649     3.5778
  337.0000   117.3053   -50.8268     3.8513     3.8529
  337.5000   116.9945   -50.3878     4.0632     4.0161
  338.0000   117.8990   -49.9488     4.2058     4.2156
  338.5000   123.0525   -49.5098     4.2342     4.2737
  339.0000   123.3516   -41.5407     4.2030     4.2127
  339.5000   123.3442   -41.1017     4.0861     4.0955
  340.0000   124.5523   -33.1325     3.9724     3.9502
  340.5000   129.7542   -32.6807     3.7821     3.7378
  341.0000   133.5520   -39.7846     3.5454     3.5092
  341.5000   134.8532   -46.7660     3.3571     3.3177
  342.0000   136.3633   -38.7969     3.1740     3.2030
  342.5000   140.3028   -38.3579     2.8581     2.8440
  343.0000   143.9388   -45.5587     2.6464     2.6701
  343.5000   143.0224   -45.0100     2.5372     2.5599
  344.0000   142.4095   -44.5710     2.5338     2.5590
  344.5000   142.7112   -44.1265     2.5890     2.6487
  345.0000   143.6117   -43.6747     2.6836     2.7802
  345.5000   138.4450   -35.6141     2.8720     3.0218
  346.0000   129.3344   -27.6450     3.0356     3.3305
  346.5000   122.0448   -34.7361     3.2535     3.8814
  347.0000   118.0935   -34.2971     3.6614     4.1314
  347.5000   117.1771   -41.4980     4.2664     4.3084
  348.0000   117.1270   -40.9492     4.6369     4.7428
  348.5000   118.0758   -48.0422     4.9698     5.1229
  349.0000   119.9474   -47.5904     5.1473     5.0856
  349.5000   123.5254   -39.5225     5.2142     5.5658
  350.0000   128.6227   -39.0835     5.2369     5.6060
  350.5000   132.0536   -38.7777     5.5338     5.6514
  351.0000   131.7015   -53.3984     5.7852     5.7581
  351.5000   126.2328   -53.0346     6.0314     5.9607
  352.0000   121.6746   -52.6708     6.2880     6.2137
  352.5000   120.4548   -44.7769     6.5100     6.4331
  353.0000   121.6629   -36.8830     6.6931     6.6196
  353.5000   124.0849   -36.5193     6.8336     6.7973
  354.0000   122.8649   -28.6145     6.7852     6.7954
  354.5000   122.8577   -28.1707     6.7841     6.7464
  355.0000   123.4589   -27.8069     6.7831     6.7446
  355.5000   124.3649   -42.5033     6.7822     6.7428
  356.0000   125.5716   -49.7606     6.7813     6.7409
  356.5000   125.5657   -49.3059     6.7804     6.7391
  357.0000   127.0773   -48.9421     6.7795     6.6900
  357.5000   130.7133   -40.2858     6.7784     6.6882
  358.0000   128.2780   -25.5333     6.7304     6.6400
  358.5000   128.2722   -25.1695     6.6828     6.5921
  359.0000   128.2663   -26.8073     6.6355     6.5445
  359.5000   127.3499   -39.5022     6.5885     6.5885
  360.0000   126.7371   -46.7595     6.5876     6.5867
  360.5000   127.0349   -46.3048     6.5867     6.6310
  361.0000   131.5812   -45.9337     6.6319     6.6288
  361.5000   131.2281   -45.4863     6.6774     6.6738
  362.0000   130.9625   -45.1225     6.6763     6.6716
  362.5000   134.5970   -44.7587     6.7223     6.7169
  363.0000   136.7171   -44.3950     6.8154     6.7617
  363.5000   131.8539   -44.0312     6.8622     6.8570
  364.0000   123.6538   -36.1373     7.0059     7.1535
  364.5000   117.8816   -35.7735     7.3040     7.5005
  365.0000   115.7511   -42.9399     7.6680     7.7105
  365.5000   116.9579   -42.4852     8.1065     8.0378
  366.0000   119.0765   -34.5913     8.4514     8.3207
