~VERSION INFORMATION
 VERS.                2.0:   CWLS LOG ASCII STANDARD - VERSION 2.0
 WRAP.                 NO:   ONE LINE PER DEPTH STEP
~WELL INFORMATION
#MNEM.UNIT      DATA TYPE    INFORMATION
#----------   ------------   ------------------------------
 STRT.F          212.0000:   START DEPTH
 STOP.F         3042.0000:   STOP DEPTH
 STEP.F            0.5000:   STEP LENGTH
 NULL.          -999.2500:   NO VALUE
 COMP.    FENIX & SCISSON:   COMPANY
 WELL.   FENIX "A" #74-28:   WELL
 FLD .             NPR #3:   FIELD
 LOC .      S28 T39N R78W:   LOCATION
 CNTY.            NATRONA:   COUNTY
 STAT.            WYOMING:   STATE
 CTRY. UNITED STATES OF AMERICA:   COUNTRY
 SRVC.              WELEX:   SERVICE COMPANY
 DATE.        03-AUG-1977:   LOGDATE
 API .     49025104080000:   API NUMBER
~CURVE INFORMATION
#MNEM.UNIT       API CODE    CURVE DESCRIPTION
#----------   ------------   ------------------------------
 DEPT.F                  :   
 SPR .MV     07 010 01 00:   SPONTANEOUS POTENTIAL
 ILD .OHMM   07 120 46 00:   INDUCTION LOG DEEP RESISTIVITY
 ILM .OHMM   07 120 44 00:   INDUCTION LOG MEDIUM RESISTIVITY
 SFLU.OHMM   07 220 01 00:   SPHERICALLY FOCUSED LOG UNAVERAGED RESISTIVITY
 CALD.IN     45 280 60 00:   CALIPER FROM DENSITY LOG
 GRD .GAPI   45 310 01 00:   GAMMA RAY FROM DENSITY LOG
 CORR.G/C3   45 356 01 00:   DENSITY CORRECTION
 RHOB.G/C3   45 350 01 00:   BULK DENSITY
~PARAMETER INFORMATION
#MNEM.UNIT          VALUE    DESCRIPTION
#----------   ------------   ------------------------------
 EKB .F         5050.0000:   Kelly bushing
 EGL .F         5040.0000:   Ground level
 EDF .F            0.0000:   Drilling floor
 TD  .F         3044.0000:   Total depth
 DATE.        03-AUG-1977:   Date logged
 CLNT.            A2DTECH:   Client Code
 SL  . 2310' FNL & 930' FEL:   Surface Location
 PD  .                 GL:   Permanent Datum
 EPD .F              5040:   Elevation Permanent Datum
 LMF .                 KB:   Log Measured From
 DMF .                 KB:   Drilling Measured From
 DAPD.F                10:   Feet Above Permanent Datum
 DD  .F              3044:   Depth driller
 DL  .F              3044:   Depth logger
 BLI .F              3042:   Bottom log interval
 TLI .F               238:   Top log interval
 CS1 .IN            8.625:   Casing size
 CBD1.      8.625" @ 220':   Casing driller 1
 CBL1.F               238:   Casing logger 1
 BS1 .IN            7.875:   Bit size
 BSD1.F              3044:   Depth drilled with bit1
 DFT .            KCL MUD:   Type fluid in hole
 DFV .                 35:   Viscosity
 DFPH.               10.5:   pH
 DFL .                7.2:   Fluid loss
 MSS .           FLOWLINE:   Source of sample
 RMS .OHMM           1.13:   Rm
 MST .F                84:   Rm Meas. temp.
 RMF .OHMM           0.77:   Rmf
 MFST.F                70:   Rmf Meas. temp.
 MFSS.           FANN KIT:   Source Rmf.
 MCSS.           FANN KIT:   Source Rmc.
 RMB .OHMM            .82:   Rm. at BHT
 BHT .F               118:   BHT.
 TCS .HRS               7:   Time Circ. stopped
 MRT .F               116:   Maximum recorded temp.
 LUN .               8611:   Logging unit number
 LUL .             CASPER:   Logging unit location
 ENGI.            C. DOAK:   Recorded By
 WITN.      W. PETTINGILL:   Witnessed by
 ORIG.         2.5" PRINT:   Origin of data
 UWI .     49025104080000:   Unique Well ID
 DICO. A2D TECHNOLOGIES, INC.:   Digitizing Company
~OTHER INFORMATION
~A   DEPT      SPR        ILD        ILM       SFLU         CALD       GRD       CORR        RHOB 
# ...
 1346.0000   -54.7030     5.8560     6.7900     9.7000     8.8400   134.2540     0.0410     2.4830
 1346.5000   -54.1740     5.9020     6.8460    10.0450     8.8410   134.8640     0.0400     2.4790
 1347.0000   -53.6460     5.9480     7.1300    10.7100     8.8420   135.4370     0.0370     2.4750
 1347.5000   -53.4060     5.9930     7.3760    10.6650     8.8440   135.9950     0.0350     2.4720
 1348.0000   -53.4950     6.0090     7.2750    10.5680     8.8450   136.7170     0.0340     2.4720
 1348.5000   -53.5520     6.0080     7.1800    10.4710     8.8460   136.1050     0.0310     2.4740
 1349.0000   -53.6120     6.0080     7.1060    10.3740     8.8470   133.7090     0.0300     2.4750
 1349.5000   -53.6770     6.0080     7.0650    10.3180     8.8490   131.6560     0.0280     2.4770
 1350.0000   -53.7370     6.0080     7.0140     9.9150     8.8500   129.0840     0.0250     2.4780
 1350.5000   -53.8000     6.0080     6.9640     9.8730     8.8510   129.4540     0.0220     2.4790
 1351.0000   -53.8700     6.0080     6.9140     9.8320     8.8520   130.7510     0.0250     2.4780
 1351.5000   -53.9410     5.9740     6.8630     9.7910     8.8540   132.0950     0.0270     2.4780
 1352.0000   -54.0120     5.9300     6.8130     9.7560     8.8550   132.0790     0.0290     2.4860
 1352.5000   -54.0830     5.8860     6.7620     9.8410     8.8560   132.0500     0.0310     2.4950
 1353.0000   -54.1530     5.8410     6.7200    10.0730     8.8580   130.0710     0.0330     2.4990
 1353.5000   -54.2260     5.7970     6.7000    10.3180     8.8590   128.1300     0.0350     2.4960
 1354.0000   -54.2930     5.7530     6.6830     9.5720     8.8600   126.6340     0.0380     2.4960
 1354.5000   -54.3680     5.7090     6.6660     8.7240     8.8610   128.1000     0.0350     2.4880
 1355.0000   -54.4430     5.6640     6.6490     9.0930     8.8630   129.2010     0.0320     2.4830
 1355.5000   -54.4870     5.6200     6.6320     9.5760     8.8640   130.4030     0.0280     2.4830
 1356.0000   -54.6280     5.5760     6.6150     9.5760     8.8650   129.2280     0.0250     2.4830
 1356.5000   -54.1210     5.5320     6.5960     9.3290     8.8660   128.0480     0.0210     2.4770
 1357.0000   -53.2030     5.4740     6.5960     8.8010     8.8680   126.5920     0.0170     2.4710
 1357.5000   -53.5880     5.4790     6.5960     8.8430     8.8690   124.9010     0.0140     2.4780
 1358.0000   -55.9100     5.4990     6.5960     9.2660     8.8700   122.9220     0.0150     2.4860
 1358.5000   -56.6720     5.5180     6.5960     9.5760     8.8710   121.0840     0.0210     2.4940
 1359.0000   -56.7420     5.5380     6.5960     9.5760     8.8720   123.6750     0.0260     2.4920
 1359.5000   -56.8600     5.5580     6.5960     9.5760     8.8730   124.0870     0.0310     2.4910
 1360.0000   -56.9870     5.5760     6.5960     9.5760     8.8750   121.3490     0.0380     2.4890
 1360.5000   -57.0940     5.6310     6.5960     9.3520     8.8770   120.0290     0.0360     2.4880
 1361.0000   -57.2090     5.6810     6.5960     9.0550     8.8800   121.2560     0.0290     2.4870
 1361.5000   -57.3560     5.6940     6.5960     9.2160     8.8820   122.2710     0.0230     2.4860
 1362.0000   -57.1820     5.7140     6.5960     9.4740     8.8840   123.5000     0.0180     2.4850
 1362.5000   -56.5740     5.7350     6.5960     9.5760     8.8860   124.1570     0.0220     2.4930
 1363.0000   -56.0050     5.7550     6.5950     9.5760     8.8880   124.0710     0.0250     2.4960
 1363.5000   -55.4340     5.7760     6.5960     9.5760     8.8900   124.1080     0.0290     2.4840
 1364.0000   -54.8300     5.7890     6.5960     9.5760     8.8920   124.0870     0.0280     2.4730
 1364.5000   -54.5820     5.7970     6.5950     9.5760     8.8950   124.0940     0.0230     2.4810
 1365.0000   -54.6050     5.8110     6.6020     9.3290     8.8970   124.1950     0.0190     2.4900
 1365.5000   -54.5970     5.8250     6.6220     9.0550     8.8990   125.3440     0.0150     2.4980
 1366.0000   -54.6110     5.8390     6.6410     9.4770     8.9010   125.6300     0.0220     2.5000
 1366.5000   -54.4670     5.8540     6.6610     9.8770     8.9030   124.6020     0.0290     2.5010
 1367.0000   -54.1840     5.8680     6.6790     9.7430     8.9050   123.7660     0.0370     2.5020
 1367.5000   -53.9070     5.8810     6.6990     9.4260     8.9070   122.8300     0.0380     2.5040
 1368.0000   -53.6460     5.8960     6.7200     9.4870     8.9090   122.4260     0.0380     2.5100
 1368.5000   -53.4330     5.9250     6.8850     9.6090     8.9110   123.0460     0.0370     2.5180
 1369.0000   -53.7800     5.9810     7.0650     9.7310     8.9030   124.6440     0.0370     2.5220
 1369.5000   -54.0810     6.0380     7.2460     9.8530     8.8940   126.0930     0.0370     2.5270
 1370.0000   -54.4370     6.0940     7.3760     9.9590     8.8850   127.1360     0.0360     2.5320
 1370.5000   -54.7710     6.1500     7.3630    10.0260     8.8770   125.0950     0.0360     2.5280
 1371.0000   -54.6500     6.2370     7.3490    10.0930     8.8680   123.5250     0.0360     2.5230
 1371.5000   -53.4610     6.2220     7.3340    10.1600     8.8590   121.8580     0.0350     2.5170
 1372.0000   -54.1550     6.1910     7.3190    10.2260     8.8510   123.4490     0.0350     2.5170
 1372.5000   -55.3020     6.1590     7.3050    10.3180     8.8420   125.1090     0.0350     2.5180
 1373.0000   -56.1460     6.1280     7.2900    10.2340     8.8330   126.4810     0.0350     2.5180
 1373.5000   -55.4850     6.0960     7.2750    10.1030     8.8240   126.2220     0.0340     2.5190
 1374.0000   -54.6590     6.0650     7.2600     9.9710     8.8160   126.0960     0.0340     2.5190
 1374.5000   -53.8400     6.0340     7.2460     9.8400     8.8070   125.8550     0.0330     2.5130
 1375.0000   -53.8110     6.0090     7.2190     9.7090     8.7980   125.5390     0.0320     2.5130
 1375.5000   -53.7900     6.0170     7.1820     9.5760     8.7890   123.7130     0.0320     2.5130
 1376.0000   -53.8050     6.0370     7.1460     9.6210     8.7810   122.6260     0.0310     2.5130
 1376.5000   -53.7990     6.0570     7.1090     9.6660     8.7720   123.2940     0.0300     2.5080
 1377.0000   -53.8000     6.0770     7.1810     9.7110     8.7630   124.0200     0.0300     2.5040
 1377.5000   -53.8000     6.0970     7.2550     9.7560     8.7540   123.9860     0.0300     2.4990
 1378.0000   -53.8000     6.1170     7.3300     9.8010     8.7540   123.6660     0.0300     2.5040
 1378.5000   -53.8000     6.1320     7.3780     9.8460     8.7600   123.3460     0.0300     2.5140
 1379.0000   -53.8000     6.1460     7.3590     9.8920     8.7650   123.0560     0.0300     2.5190
 1379.5000   -53.7990     6.1610     7.3400     9.9400     8.7700   122.7240     0.0260     2.5010
 1380.0000   -53.8010     6.1750     7.3200     9.9620     8.7760   122.4720     0.0120     2.4840
 1380.5000   -53.8000     6.1890     7.3020     9.9850     8.7810   121.7120     0.0060     2.4790
 1381.0000   -53.7950     6.2040     7.2830    10.0080     8.7870   120.6720     0.0250     2.4940
 1381.5000   -53.8170     6.2180     7.2640    10.0310     8.7920   119.6720     0.0340     2.5010
 1382.0000   -53.6060     6.2350     7.2460    10.0540     8.7970   119.3540     0.0310     2.4990
 1382.5000   -53.1660     6.2170     7.2240    10.0760     8.8030   120.6830     0.0290     2.4970
 1383.0000   -52.7370     6.1850     7.1700    10.0980     8.8080   121.8670     0.0260     2.4950
 1383.5000   -52.5920     6.1520     7.1160    10.1250     8.8130   122.0320     0.0240     2.4890
 1384.0000   -52.5990     6.1210     7.0620    10.0140     8.8190   120.1850     0.0220     2.4840
 1384.5000   -52.6020     6.0890     7.0080     9.8870     8.8240   120.1090     0.0190     2.4780
 1385.0000   -52.6030     6.0570     6.9540     9.7580     8.8300   120.0460     0.0170     2.4800
 1385.5000   -52.5840     6.0260     6.9010     9.6290     8.8350   120.1020     0.0150     2.4870
 1386.0000   -52.7780     6.0090     6.8480     9.5000     8.8400   120.1580     0.0180     2.4940
