~VERSION INFORMATION
 VERS.                2.0:   CWLS LOG ASCII STANDARD - VERSION 2.0
 WRAP.                 NO:   ONE LINE PER DEPTH STEP
~WELL INFORMATION
#MNEM.UNIT      DATA TYPE    INFORMATION
#----------   ------------   ------------------------------
 STRT.F          540.0000:   START DEPTH
 STOP.F         4100.0000:   STOP DEPTH
 STEP.F            0.5000:   STEP LENGTH
 NULL.          -999.2500:   NO VALUE
 COMP. LAWRENCE ALISON & ASSOC.,WEST:   COMPANY
 WELL. LAWRENCE "X" #15-11:   WELL
 FLD .              N P R:   FIELD
 LOC .      S11 T38N R78W:   LOCATION
 CNTY.            NATRONA:   COUNTY
 STAT.            WYOMING:   STATE
 CTRY. UNITED STATES OF AMERICA:   COUNTRY
 SRVC.      DRESSER ATLAS:   SERVICE COMPANY
 DATE.        18-MAY-1985:   LOGDATE
 API .     49025110220000:   API NUMBER
~CURVE INFORMATION
#MNEM.UNIT       API CODE    CURVE DESCRIPTION
#----------   ------------   ------------------------------
 DEPT.F                  :   
 NPHI.DEC    42 890 03 00:   NEUTRON POROSITY SANDSTONE
 RHOB.G/C3   45 350 01 00:   BULK DENSITY
 CORR.G/C3   45 356 01 00:   DENSITY CORRECTION
 TEND.LBS    45 635 01 00:   TENSION FROM DENSITY LOG
 GRD .GAPI   45 310 01 00:   GAMMA RAY FROM DENSITY LOG
 CALD.IN     45 280 60 00:   CALIPER FROM DENSITY LOG
 SPR .MV     07 010 01 00:   SPONTANEOUS POTENTIAL
 RILD.OHMM   07 120 46 00:   DEEP INDUCTION RESISTIVITY
 RILM.OHMM   07 120 44 00:   INDUCTION LOG MEDIUM RESISTIVITY
 RFOC.OHMM   07 220 04 00:   RESISTIVITY FOCUSED LOG RES.
 TENR.LBS    07 635 01 00:   TENSION FROM RESISTIVITY
~PARAMETER INFORMATION
#MNEM.UNIT          VALUE    DESCRIPTION
#----------   ------------   ------------------------------
 EKB .F         5201.0000:   Kelly bushing
 EGL .F         5189.0000:   Ground level
 EDF .F         5200.0000:   Drilling floor
 TD  .F         4095.0000:   Total depth
 DATE.        18-MAY-1985:   Date logged
 CLNT.            A2DTECH:   Client Code
 SL  . 2203' FSL & 377' FWL:   Surface Location
 PD  .                 GL:   Permanent Datum
 EPD .F              5189:   Elevation Permanent Datum
 LMF .                 KB:   Log Measured From
 DMF .                 KB:   Drilling Measured From
 DAPD.F                12:   Feet Above Permanent Datum
 DD  .F              4095:   Depth driller
 DL  .F              4093:   Depth logger
 BLI .F              4091:   Bottom log interval
 TLI .F                 0:   Top log interval
 CS1 .IN            8.625:   Casing size
 CBD1.      8.625" @ 565':   Casing driller 1
 CBL1.F               565:   Casing logger 1
 BS1 .IN            7.875:   Bit size
 BSD1.F              4095:   Depth drilled with bit1
 DFT .            GEL KCL:   Type fluid in hole
 DFD .                9.2:   Density
 DFV .                 40:   Viscosity
 DFPH.                8.0:   pH
 DFL .                9.0:   Fluid loss
 MSS .            MUDTANK:   Source of sample
 RMS .OHMM            .57:   Rm
 MST .F                69:   Rm Meas. temp.
 RMF .OHMM            .49:   Rmf
 MFST.F                69:   Rmf Meas. temp.
 RMC .OHMM            .71:   Rmc
 MCST.F                69:   Rmc Meas. temp.
 MFSS.               MEAS:   Source Rmf.
 MCSS.               CALC:   Source Rmc.
 RMB .OHMM            .30:   Rm. at BHT
 BHT .F               139:   BHT.
 TCS .HRS               4:   Time Circ. stopped
 MRT .F               139:   Maximum recorded temp.
 LUN .            HL 6302:   Logging unit number
 LUL .               CODY:   Logging unit location
 ENGI.              GETTY:   Recorded By
 WITN.              FIVAS:   Witnessed by
 ORIG.           5" PRINT:   Origin of data
 UWI .     49025110220000:   Unique Well ID
 DICO. A2D TECHNOLOGIES, INC.:   Digitizing Company
~OTHER INFORMATION
~A   DEPT     NPHI       RHOB       CORR        TEND        GRD      CALD        SPR       RILD       RILM       RFOC       TENR   
# ...
 3132.5000     0.2290     2.4990     0.0040  -119.7410   105.5800     9.0230   -11.1990     4.1980     4.3150     4.7100  -114.2220
 3133.0000     0.2430     2.5010    -0.0070  -117.9740   104.0920     9.0240   -11.2060     4.2200     4.3150     4.7710  -101.7840
 3133.5000     0.2560     2.5030    -0.0170  -116.2080   103.6160     9.0250   -11.2130     4.2370     4.2760     4.5700   -89.3460
 3134.0000     0.2710     2.4950    -0.0210  -117.9670   104.4040     9.0260   -11.2210     4.0880     4.2350     4.4870   -97.4020
 3134.5000     0.2710     2.4840    -0.0250  -121.2640   105.7550     9.0270   -11.2260     3.9340     4.1610     4.3950  -106.2930
 3135.0000     0.2600     2.4730    -0.0280  -124.5610   106.9380     9.0280   -11.1820     3.7790     4.0160     4.2450  -106.2930
 3135.5000     0.2580     2.4630    -0.0280  -123.7590   107.3180     9.0290   -10.9480     3.6250     3.8670     4.1040  -106.2930
 3136.0000     0.2540     2.4640    -0.0180  -121.0120   107.7220     9.0300   -10.7180     3.5300     3.7190     3.9620  -106.2930
 3136.5000     0.2430     2.4700    -0.0070  -118.2640   108.1320     9.0310   -10.4880     3.5300     3.6280     3.7630  -106.2930
 3137.0000     0.2410     2.4750     0.0300  -115.6720   108.5470     9.0320   -10.2570     3.5300     3.6520     3.8130  -106.2930
 3137.5000     0.2430     2.4800     0.0190  -102.6120   108.5820     9.0330   -10.0440     3.5750     3.7740     3.8970  -106.2930
 3138.0000     0.2450     2.4890     0.0020   -90.2490   107.4330     9.0340   -10.0390     3.6490     3.8950     3.9810  -100.5170
 3138.5000     0.2520     2.5010    -0.0140   -77.8860   106.2520     9.0350   -10.0400     3.7230     4.0170     4.0650   -72.0870
 3139.0000     0.2600     2.5120    -0.0190   -65.5220   104.9560     9.0360   -10.0400     3.7980     4.1380     4.1490   -66.6500
 3139.5000     0.2640     2.5230     0.0230   -56.2380   100.9110     9.0380   -10.0400     3.8720     4.2600     4.2340   -66.6500
 3140.0000     0.2570     2.5320     0.0460   -57.4150    96.7960     9.0390   -10.0400     3.9470     4.3550     4.3180   -66.6500
 3140.5000     0.2440     2.5290     0.0640   -58.5930    98.2120     9.0400   -10.0400     4.0210     4.3230     4.4020   -66.6500
 3141.0000     0.2310     2.5220     0.0690   -59.7700   100.8760     9.0410   -10.0400     4.1230     4.2960     4.4860   -66.6500
 3141.5000     0.2260     2.5150     0.0330   -60.9480   103.5330     9.0420   -10.0400     4.0720     4.2760     4.5170   -66.6500
 3142.0000     0.2380     2.5080     0.0050   -62.1250   106.2030     9.0430   -10.0400     4.0140     4.2120     4.3730   -66.6500
 3142.5000     0.2570     2.5080    -0.0070   -63.3030   108.9300     9.0440   -10.0400     3.9560     4.1530     4.2740   -66.6500
 3143.0000     0.2650     2.5080     0.0030   -64.4800   109.7360     9.0450   -10.0400     3.8980     4.0940     4.1990   -66.6500
 3143.5000     0.2630     2.5090     0.0090   -65.6570   109.2040     9.0460   -10.0400     3.8400     4.0350     4.2170   -66.6500
 3144.0000     0.2650     2.5090     0.0150   -56.3180   108.1100     9.0470   -10.0400     3.7820     3.9770     4.2370   -66.6500
 3144.5000     0.2730     2.5140     0.0220   -43.9550   107.0110     9.0480   -10.0400     3.7240     3.9180     4.1230   -49.6830
 3145.0000     0.2690     2.5210     0.0340   -36.9430   105.8650     9.0490   -10.0400     3.6660     3.8590     3.9030   -29.7820
 3145.5000     0.2650     2.5250     0.0480   -39.3560   106.5390     9.0500   -10.0400     3.6080     3.8000     3.9030   -28.5080
 3146.0000     0.2640     2.5280     0.0510   -41.7680   107.7400     9.0510   -10.0400     3.5490     3.7410     3.9030   -30.2520
 3146.5000     0.2640     2.5300     0.0500   -44.1800   108.9600     9.0520   -10.0400     3.4960     3.6830     3.9030   -31.9970
 3147.0000     0.2640     2.5310     0.0380   -46.5930   110.1800     9.0530   -10.0400     3.4230     3.6280     3.9030   -33.7410
 3147.5000     0.2580     2.5260     0.0260   -49.0050   111.3990     9.0540   -10.0400     3.3500     3.5520     3.8470   -35.4850
 3148.0000     0.2520     2.5220     0.0200   -51.4170   112.6160     9.0560   -10.0400     3.2770     3.4820     3.7820   -37.2300
 3148.5000     0.2460     2.5090     0.0150   -53.8300   113.6880     9.0570   -10.0400     3.2040     3.4110     3.7180   -38.9740
 3149.0000     0.2440     2.4940     0.0120   -55.8480   113.6950     9.0580   -10.0400     3.1310     3.3410     3.6530   -40.7180
 3149.5000     0.2440     2.4800     0.0100   -54.7630   113.7050     9.0470   -10.0400     3.0590     3.2700     3.5890   -42.4630
 3150.0000     0.2450     2.4790     0.0040   -53.6780   114.6510     9.0350   -10.0400     2.9860     3.1990     3.5250   -44.2070
 3150.5000     0.2450     2.4790    -0.0010   -52.5930   115.7330     9.0230   -10.0400     2.9130     3.1350     3.4660   -45.9510
 3151.0000     0.2510     2.4780    -0.0010   -51.5080   115.4100     9.0110   -10.0400     2.8400     3.0980     3.3410   -46.0090
 3151.5000     0.2560     2.4780     0.0050   -50.4230   115.3470     8.9990   -10.0400     2.7670     3.0570     3.2280   -44.3610
 3152.0000     0.2550     2.4770     0.0060   -49.3380   116.6370     8.9880   -10.0970     2.7300     3.0150     3.0790   -42.7120
 3152.5000     0.2530     2.4740    -0.0070   -48.2530   117.0080     8.9760   -10.1610     2.6970     2.9740     3.1220   -41.0640
 3153.0000     0.2580     2.4710    -0.0200   -47.1680   114.9670     8.9640   -10.2250     2.6640     2.9330     3.1730   -39.4150
 3153.5000     0.2620     2.4680    -0.0220   -46.0200   112.7670     8.9570   -10.2890     2.6480     2.8910     3.2240   -37.7670
 3154.0000     0.2590     2.4680    -0.0020   -53.4630   111.4070     8.9510   -10.3530     2.6340     2.8620     3.2820   -38.2140
 3154.5000     0.2520     2.4690     0.0210   -63.4730   112.0720     8.9450   -10.4170     2.6200     2.8440     3.2170   -40.8870
 3155.0000     0.2550     2.4710     0.0350   -65.3480   112.7690     8.9390   -10.4810     2.6060     2.8270     3.1450   -43.5610
 3155.5000     0.3010     2.4760     0.0210   -64.5890   112.0450     8.9330   -10.5450     2.5920     2.8100     3.0790   -46.2340
 3156.0000     0.2930     2.4820     0.0120   -63.8310   110.1620     8.9270   -10.6090     2.5780     2.7930     3.1330   -48.9070
 3156.5000     0.2810     2.4880     0.0060   -63.0730   110.1340     8.9220   -10.6730     2.5650     2.7840     3.1950   -51.5800
 3157.0000     0.2680     2.4920     0.0010   -62.3140   112.0060     8.9160   -10.7410     2.5290     2.7580     3.2520   -54.2540
 3157.5000     0.2730     2.4860    -0.0060   -61.5560   114.0140     8.9100   -10.7990     2.4870     2.7270     3.1660   -56.7390
 3158.0000     0.2790     2.4810     0.0110   -60.7980   115.1360     8.9040   -10.9960     2.4460     2.6960     3.0660   -56.7390
 3158.5000     0.2640     2.4770     0.0320   -60.0390   114.6580     8.8990   -10.7360     2.4040     2.6660     2.9140   -56.7390
 3159.0000     0.2610     2.4830     0.0530   -59.2810   114.2030     8.9050   -10.4970     2.3630     2.6350     2.9380   -56.7390
 3159.5000     0.2600     2.4880     0.0530   -58.5230   114.7170     8.9110   -10.2620     2.3210     2.6040     2.9890   -56.7390
 3160.0000     0.2690     2.4880     0.0370   -57.7640   116.8320     8.9180   -10.0260     2.2570     2.5740     3.0410   -56.7390
 3160.5000     0.2930     2.4800     0.0210   -57.0060   119.5900     8.9240    -9.7900     2.2610     2.5430     3.0790   -56.7390
 3161.0000     0.3120     2.4720     0.0040   -56.2480   122.3990     8.9310    -9.5520     2.2690     2.4960     2.9490   -56.7390
 3161.5000     0.3330     2.4640    -0.0120   -55.4890   122.2770     8.9370    -9.3120     2.2770     2.5160     2.8260   -56.7390
 3162.0000     0.3250     2.4620    -0.0050   -54.7310   118.6950     8.9440    -9.1190     2.3080     2.5610     2.7590   -56.7390
 3162.5000     0.2860     2.4710     0.0050   -53.9730   114.8650     8.9500    -9.2360     2.3550     2.6060     2.8840   -56.7390
