~VERSION INFORMATION
 VERS.                2.0:   CWLS LOG ASCII STANDARD - VERSION 2.0
 WRAP.                 NO:   ONE LINE PER DEPTH STEP
~WELL INFORMATION
#MNEM.UNIT      DATA TYPE    INFORMATION
#----------   ------------   ------------------------------
 STRT.F            0.5000:   START DEPTH
 STOP.F         4149.0000:   STOP DEPTH
 STEP.F            0.5000:   STEP LENGTH
 NULL.          -999.2500:   NO VALUE
 COMP. LAWRENCE ALLISON & ASSOSCIATES:   COMPANY
 WELL. LAWRENCE "X" #34-3:   WELL
 FLD .             NPR #3:   FIELD
 LOC .       S3 T38N R78W:   LOCATION
 CNTY.            NATRONA:   COUNTY
 STAT.            WYOMING:   STATE
 CTRY. UNITED STATES OF AMERICA:   COUNTRY
 SRVC.      DRESSER ATLAS:   SERVICE COMPANY
 DATE.        19-NOV-1983:   LOGDATE
 API .     49025109500000:   API NUMBER
~CURVE INFORMATION
#MNEM.UNIT       API CODE    CURVE DESCRIPTION
#----------   ------------   ------------------------------
 DEPT.F                  :   
 CALD.IN     45 280 60 00:   CALIPER FROM DENSITY LOG
 TEND.LBS    45 635 01 00:   TENSION FORM DENSITY LOG
 DEN .G/C3   45 350 01 00:   BULK DENSITY
 CNC .DEC    42 890 01 00:   NEUTRON POROSITY LIMESTONE
 CORR.G/C3   45 356 01 00:   DENSITY CORRECTION
 TENR.LBS    06 635 01 00:   TENSION FROM RESISTIVITY
 GRR .GAPI   07 310 01 00:   GAMMA RAY FROM RESISTIVITY
 RFOC.OHMM   07 220 04 00:   RESISTIVITY FOCUSED LOG RES.
 RILD.OHMM   07 120 46 00:   DEEP INDUCTION RESISTIVITY
 RILM.OHMM   07 120 44 00:   INDUCTION LOG MEDIUM RESISTIVITY
 SPR .MV     07 010 01 00:   SPONTANEOUS POTENTIAL
 TENS.LBS    60 635 01 00:   TENSION FROM SONIC
 DT  .US/F   60 520 00 00:   DELTA TIME
~PARAMETER INFORMATION
#MNEM.UNIT          VALUE    DESCRIPTION
#----------   ------------   ------------------------------
 EKB .F         5187.0000:   Kelly bushing
 EGL .F         5174.0000:   Ground level
 TD  .F         4140.0000:   Total depth
 CLNT.            A2DTECH:   Client Code
 SL  . 1621' FWL & 1958' FNL:   Surface Location
 PD  .                 GL:   Permanent Datum
 EPD .F              5174:   Elevation Permanent Datum
 LMF .                 KB:   Log Measured From
 DMF .                 KB:   Drilling Measured From
 DAPD.F                13:   Feet Above Permanent Datum
 DATE.        19-NOV-1983:   Date Logged [DD-MMM-YYYY]
 DD  .F              4136:   Depth driller
 DL  .F              4140:   Depth logger
 BLI .F              4138:   Bottom log interval
 TLI .F                 0:   Top log interval
 CS1 .IN            8.625:   Casing size
 CBD1.      8.625" @ 615':   Casing driller 1
 CBL1.F               615:   Casing logger 1
 BS1 .IN            7.875:   Bit size
 BSD1.F              4136:   Depth drilled with bit1
 DFT .            GEL-KCL:   Type fluid in hole
 DFD .                  9:   Density
 DFV .                 45:   Viscosity
 DFPH.                8.5:   pH
 DFL .                 12:   Fluid loss
 MSS .           FLOWLINE:   Source of sample
 RMS .OHMM          0.768:   Rm
 MST .F                74:   Rm Meas. temp.
 RMF .OHMM          0.576:   Rmf
 MFST.F                74:   Rmf Meas. temp.
 MFSS.               CALC:   Source Rmf.
 RMC .OHMM           0.96:   Rmc
 MCST.F                74:   Rmc Meas. temp.
 MCSS.               CALC:   Source Rmc.
 RMB .OHMM          0.418:   Rm. at BHT
 BHT .F               136:   BHT.
 TCS .HRS               4:   Time Circ. stopped
 MRT .F               136:   Maximum recorded temp.
 LUN .               6307:   Logging unit number
 LUL .               GLTE:   Logging unit location
 ENGI.           FAHLSING:   Recorded By
 WITN.           JENNINGS:   Witnessed by
 ORIG.      2.5" 5" PRINT:   Origin of data
 UWI .     49025109500000:   Unique Well ID
 DICO. A2D TECHNOLOGIES, INC.:   Digitizing Company
~OTHER INFORMATION
~A    DEPT    CALD       TEND        DEN        CNC       CORR       TENR         GRR      RFOC       RILD       RILM        SPR       TENS         DT   
# ...
  624.5000     9.5913    30.5426     2.5187     0.2417     0.0239   -33.5404   105.8127     7.7208     7.3539     7.3925   -78.6476  -999.2500  -999.2500
  625.0000     9.5913    29.8508     2.5202     0.2417     0.0142   -32.4379   104.4193     7.9398     7.5620     7.6007   -79.5742  -999.2500  -999.2500
  625.5000     9.5913    29.2537     2.5230     0.2405     0.0084   -31.6770   103.9198     8.0494     7.7217     7.7064   -80.1958  -999.2500  -999.2500
  626.0000     9.5912    28.6567     2.5304     0.2388     0.0114   -30.6922   102.9913     8.1606     7.8134     7.9236   -80.2078  -999.2500  -999.2500
  626.5000     9.5913    28.0597     2.5435     0.2352     0.0205   -29.6296   101.5979     8.2732     7.9939     8.1478   -80.2197  -999.2500  -999.2500
  627.0000     9.5913    27.4627     2.5450     0.2328     0.0416   -28.7947   100.4322     8.3874     8.1046     8.2598   -79.9146  -999.2500  -999.2500
  627.5000     9.5910    26.8657     2.5459     0.2304     0.0423   -27.9503   100.1769     8.5629     8.2226     8.3216   -79.2886  -999.2500  -999.2500
  628.0000     9.5945    26.2687     2.5481     0.2437     0.0412   -27.0186    99.9216     8.6195     8.4504     8.4267   -78.1243  -999.2500  -999.2500
  628.5000     9.6023    25.6717     2.5512     0.2484     0.0509   -26.0623    98.5282     8.6763     8.6896     8.4831   -77.8283  -999.2500  -999.2500
  629.0000     9.6096    25.0746     2.5557     0.2478     0.0510   -25.1552    97.1348     8.7335     8.8111     8.4765   -78.6054  -999.2500  -999.2500
  629.5000     9.6171    24.4776     2.5603     0.2471     0.0506   -24.2236    98.0176     8.8541     8.9330     8.4711   -79.3795  -999.2500  -999.2500
  630.0000     9.6245    23.8806     2.5618     0.2454     0.0542   -23.2920    98.6728     8.8479     8.9268     8.5876   -80.3061  -999.2500  -999.2500
  630.5000     9.6320    23.2836     2.5589     0.2433     0.0573   -12.1541    97.7277     8.9701     9.0503     8.7056   -80.9277  -999.2500  -999.2500
  631.0000     9.6394    22.6866     2.5552     0.2372     0.0574    -5.7526    94.5134     8.9651     9.0453     8.7002   -81.7019  -999.2500  -999.2500
  631.5000     9.6469    22.0896     2.5537     0.2262     0.0485    -4.9690    92.6648     8.9601     9.1052     8.8197   -82.4760  -999.2500  -999.2500
  632.0000     9.6543    21.4926     2.5523     0.2265     0.0367    -3.9310    91.5060     8.9551     9.0974     8.8142   -83.0976  -999.2500  -999.2500
  632.5000     9.6618    20.8955     2.5523     0.2282     0.0338    -3.0202    95.3409     8.9501     9.0300     8.8086   -83.7195  -999.2500  -999.2500
  633.0000     9.6704    20.2985     2.5524     0.2281     0.0369    -2.1739    97.5894     8.9451     9.0239     8.8029   -84.0853  -999.2500  -999.2500
  633.5000     9.6888    19.7015     2.5524     0.2263     0.0579    -1.2422    98.9274     8.9401     9.0189     8.8593   -84.6608  -999.2500  -999.2500
  634.0000     9.7120    19.1045     2.5525     0.2245     0.0610    -0.2877    99.1275     8.9351     8.9496     8.9185   -85.1300  -999.2500  -999.2500
  634.5000     9.7347    18.5075     2.5525     0.2235     0.0581     8.3870    99.0990     8.9300     8.8809     8.7852   -85.4468  -999.2500  -999.2500
  635.0000     9.7572    17.7918     2.5517     0.2234     0.0463    17.0807    98.8375     8.8605     8.8760     8.6552   -85.7636  -999.2500  -999.2500
  635.5000     9.7809    17.1988     2.5502     0.2229     0.0374    18.0124    97.8993     8.5452     8.7451     8.4062   -85.9279  -999.2500  -999.2500
  636.0000     9.8023    16.6057     2.5407     0.2237     0.0375    22.2224    97.6440     8.2412     8.4938     8.1644   -85.9399  -999.2500  -999.2500
  636.5000     9.8270    16.0126     2.5392     0.2350     0.0406    35.4038    97.8509     8.0622     8.2461     8.0436   -86.2561  -999.2500  -999.2500
  637.0000     9.8129    15.4196     2.5408     0.2461     0.0437    36.4607    97.5887     7.8310     7.9965     7.8122   -86.4210  -999.2500  -999.2500
  637.5000     9.7940    14.8266     2.5378     0.2475     0.0258    37.2670    93.4639     7.7157     7.6707     7.6419   -86.5854  -999.2500  -999.2500
  638.0000     9.7742    14.2335     2.5349     0.2457     0.0050    38.1988    92.0448     7.6022     7.5576     7.4751   -86.9024  -999.2500  -999.2500
  638.5000     9.7551    13.6404     2.5344     0.2401     0.0111    39.1931    94.0914     7.5439     7.4461     7.4694   -87.2219  -999.2500  -999.2500
  639.0000     9.7497    13.0473     2.5379     0.2355     0.0261    40.1039    95.7057     7.5369     7.5492     7.5182   -87.3863  -999.2500  -999.2500
  639.5000     9.7500    12.4543     2.5350     0.2300     0.0412    29.7036    99.7196     7.5895     7.5991     7.5685   -87.3982  -999.2500  -999.2500
  640.0000     9.7501    11.8612     2.5201     0.2311     0.0563    26.3975   102.1957     7.6467     7.7596     7.6725   -87.5626  -999.2500  -999.2500
  640.5000     9.7499    11.2681     2.5231     0.2356     0.0594    19.2085   102.1680     7.8005     7.8670     7.6665   -88.1842  -999.2500  -999.2500
  641.0000     9.7500    10.6751     2.5291     0.2393     0.0535    12.7330    98.4985     7.9070     7.9758     7.7731   -88.8059  -999.2500  -999.2500
  641.5000     9.7500    10.0821     2.5397     0.2399     0.0538    13.8297    95.2841     7.9026     8.0862     7.8787   -89.7325  -999.2500  -999.2500
  642.0000     9.7500     9.4890     2.5487     0.2372     0.0597     5.4090    94.1253     8.0117     8.0806     7.8738   -90.3551  -999.2500  -999.2500
  642.5000     9.7500     8.8959     2.5412     0.2330     0.0598    -0.1044    96.5945     7.8938     8.0761     7.8688   -90.9768  -999.2500  -999.2500
  643.0000     9.7500     0.0000     2.5248     0.2303     0.0599     1.0342    97.4791     7.8894     8.0141     7.8638   -91.7509  -999.2500  -999.2500
  643.5000     9.7500     0.0000     2.5219     0.2281     0.0539     1.8634    98.1325     7.8850     8.0682     7.8588   -92.2201  -999.2500  -999.2500
  644.0000     9.7500     0.0000     2.5279     0.2233     0.0475     2.8557    97.8772     7.8806     8.0626     7.8528   -92.6894  -999.2500  -999.2500
  644.5000     9.7500     0.0000     2.5324     0.2245     0.0298     3.7665    98.2978     7.8762     8.0581     7.8478   -92.5488  -999.2500  -999.2500
  645.0000     9.7500     0.0000     2.5355     0.2257     0.0244     4.6584    99.4422     7.9282     8.0537     7.8429   -92.5610  -999.2500  -999.2500
  645.5000     9.7500     0.0000     2.5370     0.2263     0.0308     9.5040   100.7617     7.9805     8.0492     7.8380   -92.4203  -999.2500  -999.2500
  646.0000     9.7500     4.7445     2.5281     0.2275     0.0369    14.2857   101.1822     7.9750     8.0446     7.8331   -91.9778  -999.2500  -999.2500
  646.5000     9.7500     4.1515     2.5221     0.2293     0.0433    15.4015    99.7587     7.9138     8.0391     7.8282   -91.6819  -999.2500  -999.2500
  647.0000     9.7500     3.5584     2.5219     0.2311     0.0518    16.3123    99.0295     7.8532     7.9205     7.8232   -91.3889  -999.2500  -999.2500
  647.5000     9.7500     2.9653     2.5342     0.2323     0.0556    16.9954    98.3004     7.7930     7.8597     7.7075   -91.0960  -999.2500  -999.2500
  648.0000     9.7500     2.3722     2.5328     0.2336     0.0669    10.1422    98.2542     7.7333     7.7994     7.7026   -90.8030  -999.2500  -999.2500
  648.5000     9.7500     1.7792     2.5253     0.2246     0.0504    11.1801    98.2075     7.7290     7.7395     7.6948   -90.5100  -999.2500  -999.2500
  649.0000     9.7500    16.1194     2.5149     0.2243     0.0333    12.1915    98.4181     7.7247     7.6801     7.5837   -90.5249  -999.2500  -999.2500
  649.5000     9.7500    10.6133     2.5030     0.2288     0.0253    13.1023   100.6076     7.7204     7.6758     7.4705   -90.3841  -999.2500  -999.2500
  650.0000     9.7500     0.0000     2.5000     0.2324     0.0249    19.5829   101.2558     7.7161     7.6715     7.4658   -90.2439  -999.2500  -999.2500
