~VERSION INFORMATION
 VERS.                2.0:   CWLS LOG ASCII STANDARD - VERSION 2.0
 WRAP.                 NO:   ONE LINE PER DEPTH STEP
~WELL INFORMATION
#MNEM.UNIT      DATA TYPE    INFORMATION
#----------   ------------   ------------------------------
 STRT.F           90.0000:   START DEPTH
 STOP.F         3342.0000:   STOP DEPTH
 STEP.F            0.5000:   STEP LENGTH
 NULL.          -999.2500:   NO VALUE
 COMP. LAWRENCE ALLISON AND ASSOCIATES:   COMPANY
 WELL. LAWERNCE "X" #83-3:   WELL
 FLD .             NPR #3:   FIELD
 LOC .       S3 T38N R78W:   LOCATION
 CNTY.            NATRONA:   COUNTY
 STAT.            WYOMING:   STATE
 CTRY. UNITED STATES OF AMERICA:   COUNTRY
 SRVC.      DRESSER ATLAS:   SERVICE COMPANY
 DATE.        23-APR-1985:   LOGDATE
 API .     49025110210000:   API NUMBER
~CURVE INFORMATION
#MNEM.UNIT       API CODE    CURVE DESCRIPTION
#----------   ------------   ------------------------------
 DEPT.F                  :   
 TENR.LBS    07 635 01 00:   TENSION FROM RESISTIVITY
 CALR.IN     07 280 01 00:   CALIPER FROM RESISTIVITY
 SPR .MV     07 010 01 00:   SPONTANEOUS POTENTIAL
 GRR .GAPI   07 310 01 00:   GAMMA RAY FROM RESISTIVITY
 RFOC.OHMM   07 220 04 00:   RESISTIVITY FOCUSED LOG RES.
 RILD.OHMM   07 120 46 00:   DEEP INDUCTION RESISTIVITY
 RILM.OHMM   07 120 44 00:   INDUCTION LOG MEDIUM RESISTIVITY
 NPHI.DEC    42 890 03 00:   NEUTRON POROSITY SANDSTONE
 RHOB.G/C3   45 350 01 00:   BULK DENSITY
 TEND.LBS    45 635 01 00:   TENSION FROM DENSITY LOG
 CORR.G/C3   45 356 01 00:   DENSITY CORRECTION
~PARAMETER INFORMATION
#MNEM.UNIT          VALUE    DESCRIPTION
#----------   ------------   ------------------------------
 EKB .F         5125.0000:   Kelly bushing
 EGL .F         5112.0000:   Ground level
 EDF .F            0.0000:   Drilling floor
 TD  .F         3330.0000:   Total depth
 DATE.        23-APR-1985:   Date logged
 CLNT.            A2DTECH:   Client Code
 SL  . 1745' FNL & 612' FEL:   Surface Location
 PD  .                 GL:   Permanent Datum
 DD  .F              3330:   Depth driller
 DL  .F              3328:   Depth logger
 BLI .F              3326:   Bottom log interval
 CS1 .IN            8.625:   Casing size
 CBD1.      8.625" @ 526':   Casing driller 1
 CBL1.F               528:   Casing logger 1
 BS1 .IN            7.875:   Bit size
 DFT .            KCL-GEL:   Type fluid in hole
 DFD .                9.1:   Density
 DFV .                 43:   Viscosity
 DFPH.                  8:   pH
 DFL .                  8:   Fluid loss
 MSS .           FLOWLINE:   Source of sample
 RMS .OHMM          0.445:   Rm
 MST .F                72:   Rm Meas. temp.
 RMF .OHMM           0.36:   Rmf
 MFST.F                70:   Rmf Meas. temp.
 RMC .OHMM           0.55:   Rmc
 MCST.F                72:   Rmc Meas. temp.
 MFSS.               MEAS:   Source Rmf.
 RMB .OHMM          0.286:   Rm. at BHT
 BHT .F               116:   BHT.
 TCS .HRS               3:   Time Circ. stopped
 MRT .F               116:   Maximum recorded temp.
 LUN .               6274:   Logging unit number
 LUL .               GLTE:   Logging unit location
 ENGI.             RAUTIO:   Recorded By
 WITN.             STRONG:   Witnessed by
 ORIG.           5" PRINT:   Origin of data
 UWI .     49025110210000:   Unique Well ID
 DICO. A2D TECHNOLOGIES, INC.:   Digitizing Company
 DAPD.                 13:   Feet Above Permanent Datum
 BSD1.               3330:   Depth drilled with bit1
 MCSS.               CALC:   Source Rmc.
 EPD .               5112:   Elevation Permanent Datum
 LMF .                 KB:   Log Measured From
 DMF .                 KB:   Drilling Measured From
~OTHER INFORMATION
~A   DEPT     TENR       CALR        SPR         GRR      RFOC       RILD       RILM       NPHI       RHOB       TEND       CORR   
# ...
 1828.5000   -65.5530    11.3820   -67.2340   121.7200     6.1170     5.7900     5.9590  -999.2500  -999.2500  -999.2500  -999.2500
 1829.0000   -65.5530    11.3830   -67.0470   123.7290     6.0620     5.8430     5.9970  -999.2500  -999.2500  -999.2500  -999.2500
 1829.5000   -53.4780    11.3830   -66.8620   120.2940     6.2890     5.8080     6.0350  -999.2500  -999.2500  -999.2500  -999.2500
 1830.0000   -45.6130    11.3840   -66.6780   117.0230     6.4680     5.7570     6.1170  -999.2500  -999.2500  -999.2500  -999.2500
 1830.5000   -45.6130    11.3850   -66.4940   113.5050     6.6460     5.7060     6.0480  -999.2500  -999.2500  -999.2500  -999.2500
 1831.0000   -45.6130    11.3840   -66.3100   113.6380     6.7680     5.6550     5.9490  -999.2500  -999.2500  -999.2500  -999.2500
 1831.5000   -47.2690    11.3690   -66.1260   113.8600     6.2090     5.6040     5.8430  -999.2500  -999.2500  -999.2500  -999.2500
 1832.0000   -49.0670    11.3650   -66.0950   111.9870     5.8900     5.5810     5.7900  -999.2500  -999.2500  -999.2500  -999.2500
 1832.5000   -50.8650    11.3440   -66.1940   108.4460     6.3080     5.8420     6.0640  -999.2500  -999.2500  -999.2500  -999.2500
 1833.0000   -52.6630    11.3460   -66.2370   108.4890     6.7160     6.0540     6.2700  -999.2500  -999.2500  -999.2500  -999.2500
 1833.5000   -54.4620    11.3460   -66.2370   108.7190     7.2170     6.2970     6.4760  -999.2500  -999.2500  -999.2500  -999.2500
 1834.0000   -56.2480    11.3450   -66.2380   109.4360     7.1330     6.5240     6.6720  -999.2500  -999.2500  -999.2500  -999.2500
 1834.5000   -58.0150    11.3450   -66.2360   110.1920     6.8930     6.6110     6.7380  -999.2500  -999.2500  -999.2500  -999.2500
 1835.0000   -59.7810    11.3440   -66.2310   110.9460     6.9220     6.6450     6.7790  -999.2500  -999.2500  -999.2500  -999.2500
 1835.5000   -61.5480    11.3430   -66.2710   111.6830     6.9710     6.6790     6.8200  -999.2500  -999.2500  -999.2500  -999.2500
 1836.0000   -63.3140    11.3430   -66.4590   111.9440     7.0190     6.7060     6.8610  -999.2500  -999.2500  -999.2500  -999.2500
 1836.5000   -65.0810    11.3420   -67.1040   110.1200     7.0800     6.6030     6.8930  -999.2500  -999.2500  -999.2500  -999.2500
 1837.0000   -66.8480    11.3410   -67.2490   110.4750     6.9220     6.5190     6.8360  -999.2500  -999.2500  -999.2500  -999.2500
 1837.5000   -68.6140    11.3410   -67.0310   111.8580     6.6640     6.4340     6.5950  -999.2500  -999.2500  -999.2500  -999.2500
 1838.0000   -70.3810    11.3400   -67.0330   111.8950     6.5240     6.4050     6.4050  -999.2500  -999.2500  -999.2500  -999.2500
 1838.5000   -72.1480    11.3390   -67.0310   111.8290     6.6990     6.5000     6.4640  -999.2500  -999.2500  -999.2500  -999.2500
 1839.0000   -73.9140    11.3390   -67.0520   110.2750     6.8380     6.5750     6.5330  -999.2500  -999.2500  -999.2500  -999.2500
 1839.5000   -75.5230    11.3380   -67.0740   108.4530     6.9770     6.7060     6.6030  -999.2500  -999.2500  -999.2500  -999.2500
 1840.0000   -72.7690    11.3370   -67.0950   107.8350     7.1160     6.8480     6.6720  -999.2500  -999.2500  -999.2500  -999.2500
 1840.5000   -68.7940    11.3370   -67.1160   108.4340     7.2560     7.0210     6.7060  -999.2500  -999.2500  -999.2500  -999.2500
 1841.0000   -64.8190    11.3360   -67.1380   109.6840     7.3510     7.0860     6.5980  -999.2500  -999.2500  -999.2500  -999.2500
 1841.5000   -60.8440    11.3350   -67.1590   111.5450     7.1320     6.8880     6.4470  -999.2500  -999.2500  -999.2500  -999.2500
 1842.0000   -56.8690    11.3350   -67.1800   113.3810     6.9570     6.7060     6.3460  -999.2500  -999.2500  -999.2500  -999.2500
 1842.5000   -52.8940    11.3340   -67.2020   113.9150     6.6430     6.7490     6.7450  -999.2500  -999.2500  -999.2500  -999.2500
 1843.0000   -48.9190    11.3330   -67.2230   112.3240     6.2310     6.8300     7.0440  -999.2500  -999.2500  -999.2500  -999.2500
 1843.5000   -45.6130    11.3330   -67.2140   106.8650     6.8890     6.9570     7.4190  -999.2500  -999.2500  -999.2500  -999.2500
 1844.0000   -50.4990    11.3320   -67.1300   100.9650     7.7530     6.8760     7.2300  -999.2500  -999.2500  -999.2500  -999.2500
 1844.5000   -55.5830    11.3310   -67.0450    96.2950     8.3590     6.7700     6.9860  -999.2500  -999.2500  -999.2500  -999.2500
 1845.0000   -58.7990    11.3310   -66.9080    98.9710     7.6360     6.6650     6.7410  -999.2500  -999.2500  -999.2500  -999.2500
 1845.5000   -62.0480    11.3300   -66.7100   103.7630     6.9050     6.6110     6.6450  -999.2500  -999.2500  -999.2500  -999.2500
 1846.0000   -65.2960    11.3290   -66.5110   108.5240     6.7120     6.5540     6.6100  -999.2500  -999.2500  -999.2500  -999.2500
 1846.5000   -68.5440    11.3290   -66.3100   112.3920     6.6440     6.4980     6.5670  -999.2500  -999.2500  -999.2500  -999.2500
 1847.0000   -71.7930    11.3280   -66.2910   112.2810     6.5750     6.4420     6.5240  -999.2500  -999.2500  -999.2500  -999.2500
 1847.5000   -75.0410    11.3270   -66.5320   112.5580     6.5240     6.3860     6.4810  -999.2500  -999.2500  -999.2500  -999.2500
 1848.0000   -78.2890    11.3270   -66.7710   114.5260     6.5420     6.3300     6.4380  -999.2500  -999.2500  -999.2500  -999.2500
 1848.5000   -81.5380    11.3260   -67.0090   115.3880     6.5600     6.2310     6.3950  -999.2500  -999.2500  -999.2500  -999.2500
 1849.0000   -84.7860    11.3330   -67.2230   116.2810     6.5780     6.2710     6.3510  -999.2500  -999.2500  -999.2500  -999.2500
 1849.5000   -88.0340    11.3400   -67.2380   117.7140     6.7720     6.3300     6.3460  -999.2500  -999.2500  -999.2500  -999.2500
 1850.0000   -91.2830    11.3460   -67.4290   119.1140     7.0860     6.3890     6.3970  -999.2500  -999.2500  -999.2500  -999.2500
 1850.5000   -94.5310    11.3530   -67.5750   120.5400     6.9570     6.4480     6.4370  -999.2500  -999.2500  -999.2500  -999.2500
 1851.0000   -93.4700    11.3600   -67.7420   120.2110     6.9570     6.5840     6.4640  -999.2500  -999.2500  -999.2500  -999.2500
 1851.5000   -89.5970    11.3660   -67.9080   116.8990     6.9570     6.5310     6.5840  -999.2500  -999.2500  -999.2500  -999.2500
 1852.0000   -85.7240    11.3650   -68.0260   113.5010     6.8660     6.4310     6.5840  -999.2500  -999.2500  -999.2500  -999.2500
 1852.5000   -81.8510    11.3630   -67.8880   111.7590     6.5840     6.4050     6.5840  -999.2500  -999.2500  -999.2500  -999.2500
 1853.0000   -77.9780    11.3620   -67.7110   110.4670     6.6240     6.4050     6.5840  -999.2500  -999.2500  -999.2500  -999.2500
 1853.5000   -75.6310    11.3600   -67.5330   109.7850     6.6780     6.4640     6.5840  -999.2500  -999.2500  -999.2500  -999.2500
 1854.0000   -76.2680    11.3580   -67.3540   113.9930     6.7320     6.1740     6.5840  -999.2500  -999.2500  -999.2500  -999.2500
 1854.5000   -76.9050    11.3570   -67.1770   117.2150     6.7860     6.1820     6.5840  -999.2500  -999.2500  -999.2500  -999.2500
 1855.0000   -77.5430    11.3550   -67.0250   114.4190     6.8400     6.2020     6.5670  -999.2500  -999.2500  -999.2500  -999.2500
 1855.5000   -78.1800    11.3540   -67.0290   111.1530     6.8930     6.2230     6.5450  -999.2500  -999.2500  -999.2500  -999.2500
 1856.0000   -78.8170    11.3520   -67.0290   109.4280     6.7620     6.2310     6.5240  -999.2500  -999.2500  -999.2500  -999.2500
 1856.5000   -79.4550    11.3510   -67.0400   111.2990     6.6320     6.0580     6.2480  -999.2500  -999.2500  -999.2500  -999.2500
 1857.0000   -80.0920    11.3490   -66.8230   113.1240     6.5030     5.8970     5.9770  -999.2500  -999.2500  -999.2500  -999.2500
 1857.5000   -80.7290    11.3470   -66.7850   114.0120     6.4050     5.5230     5.7070  -999.2500  -999.2500  -999.2500  -999.2500
 1858.0000   -81.3670    11.3450   -66.7260   113.2820     6.4050     5.0800     5.4360  -999.2500  -999.2500  -999.2500  -999.2500
 1858.5000   -82.0040    11.3650   -66.6660   110.6270     6.0320     4.6360     5.1650  -999.2500  -999.2500  -999.2500  -999.2500
