~VERSION INFORMATION
 VERS.                2.0:   CWLS LOG ASCII STANDARD - VERSION 2.0
 WRAP.                 NO:   ONE LINE PER DEPTH STEP
~WELL INFORMATION
#MNEM.UNIT      DATA TYPE    INFORMATION
#----------   ------------   ------------------------------
 STRT.F          224.0000:   START DEPTH
 STOP.F         2912.0000:   STOP DEPTH
 STEP.F            0.5000:   STEP LENGTH
 NULL.          -999.2500:   NO VALUE
 COMP.    FENIX & SCISSON:   COMPANY
 WELL. FENIX & SCISSON NPR 34 "A" #3-21:   WELL
 FLD .             NPR #3:   FIELD
 LOC .      S21 T39N R78W:   LOCATION
 CNTY.            NATRONA:   COUNTY
 STAT.            WYOMING:   STATE
 CTRY. UNITED STATES OF AMERICA:   COUNTRY
 SRVC.              WELEX:   SERVICE COMPANY
 DATE.        15-JUL-1977:   LOGDATE
 API .     49025103970000:   API NUMBER
~CURVE INFORMATION
#MNEM.UNIT       API CODE    CURVE DESCRIPTION
#----------   ------------   ------------------------------
 DEPT.F                  :   
 CALD.IN     45 280 60 00:   CALIPER FROM DENSITY LOG
 CORR.G/C3   45 356 01 00:   DENSITY CORRECTION
 RHOB.G/C3   45 350 01 00:   BULK DENSITY
 GRD .GAPI   45 310 01 00:   GAMMA RAY FROM DENSITY LOG
 SPR .MV     07 010 01 00:   SPONTANEOUS POTENTIAL
 ILD .OHMM   07 120 46 00:   DEEP INDUCTION RESISTIVITY
 ILM .OHMM   07 120 44 00:   INDUCTION LOG MEDIUM RESISTIVITY
 SGRD.OHMM   07 220 05 00:   SHALLOW SHORT GUARD RESISTIVITY
~PARAMETER INFORMATION
#MNEM.UNIT          VALUE    DESCRIPTION
#----------   ------------   ------------------------------
 EKB .F         4921.0000:   Kelly bushing
 EGL .F         4911.0000:   Ground level
 TD  .F         2914.0000:   Total depth
 CLNT.            A2DTECH:   Client Code
 SL  . 2310' FNL & 1650' FWL:   Surface Location
 DATE.        15-JUL-1977:   Date Logged [DD-MMM-YYYY]
 DD  .F              2900:   Depth driller
 DL  .F              2914:   Depth logger
 BLI .F              2912:   Bottom log interval
 TLI .F               218:   Top log interval
 CS1 .              8.625:   Casing size
 CBD1.      8.625" @ 230':   Casing driller 1
 CBL1.IN              226:   Casing logger 1
 BS1 .IN            7.875:   Bit size
 BSD1.F              2900:   Depth drilled with bit1
 DFT .                KCL:   Type fluid in hole
 DFD .                8.9:   Density
 DFV .               1.42:   Viscosity
 DFPH.                7.5:   pH
 DFL .               19.6:   Fluid loss
 MSS .            MUD PIT:   Source of sample
 RMS .OHMM           3.75:   Rm
 MST .F                83:   Rm Meas. temp.
 RMF .OHMM           3.40:   Rmf
 MFST.F                83:   Rmf Meas. temp.
 MFSS.           MEASURED:   Source Rmf.
 RMC .OHMM            9.0:   Rmc
 MCST.F                83:   Rmc Meas. temp.
 MCSS.           MEASURED:   Source Rmc.
 RMB .OHMM           2.80:   Rm. at BHT
 BHT .F               111:   BHT.
 TCS .HRS               3:   Time Circ. stopped
 MRT .F               111:   Maximum recorded temp.
 LUN .               8766:   Logging unit number
 LUL .             CASPER:   Logging unit location
 ENGI.          T. JOYNER:   Recorded By
 WITN.     MR. PETTINGILL:   Witnessed by
 ORIG.           5" PRINT:   Origin of data
 UWI .     49025103970000:   Unique Well ID
 DICO. A2D TECHNOLOGIES, INC.:   Digitizing Company
 PD  .                 GL:   Permanent Datum
 EPD .F              4911:   Elevation Permanent Datum
 LMF .                 KB:   Log Measured From
 DMF .                 KB:   Drilling Measured From
 DAPD.F                10:   Feet Above Permanent Datum
~OTHER INFORMATION
~A   DEPT      CALD        CORR       RHOB       GRD       SPR        ILD        ILM       SGRD   
# ...
 2492.0000     8.2485     0.0425     2.4829   122.5129   -51.6826     7.2562     7.9757    10.3693
 2492.5000     8.2503     0.0440     2.4934   121.9515   -51.8261     7.2620     8.1495    10.3035
 2493.0000     8.2521     0.0426     2.4950   120.4985   -51.8168     7.2671     8.2119    10.2382
 2493.5000     8.2539     0.0396     2.4868   119.6316   -52.1074     7.2731     8.2179    10.2454
 2494.0000     8.2554     0.0337     2.4742   120.2671   -52.2508     7.2794     8.1664    10.1786
 2494.5000     8.2572     0.0278     2.4660   122.0831   -52.3924     7.2862     8.1172    10.0455
 2495.0000     8.2440     0.0219     2.4616   123.0075   -52.5340     7.1924     8.0109     9.9817
 2495.5000     8.2459     0.0204     2.4602   121.8517   -52.5247     7.1478     7.9616     9.9184
 2496.0000     8.2327     0.0220     2.4625   120.3988   -52.5173     7.1545     7.9136     9.9255
 2496.5000     8.2345     0.0222     2.4700   119.8291   -52.5098     7.1112     7.8109     9.7948
 2497.0000     8.2214     0.0268     2.4783   120.4576   -52.3534     7.1178     7.8176     9.8000
 2497.5000     8.2232     0.0328     2.4874   121.1244   -52.1969     7.0746     7.8243     9.8060
 2498.0000     8.2250     0.0403     2.4949   122.3378   -52.1895     6.9817     7.8300     9.8791
 2498.5000     8.2116     0.0463     2.5017   123.2545   -52.1820     6.9892     7.8358     9.9527
 2499.0000     8.2137     0.0523     2.5077   123.5763   -52.3236     6.9459     7.8415     9.9580
 2499.5000     8.2155     0.0523     2.5115   124.1872   -52.3162     6.8564     7.8482    10.0331
 2500.0000     8.2173     0.0554     2.5131   123.9227   -52.6068     6.8149     7.8105     9.9266
 2500.5000     8.2293     0.0569     2.5094   123.6583   -52.8974     7.0141     7.6983     9.8394
 2501.0000     8.2412     0.0600     2.5049   122.5027   -52.8900     7.0212     7.8143     9.9867
 2501.5000     8.2532     0.0585     2.5222   121.9405   -52.8826     7.0282     7.8211     9.9947
 2502.0000     8.2651     0.0631     2.5342   124.9459   -52.8751     7.1327     7.8822     9.9341
 2502.5000     8.2711     0.0631     2.5215   127.3562   -52.8677     7.1904     7.9436    10.0095
 2503.0000     8.2575     0.0599     2.5089   126.2004   -52.8602     7.1976     8.0610     9.8804
 2503.5000     8.2448     0.0554     2.4992   123.5158   -53.0037     7.2048     8.0680     9.8204
 2504.0000     8.2466     0.0468     2.4821   120.2652   -53.4433     7.2618     8.0762     9.5623
 2504.5000     8.2331     0.0363     2.4650   123.0768   -53.4340     7.2691     8.0833     9.2470
 2505.0000     8.2200     0.0289     2.4560   126.5669   -53.7265     7.2764     7.9234     8.8794
 2505.5000     8.2222     0.0244     2.4509   121.2442   -54.0153     7.2849     7.8758     8.6437
 2506.0000     8.2239     0.0260     2.4582   126.3227   -54.0079     7.2399     7.6681     8.4154
 2506.5000     8.2257     0.0290     2.4779   124.2689   -54.1513     7.1998     7.4167     8.1931
 2507.0000     8.2275     0.0351     2.4924   128.7596   -54.4401     7.1074     7.1715     7.9788
 2507.5000     8.2441     0.0351     2.4967   129.3738   -54.5817     6.9226     6.9343     7.8759
 2508.0000     8.2459     0.0307     2.4870   127.6172   -54.7232     6.7880     6.7515     7.7188
 2508.5000     8.2477     0.0322     2.4826   130.3249   -54.7158     6.5212     6.5734     7.5159
 2509.0000     8.2643     0.0367     2.4871   133.0260   -54.8593     6.3071     6.4001     7.3174
 2509.5000     8.2661     0.0413     2.4991   135.1326   -55.1480     6.0166     6.2322     7.1250
 2510.0000     8.2679     0.0413     2.4902   133.6732   -55.2896     5.7396     6.0678     6.9848
 2510.5000     8.2697     0.0339     2.4798   131.9166   -55.4331     5.5130     5.9487     6.9415
 2511.0000     8.2863     0.0324     2.4873   134.6177   -55.5747     5.2954     5.8715     6.9003
 2511.5000     8.3030     0.0355     2.4933   136.1234   -55.2673     5.1224     5.7175     6.9068
 2512.0000     8.3047     0.0415     2.5076   133.7791   -55.2599     5.0211     5.6052     6.9601
 2512.5000     8.3214     0.0460     2.5256   134.3999   -55.2933     4.9252     5.5707     6.9658
 2513.0000     8.3235     0.0521     2.5383   135.9122   -55.3595     4.8619     5.4629     6.9723
 2513.5000     8.3252     0.0581     2.5466   136.2359   -55.4258     4.8335     5.4677     6.9779
 2514.0000     8.3270     0.0611     2.5519   138.3425   -55.4467     4.7395     5.4340     7.0318
 2514.5000     8.3139     0.0642     2.5497   139.5577   -55.5853     4.6481     5.4396     7.0862
 2515.0000     8.3157     0.0642     2.5467   137.5039   -55.4233     4.6536     5.4451     7.1904
 2515.5000     8.3021     0.0658     2.5483   136.3417   -55.1148     4.6582     5.4498     7.3465
 2516.0000     8.2890     0.0643     2.5435   136.9787   -55.1044     4.6951     5.4546     7.5071
 2516.5000     8.2912     0.0644     2.5350   138.2071   -54.9449     4.7649     5.4971     7.6702
 2517.0000     8.2781     0.0644     2.5268   139.4771   -54.9345     4.8034     5.6170     7.9455
 2517.5000     8.2799     0.0615     2.5164   141.2581   -54.9240     4.9085     5.7800     8.1743
 2518.0000     8.2663     0.0555     2.5052   143.3157   -54.7646     4.9473     5.9469     8.5264
 2518.5000     8.2686     0.0481     2.4956   143.0450   -54.3071     5.0905     6.1610     8.7718
 2519.0000     8.2553     0.0406     2.4889   140.3968   -54.1476     5.3103     6.5163     9.0255
 2519.5000     8.2423     0.0301     2.4844   141.0176   -53.8391     5.5016     6.8447     9.2216
 2520.0000     8.2441     0.0212     2.4816   143.4215   -53.6797     5.7401     6.9458     9.4219
 2520.5000     8.2459     0.0216     2.4886   141.3677   -53.2222     5.9880     7.0983     9.5604
 2521.0000     8.2477     0.0337     2.4974   140.2055   -53.2117     6.1612     7.2530     9.5681
 2521.5000     8.2494     0.0425     2.5034   142.0150   -53.6510     6.3832     7.2594     9.3785
 2522.0000     8.2512     0.0484     2.5102   143.8245   -53.7870     6.5679     7.3160     9.2588
 2522.5000     8.2530     0.0484     2.5109   143.8510   -53.9256     6.8045     7.3224     9.0753
 2523.0000     8.2547     0.0455     2.5095   142.6887   -54.2159     6.9545     7.3298     8.8967
 2523.5000     8.2565     0.0425     2.5178   141.2293   -54.6499     7.1066     7.3362     8.6640
 2524.0000     8.2583     0.0426     2.5215   142.7416   -54.7911     7.1629     7.2900     8.4352
 2524.5000     8.2602     0.0441     2.5112   142.1738   -55.0788     6.9743     7.1479     8.1559
 2525.0000     8.2619     0.0427     2.5030   140.7143   -55.3664     6.7464     7.0571     7.7245
 2525.5000     8.2640     0.0412     2.5001   140.1092   -55.5050     6.5688     6.9176     7.3169
 2526.0000     8.2658     0.0413     2.5001   142.5503   -55.4920     6.1827     6.5537     6.9299
 2526.5000     8.2676     0.0413     2.5039   144.9542   -55.4816     5.8970     6.2502     6.7926
 2527.0000     8.2694     0.0414     2.5032   146.1717   -55.4712     5.5878     5.9197     6.7513
 2527.5000     8.2711     0.0399     2.5003   145.8842   -55.3117     5.3305     5.6067     6.7577
 2528.0000     8.2729     0.0355     2.4951   142.7611   -55.3013     5.1201     5.4213     6.7631
 2528.5000     8.2896     0.0265     2.4892   144.2515   -55.2909     4.9172     5.3141     6.7695
 2529.0000     8.3062     0.0236     2.4862   146.6805   -54.8333     4.7565     5.2822     6.7749
 2529.5000     8.3229     0.0236     2.4865   147.7941   -54.6739     4.5696     5.1785     6.7797
 2530.0000     8.3246     0.0252     2.4931   145.7404   -54.6635     4.4195     5.1481     6.7858
 2530.5000     8.3115     0.0252     2.4969   144.5781   -54.6530     4.3929     5.1533     6.7913
 2531.0000     8.2980     0.0252     2.4984   144.9017   -54.6426     4.2780     5.1578     6.7965
 2531.5000     8.2853     0.0268     2.4999   145.2254   -54.4832     4.2830     5.0908     6.8032
 2532.0000     8.2871     0.0253     2.5007   144.3537   -54.1747     4.2572     5.0602     6.8086
