~VERSION INFORMATION
 VERS.                2.0:   CWLS LOG ASCII STANDARD - VERSION 2.0
 WRAP.                 NO:   ONE LINE PER DEPTH STEP
~WELL INFORMATION
#MNEM.UNIT      DATA TYPE    INFORMATION
#----------   ------------   ------------------------------
 STRT.F          196.5000:   START DEPTH
 STOP.F         2376.0000:   STOP DEPTH
 STEP.F            0.5000:   STEP LENGTH
 NULL.          -999.2500:   NO VALUE
 COMP.    FENIX & SCISSON:   COMPANY
 WELL. FENIX & SCISSON NPR-3 #55-10:   WELL
 FLD .  TEAPOT DOME NPR-3:   FIELD
 LOC .      S10 T38N R78W:   LOCATION
 CNTY.            NATRONA:   COUNTY
 STAT.            WYOMING:   STATE
 CTRY. UNITED STATES OF AMERICA:   COUNTRY
 SRVC.           BIRDWELL:   SERVICE COMPANY
 DATE.        09-MAY-1979:   LOGDATE
 API .     49025107780000:   API NUMBER
~CURVE INFORMATION
#MNEM.UNIT       API CODE    CURVE DESCRIPTION
#----------   ------------   ------------------------------
 DEPT.F                  :   
 CALD.IN     45 280 60 00:   CALIPER FROM DENSITY LOG
 GRD .GAPI   45 310 01 00:   GAMMA RAY FROM DENSITY LOG
 RHOB.G/C3   45 350 01 00:   BULK DENSITY
 CORR.G/C3   45 356 01 00:   DENSITY CORRECTION
~PARAMETER INFORMATION
#MNEM.UNIT          VALUE    DESCRIPTION
#----------   ------------   ------------------------------
 EKB .F         5203.0000:   Kelly bushing
 EGL .F         5193.0000:   Ground level
 EDF .F            0.0000:   Drilling floor
 TD  .F         2376.0000:   Total depth
 CLNT.            A2DTECH:   Client Code
 SL  . 2283' FSL & 2107' FEL:   Surface Location
 PD  .                 GL:   Permanent Datum
 EPD .F              5193:   Elevation Permanent Datum
 LMF .                 KB:   Log Measured From
 DMF .                 KB:   Drilling Measured From
 DAPD.F                10:   Feet Above Permanent Datum
 DATE.        09-MAY-1979:   Date Logged [DD-MMM-YYYY]
 DD  .F              2360:   Depth driller
 DL  .F              2376:   Depth logger
 BLI .F              2376:   Bottom log interval
 TLI .F               196:   Top log interval
 CS1 .IN            9.625:   Casing size
 CBD1.             9.625":   Casing driller 1
 CBL1.F               545:   Casing logger 1
 BS1 .IN             8.75:   Bit size
 BSD1.F              2360:   Depth drilled with bit1
 DFT .                AIR:   Type fluid in hole
 TCS .HRS               3:   Time Circ. stopped
 LUN .               2959:   Logging unit number
 LUL .             CASPER:   Logging unit location
 ENGI.         B. ROLLINS:   Recorded By
 WITN.             RHODES:   Witnessed by
 ORIG.           5" PRINT:   Origin of data
 UWI .     49025107780000:   Unique Well ID
 DICO. A2D TECHNIOLOGIES,INC.:   Digitizing Company
~OTHER INFORMATION
~A  DEPTH     CALD        GRD       RHOB       CORR
# ...
 2094.5000     8.8973   155.9742     2.4495     0.0544
 2095.0000     8.8973   157.9335     2.4511     0.0559
 2095.5000     8.8990   159.1390     2.4526     0.0603
 2096.0000     8.9124   151.7465     2.4503     0.0648
 2096.5000     8.9124   149.3318     2.4315     0.0301
 2097.0000     8.9124   150.0844     2.4239     0.0345
 2097.5000     8.9275   152.3454     2.4337     0.0360
 2098.0000     8.9426   150.3471     2.4187     0.0058
 2098.5000     8.9426   147.6154     2.3983    -0.0033
 2099.0000     8.9577   146.3074     2.3968     0.0056
 2099.5000     8.9577   152.6407     2.4089     0.0176
 2100.0000     8.9728   159.8795     2.4337     0.0221
 2100.5000     8.9728   161.2384     2.4398     0.0113
 2101.0000     8.9714   161.8432     2.4398     0.0067
 2101.5000     8.9699   161.2414     2.4432     0.0074
 2102.0000     8.9684   155.6622     2.4480     0.0264
 2102.5000     8.9669   154.6078     2.4405     0.0158
 2103.0000     8.9654   148.4182     2.4443     0.0112
 2103.5000     8.9639   144.6561     2.4623     0.0277
 2104.0000     8.9624   148.0657     2.4961     0.0412
 2104.5000     8.9609   151.4464     2.5103     0.0549
 2105.0000     8.9594   145.8676     2.4817     0.0578
 2105.5000     8.9578   141.0425     2.4689     0.0231
 2106.0000     8.9568   138.9324     2.5103    -0.0010
 2106.5000     8.9416   137.5760     2.5291     0.0426
 2107.0000     8.9415   142.4044     2.5132     0.0471
 2107.5000     8.9415   146.1766     2.4921     0.0290
 2108.0000     8.9414   147.8373     2.4822     0.0229
 2108.5000     8.9413   149.1962     2.5019     0.0349
 2109.0000     8.9412   149.8010     2.5101     0.0470
 2109.5000     8.9412   155.3832     2.5161     0.0589
 2110.0000     8.9411   157.7980     2.5014     0.0419
 2110.5000     8.9561   159.9111     2.4700     0.0332
 2111.0000     8.9560   166.8507     2.4528     0.0377
 2111.5000     8.9711   170.7738     2.4754     0.0618
 2112.0000     8.9710   171.8311     2.4656     0.0602
 2112.5000     8.9709   167.9364     2.4625     0.0526
 2113.0000     8.9860   162.5935     2.4655     0.0511
 2113.5000     8.9859   151.6247     2.4836     0.0556
 2114.0000     9.0009   147.8551     2.5039     0.0721
 2114.5000     9.0008   151.6277     2.4805     0.0751
 2115.0000     9.0007   153.1375     2.4662     0.0584
 2115.5000     8.9856   155.0998     2.4624     0.0569
 2116.0000     8.9704   157.8162     2.4782     0.0644
 2116.5000     8.9703   153.8957     2.4827     0.0779
 2117.0000     8.9551   154.3501     2.4586     0.0552
 2117.5000     8.9399   154.0499     2.4465     0.0386
 2118.0000     8.9399   149.9790     2.4389     0.0203
 2118.5000     8.9398   156.9186     2.4367     0.0066
 2119.0000     8.9246   158.5793     2.4359     0.0008
 2119.5000     8.9094   157.6758     2.4665     0.0279
 2120.0000     8.8943   156.4706     2.4904     0.0414
 2120.5000     8.9093   154.8130     2.4962     0.0489
 2121.0000     8.9243   152.2091     2.4975     0.0549
 2121.5000     8.9393   147.7830     2.5043     0.0639
 2122.0000     8.9393   144.4159     2.5171     0.0759
 2122.5000     8.9392   149.5403     2.5073     0.0849
 2123.0000     8.9391   153.3125     2.4786     0.0879
 2123.5000     8.9405   155.2747     2.4530     0.0471
 2124.0000     8.9541   154.2204     2.4251     0.0109
 2124.5000     8.9389   147.4346     2.4296     0.0018
 2125.0000     8.9388   146.0782     2.4424     0.0063
 2125.5000     8.9387   153.9232     2.4514     0.0258
 2126.0000     8.9387   155.7347     2.4408     0.0363
 2126.5000     8.9386   151.5129     2.4340     0.0453
 2127.0000     8.9385   147.2912     2.4280     0.0544
 2127.5000     8.9384   143.0695     2.4227     0.0445
 2128.0000     8.9384   140.0544     2.4174     0.0200
 2128.5000     8.9383   136.4359     2.4402     0.0060
 2129.0000     8.9382   136.5882     2.4607     0.0330
 2129.5000     8.9381   140.6711     2.4764     0.0526
 2130.0000     8.9381   143.7412     2.4798     0.0767
 2130.5000     8.9380   145.6425     2.4527     0.0932
 2131.0000     8.9379   139.3934     2.4384     0.0886
 2131.5000     8.9378   134.7861     2.4195     0.0569
 2132.0000     8.9378   133.2793     2.4074     0.0283
 2132.5000     8.9528   131.6217     2.4609     0.0448
 2133.0000     8.9527   133.1314     2.5030     0.0915
 2133.5000     8.9678   140.6744     2.5158     0.1246
 2134.0000     8.9677   148.9715     2.5067     0.1411
 2134.5000     8.9676   151.9892     2.5037     0.1471
 2135.0000     8.9977   147.9187     2.5067     0.1486
 2135.5000     9.0128   146.1102     2.5044     0.1516
 2136.0000     9.0127   149.8824     2.4607     0.1102
 2136.5000     9.0277   157.7271     2.4381     0.0738
 2137.0000     9.0276   160.5943     2.4456     0.0444
 2137.5000     9.0276   162.5566     2.4456     0.0262
 2138.0000     9.0275   162.2564     2.4290     0.0081
 2138.5000     9.0274   158.9111     2.4765     0.0126
 2139.0000     9.0273   155.7212     2.4980     0.0382
 2139.5000     9.0122   152.4555     2.5005     0.0638
 2140.0000     9.0121   146.1240     2.4861     0.0803
 2140.5000     9.0120   141.4498     2.5057     0.1015
 2141.0000     9.0119   138.7363     2.5192     0.0697
 2141.5000     9.0118   143.7152     2.5297     0.0745
 2142.0000     9.0118   150.2023     2.4936     0.1012
 2142.5000     9.0117   153.8237     2.4830     0.0693
 2143.0000     9.0116   154.5790     2.5063     0.0785
 2143.5000     9.0115   152.1676     2.5342     0.0996
 2144.0000     8.9964   150.9621     2.5485     0.1101
 2144.5000     8.9963   153.2264     2.5266     0.0693
 2145.0000     8.9962   154.4341     2.5047     0.0648
 2145.5000     9.0113   150.2127     2.5025     0.0662
 2146.0000     9.0263   145.0860     2.4994     0.0602
 2146.5000     9.0111   140.2610     2.4843     0.0390
 2147.0000     9.0110   138.3017     2.4632     0.0133
 2147.5000     8.9958   138.5363     2.4464     0.0058
 2148.0000     8.9958   142.6086     2.4307     0.0012
 2148.5000     8.9806   145.7459     2.4311     0.0207
 2149.0000     8.9956   147.0561     2.4406     0.0209
 2149.5000     8.9955   147.6609     2.4488     0.0176
 2150.0000     8.9930   142.6850     2.4593     0.0176
 2150.5000     8.9501   140.1224     2.4721     0.0222
 2151.0000     8.9500   137.7106     2.4804     0.0269
 2151.5000     8.9348   135.9021     2.4766     0.0371
 2152.0000     8.9347   134.6970     2.4630     0.0415
 2152.5000     8.9347   136.5084     2.4615     0.0430
 2153.0000     8.9346   140.7332     2.4750     0.0490
 2153.5000     8.9345   141.9413     2.4871     0.0610
 2154.0000     8.9193   143.9035     2.4977     0.0625
 2154.5000     8.9193   153.6817     2.5022     0.0488
 2155.0000     8.9343   157.4509     2.4691     0.0337
 2155.5000     8.9342   154.5836     2.4517     0.0231
 2156.0000     8.9341   149.7556     2.4540     0.0231
 2156.5000     8.9341   148.0950     2.4698     0.0321
 2157.0000     8.9340   153.2217     2.4721     0.0396
 2157.5000     8.9339   161.6667     2.4614     0.0471
 2158.0000     8.9338   163.7893     2.4515     0.0621
 2158.5000     8.9235   163.1198     2.4423     0.0726
 2159.0000     8.9186   157.9382     2.4318     0.0559
 2159.5000     8.9185   150.4712     2.4283     0.0544
 2160.0000     8.9335   149.1404     2.4373     0.0561
 2160.5000     8.9334   150.3451     2.4396     0.0589
 2161.0000     8.9334   151.3994     2.4366     0.0558
 2161.5000     8.9182   151.0963     2.4358     0.0482
 2162.0000     8.9332   150.4915     2.4388     0.0406
 2162.5000     8.9331   150.0375     2.4305     0.0451
 2163.0000     8.9331   149.5835     2.4335     0.0511
 2163.5000     8.9330   154.8611     2.4418     0.0541
 2164.0000     8.9178   158.3286     2.4493     0.0553
 2164.5000     8.9177   155.7630     2.4576     0.0598
 2165.0000     8.9177   148.6726     2.4719     0.0655
 2165.5000     8.9327   145.9561     2.4802     0.0715
 2166.0000     8.9175   145.0497     2.4892     0.0744
 2166.5000     8.9174   151.5338     2.4824     0.0774
 2167.0000     8.9174   154.6998     2.4598     0.0517
