~VERSION INFORMATION
 VERS.                2.0:   CWLS LOG ASCII STANDARD - VERSION 2.0
 WRAP.                 NO:   ONE LINE PER DEPTH STEP
~WELL INFORMATION
#MNEM.UNIT      DATA TYPE    INFORMATION
#----------   ------------   ------------------------------
 STRT.F           60.0000:   START DEPTH
 STOP.F         3758.0000:   STOP DEPTH
 STEP.F            0.5000:   STEP LENGTH
 NULL.          -999.2500:   NO VALUE
 COMP. LAWRENCE ALLISON & ASSOCIATES:   COMPANY
 WELL. LAWRENCE "MX" #72-10:   WELL
 FLD .            N P R 3:   FIELD
 LOC .      S10 T38N R78W:   LOCATION
 CNTY.            NATRONA:   COUNTY
 STAT.            WYOMING:   STATE
 CTRY. UNITED STATES OF AMERICA:   COUNTRY
 SRVC.       SCHLUMBERGER:   SERVICE COMPANY
 DATE.        03-JUL-1982:   LOGDATE
 API .     49025108910000:   API NUMBER
~CURVE INFORMATION
#MNEM.UNIT       API CODE    CURVE DESCRIPTION
#----------   ------------   ------------------------------
 DEPT.F                  :   
 GRD .GAPI   45 310 01 00:   GAMMA RAY FROM DENSITY LOG
 NPHI.DEC    42 890 03 00:   NEUTRON POROSITY SANDSTONE
 CALD.IN     45 280 60 00:   CALIPER FROM DENSITY LOG
 RHOB.G/C3   45 350 01 00:   BULK DENSITY
 DRHO.G/C3   45 356 01 00:   DENSITY CORRECTION
 TEND.LBS    45 635 01 00:   TENSION FROM DENSITY LOG
 SPR .MV     07 010 01 00:   SPONTANEOUS POTENTIAL
 SFL .OHMM   07 220 01 00:   SHALLOW FOCUSED LOG RESISTIVITY
 ILD .OHMM   07 120 46 00:   DEEP INDUCTION RESISTIVITY
 ILM .OHMM   07 120 44 00:   INDUCTION LOG MEDIUM RESISTIVITY
 TENR.LBS    07 635 01 00:   TENSION FROM RESISTIVITY
~PARAMETER INFORMATION
#MNEM.UNIT          VALUE    DESCRIPTION
#----------   ------------   ------------------------------
 EKB .F         5182.0000:   Kelly bushing
 EGL .F         5172.0000:   Ground level
 EDF .F            0.0000:   Drilling floor
 EPD .F            0.0000:   Permanent datum
 TD  .F         3770.0000:   Total depth
 DATE.        03-JUL-1982:   Date logged
 CLNT.            A2DTECH:   Client Code
 SL  . 1119' FNL & 21' FEL:   Surface Location
 PD  .                 GL:   Permanent Datum
 DD  .F              3770:   Depth driller
 DL  .F              3750:   Depth logger
 BLI .F              3744:   Bottom log interval
 CS1 .IN            9.625:   Casing size
 CBD1.      9.625" @ 473':   Casing driller 1
 CBL1.F               482:   Casing logger 1
 BS1 .IN            7.875:   Bit size
 DFT .                GEL:   Type fluid in hole
 DFD .                9.1:   Density
 DFV .                 34:   Viscosity
 DFPH.               10.5:   pH
 DFL .                 12:   Fluid loss
 MSS .            MUD PIT:   Source of sample
 RMS .OHMM           1.50:   Rm
 MST .F                84:   Rm Meas. temp.
 RMF .OHMM           1.37:   Rmf
 MFST.F                83:   Rmf Meas. temp.
 RMC .OHMM           1.20:   Rmc
 MCST.F                83:   Rmc Meas. temp.
 MFSS.               MEAS:   Source Rmf.
 RMB .OHMM              1:   Rm. at BHT
 BHT .F               130:   BHT.
 TCS .HRS            1500:   Time Circ. stopped
 MRT .F               130:   Maximum recorded temp.
 LUN .               8039:   Logging unit number
 LUL .               CSPR:   Logging unit location
 ENGI. CONOSCENTI/PIRAKIS:   Recorded By
 WITN.             STRONG:   Witnessed by
 ORIG.       2.5"5" PRINT:   Origin of data
 UWI .     49025108910000:   Unique Well ID
 DICO. A2D TECHNOLOGIES, INC.:   Digitizing Company
 DAPD.                 10:   Feet Above Permanent Datum
 BSD1.               3770:   Depth drilled with bit1
 MCSS.               CALC:   Source Rmc.
 TLI .                482:   Top log interval
 TLAB.HR             1800:   Time logger at bottom
~OTHER INFORMATION
~A   DEPT      GRD       NPHI       CALD       RHOB       DRHO       TEND        SPR        SFL        ILD        ILM       TENR   
# ...
 1127.5000    95.9400     0.2850    12.0840     2.5070     0.0090  1065.7440   -70.0060    10.4850    10.5800     9.2890  1008.7300
 1128.0000    95.8020     0.2950    12.0820     2.5180     0.0270  1065.9990   -70.0960    10.3020    10.4400     9.1540  1008.9410
 1128.5000    95.1010     0.3050    12.0800     2.5290     0.0430  1066.2540   -70.1850    10.1190    10.3000     9.0190  1009.1530
 1129.0000    94.4960     0.3070    12.0780     2.5360     0.0590  1066.5081   -70.2160     9.9360    10.1610     8.8840  1009.3640
 1129.5000    93.8950     0.3060    12.0770     2.5360     0.0740  1066.7629   -70.1730     9.8660    10.0560     8.8370  1009.5750
 1130.0000    93.2020     0.3000    12.0750     2.5350     0.0880  1067.0179   -70.1300     9.8560    10.0560     8.8640  1009.7860
 1130.5000    92.7430     0.2950    12.0730     2.5190     0.0620  1067.2729   -70.0860     9.8470    10.0560     8.8890  1009.9980
 1131.0000    91.1420     0.2910    12.0710     2.4850     0.0440  1067.5280   -70.0430     9.8370    10.0560     8.9140  1010.2090
 1131.5000    89.8270     0.2920    12.0690     2.4730     0.0300  1067.7830   -69.9990     9.8270    10.0560     8.9390  1010.4200
 1132.0000    89.7380     0.2950    12.0680     2.4830     0.0310  1068.0370   -69.9560     9.8170    10.0550     8.9640  1010.6320
 1132.5000    89.4240     0.2970    12.0660     2.4980     0.0390  1068.2920   -69.9120     9.8080    10.0590     8.9890  1010.8430
 1133.0000    89.1890     0.2960    12.0640     2.5140     0.0460  1068.5470   -69.8690     9.7980    10.0660     9.0020  1011.0540
 1133.5000    89.2960     0.2950    12.0620     2.5260     0.0540  1068.8020   -69.8250     9.7880     9.9490     8.8530  1011.2650
 1134.0000    89.5250     0.2940    12.0610     2.5210     0.0590  1069.0570   -69.7820     9.7660     9.9190     8.7380  1011.4770
 1134.5000    89.7180     0.2950    12.0610     2.4950     0.0590  1069.3120   -69.7390     9.7170     9.8890     8.6230  1011.6880
 1135.0000    89.9320     0.2980    12.0850     2.5010     0.0640  1069.5660   -69.6950     9.6670     9.8600     8.5080  1011.8990
 1135.5000    90.2230     0.2990    12.1110     2.5200     0.0740  1069.8210   -69.6520     9.6170     9.8300     8.3930  1012.1110
 1136.0000    91.5570     0.3030    12.1370     2.5320     0.0840  1070.0760   -69.6080     9.5670     9.8000     8.3610  1012.3220
 1136.5000    93.0020     0.3060    12.1630     2.5390     0.0950  1070.3311   -69.5650     9.5140     9.7710     8.4750  1012.5330
 1137.0000    94.0520     0.3070    12.1900     2.5430     0.1040  1070.5861   -69.5210     9.5560     9.7410     8.5060  1012.7440
 1137.5000    93.3930     0.3080    12.2150     2.5380     0.1010  1070.8409   -69.4780     9.6030     9.7110     8.5380  1012.9560
 1138.0000    93.0070     0.3050    12.2320     2.5020     0.0790  1071.0959   -69.4490     9.5750     9.6810     8.5690  1013.1670
 1138.5000    92.1850     0.3060    12.2480     2.4930     0.0590  1071.3500   -69.4500     9.5470     9.6520     8.5960  1013.3780
 1139.0000    93.4400     0.3080    12.2650     2.4920     0.0530  1071.6050   -69.4500     9.5180     9.6220     8.5790  1013.5900
 1139.5000    96.2670     0.3100    12.2810     2.4960     0.0520  1071.8600   -69.4500     9.4890     9.5920     8.5320  1013.8010
 1140.0000    97.6180     0.3120    12.2970     2.4990     0.0490  1072.1150   -69.4500     9.4610     9.5620     8.4860  1014.0120
 1140.5000    94.2950     0.3310    12.3140     2.5070     0.0480  1072.3700   -69.4500     9.4320     9.5330     8.4390  1014.2230
 1141.0000    90.8720     0.3230    12.3300     2.5140     0.0460  1072.6250   -69.4500     9.4030     9.5140     8.4390  1014.4350
 1141.5000    89.2970     0.3090    12.3460     2.5190     0.0450  1072.8790   -69.4500     9.3750     9.5520     8.4390  1014.6460
 1142.0000    90.5390     0.3040    12.3640     2.5070     0.0440  1073.1340   -69.4500     9.3400     9.5840     8.4390  1014.8570
 1142.5000    91.3900     0.3110    12.3690     2.5040     0.0420  1073.3890   -69.4500     9.3820     9.6160     8.4390  1015.0690
 1143.0000    92.0450     0.3160    12.3550     2.5070     0.0480  1073.6440   -69.4500     9.4340     9.6480     8.4390  1015.2800
 1143.5000    92.3010     0.3110    12.3430     2.5240     0.0590  1073.8990   -69.4500     9.4860     9.6800     8.4390  1015.4910
 1144.0000    90.4270     0.2960    12.3310     2.5320     0.0660  1074.1541   -69.4500     9.5380     9.7900     8.4390  1015.7020
 1144.5000    88.2360     0.2880    12.3190     2.4960     0.0650  1074.4080   -69.4500     9.5900    10.0210     8.4390  1015.9140
 1145.0000    86.9110     0.2920    12.3060     2.4870     0.0760  1074.6630   -69.4500     9.6420    10.2440     8.4370  1016.1250
 1145.5000    85.2850     0.2990    12.3010     2.4870     0.0940  1074.9180   -69.4500     9.6920    10.0510     8.4270  1016.3360
 1146.0000    84.3280     0.3070    12.3730     2.5000     0.1060  1075.1730   -69.4250     9.6000     9.8660     8.4180  1016.5480
 1146.5000    84.7920     0.3140    12.4430     2.5190     0.1140  1075.4280   -69.3870     9.5120     9.6920     8.4080  1016.7590
 1147.0000    86.8130     0.3190    12.4160     2.5410     0.1260  1075.6830   -69.3490     9.4240     9.6130     8.3980  1016.9700
 1147.5000    90.1380     0.3250    12.3790     2.5550     0.1180  1075.9370   -69.3110     9.3360     9.5400     8.3890  1017.1810
 1148.0000    91.7260     0.3300    12.3450     2.5270     0.0790  1076.1920   -69.2740     9.2550     9.4660     8.3790  1017.3930
 1148.5000    93.5530     0.3360    12.3050     2.4960     0.0400  1076.4470   -69.2610     9.3210     9.4270     8.3700  1017.6040
 1149.0000    93.7790     0.3340    12.3190     2.4730     0.0210  1076.7020   -69.2770     9.3970     9.5420     8.3610  1017.8150
 1149.5000    92.8810     0.3330    12.3750     2.4720     0.0150  1076.9570   -69.2930     9.4740     9.6310     8.3440  1018.0270
 1150.0000    92.2200     0.3320    12.4210     2.4820     0.0070  1077.2120   -69.3090     9.5500     9.7210     8.3090  1018.2380
 1150.5000    91.3850     0.3230    12.4720     2.4930     0.0280  1077.4659   -69.3250     9.6030     9.8100     8.2840  1018.4490
 1151.0000    91.3910     0.3160    12.5210     2.4970     0.0490  1077.7209   -69.3410     9.4550     9.8720     8.2390  1018.6600
 1151.5000    92.0170     0.3090    12.5630     2.5010     0.0630  1077.9760   -69.3570     9.3410     9.7080     8.1500  1018.8720
 1152.0000    92.5020     0.3050    12.5300     2.5060     0.0650  1078.2310   -69.3730     9.2280     9.5820     8.0600  1019.0830
 1152.5000    93.0730     0.3020    12.4920     2.5010     0.0460  1078.4860   -69.3890     9.1140     9.4560     7.9700  1019.2940
 1153.0000    93.5850     0.3020    12.4530     2.4910     0.0300  1078.7410   -69.4050     9.0010     9.3300     7.8810  1019.5060
 1153.5000    94.0240     0.3090    12.4160     2.4840     0.0110  1078.9950   -69.4220     8.8870     9.2040     7.7910  1019.7170
 1154.0000    93.1380     0.3160    12.3760     2.4880     0.0090  1079.2500   -69.4380     8.7740     9.0780     7.7020  1019.9280
 1154.5000    92.0230     0.3220    12.3720     2.4940     0.0180  1079.5050   -69.4540     8.6890     8.9190     7.6240  1020.1390
 1155.0000    89.6630     0.3270    12.3720     2.4980     0.0290  1079.7600   -69.4700     8.7940     8.9280     7.5540  1020.3510
 1155.5000    87.1030     0.3300    12.3730     2.5050     0.0510  1080.0150   -69.4860     8.8980     8.9430     7.6840  1020.5620
 1156.0000    85.2020     0.3330    12.3730     2.4980     0.0540  1080.2700   -69.5020     9.0030     8.9590     7.7660  1020.7730
 1156.5000    85.4100     0.3350    12.3690     2.4780     0.0440  1080.5250   -69.5180     9.1070     8.9750     7.8610  1020.9850
 1157.0000    88.3670     0.3260    12.3590     2.4760     0.0340  1080.7791   -69.5340     9.2110     8.9910     7.9610  1021.1960
 1157.5000    91.6370     0.3200    12.3500     2.4900     0.0270  1081.0341   -69.5500     9.3160     9.0060     8.0610  1021.4070
