~VERSION INFORMATION
 VERS.                2.0:   CWLS LOG ASCII STANDARD - VERSION 2.0
 WRAP.                 NO:   ONE LINE PER DEPTH STEP
~WELL INFORMATION
#MNEM.UNIT      DATA TYPE    INFORMATION
#----------   ------------   ------------------------------
 STRT.F           89.5000:   START DEPTH
 STOP.F         1300.5000:   STOP DEPTH
 STEP.F            0.5000:   STEP LENGTH
 NULL.          -999.2500:   NO VALUE
 COMP.            US NAVY:   COMPANY
 WELL. US NPR 3 "S" #62-11:   WELL
 FLD .             TEAPOT:   FIELD
 LOC .      S11 T38N R78W:   LOCATION
 CNTY.            NATRONA:   COUNTY
 STAT.            WYOMING:   STATE
 CTRY. UNITED STATES OF AMERICA:   COUNTRY
 SRVC.       SCHLUMBERGER:   SERVICE COMPANY
 DATE.        20-JUL-1964:   LOGDATE
 API .     49025063660000:   API NUMBER
~CURVE INFORMATION
#MNEM.UNIT       API CODE    CURVE DESCRIPTION
#----------   ------------   ------------------------------
 DEPT.F                  :   
 CALS.IN     60 280 50 00:   CALIPER FROM SONIC LOG
 DT  .US/F   60 520 33 00:   DELTA TIME
 SPR .MV     05 010 01 00:   SPONTANEOUS POTENTIAL FROM RES.
 ASN .OHMM   05 041 16 00:   AMPLIFIED SHORT NORMAL 16"
 ILD .OHMM   05 120 46 00:   INDUCTION LOG DEEP
~PARAMETER INFORMATION
#MNEM.UNIT          VALUE    DESCRIPTION
#----------   ------------   ------------------------------
 EKB .F         5223.0000:   Kelly bushing
 EGL .F         5215.0000:   Ground level
 EDF .F            0.0000:   Drilling floor
 TD  .F         1303.0000:   Total depth
 DATE.        20-JUL-1964:   Date logged
 CLNT.            A2DTECH:   Client Code
 PD  .                 GL:   Permanent Datum
 EPD .F              5215:   Elevation Permanent Datum
 LMF .                 KB:   Log Measured From
 DMF .                 KB:   Drilling Measured From
 DAPD.F                 8:   Feet Above Permanent Datum
 DD  .F              1303:   Depth driller
 DL  .F              1300:   Depth logger
 BLI .F              1299:   Bottom log interval
 TLI .F                94:   Top log interval
 CS1 .IN            12.25:   Casing size
 CBD1.       12.25" @ 10':   Casing driller 1
 BS1 .IN               11:   Bit size
 BSD1.F              1303:   Depth drilled with bit1
 DFT .            GEL/OIL:   Type fluid in hole
 DFD .                9.8:   Density
 DFV .                 60:   Viscosity
 DFL .                 10:   Fluid loss
 MSS .           FLOWLINE:   Source of sample
 RMS .OHMM           3.13:   Rm
 MST .F                86:   Rm Meas. temp.
 RMF .OHMM           1.81:   Rmf
 MFST.F                86:   Rmf Meas. temp.
 RMC .OHMM           3.39:   Rmc
 MCST.F                86:   Rmc Meas. temp.
 MFSS.                 FP:   Source Rmf.
 MCSS.                 FP:   Source Rmc.
 TCS .HRS             2.5:   Time Circ. stopped
 LUN .               4507:   Logging unit number
 LUL .               CSPR:   Logging unit location
 ENGI.             DANNER:   Recorded By
 WITN.         JORGENESEN:   Witnessed by
 ORIG.       2", 5" PRINT:   Origin of data
 UWI .     49025063660000:   Unique Well ID
 DICO. A2D TECHNOLOGIES, INC.:   Digitizing Company
~OTHER INFORMATION
~A   DEPT     CALS         DT        SPR        ASN          ILD 
# ...
 1248.5000  -999.2500  -999.2500   -32.5480     6.4580     5.0050
 1249.0000  -999.2500  -999.2500   -32.4560     6.5490     5.0150
 1249.5000  -999.2500  -999.2500   -32.3650     6.6370     5.0830
 1250.0000  -999.2500  -999.2500   -32.2910     6.6760     5.1540
 1250.5000  -999.2500  -999.2500   -32.1830     6.6800     5.2110
 1251.0000  -999.2500  -999.2500   -32.0940     6.6860     5.2770
 1251.5000  -999.2500  -999.2500   -32.1800     6.6920     5.3390
 1252.0000  -999.2500  -999.2500   -32.3260     6.6970     5.4030
 1252.5000  -999.2500  -999.2500   -32.5130     6.7040     5.4620
 1253.0000  -999.2500  -999.2500   -32.6470     6.7080     5.5300
 1253.5000  -999.2500  -999.2500   -32.5020     6.7150     5.6030
 1254.0000  -999.2500  -999.2500   -32.2800     6.7480     5.6080
 1254.5000  -999.2500  -999.2500   -32.0830     6.8040     5.5610
 1255.0000  -999.2500  -999.2500   -31.9060     6.8610     5.5180
 1255.5000  -999.2500  -999.2500   -31.9170     6.9170     5.4730
 1256.0000  -999.2500  -999.2500   -31.9830     6.9730     5.4280
 1256.5000  -999.2500  -999.2500   -31.9970     7.0280     5.3840
 1257.0000  -999.2500  -999.2500   -32.0490     7.0490     5.3380
 1257.5000  -999.2500  -999.2500   -32.0860     7.0240     5.2960
 1258.0000  -999.2500  -999.2500   -32.0690     7.0210     5.2470
 1258.5000  -999.2500  -999.2500   -32.0430     7.0070     5.2110
 1259.0000  -999.2500  -999.2500   -32.0210     6.9200     5.2240
 1259.5000  -999.2500  -999.2500   -31.9950     6.8310     5.2470
 1260.0000  -999.2500  -999.2500   -31.9710     6.7550     5.2610
 1260.5000  -999.2500  -999.2500   -31.9490     6.6800     5.2800
 1261.0000  -999.2500  -999.2500   -31.9160     6.6520     5.2980
 1261.5000  -999.2500  -999.2500   -31.9050     6.6610     5.3150
 1262.0000  -999.2500  -999.2500   -31.9890     6.6950     5.3340
 1262.5000  -999.2500  -999.2500   -32.1700     6.7360     5.3510
 1263.0000  -999.2500  -999.2500   -32.2680     6.7740     5.3680
 1263.5000  -999.2500  -999.2500   -32.1850     6.7940     5.3880
 1264.0000  -999.2500  -999.2500   -32.0770     6.7540     5.4060
 1264.5000  -999.2500  -999.2500   -31.9950     6.7160     5.4080
 1265.0000  -999.2500  -999.2500   -31.8960     6.7350     5.3990
 1265.5000  -999.2500  -999.2500   -31.7930     6.7370     5.3880
 1266.0000  -999.2500  -999.2500   -31.6800     6.6880     5.3740
 1266.5000  -999.2500  -999.2500   -31.5770     6.6260     5.3610
 1267.0000  -999.2500  -999.2500   -31.4510     6.5640     5.3480
 1267.5000  -999.2500  -999.2500   -31.3270     6.5000     5.3340
 1268.0000  -999.2500  -999.2500   -31.3160     6.4590     5.3210
 1268.5000  -999.2500  -999.2500   -31.3490     6.4510     5.3080
 1269.0000  -999.2500  -999.2500   -31.3560     6.4460     5.2950
 1269.5000  -999.2500  -999.2500   -31.3770     6.4360     5.2820
 1270.0000  -999.2500  -999.2500   -31.3940     6.4330     5.2690
 1270.5000  -999.2500  -999.2500   -31.4090     6.4220     5.2550
 1271.0000  -999.2500  -999.2500   -31.4270     6.4200     5.2420
 1271.5000  -999.2500  -999.2500   -31.4440     6.4520     5.2290
 1272.0000  -999.2500  -999.2500   -31.4610     6.4910     5.2160
 1272.5000  -999.2500  -999.2500   -31.4760     6.5280     5.2080
 1273.0000  -999.2500  -999.2500   -31.4980     6.5640     5.2140
 1273.5000  -999.2500  -999.2500   -31.5040     6.5650     5.2260
 1274.0000  -999.2500  -999.2500   -31.4690     6.5450     5.2390
 1274.5000  -999.2500  -999.2500   -31.4120     6.5280     5.2510
 1275.0000  -999.2500  -999.2500   -31.3800     6.5080     5.2640
 1275.5000  -999.2500  -999.2500   -31.3290     6.4900     5.2760
 1276.0000  -999.2500  -999.2500   -31.0830     6.4700     5.2890
 1276.5000  -999.2500  -999.2500   -30.7190     6.4590     5.3010
 1277.0000  -999.2500  -999.2500   -30.5550     6.4730     5.2980
 1277.5000  -999.2500  -999.2500   -30.5800     6.4940     5.2840
 1278.0000  -999.2500  -999.2500   -30.6010     6.5110     5.2690
 1278.5000  -999.2500  -999.2500   -30.6240     6.5300     5.2530
 1279.0000  -999.2500  -999.2500   -30.6490     6.5360     5.2410
 1279.5000  -999.2500  -999.2500   -30.6640     6.5340     5.2220
 1280.0000  -999.2500  -999.2500   -30.7010     6.5550     5.2080
 1280.5000  -999.2500  -999.2500   -30.7020     6.6010     5.2430
 1281.0000  -999.2500  -999.2500   -30.7540     6.6410     5.3020
 1281.5000  -999.2500  -999.2500   -31.0200     6.6770     5.3510
 1282.0000  -999.2500  -999.2500   -31.3570     6.7370     5.4100
 1282.5000  -999.2500  -999.2500   -31.6200     6.8200     5.4620
 1283.0000  -999.2500  -999.2500   -31.9090     6.8850     5.5120
 1283.5000  -999.2500  -999.2500   -32.1550     6.9620     5.5800
 1284.0000  -999.2500  -999.2500   -32.0780     7.1200     5.7610
 1284.5000  -999.2500  -999.2500   -31.7090     7.3180     6.2410
 1285.0000  -999.2500  -999.2500   -31.3250     7.5420     6.7700
 1285.5000  -999.2500  -999.2500   -31.1120     7.7430     7.0340
 1286.0000  -999.2500  -999.2500   -31.1420     7.9970     7.2940
 1286.5000  -999.2500  -999.2500   -31.3720     8.5790     7.6430
 1287.0000  -999.2500  -999.2500   -31.7700     9.2470     7.9200
 1287.5000  -999.2500  -999.2500   -32.0750     9.6680     8.2510
 1288.0000  -999.2500  -999.2500   -31.9970     9.9200     8.5780
 1288.5000  -999.2500  -999.2500   -31.9050  -999.2500     8.6890
 1289.0000  -999.2500  -999.2500   -32.0590  -999.2500     8.6810
 1289.5000  -999.2500  -999.2500   -32.3010  -999.2500     8.6850
 1290.0000  -999.2500  -999.2500   -32.5600  -999.2500     8.6830
 1290.5000  -999.2500  -999.2500   -32.5970  -999.2500     8.6830
 1291.0000  -999.2500  -999.2500   -32.4120  -999.2500     8.6850
 1291.5000  -999.2500  -999.2500   -32.2370  -999.2500     8.6580
 1292.0000  -999.2500  -999.2500   -32.0570  -999.2500     8.6100
 1292.5000  -999.2500  -999.2500   -31.8970  -999.2500     8.5600
 1293.0000  -999.2500  -999.2500   -31.6910  -999.2500     8.5110
 1293.5000  -999.2500  -999.2500   -31.5310  -999.2500     8.4610
 1294.0000  -999.2500  -999.2500   -31.6810  -999.2500     8.4130
 1294.5000  -999.2500  -999.2500   -31.9100  -999.2500     8.3630
 1295.0000  -999.2500  -999.2500   -32.0510  -999.2500     8.3130
 1295.5000  -999.2500  -999.2500   -32.2150  -999.2500     8.2930
 1296.0000  -999.2500  -999.2500   -32.3500  -999.2500     8.3120
 1296.5000  -999.2500  -999.2500   -32.5120  -999.2500     8.3350
 1297.0000  -999.2500  -999.2500   -32.6570  -999.2500     8.3550
 1297.5000  -999.2500  -999.2500   -32.6280  -999.2500     8.3770
 1298.0000  -999.2500  -999.2500   -32.5560  -999.2500     8.3980
 1298.5000  -999.2500  -999.2500   -32.5160  -999.2500     8.4200
 1299.0000  -999.2500  -999.2500   -32.4530  -999.2500     8.4410
 1299.5000  -999.2500  -999.2500   -32.4050  -999.2500     8.4630
 1300.0000  -999.2500  -999.2500   -32.3470  -999.2500     8.4810
 1300.5000  -999.2500  -999.2500   -32.2840  -999.2500  -999.2500
