~VERSION INFORMATION
 VERS.                2.0:   CWLS LOG ASCII STANDARD - VERSION 2.0
 WRAP.                 NO:   ONE LINE PER DEPTH STEP
~WELL INFORMATION
#MNEM.UNIT      DATA TYPE    INFORMATION
#----------   ------------   ------------------------------
 STRT.F          170.5000:   START DEPTH
 STOP.F         3160.0000:   STOP DEPTH
 STEP.F            0.5000:   STEP LENGTH
 NULL.          -999.2500:   NO VALUE
 COMP.  FENIX AND SCISSON:   COMPANY
 WELL.    FENIX "A" #85-3:   WELL
 FLD .       TEA POT DOME:   FIELD
 LOC .       S3 T38N R78W:   LOCATION
 CNTY.            NATRONA:   COUNTY
 STAT.            WYOMING:   STATE
 CTRY. UNITED STATES OF AMERICA:   COUNTRY
 SRVC.           BIRDWELL:   SERVICE COMPANY
 DATE.        20-DEC-1977:   LOGDATE
 API .     49025104450000:   API NUMBER
~CURVE INFORMATION
#MNEM.UNIT       API CODE    CURVE DESCRIPTION
#----------   ------------   ------------------------------
 DEPT.F                  :   
 CALD.IN     45 280 60 00:   CALIPER FROM DENSITY LOG
 GRD .GAPI   45 310 01 00:   GAMMA RAY FROM DENSITY LOG
 RHOB.G/C3   45 350 01 00:   BULK DENSITY
 CORR.G/C3   45 356 01 00:   DENSITY CORRECTION
 SPR .MV     05 010 01 00:   SPONTANEOUS POTENTIAL
 SN  .OHMM   05 040 00 00:   SHORT NORMAL
 ILD .OHMM   05 120 46 00:   DEEP INDUCTION RESISTIVITY
~PARAMETER INFORMATION
#MNEM.UNIT          VALUE    DESCRIPTION
#----------   ------------   ------------------------------
 EKB .F         5165.0000:   Kelly bushing
 EGL .F         5155.0000:   Ground level
 TD  .F         3151.0000:   Total depth
 DATE.        20-DEC-1977:   Date logged
 CLNT.            A2DTECH:   Client Code
 SL  . 2000' FSL & 100'FEL:   Surface Location
 PD  .                 GL:   Permanent Datum
 EPD .F              5155:   Elevation Permanent Datum
 LMF .                 KB:   Log Measured From
 DMF .                 KB:   Drilling Measured From
 DAPD.F                10:   Feet Above Permanent Datum
 DD  .F              3150:   Depth driller
 DL  .F              3151:   Depth logger
 BLI .F              3146:   Bottom log interval
 TLI .F               200:   Top log interval
 CS1 .IN            8.625:   Casing size
 CBD1.      8.625" @ 223':   Casing driller 1
 BS1 .IN            7.875:   Bit size
 BSD1.F              3150:   Depth drilled with bit1
 DFT .                KCL:   Type fluid in hole
 DFD .                8.9:   Density
 DFV .                 40:   Viscosity
 DFPH.                 11:   pH
 DFL .                7.2:   Fluid loss
 MSS .           FLOWLINE:   Source of sample
 RMS .OHMM            0.4:   Rm
 MST .F                62:   Rm Meas. temp.
 RMF .OHMM           0.48:   Rmf
 MFST.F                63:   Rmf Meas. temp.
 RMC .OHMM           0.52:   Rmc
 MCST.F                63:   Rmc Meas. temp.
 MFSS.               MEAS:   Source Rmf.
 MCSS.               MEAS:   Source Rmc.
 TCS .HRS             3.5:   Time Circ. stopped
 MRT .F               118:   Maximum recorded temp.
 LUN .               2958:   Logging unit number
 LUL .             CASPER:   Logging unit location
 ENGI.             MILLER:   Recorded By
 WITN.         HERRINGTON:   Witnessed by
 ORIG.           5" PRINT:   Origin of data
 UWI .     49025104450000:   Unique Well ID
 DICO. A2D TECHNOLOGIES, INC.:   Digitizing Company
~OTHER INFORMATION
~A   DEPT     CALD        GRD       RHOB        CORR       SPR         SN        ILD   
# ...
 2718.5000    10.1542    66.4160     2.5205     0.0543   -12.1651    12.1205    10.6547
 2719.0000    10.1473    73.1184     2.5235     0.0563   -12.3832    12.3344    10.7431
 2719.5000    10.1215    80.3509     2.4905     0.0544   -12.8001    12.4367    10.7327
 2720.0000    10.1385    79.9275     2.4785     0.0504   -13.2170    12.4247    10.7223
 2720.5000    10.1494    77.5753     2.4725     0.0455   -13.4352    12.4127    10.7182
 2721.0000    10.1634    75.4159     2.4675     0.0384   -13.8522    12.4007    10.8009
 2721.5000    10.1775    74.2250     2.4645     0.0293   -14.2692    12.3887    10.7904
 2722.0000    10.1916    74.0029     2.4605     0.0223   -14.2885    12.4915    10.7821
 2722.5000    10.2056    75.5886     2.4595     0.0223   -14.5068    12.4794    10.9703
 2723.0000    10.2197    82.7360     2.4635     0.0263   -14.7250    12.6997    11.1618
 2723.5000    10.1779    82.3314     2.4735     0.0273   -15.1421    12.6874    11.1553
 2724.0000    10.1223    76.7077     2.4765     0.0233   -15.5592    12.6752    11.2457
 2724.5000    10.0667    79.8800     2.4745     0.0243   -15.7775    12.6629    11.2348
 2725.0000    10.0304    77.2491     2.4815     0.0293   -16.1947    12.7680    11.2240
 2725.5000    10.0299    80.4124     2.4835     0.0333   -16.4130    12.7556    11.2131
 2726.0000    10.0692    80.4022     2.4845     0.0374   -16.8302    12.7433    11.3084
 2726.5000    10.1086    78.7992     2.4835     0.0444   -17.0486    12.7310    10.9867
 2727.0000    10.1479    74.9800     2.4875     0.0414   -17.4659    12.7187    10.9761
 2727.5000    10.1873    74.9573     2.4925     0.0343   -17.6881    12.7064    10.9654
 2728.0000    10.2335    75.7391     2.4735     0.0273   -17.9066    12.5774    10.7544
 2728.5000    10.1916    79.2823     2.4625     0.0203   -18.3239    12.4498    10.6494
 2729.0000    10.1493    77.4613     2.4625     0.0223   -18.7413    12.2103    10.0619
 2729.5000    10.1472    79.2279     2.4655     0.0243   -19.3576    12.1985    10.1414
 2730.0000    10.1446    79.2081     2.4685     0.0243   -19.7751    12.1867     9.3256
 2730.5000    10.0647    81.8346     2.4683     0.0204   -20.3915    12.1749     8.9788
 2731.0000     9.9853    85.8845     2.4692     0.0202   -20.6100    12.1631     8.8060
 2731.5000     9.9654    89.1286     2.4740     0.0232   -21.2265    12.1514     8.6365
 2732.0000     9.9058    90.3190     2.4859     0.0261   -22.0420    12.1396     8.5489
 2732.5000     9.9058    93.6921     2.4977     0.0180   -22.6586    12.2403     8.5406
 2733.0000     9.8065    92.1048     2.5036     0.0149   -23.0763    12.2285     8.4539
 2733.5000     9.7867    88.9302     2.5135     0.0249   -23.4939    12.2167     8.5241
 2734.0000     9.7271    88.5333     2.5294     0.0299   -23.9155    12.2049     8.4392
 2734.5000     9.7072    91.1127     2.5203     0.0218   -24.1343    12.0810     8.1991
 2735.0000     9.6874    92.8984     2.5161     0.0248   -24.7510    12.0694     8.0413
 2735.5000     9.6675    85.9540     2.5280     0.0267   -25.1688    11.9423     7.9597
 2736.0000     9.6476    85.7556     2.5278     0.0287   -25.1885    11.3970     7.8065
 2736.5000     9.5881    90.1206     2.5307     0.0307   -25.4073    10.7724     7.8020
 2737.0000     9.5682    89.1286     2.5316     0.0306   -25.6261     9.9939     7.4399
 2737.5000     9.5682    86.9460     2.5325     0.0296   -25.8449     9.4463     7.2982
 2738.0000     9.6079    85.7556     2.5313     0.0295   -25.4665     8.6831     6.3445
 2738.5000     9.5682    83.7714     2.5291     0.0244   -25.2872     7.8386     4.8058
 2739.0000     9.5483    88.3349     2.5280     0.0213   -24.9088     6.9441     4.3042
 2739.5000     9.5483    92.3032     2.5238     0.0182   -24.3313     6.2675     3.3997
 2740.0000     9.5483    97.4619     2.5227     0.0172   -23.5626     5.9790     2.6852
 2740.5000     9.5285   102.0254     2.5225     0.0151   -23.1644     5.1530     2.1209
 2741.0000     9.5285    98.6524     2.5274     0.0292   -22.9771     4.9149     1.8295
 2741.5000     9.5285    98.8508     2.5293     0.0413   -22.3883     4.8650     1.8109
 2742.0000     9.5285   102.0254     2.5272     0.0493   -21.7994     5.2338     1.8095
 2742.5000     9.5086   105.0016     2.5199     0.0553   -21.2106     5.6817     1.8421
 2743.0000     9.4887   117.8984     2.5097     0.0583   -20.6217     6.7645     2.2332
 2743.5000     9.4887   121.4698     2.5025     0.0542   -20.0329     8.4357     2.3581
 2744.0000     9.4689   123.0571     2.4720     0.0522   -19.4440    11.3260     2.7296
 2744.5000     9.5086   129.4063     2.4333     0.0491   -18.8552    12.7578     3.9077
 2745.0000     9.4887   129.6048     2.4210     0.0439   -18.1754    14.1077     5.9779
 2745.5000     9.4887   128.8111     2.4037     0.0348   -17.5935    14.8968     9.9169
 2746.0000     9.4689   124.0492     2.3964     0.0266   -16.6172    15.3003    11.0720
 2746.5000     9.4887   108.2360     2.4043     0.0123   -16.2344    15.4272    13.4373
 2747.0000     9.4887    92.4227     2.4244     0.0102   -15.4572    15.4123    12.1145
 2747.5000     9.5086    76.8270     2.4759     0.0305   -15.0782    15.5402    11.3579
 2748.0000     9.5682    75.6365     2.5457     0.0467   -14.5001    15.3825    10.2382
 2748.5000     9.5086    77.4222     2.5344     0.0436   -14.1211    15.3677    10.6265
 2749.0000     9.4887    80.7952     2.5302     0.0415   -13.7421    15.2117    10.9080
 2749.5000     9.4887    81.3905     2.5250     0.0374   -13.3630    15.1970    11.1565
 2750.0000     9.5682    81.5889     2.5249     0.0353   -12.5855    15.0428    11.1970
 2750.5000     9.5149    80.8027     2.5218     0.0382   -12.6048    14.8902    11.1862
 2751.0000     9.5259    81.7636     2.5177     0.0384   -12.0265    14.8758    11.2790
 2751.5000     9.5444    82.5442     2.5167     0.0425   -11.4481    14.8614    11.2681
 2752.0000     9.5629    87.0949     2.5147     0.0445   -11.0689    14.8471    11.5756
 2752.5000     9.5619    88.8655     2.5126     0.0425   -10.8889    14.8327    11.5667
 2753.0000     9.6003    88.0642     2.5106     0.0415   -10.3104    14.8184    12.3246
 2753.5000     9.5989    78.1185     2.5085     0.0405   -10.3297    14.8040    12.4341
 2754.0000     9.6373    82.2784     2.5004     0.0395    -9.9504    14.6538    13.0015
 2754.5000     9.6360    84.8508     2.4983     0.0395    -9.5711    14.6397    13.2310
 2755.0000     9.6744    86.2274     2.5014     0.0334    -9.3872    14.6255    13.3408
 2755.5000     9.6929    87.6041     2.4912     0.0273    -9.2071    14.0817    13.9576
 2756.0000     9.7512    86.4004     2.4891     0.0293    -9.0271    14.0680    14.6029
 2756.5000     9.7499    77.2530     2.4983     0.0334    -8.2491    14.0544    14.0598
 2757.0000     9.7684    73.4676     2.5013     0.0283    -8.0690    13.7840    13.7892
 2757.5000     9.8068    70.4759     2.5023     0.0294    -7.8888    13.5188    13.5238
 2758.0000     9.8058    68.6724     2.5074     0.0477    -7.7087    13.0161    13.5108
 2758.5000     9.8442    68.4628     2.5470     0.0640    -7.3292    12.6483    12.6529
 2759.0000     9.8628    68.6476     2.5480     0.0640    -7.1490    12.4049    12.4094
 2759.5000     9.9012    71.2128     2.5460     0.0600    -6.9689    12.2790    12.2835
 2760.0000     9.9198    74.1863     2.5175     0.0590    -6.9880    11.9298    11.7157
 2760.5000     9.9383    67.8117     2.5002     0.0671    -6.6085    12.0288    12.0331
 2761.0000     9.9370    62.8322     2.4930     0.0661    -6.4283    12.0171    12.0215
 2761.5000     9.9556    57.6478     2.4890     0.0651    -6.2480    12.0055    12.0098
 2762.0000     9.9543    59.4269     2.4808     0.0621    -6.2672    11.8837    11.8880
 2762.5000     9.9728    69.5470     2.4747     0.0550    -6.0869    11.9823    11.9866
 2763.0000     9.9715    72.9107     2.4543     0.0550    -6.1061    12.0818    12.0861
 2763.5000     9.9702    75.4801     2.4441     0.0672    -6.1252    12.2950    12.2995
