~VERSION INFORMATION
 VERS.                2.0:   CWLS LOG ASCII STANDARD - VERSION 2.0
 WRAP.                 NO:   ONE LINE PER DEPTH STEP
~WELL INFORMATION
#MNEM.UNIT      DATA TYPE    INFORMATION
#----------   ------------   ------------------------------
 STRT.F          482.0000:   START DEPTH
 STOP.F         4000.0000:   STOP DEPTH
 STEP.F            0.5000:   STEP LENGTH
 NULL.          -999.2500:   NO VALUE
 COMP.    FENIX & SCISSON:   COMPANY
 WELL. FENIX  NPR 3 "LX" #56-10:   WELL
 FLD .              N P R:   FIELD
 LOC .      S10 T38N R78W:   LOCATION
 CNTY.            NATRONA:   COUNTY
 STAT.            WYOMING:   STATE
 CTRY. UNITED STATES OF AMERICA:   COUNTRY
 SRVC.       SCHLUMBERGER:   SERVICE COMPANY
 DATE.        11-JUL-1978:   LOGDATE
 API .     49025107100000:   API NUMBER
~CURVE INFORMATION
#MNEM.UNIT       API CODE    CURVE DESCRIPTION
#----------   ------------   ------------------------------
 DEPT.F                  :   
 GRD .GAPI   45 310 01 00:   GAMMA RAY FROM DENSITY LOG
 CALD.IN     45 280 60 00:   CALIPER FROM DENSITY LOG
 RHOB.G/C3   45 350 01 00:   BULK DENSITY
 NPHI.DEC    42 890 03 00:   NEUTRON POROSITY SANDSTONE
 DRHO.G/C3   45 356 01 00:   DENSITY CORRECTION
 TEND.LBS    45 635 01 00:   TENSION FROM DENSITY LOG
 SPR .MV     07 010 01 00:   SPONTANEOUS POTENTIAL
 TENR.LBS    07 635 01 00:   TENSION FROM RESISTIVITY
 ILD .OHMM   07 120 46 00:   DEEP INDUCTION RESISTIVITY
 ILM .OHMM   07 120 44 00:   INDUCTION LOG MEDIUM RESISTIVITY
 SFLU.OHMM   07 220 01 00:   SPHERICALLY FOCUSED LOG UNAVERAGED RESISTIVITY
~PARAMETER INFORMATION
#MNEM.UNIT          VALUE    DESCRIPTION
#----------   ------------   ------------------------------
 EKB .F         5212.0000:   Kelly bushing
 EGL .F         5202.0000:   Ground level
 EDF .F            0.0000:   Drilling floor
 TD  .F         4000.0000:   Total depth
 DATE.        11-JUL-1978:   Date logged
 CLNT.            A2DTECH:   Client Code
 SL  . 1144' FSL & 2183' FEL:   Surface Location
 PD  .                 GL:   Permanent Datum
 EPD .F              5202:   Elevation Permanent Datum
 LMF .                 KB:   Log Measured From
 DMF .                 KB:   Drilling Measured From
 DD  .F              4000:   Depth driller
 DL  .F              3990:   Depth logger
 BLI .F              3985:   Bottom log interval
 TLI .F               501:   Top log interval
 CS1 .IN            9.625:   Casing size
 CBD1.      9.625" @ 500':   Casing driller 1
 CBL1.F               501:   Casing logger 1
 BS1 .IN            7.875:   Bit size
 DFT .                FGM:   Type fluid in hole
 DFD .                9.1:   Density
 DFV .                 50:   Viscosity
 DFPH.                 12:   pH
 DFL .                4.4:   Fluid loss
 MSS .           MUD/TANK:   Source of sample
 RMS .OHMM           .714:   Rm
 MST .F                83:   Rm Meas. temp.
 RMF .OHMM           .585:   Rmf
 MFST.F                83:   Rmf Meas. temp.
 MFSS.               MEAS:   Source Rmf.
 RMB .OHMM            .42:   Rm. at BHT
 BHT .F               140:   BHT.
 TCS .HRS            1000:   Time Circ. stopped
 MRT .F               140:   Maximum recorded temp.
 LUN .               8035:   Logging unit number
 LUL .       ROCK SPRINGS:   Logging unit location
 ENGI.             MARTIN:   Recorded By
 WITN.           MCCINLEY:   Witnessed by
 ORIG.           5" PRINT:   Origin of data
 UWI .     49025107100000:   Unique Well ID
 DICO. A2D TECHNOLOGIES, INC.:   Digitizing Company
 DAPD.F                10:   Feet Above Permanent Datum
 BSD1.F              4000:   Depth drilled with bit1
 TLAB.HRS            1300:   Time logger at bottom
~OTHER INFORMATION
~A   DEPT       GRD      CALD       RHOB         NPHI     DRHO       TEND        SPR       TENR        ILD        ILM       SFLU   
# ...
 1885.0000   140.6000     9.3790     2.4840     0.3420     0.0180   972.8860   -45.9120   817.7200     8.0540     7.5360     9.9450
 1885.5000   142.5600     9.3800     2.4760     0.3420     0.0140   973.0110   -46.1900   818.0760     7.9770     7.7400    10.3840
 1886.0000   146.0160     9.3860     2.4760     0.3410     0.0130   973.1360   -46.4630   817.5210     8.0110     7.9430    10.3110
 1886.5000   150.5390     9.3910     2.4780     0.3400     0.0120   973.2620   -46.7330   816.9660     8.1190     8.1250    10.2890
 1887.0000   155.0080     9.3960     2.4800     0.3480     0.0110   973.3870   -46.9660   816.4110     8.2280     8.1250    10.2670
 1887.5000   158.3630     9.4020     2.4740     0.3550     0.0100   973.5120   -46.7930   815.8560     8.3370     8.1250    10.2440
 1888.0000   157.7120     9.4070     2.4670     0.3620     0.0100   973.6370   -46.6710   815.3020     8.4450     8.1250    10.2220
 1888.5000   157.1910     9.4120     2.4640     0.3510     0.0150   973.7620   -47.0460   814.7470     8.5540     8.1250    10.2000
 1889.0000   156.5420     9.4180     2.4690     0.3390     0.0210   973.8870   -48.0680   814.1920     8.6620     8.1250    10.1780
 1889.5000   155.9200     9.4230     2.4690     0.3270     0.0260   974.0120   -48.1970   813.6370     8.7710     8.1250    10.1550
 1890.0000   155.2670     9.4280     2.4700     0.3190     0.0320   974.1380   -48.2200   813.0820     8.8790     8.0680    10.1300
 1890.5000   153.5930     9.4330     2.4630     0.3370     0.0270   974.2630   -48.1840   812.5270     8.9880     7.9890    10.1300
 1891.0000   152.0100     9.4390     2.4570     0.3560     0.0180   974.3880   -48.2200   811.9730     9.0970     8.0480    10.5100
 1891.5000   150.7520     9.4440     2.4540     0.3560     0.0080   974.5130   -48.0410   811.4180     9.2050     8.3110    10.7040
 1892.0000   149.7240     9.4490     2.4590     0.3450     0.0090   974.6380   -47.6820   810.8630     9.3140     8.5730    11.1190
 1892.5000   148.7440     9.4550     2.4640     0.3400     0.0110   974.7630   -47.3670   810.3080     9.4220     8.8350    11.5340
 1893.0000   147.7300     9.4600     2.4680     0.3460     0.0110   974.8880   -47.0220   809.7530     9.5310     9.0970    11.9480
 1893.5000   146.6040     9.4650     2.4650     0.3510     0.0070   975.0140   -47.0080   809.1980     9.6390     9.2410    12.1750
 1894.0000   143.7160     9.4710     2.4630     0.3590     0.0040   975.1390   -46.9920   808.6430     9.7650     9.2410    12.1750
 1894.5000   140.5650     9.4760     2.4710     0.3500     0.0150   975.2640   -46.9920   808.0890     9.6180     9.1020    12.1750
 1895.0000   137.2540     9.4810     2.4790     0.3360     0.0240   975.3890   -47.0390   807.5340     9.4460     8.9390    11.9530
 1895.5000   137.4490     9.4870     2.4840     0.3220     0.0270   975.5140   -46.9140   806.9790     9.2730     8.7750    11.5730
 1896.0000   139.3440     9.4920     2.4790     0.3100     0.0220   975.6390   -47.6140   806.4240     9.1000     8.6120    11.2010
 1896.5000   140.4310     9.4970     2.4720     0.3190     0.0150   975.7640   -47.1360   805.8690     8.9270     8.4480    10.8300
 1897.0000   140.2140     9.5020     2.4670     0.3330     0.0120   975.8890   -46.2890   805.3140     8.7550     8.2850    10.4590
 1897.5000   141.1630     9.5080     2.4580     0.3460     0.0140   976.0150   -46.1440   804.7600     8.5850     8.1250     9.9460
 1898.0000   143.7400     9.5130     2.4530     0.3520     0.0180   976.1400   -46.0910   804.2050     8.6110     8.1250    10.1440
 1898.5000   146.1960     9.5180     2.4490     0.3580     0.0130   976.2650   -46.0500   803.6500     8.6360     8.1250    10.4650
 1899.0000   148.1520     9.5230     2.4480     0.3620     0.0090   976.3900   -45.9820   803.0950     8.6610     8.1250    10.7860
 1899.5000   148.2790     9.5300     2.4570     0.3620     0.0090   976.5150   -45.9300   802.5400     8.6870     8.1250    11.1060
 1900.0000   147.5240     9.5340     2.4660     0.3610     0.0120   976.6400   -45.8880   801.9850     8.7120     8.1250    10.9730
 1900.5000   146.0850     9.5380     2.4690     0.3570     0.0150   976.7650   -45.7890   801.4300     8.7370     8.1250    10.7540
 1901.0000   145.1360     9.5450     2.4670     0.3510     0.0120   976.8910   -46.1220   800.8760     8.7620     8.1250    10.5350
 1901.5000   145.6950     9.5800     2.4570     0.3460     0.0090   977.0160   -46.8020   800.3210     8.7870     8.1250    10.3180
 1902.0000   145.7640     9.5770     2.4550     0.3410     0.0060   977.1410   -46.9060   799.7660     8.8120     8.1250    10.3180
 1902.5000   144.0470     9.5780     2.4620     0.3360     0.0140   977.2660   -46.6650   799.2110     8.8370     8.1250    10.3180
 1903.0000   141.3010     9.5680     2.4730     0.3300     0.0240   977.3910   -46.4700   798.6560     8.8630     8.1260    10.3780
 1903.5000   139.9530     9.5370     2.4830     0.3230     0.0330   977.5160   -46.2710   798.1010     8.9000     8.1100    10.4740
 1904.0000   138.4380     9.5070     2.4890     0.3120     0.0310   977.6410   -46.0670   797.5470     8.8830     8.0730    10.5100
 1904.5000   136.8830     9.4890     2.4860     0.3160     0.0280   977.7670   -45.8650   796.9920     8.7770     8.0360    10.4260
 1905.0000   136.8090     9.4810     2.4830     0.3250     0.0260   977.8920   -45.7950   796.4370     8.6720     7.9990    10.2330
 1905.5000   137.6790     9.4760     2.4840     0.3350     0.0250   978.0170   -45.7980   795.8820     8.5660     7.9630    10.0400
 1906.0000   138.6110     9.4670     2.4860     0.3380     0.0260   978.1420   -45.8020   795.3270     8.4610     7.9250     9.8470
 1906.5000   136.2640     9.4600     2.4890     0.3360     0.0290   978.2670   -45.7970   794.7720     8.3550     7.8880     9.6540
 1907.0000   133.1850     9.4530     2.4900     0.3320     0.0320   978.3920   -46.0190   794.2180     8.2500     7.8510     9.5870
 1907.5000   130.0300     9.4460     2.4890     0.3290     0.0310   978.5170   -46.3470   793.6630     8.1450     7.8310     9.5870
 1908.0000   128.6080     9.4390     2.4890     0.3290     0.0260   978.6430   -46.6680   793.1080     8.0390     7.6890     9.6540
 1908.5000   128.9110     9.4310     2.4880     0.3300     0.0210   978.7680   -46.9880   792.5530     7.9340     7.5070     9.9120
 1909.0000   128.9210     9.4240     2.4940     0.3210     0.0150   978.8930   -47.3110   791.9980     7.8280     7.2970    10.1690
 1909.5000   125.2390     9.4170     2.5030     0.3110     0.0260   979.0180   -47.6280   791.4430     7.6890     7.0870    10.5100
 1910.0000   122.6210     9.4100     2.5130     0.3060     0.0490   979.1430   -47.9580   790.8880     7.7090     6.8760    10.1480
 1910.5000   119.8430     9.4030     2.5260     0.3210     0.0690   979.2680   -48.2670   790.3340     7.7800     6.5610     8.8520
 1911.0000   116.9200     9.3950     2.5200     0.3390     0.0900   979.3930   -48.5730   789.7790     7.8460     6.6470     7.4110
 1911.5000   116.8450     9.3880     2.4950     0.3400     0.0760   979.5190   -48.3940   789.2240     7.8990     7.1010     8.0320
 1912.0000   119.8620     9.3800     2.4800     0.3320     0.0450   979.6440   -48.1970   788.6690     7.9510     7.5550     9.2990
 1912.5000   122.6030     9.3800     2.4890     0.3230     0.0290   979.7690   -47.9810   788.1140     8.2930     8.0090    10.5650
 1913.0000   125.9030     9.3820     2.4970     0.3150     0.0300   979.8940   -47.7760   787.5590     8.9290     8.4640    11.9530
 1913.5000   127.1350     9.3830     2.5040     0.3150     0.0310   980.0190   -47.5680   787.0050     9.5640     8.9180    12.3870
 1914.0000   130.2590     9.3840     2.4980     0.3150     0.0350   980.1440   -47.3600   786.4500    10.2000     9.4120    12.8680
 1914.5000   133.2540     9.3850     2.4860     0.3150     0.0310   980.2690   -47.1520   785.8950    10.8350     9.7030    13.3480
 1915.0000   135.6610     9.3870     2.4770     0.3180     0.0270   980.3950   -46.9440   785.3400    11.5220    10.0220    13.8280
