~VERSION INFORMATION
 VERS.                2.0:   CWLS LOG ASCII STANDARD - VERSION 2.0
 WRAP.                 NO:   ONE LINE PER DEPTH STEP
~WELL INFORMATION
#MNEM.UNIT      DATA TYPE    INFORMATION
#----------   ------------   ------------------------------
 STRT.F            0.0000:   START DEPTH
 STOP.F         3982.0000:   STOP DEPTH
 STEP.F            0.5000:   STEP LENGTH
 NULL.          -999.2500:   NO VALUE
 COMP.   LAWRENCE ALLISON:   COMPANY
 WELL. LAWRENCE NPR 3 "LX" #61-10:   WELL
 FLD .                NPR:   FIELD
 LOC .      S10 T38N R78W:   LOCATION
 CNTY.            NATRONA:   COUNTY
 STAT.            WYOMING:   STATE
 CTRY. UNITED STATES OF AMERICA:   COUNTRY
 SRVC.      DRESSER ATLAS:   SERVICE COMPANY
 DATE.        14-APR-1983:   LOGDATE
 API .     49025109180000:   API NUMBER
~CURVE INFORMATION
#MNEM.UNIT       API CODE    CURVE DESCRIPTION
#----------   ------------   ------------------------------
 DEPT.F                  :   
 CALD.IN     45 280 60 00:   CALIPER FROM DENSITY LOG
 RHOB.G/C3   45 350 01 00:   BULK DENSITY
 DRHO.G/C3   45 356 01 00:   DENSITY CORRECTION
 TEND.LBS    45 635 01 00:   TENSION FROM DENSITY LOG
 CNC .DEC    42 890 03 00:   NEUTRON PORISITY SANDSTONE
 GRR .GAPI   07 310 01 00:   GAMMA RAY FROM RESISTIVITY
 SPR .MV     07 010 01 00:   SPONTANEOUS POTENTIAL
 ILD .OHMM   07 120 46 00:   DEEP INDUCTION RESISTIVITY
 ILM .OHMM   07 120 44 00:   INDUCTION LOG MEDIUM RESISTIVITY
 SFL .OHMM   07 220 01 00:   SHALLOW FOCUSED LOG RESISTIVITY
 TENS.LBS    60 635 01 00:   TENSION FROM SONIC LOG
 DT  .US/F   60 520 00 00:   DELTA TIME
 TENR.LBS    07 635 01 00:   TENSION FROM RESISTIVITY
~PARAMETER INFORMATION
#MNEM.UNIT          VALUE    DESCRIPTION
#----------   ------------   ------------------------------
 EKB .F         5164.0000:   Kelly bushing
 EGL .F         5154.0000:   Ground level
 EDF .F            0.0000:   Drilling floor
 TD  .F         3985.0000:   Total depth
 DATE.        14-APR-1983:   Date logged
 CLNT.            A2DTECH:   Client Code
 SL  . 138' FNL & 1331' FEL:   Surface Location
 PD  .                 GL:   Permanent Datum
 EPD .F              5154:   Elevation Permanent Datum
 LMF .                 KB:   Log Measured From
 DMF .                 KB:   Drilling Measured From
 DD  .F              3985:   Depth driller
 DL  .F              3948:   Depth logger
 BLI .F              3945:   Bottom log interval
 CS1 .IN            8.625:   Casing size
 CBD1.      8.625" @ 442':   Casing driller 1
 CBL1.F               453:   Casing logger 1
 BS1 .IN            7.875:   Bit size
 DFT .                KCI:   Type fluid in hole
 DFD .                8.9:   Density
 DFV .                 40:   Viscosity
 DFPH.                8.5:   pH
 DFL .                 10:   Fluid loss
 MSS .           FLOWLINE:   Source of sample
 RMS .OHMM           0.38:   Rm
 MST .F                68:   Rm Meas. temp.
 RMF .OHMM           0.30:   Rmf
 MFST.F                68:   Rmf Meas. temp.
 RMC .OHMM           0.49:   Rmc
 MCST.F                68:   Rmc Meas. temp.
 MFSS.               MEAS:   Source Rmf.
 RMB .OHMM           0.22:   Rm. at BHT
 BHT .F               122:   BHT.
 TCS .HRS               4:   Time Circ. stopped
 MRT .F               122:   Maximum recorded temp.
 LUN .               6764:   Logging unit number
 LUL .              WLSTN:   Logging unit location
 ENGI.            QUICKEL:   Recorded By
 WITN.           JENNINGS:   Witnessed by
 ORIG.           5" PRINT:   Origin of data
 UWI .     49025109180000:   Unique Well ID
 DICO. A2D TECHNOLOGIES, INC.:   Digitizing Company
 DAPD.                 10:   Feet Above Permanent Datum
 BSD1.               3985:   Depth drilled with bit1
 MCSS.               CALC:   Source Rmc.
~OTHER INFORMATION
~A    DEPT    CALD       RHOB       DRHO       TEND        CNC         GRR       SPR        ILD        ILM        SFL       TENS         DT       TENR   
# ...
  910.0000     9.8620     2.0010     0.2310  -116.4270     0.4310   101.6020   -39.9100     7.1900     6.2220     5.8900  -999.2500  -999.2500   -52.6490
  910.5000     9.5870     2.0010     0.2200  -107.4810     0.4170    98.5240   -39.8250     6.9350     5.9130     5.6990  -999.2500  -999.2500   -52.3180
  911.0000     9.3520     2.0010     0.2270   -98.5340     0.4190    96.6470   -39.7760     6.6860     5.6750     5.5070  -999.2500  -999.2500   -51.9860
  911.5000     9.3140     2.0110     0.2310   -89.5880     0.4210    96.2810   -39.7420     6.6860     5.4720     5.3150  -999.2500  -999.2500   -51.6540
  912.0000     9.3280     2.0250     0.2310   -80.6420     0.4280    95.4730   -39.7070     6.6860     5.2970     5.0870  -999.2500  -999.2500   -51.3230
  912.5000     9.3710     2.0010     0.2510   -65.7370     0.4340    93.7020   -39.6640     6.6860     5.4330     5.0870  -999.2500  -999.2500   -50.9910
  913.0000    10.1880     2.0000     0.2720   -55.7770     0.4350    94.9840   -39.6290     6.8360     5.8070     5.3730  -999.2500  -999.2500   -50.6590
  913.5000    11.0190     2.0010     0.2940   -68.9640     0.4060   100.4580   -39.6430     6.9660     6.1190     6.1860  -999.2500  -999.2500   -50.3280
  914.0000    10.8010     2.0000     0.2990   -89.0040     0.3860   107.0860   -39.6770     7.1270     6.3180     6.9140  -999.2500  -999.2500   -49.9960
  914.5000    10.4040     2.0000     0.2710  -109.0440     0.3800   111.4800   -39.7010     7.2970     6.5660     7.0370  -999.2500  -999.2500   -49.6640
  915.0000     9.7190     2.0010     0.2330  -120.6180     0.3750   109.8600   -39.7300     7.5210     6.7900     6.7480  -999.2500  -999.2500   -49.3330
  915.5000     9.3560     2.0020     0.1940  -128.1320     0.3450   105.6150   -39.7580     7.7450     7.0850     7.1730  -999.2500  -999.2500   -49.0010
  916.0000     9.0920     2.0540     0.1830  -135.6470     0.3290   106.9920   -39.7840     7.9690     7.3920     7.8070  -999.2500  -999.2500   -48.6690
  916.5000     8.8350     2.1800     0.2560  -143.1620     0.3210   111.7290   -39.8120     8.2460     7.5480     7.8070  -999.2500  -999.2500   -48.3380
  917.0000     8.5730     2.2880     0.2770  -127.8880     0.3200   112.7910   -39.7960     8.4050     7.7110     7.6660  -999.2500  -999.2500   -48.0060
  917.5000     8.3000     2.3700     0.2020  -102.8390     0.3200   110.6050   -39.7290     8.6130     7.8780     7.4520  -999.2500  -999.2500   -47.6740
  918.0000     8.2900     2.4260     0.1500   -77.7890     0.3010   106.3880   -39.6670     8.8200     8.2490     7.0620  -999.2500  -999.2500   -47.3430
  918.5000     8.4430     2.4390     0.2520   -45.8170     0.2950   100.2990   -39.6040     9.0460     8.6310     7.0620  -999.2500  -999.2500   -47.0110
  919.0000     8.6000     2.4060     0.3410   -35.8570     0.3060    96.2460   -39.5320     9.3030     9.0320     7.4230  -999.2500  -999.2500   -48.3220
  919.5000     8.6820     2.3850     0.3830   -39.9630     0.3120    96.9240   -39.4860     9.5590     9.2270     7.7930  -999.2500  -999.2500   -51.6390
  920.0000     8.7450     2.3880     0.3750   -70.7940     0.2990   100.2990   -39.4080     9.8150     9.4790     8.1710  -999.2500  -999.2500   -54.9550
  920.5000     8.7010     2.4050     0.3180  -101.6240     0.2910   101.1880   -39.2410    10.0760     9.7300     8.3840  -999.2500  -999.2500   -56.7390
  921.0000     8.5940     2.4160     0.3010  -116.9120     0.2970    98.3600   -39.0280    10.1820     9.9850     8.4740  -999.2500  -999.2500   -61.2280
  921.5000     8.4930     2.4120     0.2800  -119.4170     0.3040    98.1770   -38.8570    10.2900    10.0300     8.4740  -999.2500  -999.2500   -64.7810
  922.0000     8.3350     2.3880     0.1470  -121.9220     0.3110   101.3420   -38.8130    10.3560    10.0760     8.0850  -999.2500  -999.2500   -61.6840
  922.5000     8.1320     2.3510     0.1430  -124.4270     0.3130   101.4400   -38.8460    10.3820    10.0260     7.9510  -999.2500  -999.2500   -51.2100
  923.0000     8.0710     2.3140     0.2320  -121.5860     0.3220    98.6770   -38.8310    10.4050     9.9850     7.9510  -999.2500  -999.2500   -40.7360
  923.5000     8.0670     2.2920     0.2930  -114.7550     0.3280    96.9740   -38.8220    10.4280    10.1120     8.2320  -999.2500  -999.2500   -27.0070
  924.0000     8.0650     2.3290     0.2690  -107.9230     0.3270    96.7940   -38.8560    10.4500    10.2190     8.5160  -999.2500  -999.2500   -29.0240
  924.5000     8.0620     2.4060     0.2050  -101.0910     0.3150    98.1660   -38.8040    10.5410    10.1560     8.5960  -999.2500  -999.2500   -31.9510
  925.0000     8.0600     2.4430     0.2020   -96.3550     0.3040   100.6290   -38.8590    10.6310     9.9800     8.5090  -999.2500  -999.2500   -34.8770
  925.5000     8.0570     2.4600     0.2560  -100.0660     0.2950   101.2170   -39.1830    10.7400     9.8030     8.5630  -999.2500  -999.2500   -36.9180
  926.0000     8.0540     2.4640     0.3130  -103.7770     0.3140    99.1240   -39.5240    10.7900     9.6270     8.7090  -999.2500  -999.2500   -41.2390
  926.5000     8.0520     2.4740     0.2690  -107.4890     0.3170    96.4370   -39.8800    10.8510     9.1150     8.6010  -999.2500  -999.2500   -44.5560
  927.0000     8.0490     2.5050     0.1350  -111.2000     0.3030    94.2900   -40.1860    10.9130     9.1150     8.4930  -999.2500  -999.2500   -46.8290
  927.5000     8.0470     2.5250     0.1200  -114.9110     0.2860    95.1400   -40.1550    10.9060     9.1150     8.3850  -999.2500  -999.2500   -39.9430
  928.0000     8.0440     2.5070     0.1920  -113.3470     0.2730    98.5290   -39.9990    10.8540     9.1150     8.3510  -999.2500  -999.2500   -34.7060
  928.5000     8.0410     2.4700     0.2730  -110.7100     0.2730    99.2360   -39.9270    10.8020     9.1150     8.4230  -999.2500  -999.2500   -29.4690
  929.0000     8.0390     2.4570     0.2760  -108.0730     0.2800    98.3700   -39.8210    10.7400     9.1120     8.4950  -999.2500  -999.2500   -30.3020
  929.5000     8.0360     2.4720     0.1590  -105.4360     0.2790    99.2810   -39.7010    10.6900     9.1040     8.5520  -999.2500  -999.2500   -36.5210
  930.0000     8.0330     2.5140     0.0500  -102.7990     0.2800    99.8060   -39.6380    10.6300     9.0970     8.4690  -999.2500  -999.2500   -42.7400
  930.5000     8.0310     2.5500     0.0340  -100.1630     0.2870   100.1220   -39.6400    10.5690     9.0890     8.4010  -999.2500  -999.2500   -43.4190
  931.0000     8.0310     2.5590     0.0600   -97.5260     0.2940   101.8920   -39.6730    10.5370     9.0820     8.3210  -999.2500  -999.2500   -33.4690
  931.5000     8.0330     2.5580     0.0730   -94.8890     0.3000   103.2460   -39.6940    10.5220     9.0740     8.3210  -999.2500  -999.2500   -23.5180
  932.0000     8.0350     2.5500     0.0770   -92.2520     0.2950   103.4800   -39.7100    10.5070     9.0670     8.3210  -999.2500  -999.2500   -13.5680
  932.5000     8.0370     2.5430     0.0820   -89.6150     0.2870   103.2740   -39.7370    10.4920     9.0590     8.2760  -999.2500  -999.2500   -13.8750
  933.0000     8.0390     2.5290     0.0850   -86.9780     0.2790   102.1120   -39.7610    10.4770     9.0520     8.2460  -999.2500  -999.2500   -32.5320
  933.5000     8.0410     2.5070     0.0950   -84.3420     0.2800   100.2530   -39.7680    10.4620     9.0440     8.3210  -999.2500  -999.2500   -51.1890
  934.0000     8.0420     2.4880     0.1040   -81.7050     0.2780    98.2560   -39.8110    10.4500     9.0370     8.5220  -999.2500  -999.2500   -66.6500
  934.5000     8.0440     2.4870     0.0890   -79.0680     0.2710    96.6390   -39.8150    10.5620     9.0370     8.7090  -999.2500  -999.2500   -52.0810
  935.0000     8.0460     2.5060     0.0610   -76.4310     0.2650    96.6830   -39.7190    10.6530     9.0480     8.7090  -999.2500  -999.2500   -39.6430
  935.5000     8.0480     2.5210     0.0680   -75.1580     0.2650    98.5250   -39.6420    10.7400     9.0580     8.7090  -999.2500  -999.2500   -27.0070
