~VERSION INFORMATION
 VERS.                2.0:   CWLS LOG ASCII STANDARD - VERSION 2.0
 WRAP.                 NO:   ONE LINE PER DEPTH STEP
~WELL INFORMATION
#MNEM.UNIT      DATA TYPE    INFORMATION
#----------   ------------   ------------------------------
 STRT.F           72.5000:   START DEPTH
 STOP.F         2820.0000:   STOP DEPTH
 STEP.F            0.5000:   STEP LENGTH
 NULL.          -999.2500:   NO VALUE
 COMP.          INTEX OIL:   COMPANY
 WELL. INTEX OIL AX N. P. R. #51-29:   WELL
 FLD .             TEAPOT:   FIELD
 LOC .      S29 T39N R78W:   LOCATION
 CNTY.            NATRONA:   COUNTY
 STAT.            WYOMING:   STATE
 CTRY. UNITED STATES OF AMERICA:   COUNTRY
 SRVC.       SCHLUMBERGER:   SERVICE COMPANY
 DATE.        01-MAY-1966:   LOGDATE
 API .     49025094920000:   API NUMBER
~CURVE INFORMATION
#MNEM.UNIT       API CODE    CURVE DESCRIPTION
#----------   ------------   ------------------------------
 DEPT.F                  :   
 GRD .GAPI   45 310 01 00:   GAMMA RAY FROM DENSITY LOG
 CALD.IN     45 280 60 00:   CALIPER FROM DENSITY LOG
 RHOB.G/C3   45 350 01 00:   BULK DENSITY
 CORR.G/C3   45 356 01 00:   DENSITY CORRECTION
 SPR .MV     07 010 01 00:   SPONTANEOUS POTENTIAL
 ASN .OHMM   05 041 16 00:   AMPLIFIED SHORT NORMAL 16"
 ILD .OHMM   05 120 46 00:   DEEP INDUCTION RESISTIVITY
 DT  .US/F   60 520 00 00:   DELTA TIME
~PARAMETER INFORMATION
#MNEM.UNIT          VALUE    DESCRIPTION
#----------   ------------   ------------------------------
 EKB .F         5007.3000:   Kelly bushing
 EGL .F         4997.0000:   Ground level
 EDF .F            0.0000:   Drilling floor
 TD  .F         2799.0000:   Total depth
 DATE.        01-MAY-1966:   Date logged
 CLNT.            A2DTECH:   Client Code
 PD  .                 GL:   Permanent Datum
 EPD .F              4997:   Elevation Permanent Datum
 LMF .                 KB:   Log Measured From
 DMF .                 KB:   Drilling Measured From
 DAPD.F              10.3:   Feet Above Permanent Datum
 DD  .F              2798:   Depth driller
 DL  .F              2799:   Depth logger
 BLI .F              2798:   Bottom log interval
 TLI .F                88:   Top log interval
 CS1 .IN            10.75:   Casing size
 CBD1.       10.75" @ 30':   Casing driller 1
 BS1 .IN            7.875:   Bit size
 BSD1.F              2798:   Depth drilled with bit1
 DFT .           CHEM/OIL:   Type fluid in hole
 DFD .                9.5:   Density
 DFV .                 46:   Viscosity
 DFPH.                7.2:   pH
 DFL .                7.0:   Fluid loss
 MSS .         CIRCULATED:   Source of sample
 RMS .OHMM           2.28:   Rm
 MST .F                68:   Rm Meas. temp.
 RMF .OHMM           1.32:   Rmf
 MFST.F                72:   Rmf Meas. temp.
 MFSS.                 FP:   Source Rmf.
 RMB .OHMM           1.52:   Rm. at BHT
 BHT .F               102:   BHT.
 TCS .HRS             1.5:   Time Circ. stopped
 MRT .F               102:   Maximum recorded temp.
 LUN .               4507:   Logging unit number
 LUL .               CSPR:   Logging unit location
 ENGI.               HAUG:   Recorded By
 WITN.      TUTTLE/HUDSON:   Witnessed by
 ORIG.           5" PRINT:   Origin of data
 UWI .     49025094920000:   Unique Well ID
 DICO. A2D TECHNOLOGIES, INC.:   Digitizing Company
~OTHER INFORMATION
~A   DEPT      GRD       CALD       RHOB       CORR        SPR        ASN        ILD         DT   
# ...
 2624.0000   121.8290     8.5420     2.4990    -0.0110   -27.7490     8.7710     5.4640    82.2960
 2624.5000   122.2160     8.5400     2.5060    -0.0070   -27.9860     8.6910     5.3350    82.9860
 2625.0000   125.4110     8.5380     2.5110    -0.0100   -28.1070     8.5560     5.2350    83.9860
 2625.5000   128.2030     8.5350     2.4930    -0.0140   -28.0970     8.3330     5.1680    84.9860
 2626.0000   131.3630     8.5330     2.4860    -0.0090   -28.0160     8.0610     5.1150    85.9860
 2626.5000   131.6620     8.5310     2.4930    -0.0060   -27.9250     7.8190     5.0630    86.9860
 2627.0000   129.9600     8.5290     2.4880    -0.0130   -27.8450     7.6530     5.0330    87.8010
 2627.5000   128.4470     8.5270     2.4840    -0.0190   -27.7720     7.5790     5.0500    87.9670
 2628.0000   129.0670     8.5250     2.4930    -0.0230   -27.6980     7.6020     5.1020    87.8450
 2628.5000   129.8200     8.5220     2.5030    -0.0140   -27.6190     7.7080     5.1430    87.0550
 2629.0000   129.8440     8.5200     2.5090    -0.0180   -27.5300     7.8470     5.1580    86.2090
 2629.5000   128.3900     8.5180     2.4970    -0.0220   -27.4430     7.9590     5.2070    85.6780
 2630.0000   127.0430     8.5160     2.4870    -0.0150   -27.3870     8.0380     5.3560    85.9310
 2630.5000   125.6640     8.5140     2.5040     0.0010   -27.3860     8.1490     5.5780    85.2400
 2631.0000   124.5740     8.5110     2.5210     0.0090   -27.4270     8.3570     5.7550    84.2820
 2631.5000   124.1680     8.5140     2.5170     0.0000   -27.4790     8.6300     5.8030    83.4110
 2632.0000   123.4020     8.5240     2.5120     0.0020   -27.5250     8.8460     5.7510    82.7680
 2632.5000   122.8580     8.5350     2.5300     0.0070   -27.5610     8.8900     5.6890    81.3810
 2633.0000   126.6190     8.5450     2.5340     0.0070   -27.5930     8.7570     5.6560    81.0040
 2633.5000   130.5590     8.5560     2.5380     0.0060   -27.6330     8.5190     5.6310    81.7080
 2634.0000   133.6800     8.5660     2.5220    -0.0030   -27.6930     8.2460     5.5920    83.5320
 2634.5000   134.2440     8.5770     2.4860    -0.0100   -27.7410     7.9990     5.5470    85.8540
 2635.0000   132.6380     8.5870     2.4980    -0.0060   -27.7100     7.8690     5.5090    88.2230
 2635.5000   131.0440     8.5910     2.5190    -0.0030   -27.5550     7.9200     5.4750    87.5480
 2636.0000   129.2840     8.5900     2.5080    -0.0100   -27.3200     8.0890     5.4360    86.4230
 2636.5000   127.7240     8.5900     2.5090    -0.0160   -27.1070     8.2090     5.3970    85.6090
 2637.0000   125.8280     8.5900     2.4840    -0.0150   -26.9890     8.1890     5.3620    85.6920
 2637.5000   126.6630     8.5900     2.4910    -0.0070   -26.9590     8.1160     5.3250    87.2660
 2638.0000   128.7940     8.5900     2.5110    -0.0030   -26.9670     8.1330     5.2820    86.8190
 2638.5000   130.8460     8.5900     2.5020    -0.0120   -26.9730     8.2520     5.2420    86.0920
 2639.0000   132.6230     8.5910     2.4950    -0.0170   -26.9690     8.3510     5.2290    85.7750
 2639.5000   133.4140     8.5890     2.4850    -0.0130   -26.9660     8.3290     5.2500    86.1470
 2640.0000   134.7460     8.5860     2.4860    -0.0050   -26.9680     8.2210     5.2900    87.1470
 2640.5000   135.2060     8.5830     2.5010     0.0040   -26.9700     8.1340     5.3280    88.1470
 2641.0000   133.5540     8.5810     2.4960     0.0030   -26.9700     8.1300     5.3590    88.5820
 2641.5000   130.7800     8.5780     2.4890    -0.0060   -26.9680     8.1910     5.3920    88.1320
 2642.0000   127.2980     8.5750     2.4850    -0.0080   -26.9680     8.2740     5.4290    87.6820
 2642.5000   125.0280     8.5720     2.4940    -0.0060   -26.9690     8.3590     5.4600    87.2320
 2643.0000   124.3130     8.5700     2.4980    -0.0050   -26.9700     8.4360     5.4890    86.7690
 2643.5000   123.9150     8.5670     2.4920    -0.0110   -26.9680     8.4810     5.5290    87.0260
 2644.0000   124.2410     8.5640     2.4870    -0.0140   -26.9660     8.4730     5.5750    87.7410
 2644.5000   125.1560     8.5620     2.4800    -0.0090   -26.9690     8.4120     5.5930    88.4550
 2645.0000   126.3700     8.5590     2.4910    -0.0120   -26.9720     8.3260     5.5540    89.1690
 2645.5000   127.5140     8.5560     2.4870    -0.0160   -26.9640     8.2420     5.4640    89.8510
 2646.0000   128.1290     8.5540     2.4770    -0.0100   -26.9320     8.1740     5.3590    89.2410
 2646.5000   127.6480     8.5510     2.4840    -0.0040   -26.8790     8.1200     5.2610    88.6580
 2647.0000   127.2510     8.5560     2.4900     0.0030   -26.8170     8.0610     5.1690    88.8940
 2647.5000   130.1810     8.5650     2.4970     0.0000   -26.7580     7.9750     5.0760    89.5530
 2648.0000   133.3130     8.5740     2.4900    -0.0070   -26.7020     7.8410     4.9800    90.2120
 2648.5000   135.0180     8.5820     2.4780    -0.0150   -26.6460     7.6620     4.8820    90.8720
 2649.0000   136.4430     8.5910     2.4650    -0.0170   -26.5870     7.4720     4.7840    91.4410
 2649.5000   138.0030     8.6000     2.4570    -0.0200   -26.5270     7.3310     4.6890    91.7130
 2650.0000   139.5560     8.6080     2.4700    -0.0070   -26.4690     7.2690     4.6000    90.5280
 2650.5000   143.4900     8.6170     2.4850    -0.0140   -26.4150     7.2410     4.5050    90.2350
 2651.0000   147.2310     8.6260     2.4770    -0.0040   -26.3590     7.1580     4.3960    91.0030
 2651.5000   148.5960     8.6340     2.4680    -0.0100   -26.2930     6.9920     4.2980    91.7710
 2652.0000   147.6930     8.6430     2.4570    -0.0090   -26.2310     6.8210     4.2620    92.5390
 2652.5000   145.9270     8.6520     2.4760    -0.0050   -26.1990     6.7420     4.3050    93.2390
 2653.0000   142.4420     8.6600     2.4650    -0.0110   -26.2120     6.7680     4.3940    93.3220
 2653.5000   138.3950     8.6700     2.4690    -0.0150   -26.2520     6.8360     4.4790    92.6590
 2654.0000   134.0460     8.6620     2.4820    -0.0020   -26.2970     6.9000     4.5460    91.9140
 2654.5000   133.5950     8.6530     2.4840    -0.0060   -26.3360     6.9710     4.6150    92.0710
 2655.0000   136.5120     8.6420     2.4750    -0.0130   -26.3720     7.0690     4.6940    92.4750
 2655.5000   139.3960     8.6320     2.4510    -0.0190   -26.4060     7.1790     4.7690    91.8790
 2656.0000   139.5330     8.6220     2.4360    -0.0220   -26.4400     7.2730     4.8200    91.2920
 2656.5000   138.7130     8.6120     2.4530    -0.0090   -26.4850     7.3580     4.8430    91.3420
 2657.0000   139.1520     8.6020     2.4580    -0.0130   -26.5370     7.4590     4.8550    91.1930
 2657.5000   140.4900     8.5920     2.4430    -0.0180   -26.5570     7.5590     4.8680    90.7460
 2658.0000   140.6500     8.5820     2.4500    -0.0190   -26.5060     7.6040     4.8850    90.2490
 2658.5000   138.7280     8.5720     2.4670    -0.0140   -26.3960     7.5650     4.8990    91.0310
 2659.0000   136.9870     8.5620     2.4820    -0.0090   -26.2730     7.4970     4.9120    90.2490
 2659.5000   135.1690     8.5510     2.4900    -0.0110   -26.1590     7.4790     4.9260    90.8450
 2660.0000   133.4430     8.5540     2.4650    -0.0160   -26.0400     7.5340     4.9440    90.3180
 2660.5000   132.1060     8.5580     2.4490    -0.0230   -25.9130     7.6260     4.9580    89.4230
 2661.0000   130.8210     8.5620     2.4560    -0.0290   -25.8140     7.7230     4.9670    89.1550
 2661.5000   129.5580     8.5660     2.4490    -0.0360   -25.7750     7.8150     4.9820    89.1550
 2662.0000   128.0990     8.5700     2.4580    -0.0190   -25.7810     7.8800     5.0090    88.9720
 2662.5000   126.4950     8.5740     2.4700    -0.0270   -25.7930     7.8870     5.0260    88.3600
 2663.0000   126.4250     8.5780     2.4530    -0.0230   -25.7920     7.8510     4.9950    87.7480
 2663.5000   126.9380     8.5830     2.4570    -0.0160   -25.7850     7.8200     4.9080    87.7510
 2664.0000   127.6980     8.5870     2.4600    -0.0120   -25.7840     7.8000     4.7960    88.1240
