~VERSION INFORMATION
 VERS.                2.0:   CWLS LOG ASCII STANDARD - VERSION 2.0
 WRAP.                 NO:   ONE LINE PER DEPTH STEP
~WELL INFORMATION
#MNEM.UNIT      DATA TYPE    INFORMATION
#----------   ------------   ------------------------------
 STRT.F           22.5000:   START DEPTH
 STOP.F         4120.0000:   STOP DEPTH
 STEP.F            0.5000:   STEP LENGTH
 NULL.          -999.2500:   NO VALUE
 COMP. LAWRENCE ALLISON & ASSOCIATES:   COMPANY
 WELL. LAWRENCE-ALLISON SHX #37-10:   WELL
 FLD .              N P R:   FIELD
 LOC .      S10 T38N R78W:   LOCATION
 CNTY.            NATRONA:   COUNTY
 STAT.            WYOMING:   STATE
 CTRY. UNITED STATES OF AMERICA:   COUNTRY
 SRVC.      DRESSER ATLAS:   SERVICE COMPANY
 DATE.        29-JUN-1983:   LOGDATE
 API .     49025107370001:   API NUMBER
~CURVE INFORMATION
#MNEM.UNIT       API CODE    CURVE DESCRIPTION
#----------   ------------   ------------------------------
 DEPT.F                  :   
 TEND.LBS    45 635 01 00:   TENSION FROM DENSITY LOG
 CORR.G/C3   45 356 01 00:   DENSITY CORRECTION
 NPHI.DEC    42 890 03 00:   NEUTRON POROSITY SANDSTONE
 CALD.IN     45 280 60 00:   CALIPER FROM DENSITY LOG
 GRR .GAPI   07 310 01 00:   GAMMA RAY FROM RESISTIVITY
 SPR .MV     07 010 01 00:   SPONTANEOUS POTENTIAL
 TENR.LBS    07 635 01 00:   TENSION FROM RESISTIVITY
 RILD.OHMM   07 120 46 00:   DEEP INDUCTION RESISTIVITY
 RILM.OHMM   07 120 44 00:   INDUCTION LOG MEDIUM RESISTIVITY
 RFOC.OHMM   07 220 04 00:   RESISTIVITY FOCUSED LOG RES.
 RHOB.G/C3   45 350 01 00:   BULK DENSITY
~PARAMETER INFORMATION
#MNEM.UNIT          VALUE    DESCRIPTION
#----------   ------------   ------------------------------
 EKB .F         5228.0000:   Kelly bushing
 EGL .F         5218.0000:   Ground level
 EDF .F            0.0000:   Drilling floor
 EPD .F         5218.0000:   Permanent datum
 TD  .F         4125.0000:   Total depth
 DATE.        29-JUN-1983:   Date logged
 CLNT.            A2DTECH:   Client Code
 SL  . 984' FWL & 1620' FEL:   Surface Location
 PD  .                 GL:   Permanent Datum
 DD  .F              4125:   Depth driller
 DL  .F              4107:   Depth logger
 BLI .F              4105:   Bottom log interval
 CS1 .IN              4.5:   Casing size
 CBD1.       4.5" @ 2213':   Casing driller 1
 CBL1.F              2213:   Casing logger 1
 BS1 .IN             6.25:   Bit size
 DFT .                KCL:   Type fluid in hole
 DFD .                8.8:   Density
 DFV .                 45:   Viscosity
 DFPH.                  9:   pH
 DFL .               10.8:   Fluid loss
 MSS .            MUDTANK:   Source of sample
 RMS .OHMM            .44:   Rm
 MST .F               108:   Rm Meas. temp.
 RMF .OHMM            .37:   Rmf
 MFST.F               108:   Rmf Meas. temp.
 RMC .OHMM            .55:   Rmc
 MCST.F               108:   Rmc Meas. temp.
 MFSS.               MEAS:   Source Rmf.
 RMB .OHMM            .36:   Rm. at BHT
 BHT .F               126:   BHT.
 TCS .HRS               2:   Time Circ. stopped
 MRT .F               126:   Maximum recorded temp.
 LUN .               6343:   Logging unit number
 LUL .                 FM:   Logging unit location
 ENGI.          I. GOVETT:   Recorded By
 WITN.          G. STRONG:   Witnessed by
 ORIG.     2.5", 5" PRINT:   Origin of data
 UWI .     49025107370001:   Unique Well ID
 DICO. A2D TECHNOLOGIES, INC.:   Digitizing Company
 DAPD.                 10:   Feet Above Permanent Datum
 BSD1.               4125:   Depth drilled with bit1
 MCSS.               CALC:   Source Rmc.
 TLI .               2213:   Top log interval
~OTHER INFORMATION
~A   DEPT     TEND       CORR       NPHI       CALD         GRR       SPR       TENR       RILD       RILM       RFOC       RHOB   
# ...
 3713.0000     0.0000     0.2680     0.2700    11.3550   130.4600   -28.6370     4.9500     1.8340     1.9200     2.4670     2.0120
 3713.5000     0.0000     0.2490     0.2800    11.6720   119.1060   -28.6580     4.9500     1.9110     2.2440     2.6730     2.0490
 3714.0000     0.0000     0.2680     0.2940    11.9920   119.6470   -28.6810     4.9500     2.0090     2.1410     2.5700     2.0420
 3714.5000     0.0000     0.3070     0.3230    12.3330   121.8520   -28.7040     4.9500     1.9810     1.9440     2.7060  -999.2500
 3715.0000     0.0000     0.2470     0.3390    12.5740   124.1610   -28.7280     4.9500     1.9420     1.7460     2.8780  -999.2500
 3715.5000     0.0000     0.1590     0.3450    12.7540   120.4730   -28.7510     4.9500     1.9040     1.6410     2.6220  -999.2500
 3716.0000     0.0000     0.0870     0.3200    12.8550   115.0810   -28.7740     4.9500     1.8650     1.7130     2.2770  -999.2500
 3716.5000     0.0000     0.0680     0.3240    13.7920   109.6330   -28.7970     4.9500     1.8320     1.7900     1.7830  -999.2500
 3717.0000     0.0000     0.0530     0.3280    14.7470   104.2140   -28.8330     4.9500     1.8480     1.8660     1.8790  -999.2500
 3717.5000     0.0000     0.0590     0.3290    14.8240   100.9630   -28.8900     4.9500     1.8620     1.9180     2.0490  -999.2500
 3718.0000     0.0040     0.0960     0.3290    14.4910   102.2710   -28.9470     4.9500     1.8760     1.9540     2.2180  -999.2500
 3718.5000     0.2530     0.1370     0.3100    13.8570   103.6750   -29.0040     4.9500     1.8840     2.1110     2.3880  -999.2500
 3719.0000     0.5030     0.1710     0.2920    13.1290   108.9070   -29.0610     4.9500     2.0520     2.2690     2.6160  -999.2500
 3719.5000     0.7530     0.1600     0.2560    13.0500   114.3310   -29.1180     4.9500     2.2210     2.4770     2.5790  -999.2500
 3720.0000     1.0020     0.1030     0.2320    12.8470   119.7740   -29.1760     4.9500     2.4910     2.8760     2.5040  -999.2500
 3720.5000     1.2520     0.0440     0.2140    12.2360   124.6050   -29.3280     4.9500     2.8250     3.3750     2.4160  -999.2500
 3721.0000     1.5020     0.0430     0.1940    11.4660   118.8780   -29.6160     4.9500     3.1600     4.2170     2.7880  -999.2500
 3721.5000     1.7510     0.0740     0.1520    10.6970   113.3810   -29.8890     4.9500     3.9590     6.3560     3.2380     2.0730
 3722.0000     2.0010     0.1040     0.1550     9.9860    95.8420   -30.8640     4.9500     4.8500    10.1430     5.7880     2.2350
 3722.5000     2.2510     0.1370     0.1290     9.3080    76.7880   -32.1900     4.9500     6.9950    13.9300    11.1630     2.4210
 3723.0000     2.5000     0.1390     0.1170     8.6340    57.8850   -33.5640     4.9500    11.3910    17.7170    21.3670     2.5040
 3723.5000     2.7500     0.1140     0.1160     7.9540    41.9090   -34.2860     4.9500    16.1710    21.5040    28.8690     2.4970
 3724.0000     3.0000     0.1170     0.1140     7.6770    29.1760   -34.7580     4.9500    20.9510    25.2900    29.2090     2.5030
 3724.5000     3.2490     0.1370     0.1150     7.6820    17.6500   -34.9320     4.9500    25.2950    27.4070    29.5490     2.5150
 3725.0000     3.4990     0.1530     0.1170     7.6780    17.3970   -34.8160     4.9500    25.7650    27.7350    29.8560     2.5440
 3725.5000     3.7490     0.1700     0.1280     7.6650    26.2810   -34.6650     4.9500    26.0030    27.7350    27.8010     2.5630
 3726.0000     3.9980     0.1460     0.1400     7.6590    43.0490   -34.5130     4.9500    23.2020    23.0430    24.6080     2.5610
 3726.5000     4.2480     0.1040     0.1520     7.6840    63.6770   -34.3620     4.9500    17.7280    17.7010    21.4160     2.5330
 3727.0000     4.4980     0.0780     0.1900     7.7030    76.7230   -34.2110     4.9500    11.8860    11.6730    18.2230     2.5130
 3727.5000     4.7470     0.1400     0.2280     7.7240    83.0400   -34.0600     4.9500    11.3080    10.0700    14.7350     2.4410
 3728.0000     4.9970     0.1880     0.2710     7.7440    89.6980   -33.9590     4.9500    10.6870    10.0700    10.6670     2.3850
 3728.5000     5.2470     0.2390     0.2650     7.7650   106.0570   -33.9600     4.9500    10.1630    10.0700     7.2280     2.3200
 3729.0000     5.4960     0.2100     0.2160     7.7850   120.4110   -33.9590     4.9500    10.2140    10.0700     8.3420     2.3330
 3729.5000     5.7460     0.1790     0.1700     7.8090   119.0210   -33.8370     4.9500    10.5240    10.3440    10.3330     2.4100
 3730.0000     5.9960     0.1510     0.1540     7.7980   115.0760   -33.6240     4.9500    10.8340    10.7020    13.1530     2.4740
 3730.5000     6.2450     0.1450     0.1610     7.7610   109.9540   -33.4000     4.9500    11.1440    11.0600    12.8460     2.5420
 3731.0000     6.4950     0.1370     0.1690     7.7300   104.6180   -33.6480     4.9500    11.4560    11.4180    12.0470     2.5940
 3731.5000     6.7450     0.1380     0.1600     7.6990    94.3270   -33.9940     4.9500    12.6990    12.3000    11.8860     2.5880
 3732.0000     6.9940     0.1390     0.1420     7.6930    83.8280   -34.3430     4.9500    13.9460    13.5310    14.3540     2.5760
 3732.5000     7.2440     0.1550     0.1330     7.6890    73.3430   -34.5190     4.9500    15.1940    14.7630    16.4070     2.5800
 3733.0000     7.4940     0.2070     0.1370     7.6860    62.7690   -34.4390     4.9500    16.4070    15.9600    18.4600     2.5940
 3733.5000     7.7430     0.2560     0.1460     7.6820    55.0920   -34.3330     4.9500    16.6700    15.2960    20.8460     2.6130
 3734.0000     7.9930     0.2920     0.1640     7.6790    59.1430   -33.6150     4.9500    16.7120    14.2900    18.9590     2.6090
 3734.5000     8.2430     0.1950     0.1800     7.6760    74.9850   -32.8900     4.9500    14.9040    12.4680    14.6750     2.6000
 3735.0000     8.4920     0.1450     0.1950     7.6720    92.3080   -32.1700     4.9500    13.3030    10.7230    10.3910     2.5900
 3735.5000     8.7420     0.1120     0.2250     7.6700   109.6110   -31.3910     4.9500    11.4420     8.9770     9.3620     2.5830
 3736.0000     8.9920     0.1470     0.2650     7.6660   126.8550   -30.5430     4.9500     9.2790     7.1790     8.8590     2.5290
 3736.5000     9.2410     0.1250     0.2970     7.6580   142.6510   -29.6950     4.9500     7.1170     5.2420     8.3560     2.3480
 3737.0000     9.4910     0.0820     0.4060     7.6870   142.6270   -28.8490     4.9500     4.9540     2.3280     7.5210     2.1660
 3737.5000     9.7410     0.0070     0.4620     8.0240   137.1510   -28.0010     4.9500     3.6230     2.3670     5.8730     2.0000
 3738.0000     9.9400     0.0560     0.3790     8.9240   125.2220   -27.1470     4.9500     3.1360     2.4450     4.2240     2.0090
 3738.5000    49.7020     0.1490     0.3210     9.8560   106.5690   -26.2730     4.9500     2.6490     2.5290     2.4380     2.0000
 3739.0000    43.4890     0.1370     0.3390    10.8880    89.9190   -26.1100     4.9500     2.4160     2.6630     2.6940     2.0000
 3739.5000    37.2760     0.0790     0.3680    11.4430    87.8740   -25.9820     4.9500     2.5100     2.8080     2.9740     2.0000
 3740.0000    29.8210     0.0040     0.4120    11.4360    85.8910   -25.8410     4.9500     2.5930     2.9800     3.2530     2.0000
 3740.5000     9.9400    -0.2350     0.3000    11.1500    83.8740   -25.4770     4.9500     2.6770     3.2070     3.5330     2.0000
 3741.0000     9.9400    -0.1110     0.2890    10.4600    81.8660   -25.0890     4.9500     3.0790     3.4330     3.9360     2.1900
 3741.5000     9.9400     0.0910     0.2760     9.8900    80.1630   -24.7030     4.9500     3.5870     3.6590     3.9230     2.2610
 3742.0000     9.9400     0.2500     0.2940     9.4240    81.7020   -24.5120     4.9500     4.0090     3.9360     3.9000     2.3450
 3742.5000     9.9400     0.1980     0.3300     9.0680    85.9130   -24.6850     4.9500     3.8390     3.5780     4.7070     2.2070
 3743.0000     9.9400     0.1360     0.3300     8.9050    87.7970   -24.8450     4.9500     3.6640     3.1160     5.7510     2.0100
