~VERSION INFORMATION
 VERS.                2.0:   CWLS LOG ASCII STANDARD - VERSION 2.0
 WRAP.                 NO:   ONE LINE PER DEPTH STEP
~WELL INFORMATION
#MNEM.UNIT      DATA TYPE    INFORMATION
#----------   ------------   ------------------------------
 STRT.F           90.0000:   START DEPTH
 STOP.F         3342.0000:   STOP DEPTH
 STEP.F            0.5000:   STEP LENGTH
 NULL.          -999.2500:   NO VALUE
 COMP. LAWRENCE ALLISON AND ASSOCIATES:   COMPANY
 WELL. LAWERNCE "X" #83-3:   WELL
 FLD .             NPR #3:   FIELD
 LOC .       S3 T38N R78W:   LOCATION
 CNTY.            NATRONA:   COUNTY
 STAT.            WYOMING:   STATE
 CTRY. UNITED STATES OF AMERICA:   COUNTRY
 SRVC.      DRESSER ATLAS:   SERVICE COMPANY
 DATE.        23-APR-1985:   LOGDATE
 API .     49025110210000:   API NUMBER
~CURVE INFORMATION
#MNEM.UNIT       API CODE    CURVE DESCRIPTION
#----------   ------------   ------------------------------
 DEPT.F                  :   
 TENR.LBS    07 635 01 00:   TENSION FROM RESISTIVITY
 CALR.IN     07 280 01 00:   CALIPER FROM RESISTIVITY
 SPR .MV     07 010 01 00:   SPONTANEOUS POTENTIAL
 GRR .GAPI   07 310 01 00:   GAMMA RAY FROM RESISTIVITY
 RFOC.OHMM   07 220 04 00:   RESISTIVITY FOCUSED LOG RES.
 RILD.OHMM   07 120 46 00:   DEEP INDUCTION RESISTIVITY
 RILM.OHMM   07 120 44 00:   INDUCTION LOG MEDIUM RESISTIVITY
 NPHI.DEC    42 890 03 00:   NEUTRON POROSITY SANDSTONE
 RHOB.G/C3   45 350 01 00:   BULK DENSITY
 TEND.LBS    45 635 01 00:   TENSION FROM DENSITY LOG
 CORR.G/C3   45 356 01 00:   DENSITY CORRECTION
~PARAMETER INFORMATION
#MNEM.UNIT          VALUE    DESCRIPTION
#----------   ------------   ------------------------------
 EKB .F         5125.0000:   Kelly bushing
 EGL .F         5112.0000:   Ground level
 EDF .F            0.0000:   Drilling floor
 TD  .F         3330.0000:   Total depth
 DATE.        23-APR-1985:   Date logged
 CLNT.            A2DTECH:   Client Code
 SL  . 1745' FNL & 612' FEL:   Surface Location
 PD  .                 GL:   Permanent Datum
 DD  .F              3330:   Depth driller
 DL  .F              3328:   Depth logger
 BLI .F              3326:   Bottom log interval
 CS1 .IN            8.625:   Casing size
 CBD1.      8.625" @ 526':   Casing driller 1
 CBL1.F               528:   Casing logger 1
 BS1 .IN            7.875:   Bit size
 DFT .            KCL-GEL:   Type fluid in hole
 DFD .                9.1:   Density
 DFV .                 43:   Viscosity
 DFPH.                  8:   pH
 DFL .                  8:   Fluid loss
 MSS .           FLOWLINE:   Source of sample
 RMS .OHMM          0.445:   Rm
 MST .F                72:   Rm Meas. temp.
 RMF .OHMM           0.36:   Rmf
 MFST.F                70:   Rmf Meas. temp.
 RMC .OHMM           0.55:   Rmc
 MCST.F                72:   Rmc Meas. temp.
 MFSS.               MEAS:   Source Rmf.
 RMB .OHMM          0.286:   Rm. at BHT
 BHT .F               116:   BHT.
 TCS .HRS               3:   Time Circ. stopped
 MRT .F               116:   Maximum recorded temp.
 LUN .               6274:   Logging unit number
 LUL .               GLTE:   Logging unit location
 ENGI.             RAUTIO:   Recorded By
 WITN.             STRONG:   Witnessed by
 ORIG.           5" PRINT:   Origin of data
 UWI .     49025110210000:   Unique Well ID
 DICO. A2D TECHNOLOGIES, INC.:   Digitizing Company
 DAPD.                 13:   Feet Above Permanent Datum
 BSD1.               3330:   Depth drilled with bit1
 MCSS.               CALC:   Source Rmc.
 EPD .               5112:   Elevation Permanent Datum
 LMF .                 KB:   Log Measured From
 DMF .                 KB:   Drilling Measured From
~OTHER INFORMATION
~A   DEPT     TENR       CALR        SPR         GRR      RFOC       RILD       RILM       NPHI       RHOB       TEND       CORR   
# ...
 1279.5000   -65.5530    10.6340   -62.8440    92.5100     8.2920     8.5050     9.5940  -999.2500  -999.2500  -999.2500  -999.2500
 1280.0000   -74.1940    10.6340   -62.7250    98.1510     8.3590     8.5480     9.3770  -999.2500  -999.2500  -999.2500  -999.2500
 1280.5000   -85.4940    10.6340   -62.6060   103.4440     8.2840     8.5930     9.1920  -999.2500  -999.2500  -999.2500  -999.2500
 1281.0000   -83.0180    10.6340   -62.4870   102.9120     8.0900     8.5930     9.0510  -999.2500  -999.2500  -999.2500  -999.2500
 1281.5000   -78.8300    10.6340   -62.3680   101.3040     7.8950     8.4910     8.9780  -999.2500  -999.2500  -999.2500  -999.2500
 1282.0000   -75.5230    10.6340   -62.2490    99.6670     7.7010     8.3200     8.9040  -999.2500  -999.2500  -999.2500  -999.2500
 1282.5000   -69.0430    10.6340   -62.1300    99.2490     7.6260     8.1500     8.8330  -999.2500  -999.2500  -999.2500  -999.2500
 1283.0000   -77.4180    10.6340   -62.0090    97.8270     7.6960     7.9840     8.9340  -999.2500  -999.2500  -999.2500  -999.2500
 1283.5000   -85.7930    10.6340   -61.8880    95.8380     7.8090     8.0530     9.0340  -999.2500  -999.2500  -999.2500  -999.2500
 1284.0000   -94.1670    10.6340   -62.0420    94.4710     7.9190     8.1370     9.1340  -999.2500  -999.2500  -999.2500  -999.2500
 1284.5000   -91.6020    10.6340   -62.2220    93.7100     8.0290     8.2200     9.2330  -999.2500  -999.2500  -999.2500  -999.2500
 1285.0000   -87.0340    10.6340   -62.4010    92.9950     8.1320     8.3040     9.1100  -999.2500  -999.2500  -999.2500  -999.2500
 1285.5000   -86.1600    10.6340   -62.5800    93.3760     8.1040     8.3870     8.9490  -999.2500  -999.2500  -999.2500  -999.2500
 1286.0000   -87.5960    10.6340   -62.7570    96.4040     8.0770     8.4710     8.7870  -999.2500  -999.2500  -999.2500  -999.2500
 1286.5000   -89.0310    10.6370   -62.7870    98.8810     8.0080     8.5140     8.6260  -999.2500  -999.2500  -999.2500  -999.2500
 1287.0000   -90.4670    10.6400   -62.5470    97.9030     7.8300     8.2120     8.4640  -999.2500  -999.2500  -999.2500  -999.2500
 1287.5000   -91.9030    10.6420   -62.3110    96.9430     7.6530     7.9760     8.3030  -999.2500  -999.2500  -999.2500  -999.2500
 1288.0000   -93.3390    10.6450   -62.0850    96.1170     7.4760     7.7410     8.1420  -999.2500  -999.2500  -999.2500  -999.2500
 1288.5000   -94.7740    10.6480   -62.0730    97.9280     7.2840     7.6260     7.9800  -999.2500  -999.2500  -999.2500  -999.2500
 1289.0000   -93.0890    10.6500   -62.2170    99.8240     7.2840     7.6960     7.8390  -999.2500  -999.2500  -999.2500  -999.2500
 1289.5000   -88.5210    10.6530   -62.3800   101.7840     7.3270     7.7140     7.8660  -999.2500  -999.2500  -999.2500  -999.2500
 1290.0000   -95.4640    10.6540   -62.4860   101.1450     7.4090     7.7320     7.9170  -999.2500  -999.2500  -999.2500  -999.2500
 1290.5000   -92.0880    10.6540   -62.8010    98.4950     7.4910     7.7510     7.9680  -999.2500  -999.2500  -999.2500  -999.2500
 1291.0000   -88.4990    10.6610   -63.1150    95.8310     7.5730     7.7670     8.0190  -999.2500  -999.2500  -999.2500  -999.2500
 1291.5000   -85.4940    10.6700   -63.4270    94.0160     7.6260     7.7070     8.0700  -999.2500  -999.2500  -999.2500  -999.2500
 1292.0000   -85.4940    10.6800   -63.7390    93.1050     7.5370     7.6440     8.1210  -999.2500  -999.2500  -999.2500  -999.2500
 1292.5000   -75.5230    10.6890   -64.0450    92.5480     7.4610     7.5820     8.1320  -999.2500  -999.2500  -999.2500  -999.2500
 1293.0000   -85.4940    10.6870   -64.1700    93.2820     7.3840     7.5190     8.1320  -999.2500  -999.2500  -999.2500  -999.2500
 1293.5000   -86.9110    10.6630   -63.8410    94.0850     7.3080     7.4560     7.9740  -999.2500  -999.2500  -999.2500  -999.2500
 1294.0000   -88.7050    10.6370   -63.5280    96.5670     7.2170     7.4190     7.7750  -999.2500  -999.2500  -999.2500  -999.2500
 1294.5000   -90.5000    10.6470   -63.2150    98.9630     7.3050     7.5710     7.6960  -999.2500  -999.2500  -999.2500  -999.2500
 1295.0000   -92.2950    10.6330   -62.9020    98.8760     7.4190     7.7670     7.7700  -999.2500  -999.2500  -999.2500  -999.2500
 1295.5000   -94.0890    10.6200   -62.5870    97.9470     7.3980     7.7220     7.8610  -999.2500  -999.2500  -999.2500  -999.2500
 1296.0000   -95.4640    10.6130   -62.2800    97.2240     7.3080     7.6160     7.9530  -999.2500  -999.2500  -999.2500  -999.2500
 1296.5000   -94.7690    10.6340   -62.4430    98.4170     7.2180     7.4870     8.0580  -999.2500  -999.2500  -999.2500  -999.2500
 1297.0000   -93.1910    10.6340   -62.6510    99.8110     7.1510     7.5290     8.0420  -999.2500  -999.2500  -999.2500  -999.2500
 1297.5000   -91.6130    10.6340   -62.8590    99.7970     7.1510     7.6210     8.0240  -999.2500  -999.2500  -999.2500  -999.2500
 1298.0000   -90.0350    10.6340   -63.0660    98.9520     7.3180     7.7140     8.0050  -999.2500  -999.2500  -999.2500  -999.2500
 1298.5000   -88.4570    10.6290   -63.2740    96.0500     7.4760     7.8070     7.9860  -999.2500  -999.2500  -999.2500  -999.2500
 1299.0000   -86.8790    10.6250   -63.4700    93.2180     7.6330     7.9000     8.1350  -999.2500  -999.2500  -999.2500  -999.2500
 1299.5000   -85.3010    10.6200   -63.0790    92.5050     7.7910     7.9840     8.3070  -999.2500  -999.2500  -999.2500  -999.2500
 1300.0000   -83.7230    10.6150   -62.5030    93.1320     7.9110     7.9950     8.3590  -999.2500  -999.2500  -999.2500  -999.2500
 1300.5000   -82.1450    10.6110   -62.6670    93.7590     7.8580     8.0070     8.3150  -999.2500  -999.2500  -999.2500  -999.2500
 1301.0000   -80.5670    10.6060   -62.8890    93.9140     7.7990     8.0190     8.2290  -999.2500  -999.2500  -999.2500  -999.2500
 1301.5000   -78.9890    10.6010   -63.1090    93.6450     7.7230     8.0310     8.1320  -999.2500  -999.2500  -999.2500  -999.2500
 1302.0000   -77.4110    10.5970   -63.3250    93.3760     7.6470     8.0430     8.2130  -999.2500  -999.2500  -999.2500  -999.2500
 1302.5000   -75.8330    10.5920   -63.4230    93.1040     7.5560     8.0580     8.4290  -999.2500  -999.2500  -999.2500  -999.2500
 1303.0000   -75.5230    10.5870   -63.2940    92.8320     7.6420     7.9840     8.6720  -999.2500  -999.2500  -999.2500  -999.2500
 1303.5000   -85.4940    10.5820   -63.1690    92.5600     7.7480     8.0100     8.6160  -999.2500  -999.2500  -999.2500  -999.2500
 1304.0000   -85.4940    10.5780   -63.0430    92.2920     7.8550     8.0350     8.5280  -999.2500  -999.2500  -999.2500  -999.2500
 1304.5000   -85.2550    10.5730   -62.9180    92.1190     7.9110     8.0580     8.4390  -999.2500  -999.2500  -999.2500  -999.2500
 1305.0000   -85.0300    10.5680   -62.7920    92.3510     7.9330     8.1320     8.3590  -999.2500  -999.2500  -999.2500  -999.2500
 1305.5000   -84.8050    10.5640   -62.6670    92.5740     7.9840     8.0400     8.3590  -999.2500  -999.2500  -999.2500  -999.2500
 1306.0000   -84.5800    10.5590   -62.5410    92.8210     7.6830     8.0150     8.3590  -999.2500  -999.2500  -999.2500  -999.2500
 1306.5000   -84.3550    10.5540   -62.4150    92.1910     7.4190     7.9900     8.3590  -999.2500  -999.2500  -999.2500  -999.2500
 1307.0000   -84.1300    10.5500   -62.2890    91.1450     7.5610     7.9110     8.3780  -999.2500  -999.2500  -999.2500  -999.2500
 1307.5000   -83.9050    10.5450   -62.1680    91.6140     7.7090     8.0310     8.4270  -999.2500  -999.2500  -999.2500  -999.2500
 1308.0000   -83.6800    10.5400   -62.1730    92.6650     7.8120     8.1540     8.4760  -999.2500  -999.2500  -999.2500  -999.2500
 1308.5000   -83.4550    10.5360   -62.5210    93.8520     7.8860     8.2760     8.5690  -999.2500  -999.2500  -999.2500  -999.2500
 1309.0000   -83.2300    10.5310   -62.8550    92.7480     7.9600     8.3990     8.8030  -999.2500  -999.2500  -999.2500  -999.2500
 1309.5000   -83.0050    10.5260   -63.1950    91.6940     8.0350     8.5210     9.0370  -999.2500  -999.2500  -999.2500  -999.2500
