~VERSION INFORMATION
 VERS.                2.0:   CWLS LOG ASCII STANDARD - VERSION 2.0
 WRAP.                 NO:   ONE LINE PER DEPTH STEP
~WELL INFORMATION
#MNEM.UNIT      DATA TYPE    INFORMATION
#----------   ------------   ------------------------------
 STRT.F            0.0000:   START DEPTH
 STOP.F         3083.0000:   STOP DEPTH
 STEP.F            0.5000:   STEP LENGTH
 NULL.          -999.2500:   NO VALUE
 COMP. LAWRENCE & ALLISON & ASSOCIATES:   COMPANY
 WELL. LAWRENCE 71 "AX" #3-29:   WELL
 FLD .              N P R:   FIELD
 LOC .      S29 T38N R78W:   LOCATION
 CNTY.            NATRONA:   COUNTY
 STAT.            WYOMING:   STATE
 CTRY. UNITED STATES OF AMERICA:   COUNTRY
 SRVC.      DRESSER ATLAS:   SERVICE COMPANY
 DATE.        12-MAR-1985:   LOGDATE
 API .     49025110160000:   API NUMBER
~CURVE INFORMATION
#MNEM.UNIT       API CODE    CURVE DESCRIPTION
#----------   ------------   ------------------------------
 DEPT.F                  :   
 GRR .GAPI   07 310 01 00:   GAMMA RAY FROM RESISTIVITY
 SPR .MV     07 010 01 00:   SPONTANEOUS POTENTIAL
 TENR.LBS    07 635 01 00:   TENSION FROM RESISTIVITY
 RFOC.OHMM   07 220 04 00:   RESISTIVITY FOCUSED LOG RES.
 RILD.OHMM   07 120 46 00:   DEEP INDUCTION RESISTIVITY
 RILM.OHMM   07 120 44 00:   INDUCTION LOG MEDIUM RESISTIVITY
 TEND.LBS    45 635 01 00:   TENSION FROM DENSITY LOG
 DEN .G/C3   45 350 01 00:   BULK DENSITY
 CORR.G/C3   45 356 01 00:   DENSITY CORRECTION
 CNC .DEC    42 890 01 00:   NEUTRON PORISITY LIMESTONE
 CALD.IN     45 280 60 00:   CALIPER FROM DENSITY LOG
~PARAMETER INFORMATION
#MNEM.UNIT          VALUE    DESCRIPTION
#----------   ------------   ------------------------------
 EKB .F         4983.0000:   Kelly bushing
 EGL .F         4971.0000:   Ground level
 TD  .F         3082.0000:   Total depth
 DATE.        12-MAR-1985:   Date logged
 CLNT.            A2DTECH:   Client Code
 SL  . 568' FNL AND 829' FEL:   Surface Location
 PD  .                 GL:   Permanent Datum
 EPD .F              4971:   Elevation Permanent Datum
 LMF .                 KB:   Log Measured From
 DMF .                 KB:   Drilling Measured From
 DD  .F              3080:   Depth driller
 DL  .F              3082:   Depth logger
 BLI .F              3080:   Bottom log interval
 TLI .F              2100:   Top log interval
 CS1 .IN            8.625:   Casing size
 CBD1.      8.625" @ 311':   Casing driller 1
 BS1 .IN            7.875:   Bit size
 DFT .            KCL GEL:   Type fluid in hole
 DFD .                9.1:   Density
 DFV .                 38:   Viscosity
 DFPH.                  8:   pH
 DFL .               10.4:   Fluid loss
 MSS .           FLOWLINE:   Source of sample
 RMS .OHMM            .47:   Rm
 MST .F                60:   Rm Meas. temp.
 RMF .OHMM            .35:   Rmf
 MFST.F                61:   Rmf Meas. temp.
 RMC .OHMM            .53:   Rmc
 MCST.F                61:   Rmc Meas. temp.
 MFSS.               CLAC:   Source Rmf.
 RMB .OHMM           .209:   Rm. at BHT
 BHT .F               134:   BHT.
 TCS .HRS               3:   Time Circ. stopped
 MRT .F               134:   Maximum recorded temp.
 LUN .               6234:   Logging unit number
 LUL .               CLTE:   Logging unit location
 ENGI.      MACK/ EDWARDS:   Recorded By
 WITN.             STRONG:   Witnessed by
 PWI .                  -:   Primary Well Identifier
 ORIG.           5" PRINT:   Origin of data
 UWI .     49025110160000:   Unique Well ID
 DICO. A2D TECHNOLOGIES, INC.:   Digitizing Company
 DAPD.F                12:   Feet Above Permanent Datum
 BSD1.F              3080:   Depth drilled with bit1
 MCSS.               CALC:   Source Rmc.
~OTHER INFORMATION
~A    DEPT      GRR       SPR       TENR       RFOC       RILD       RILM       TEND        DEN       CORR        CNC       CALD   
# ...
 2318.0000   103.2610   -49.8270   -19.7390     8.0770     6.9670     7.1430   -35.1450     2.4950    -0.0160     0.2950    10.2590
 2318.5000   103.0650   -49.8120   -21.0080     8.3960     6.8620     7.0590   -35.7520     2.4950    -0.0080     0.2920    10.2590
 2319.0000   106.1980   -49.7980   -22.2770     8.7220     6.7550     6.9750   -36.3590     2.4940    -0.0160     0.2860    10.2590
 2319.5000   109.3250   -49.7830   -23.5470     8.2400     6.6440     6.8920   -33.7350     2.4950    -0.0260     0.2870    10.2590
 2320.0000   112.3230   -49.7680   -24.8160     7.6590     6.5340     6.7910   -30.1820     2.4970    -0.0270     0.2900    10.2590
 2320.5000   111.1860   -49.7540   -26.0850     7.0780     6.4240     6.6730   -26.5640     2.4990    -0.0170     0.2900    10.2590
 2321.0000   109.8290   -49.7390   -27.2280     6.7880     6.3140     6.5550   -28.6880     2.5010    -0.0060     0.2860    10.2590
 2321.5000   109.7460   -49.7240   -25.6260     7.5720     6.2040     6.4370   -30.8510     2.5020    -0.0010     0.2820    10.2590
 2322.0000   112.2390   -49.7090   -24.1700     8.0720     6.0940     6.3200   -33.0150     2.4950    -0.0250     0.2850    10.2590
 2322.5000   114.7160   -49.6310   -22.7140     7.6880     5.9830     6.2020   -35.1780     2.4880    -0.0540     0.2910    10.2590
 2323.0000   113.6550   -49.5110   -21.2580     7.1400     5.8730     6.0840   -34.7250     2.4810    -0.0820     0.2910    10.2590
 2323.5000   111.7150   -49.3910   -19.8020     6.9130     5.7630     5.9660   -30.2020     2.4810    -0.0820     0.2840    10.2590
 2324.0000   111.2700   -49.2700   -18.3460     6.9760     5.7080     5.8480   -28.0240     2.4820    -0.0360     0.2820    10.2590
 2324.5000   110.8040   -49.1500   -19.9480     7.0400     5.7080     5.8130   -35.4870     2.4830     0.0000     0.2800    10.2590
 2325.0000   108.1170   -49.0290   -28.6840     6.5770     5.8490     5.8130   -42.9490     2.4840     0.0060     0.2750    10.2590
 2325.5000   105.3310   -48.9080   -37.4200     5.9740     5.9780     5.8130   -50.4120     2.4850    -0.0020     0.2680    10.2590
 2326.0000   102.5470   -48.7870   -47.0300     5.9740     6.1060     5.9950   -55.5110     2.4900    -0.0330     0.2600    10.2590
 2326.5000    99.8510   -48.5150   -45.2480     6.5820     6.2350     6.1610   -51.3650     2.4940    -0.0580     0.2600    10.2590
 2327.0000    99.0100   -48.3410   -43.2670     7.7120     6.3630     6.3270   -47.2190     2.4980    -0.0520     0.2640    10.2590
 2327.5000    98.5620   -48.3690   -41.2870     7.5160     6.4920     6.4930   -50.4470     2.5010    -0.0550     0.2690    10.2600
 2328.0000    97.9520   -48.3980   -39.3070     7.1240     6.6210     6.6590   -55.4220     2.5000    -0.0710     0.2620    10.2620
 2328.5000    96.6230   -48.4280   -37.1290     6.8500     6.7490     6.8240   -60.3970     2.4990    -0.0760     0.2520    10.2630
 2329.0000    95.2470   -48.4580   -43.4940     7.4610     6.8180     6.9900   -65.3720     2.5020    -0.0570     0.2470    10.2650
 2329.5000    96.3020   -48.4880   -47.5680     7.9310     6.8600     7.0610   -65.2710     2.5060    -0.0370     0.2520    10.2660
 2330.0000    98.8180   -48.5180   -48.6440     8.4480     6.9030     7.1050   -64.0270     2.5160    -0.0240     0.2560    10.2680
 2330.5000   100.4790   -48.5480   -49.7200     8.1450     6.9460     7.1690   -62.7830     2.5270    -0.0140     0.2610    10.2700
 2331.0000   101.4300   -48.5780   -50.7960     7.8070     6.9760     7.1600   -61.5390     2.5370     0.0020     0.2650    10.2710
 2331.5000   102.1180   -48.6080   -51.8730     7.3010     6.9690     7.1420   -60.2950     2.5450     0.0210     0.2700    10.2730
 2332.0000   102.8480   -48.6380   -52.9490     7.4990     6.9470     7.1240   -59.0520     2.5420     0.0150     0.2750    10.2740
 2332.5000   102.6020   -48.6680   -54.0250     7.8540     6.9240     7.1040   -57.8080     2.5390     0.0000     0.2810    10.2760
 2333.0000   102.0450   -48.6980   -55.1010     7.9260     6.9130     7.1040   -56.5640     2.5380    -0.0150     0.2880    10.2780
 2333.5000   101.5260   -48.6740   -56.1770     7.9990     6.9130     7.1040   -57.0080     2.5380    -0.0300     0.2850    10.2760
 2334.0000    99.8990   -48.5790   -54.8090     7.9480     6.9130     7.1040   -57.7910     2.5320    -0.0450     0.2770    10.2710
 2334.5000    98.2450   -48.4840   -47.7370     7.7920     6.9130     7.1040   -58.5750     2.5250    -0.0550     0.2640    10.2660
 2335.0000    98.6790   -48.3890   -40.6650     7.6000     6.9130     7.1050   -59.3580     2.5240    -0.0480     0.2640    10.2600
 2335.5000    98.7820   -48.2930   -37.1290     7.4080     6.9130     7.1040   -60.1420     2.5270    -0.0290     0.2660    10.2550
 2336.0000    97.8050   -48.1980   -40.0410     7.2350     6.9680     7.1570   -60.9250     2.5300    -0.0030     0.2690    10.2500
 2336.5000    95.7470   -48.1030   -45.8650     7.2350     7.0190     7.2330   -61.7090     2.5300    -0.0150     0.2730    10.2440
 2337.0000    94.1120   -48.0080   -51.6890     7.7600     7.0690     7.3010   -62.4920     2.5270    -0.0120     0.2760    10.2390
 2337.5000    94.1300   -47.9130   -56.9310     8.1590     7.1580     7.5180   -63.2760     2.5250    -0.0020     0.2680    10.2410
 2338.0000    94.6480   -47.8200   -50.8800     8.4480     7.3370     7.7580   -64.0590     2.5180     0.0030     0.2520    10.2430
 2338.5000    94.8140   -47.7290   -45.3800     8.4480     7.5150     7.9260   -64.8430     2.5070    -0.0050     0.2340    10.2450
 2339.0000    93.7020   -47.9720   -39.8790     8.4810     7.7120     7.9260   -65.6260     2.4990    -0.0170     0.2340    10.2470
 2339.5000    93.5680   -48.0760   -39.3790     8.5460     7.5400     7.8190   -66.4100     2.5020    -0.0280     0.2470    10.2480
 2340.0000    95.6600   -48.1920   -43.8790     8.6040     7.3680     7.6410   -67.1930     2.5070    -0.0390     0.2640    10.2500
 2340.5000    97.7040   -48.3120   -48.3800     8.6040     7.3170     7.4990   -67.9770     2.5110    -0.0390     0.2800    10.2520
 2341.0000    99.7510   -48.4310   -52.8800     8.6040     7.1460     7.3570   -68.7600     2.5070    -0.0390     0.2760    10.2540
 2341.5000   101.8010   -48.5490   -56.9310     8.0980     6.9760     7.2150   -69.5440     2.5020    -0.0320     0.2680    10.2560
 2342.0000   103.8120   -48.6680   -56.9310     7.5370     6.7880     7.0730   -70.3270     2.4970    -0.0240     0.2630    10.2580
 2342.5000   105.1220   -48.7870   -56.9310     7.3020     6.6860     6.9310   -71.1100     2.4920    -0.0210     0.2640    10.2590
 2343.0000   104.6030   -48.9060   -56.9310     7.2350     6.5730     6.7890   -71.8940     2.4870    -0.0260     0.2630    10.2590
 2343.5000   103.0570   -49.0230   -56.9310     7.4040     6.4600     6.6470   -72.6770     2.4860    -0.0350     0.2560    10.2590
 2344.0000   101.5270   -49.0800   -56.9310     7.5730     6.4260     6.4850   -73.4610     2.4880    -0.0440     0.2490    10.2590
 2344.5000    99.9970   -48.9420   -56.9310     7.5190     6.4260     6.5130   -74.2440     2.4900    -0.0530     0.2470    10.2580
 2345.0000    99.4470   -48.8100   -56.9310     7.4130     6.4260     6.5370   -75.0280     2.4920    -0.0590     0.2510    10.2400
 2345.5000    98.1080   -48.6960   -56.9310     7.3060     6.4260     6.5620   -75.8110     2.4930    -0.0520     0.2550    10.2220
 2346.0000    97.0490   -48.6310   -56.9310     7.2000     6.5450     6.5870   -75.4150     2.4860    -0.0330     0.2590    10.2040
 2346.5000    97.2300   -48.5650   -56.9310     7.0930     6.6780     6.6050   -73.7570     2.4790    -0.0270     0.2780    10.1870
 2347.0000    97.4090   -48.4990   -56.9310     6.9760     6.8500     6.3920   -72.0990     2.4720    -0.0490     0.2890    10.1690
 2347.5000    96.4480   -48.4330   -56.9310     7.1630     6.6140     6.3020   -70.4400     2.4780    -0.0590     0.2850    10.1510
 2348.0000    95.1330   -48.3670   -56.9310     7.3710     6.3100     6.2860   -68.7820     2.4870    -0.0550     0.2720    10.1340
