~VERSION INFORMATION
 VERS.                2.0:   CWLS LOG ASCII STANDARD - VERSION 2.0
 WRAP.                 NO:   ONE LINE PER DEPTH STEP
~WELL INFORMATION
#MNEM.UNIT      DATA TYPE    INFORMATION
#----------   ------------   ------------------------------
 STRT.F            0.0000:   START DEPTH
 STOP.F         3083.0000:   STOP DEPTH
 STEP.F            0.5000:   STEP LENGTH
 NULL.          -999.2500:   NO VALUE
 COMP. LAWRENCE & ALLISON & ASSOCIATES:   COMPANY
 WELL. LAWRENCE 71 "AX" #3-29:   WELL
 FLD .              N P R:   FIELD
 LOC .      S29 T38N R78W:   LOCATION
 CNTY.            NATRONA:   COUNTY
 STAT.            WYOMING:   STATE
 CTRY. UNITED STATES OF AMERICA:   COUNTRY
 SRVC.      DRESSER ATLAS:   SERVICE COMPANY
 DATE.        12-MAR-1985:   LOGDATE
 API .     49025110160000:   API NUMBER
~CURVE INFORMATION
#MNEM.UNIT       API CODE    CURVE DESCRIPTION
#----------   ------------   ------------------------------
 DEPT.F                  :   
 GRR .GAPI   07 310 01 00:   GAMMA RAY FROM RESISTIVITY
 SPR .MV     07 010 01 00:   SPONTANEOUS POTENTIAL
 TENR.LBS    07 635 01 00:   TENSION FROM RESISTIVITY
 RFOC.OHMM   07 220 04 00:   RESISTIVITY FOCUSED LOG RES.
 RILD.OHMM   07 120 46 00:   DEEP INDUCTION RESISTIVITY
 RILM.OHMM   07 120 44 00:   INDUCTION LOG MEDIUM RESISTIVITY
 TEND.LBS    45 635 01 00:   TENSION FROM DENSITY LOG
 DEN .G/C3   45 350 01 00:   BULK DENSITY
 CORR.G/C3   45 356 01 00:   DENSITY CORRECTION
 CNC .DEC    42 890 01 00:   NEUTRON PORISITY LIMESTONE
 CALD.IN     45 280 60 00:   CALIPER FROM DENSITY LOG
~PARAMETER INFORMATION
#MNEM.UNIT          VALUE    DESCRIPTION
#----------   ------------   ------------------------------
 EKB .F         4983.0000:   Kelly bushing
 EGL .F         4971.0000:   Ground level
 TD  .F         3082.0000:   Total depth
 DATE.        12-MAR-1985:   Date logged
 CLNT.            A2DTECH:   Client Code
 SL  . 568' FNL AND 829' FEL:   Surface Location
 PD  .                 GL:   Permanent Datum
 EPD .F              4971:   Elevation Permanent Datum
 LMF .                 KB:   Log Measured From
 DMF .                 KB:   Drilling Measured From
 DD  .F              3080:   Depth driller
 DL  .F              3082:   Depth logger
 BLI .F              3080:   Bottom log interval
 TLI .F              2100:   Top log interval
 CS1 .IN            8.625:   Casing size
 CBD1.      8.625" @ 311':   Casing driller 1
 BS1 .IN            7.875:   Bit size
 DFT .            KCL GEL:   Type fluid in hole
 DFD .                9.1:   Density
 DFV .                 38:   Viscosity
 DFPH.                  8:   pH
 DFL .               10.4:   Fluid loss
 MSS .           FLOWLINE:   Source of sample
 RMS .OHMM            .47:   Rm
 MST .F                60:   Rm Meas. temp.
 RMF .OHMM            .35:   Rmf
 MFST.F                61:   Rmf Meas. temp.
 RMC .OHMM            .53:   Rmc
 MCST.F                61:   Rmc Meas. temp.
 MFSS.               CLAC:   Source Rmf.
 RMB .OHMM           .209:   Rm. at BHT
 BHT .F               134:   BHT.
 TCS .HRS               3:   Time Circ. stopped
 MRT .F               134:   Maximum recorded temp.
 LUN .               6234:   Logging unit number
 LUL .               CLTE:   Logging unit location
 ENGI.      MACK/ EDWARDS:   Recorded By
 WITN.             STRONG:   Witnessed by
 PWI .                  -:   Primary Well Identifier
 ORIG.           5" PRINT:   Origin of data
 UWI .     49025110160000:   Unique Well ID
 DICO. A2D TECHNOLOGIES, INC.:   Digitizing Company
 DAPD.F                12:   Feet Above Permanent Datum
 BSD1.F              3080:   Depth drilled with bit1
 MCSS.               CALC:   Source Rmc.
~OTHER INFORMATION
~A    DEPT      GRR       SPR       TENR       RFOC       RILD       RILM       TEND        DEN       CORR        CNC       CALD   
# ...
 1433.5000    95.9580   -50.4530   -66.8320     7.2350     6.1550     6.2850  -999.2500  -999.2500  -999.2500  -999.2500  -999.2500
 1434.0000    96.8100   -50.4290   -66.8320     7.2350     6.2200     6.3070  -999.2500  -999.2500  -999.2500  -999.2500  -999.2500
 1434.5000    97.6570   -50.4060   -66.8320     7.1860     6.2840     6.3290  -999.2500  -999.2500  -999.2500  -999.2500  -999.2500
 1435.0000    97.7000   -50.3820   -66.8320     7.1040     6.3490     6.3500  -999.2500  -999.2500  -999.2500  -999.2500  -999.2500
 1435.5000    96.1650   -50.3590   -66.8320     7.3100     6.3680     6.3720  -999.2500  -999.2500  -999.2500  -999.2500  -999.2500
 1436.0000    94.6510   -50.3350   -66.8320     7.9260     6.3680     6.3940  -999.2500  -999.2500  -999.2500  -999.2500  -999.2500
 1436.5000    93.1250   -50.3110   -66.8320     7.8580     6.3680     6.4260  -999.2500  -999.2500  -999.2500  -999.2500  -999.2500
 1437.0000    92.2250   -50.2650   -66.8320     7.7230     6.3680     6.4070  -999.2500  -999.2500  -999.2500  -999.2500  -999.2500
 1437.5000    93.4100   -50.1750   -66.8320     7.5880     6.3100     6.3690  -999.2500  -999.2500  -999.2500  -999.2500  -999.2500
 1438.0000    94.8790   -50.0650   -66.8320     7.4530     6.2430     6.3300  -999.2500  -999.2500  -999.2500  -999.2500  -999.2500
 1438.5000    96.3620   -49.8560   -66.8320     7.3180     6.1820     6.2920  -999.2500  -999.2500  -999.2500  -999.2500  -999.2500
 1439.0000    97.0670   -49.6470   -66.8320     7.1690     6.1210     6.2540  -999.2500  -999.2500  -999.2500  -999.2500  -999.2500
 1439.5000    97.1420   -49.5310   -66.8320     7.1690     6.0590     6.1960  -999.2500  -999.2500  -999.2500  -999.2500  -999.2500
 1440.0000    97.2150   -49.6270   -66.8320     7.2350     6.0290     6.2200  -999.2500  -999.2500  -999.2500  -999.2500  -999.2500
 1440.5000    97.2870   -49.7160   -66.8320     7.3090     6.1170     6.2680  -999.2500  -999.2500  -999.2500  -999.2500  -999.2500
 1441.0000    97.3560   -49.8070   -66.8320     7.3760     6.1850     6.3170  -999.2500  -999.2500  -999.2500  -999.2500  -999.2500
 1441.5000    97.4070   -49.8980   -66.8320     7.4430     6.2530     6.3650  -999.2500  -999.2500  -999.2500  -999.2500  -999.2500
 1442.0000    98.1590   -49.9910   -66.8320     7.5040     6.3200     6.4130  -999.2500  -999.2500  -999.2500  -999.2500  -999.2500
 1442.5000    99.1830   -50.1540   -66.8320     7.3680     6.3680     6.4610  -999.2500  -999.2500  -999.2500  -999.2500  -999.2500
 1443.0000    98.6790   -50.3190   -66.8320     7.4440     6.3680     6.4850  -999.2500  -999.2500  -999.2500  -999.2500  -999.2500
 1443.5000    97.6910   -50.4860   -66.8320     7.5960     6.3680     6.4850  -999.2500  -999.2500  -999.2500  -999.2500  -999.2500
 1444.0000    96.4480   -50.4270   -66.8320     7.7480     6.3190     6.4590  -999.2500  -999.2500  -999.2500  -999.2500  -999.2500
 1444.5000    94.4290   -50.3520   -66.8320     7.8540     6.2640     6.4220  -999.2500  -999.2500  -999.2500  -999.2500  -999.2500
 1445.0000    93.4470   -50.2780   -66.8320     7.6120     6.2090     6.3850  -999.2500  -999.2500  -999.2500  -999.2500  -999.2500
 1445.5000    96.6100   -50.2040   -66.8320     7.4260     6.1550     6.3480  -999.2500  -999.2500  -999.2500  -999.2500  -999.2500
 1446.0000    99.7810   -50.1300   -66.8320     7.2400     6.1000     6.3110  -999.2500  -999.2500  -999.2500  -999.2500  -999.2500
 1446.5000   102.9480   -50.0560   -66.8320     7.0540     6.0450     6.2740  -999.2500  -999.2500  -999.2500  -999.2500  -999.2500
 1447.0000   105.0930   -49.9810   -66.8320     6.8500     6.0290     6.2370  -999.2500  -999.2500  -999.2500  -999.2500  -999.2500
 1447.5000   101.9100   -49.9040   -66.8320     6.9330     6.0470     6.1960  -999.2500  -999.2500  -999.2500  -999.2500  -999.2500
 1448.0000    97.6610   -49.9000   -66.8320     7.0520     6.0620     6.2150  -999.2500  -999.2500  -999.2500  -999.2500  -999.2500
 1448.5000    93.2580   -49.9010   -66.8320     7.1710     6.0760     6.2360  -999.2500  -999.2500  -999.2500  -999.2500  -999.2500
 1449.0000    91.1970   -49.9120   -66.8320     7.3010     6.0900     6.2570  -999.2500  -999.2500  -999.2500  -999.2500  -999.2500
 1449.5000    91.6730   -50.0100   -66.8320     7.2830     6.1040     6.2780  -999.2500  -999.2500  -999.2500  -999.2500  -999.2500
 1450.0000    94.7420   -50.1090   -66.8320     7.2630     6.1190     6.2990  -999.2500  -999.2500  -999.2500  -999.2500  -999.2500
 1450.5000    99.5530   -50.2080   -66.8320     7.2430     6.1330     6.3200  -999.2500  -999.2500  -999.2500  -999.2500  -999.2500
 1451.0000   102.8320   -50.2920   -66.8320     7.2230     6.1650     6.3410  -999.2500  -999.2500  -999.2500  -999.2500  -999.2500
 1451.5000   101.2100   -50.2230   -66.8320     7.2030     6.2140     6.3620  -999.2500  -999.2500  -999.2500  -999.2500  -999.2500
 1452.0000    99.6760   -50.1530   -66.8320     7.1830     6.2630     6.4040  -999.2500  -999.2500  -999.2500  -999.2500  -999.2500
 1452.5000    96.7140   -50.0850   -66.8320     7.1690     6.3130     6.4550  -999.2500  -999.2500  -999.2500  -999.2500  -999.2500
 1453.0000    93.8910   -50.0170   -66.8320     7.2350     6.3620     6.5060  -999.2500  -999.2500  -999.2500  -999.2500  -999.2500
 1453.5000    92.0820   -49.9490   -66.8320     7.3010     6.4110     6.5570  -999.2500  -999.2500  -999.2500  -999.2500  -999.2500
 1454.0000    93.5000   -49.9000   -66.8320     7.5180     6.4610     6.6090  -999.2500  -999.2500  -999.2500  -999.2500  -999.2500
 1454.5000    96.5760   -49.9010   -66.8320     7.7160     6.5100     6.6650  -999.2500  -999.2500  -999.2500  -999.2500  -999.2500
 1455.0000    99.0700   -49.9010   -66.8320     7.8540     6.5450     6.6650  -999.2500  -999.2500  -999.2500  -999.2500  -999.2500
 1455.5000    97.1760   -49.9010   -66.8320     7.7680     6.5110     6.6650  -999.2500  -999.2500  -999.2500  -999.2500  -999.2500
 1456.0000    93.3220   -49.9010   -66.8320     7.6730     6.4850     6.6650  -999.2500  -999.2500  -999.2500  -999.2500  -999.2500
 1456.5000    92.8750   -49.9010   -66.8320     7.5780     6.4850     6.6500  -999.2500  -999.2500  -999.2500  -999.2500  -999.2500
 1457.0000    95.3670   -49.9010   -66.8320     7.4360     6.4850     6.6330  -999.2500  -999.2500  -999.2500  -999.2500  -999.2500
 1457.5000    99.4180   -49.9010   -66.8320     7.4620     6.4690     6.6160  -999.2500  -999.2500  -999.2500  -999.2500  -999.2500
 1458.0000   102.9240   -49.9010   -66.8320     7.5130     6.4450     6.6050  -999.2500  -999.2500  -999.2500  -999.2500  -999.2500
 1458.5000   102.5700   -49.9010   -66.8320     7.5650     6.4220     6.5770  -999.2500  -999.2500  -999.2500  -999.2500  -999.2500
 1459.0000   100.9750   -49.9010   -66.8320     7.6420     6.3980     6.5460  -999.2500  -999.2500  -999.2500  -999.2500  -999.2500
 1459.5000   100.4380   -49.9010   -66.8320     7.5970     6.3750     6.5160  -999.2500  -999.2500  -999.2500  -999.2500  -999.2500
 1460.0000   100.8960   -49.9010   -66.8320     7.5080     6.3680     6.4850  -999.2500  -999.2500  -999.2500  -999.2500  -999.2500
 1460.5000   101.3410   -49.9010   -66.8320     7.4180     6.3420     6.4540  -999.2500  -999.2500  -999.2500  -999.2500  -999.2500
 1461.0000   101.9350   -49.9010   -66.8320     7.3280     6.3180     6.4240  -999.2500  -999.2500  -999.2500  -999.2500  -999.2500
 1461.5000   104.8350   -49.9010   -66.8320     7.2870     6.2940     6.3930  -999.2500  -999.2500  -999.2500  -999.2500  -999.2500
 1462.0000   103.8670   -49.9010   -66.8320     7.2660     6.2700     6.3620  -999.2500  -999.2500  -999.2500  -999.2500  -999.2500
 1462.5000   103.0010   -49.9010   -66.8320     7.2350     6.2530     6.3320  -999.2500  -999.2500  -999.2500  -999.2500  -999.2500
 1463.0000   103.5570   -49.9010   -66.8320     7.2500     6.2940     6.3100  -999.2500  -999.2500  -999.2500  -999.2500  -999.2500
 1463.5000   104.1140   -49.9010   -66.8320     7.2790     6.3260     6.3540  -999.2500  -999.2500  -999.2500  -999.2500  -999.2500
