~VERSION INFORMATION
 VERS.                2.0:   CWLS LOG ASCII STANDARD - VERSION 2.0
 WRAP.                 NO:   ONE LINE PER DEPTH STEP
~WELL INFORMATION
#MNEM.UNIT      DATA TYPE    INFORMATION
#----------   ------------   ------------------------------
 STRT.F          200.0000:   START DEPTH
 STOP.F         3150.0000:   STOP DEPTH
 STEP.F            0.5000:   STEP LENGTH
 NULL.          -999.2500:   NO VALUE
 COMP.  FENIX AND SCISSON:   COMPANY
 WELL.  FENIX "AX" #88-10:   WELL
 FLD .              NPR 3:   FIELD
 LOC .      S10 T38N R78W:   LOCATION
 CNTY.            NATRONA:   COUNTY
 STAT.            WYOMING:   STATE
 CTRY. UNITED STATES OF AMERICA:   COUNTRY
 SRVC.              WELEX:   SERVICE COMPANY
 DATE.        13-JUN-1977:   LOGDATE
 API .     49025103780000:   API NUMBER
~CURVE INFORMATION
#MNEM.UNIT       API CODE    CURVE DESCRIPTION
#----------   ------------   ------------------------------
 DEPT.F                  :   
 CALD.IN     45 280 60 00:   CALIPER FROM DENSITY LOG
 GRD .GAPI   45 310 01 00:   GAMMA RAY FROM DENSITY LOG
 RHOB.G/C3   45 350 01 00:   BULK DENSITY
 CORR.G/C3   45 356 01 00:   DENSITY CORRECTION
 SPR .MV     07 010 01 00:   SPONTANEOUS POTENTIAL
 GURD.OHMM   07 220 05 00:   GUARD LOG RESISTIVITY
 ILD .OHMM   07 120 46 00:   INDUCTION LOG DEEP RESISTIVITY
 ILM .OHMM   07 120 44 00:   INDUCTION LOG MEDIUM RESISTIVITY
~PARAMETER INFORMATION
#MNEM.UNIT          VALUE    DESCRIPTION
#----------   ------------   ------------------------------
 EKB .F         5264.0000:   Kelly bushing
 EGL .F         5254.0000:   Ground level
 EDF .F            0.0000:   Drilling floor
 TD  .F         3160.0000:   Total depth
 DATE.        13-JUN-1977:   Date logged
 CLNT.            A2DTECH:   Client Code
 SL  . 430' FSL & 330' FEL:   Surface Location
 PD  .                 GL:   Permanent Datum
 EPD .F              5254:   Elevation Permanent Datum
 LMF .                 KB:   Log Measured From
 DMF .                 KB:   Drilling Measured From
 DAPD.F                10:   Feet Above Permanent Datum
 DD  .F              3160:   Depth driller
 DL  .F              3151:   Depth logger
 BLI .F              3149:   Bottom log interval
 CS1 .IN            8.625:   Casing size
 CBD1.      8.625" @ 208':   Casing driller 1
 BS1 .IN            7.875:   Bit size
 BSD1.F              3160:   Depth drilled with bit1
 DFT .            KCL MUD:   Type fluid in hole
 DFD .                9.1:   Density
 DFV .                 31:   Viscosity
 DFPH.                7.5:   pH
 DFL .                 20:   Fluid loss
 MSS .           FLOWLINE:   Source of sample
 RMS .OHMM            .90:   Rm
 MST .F                60:   Rm Meas. temp.
 RMF .OHMM            .53:   Rmf
 MFST.F                60:   Rmf Meas. temp.
 RMC .OHMM           1.47:   Rmc
 MCST.F                60:   Rmc Meas. temp.
 MFSS.               MEAS:   Source Rmf.
 MCSS.               MEAS:   Source Rmc.
 RMB .OHMM            .46:   Rm. at BHT
 BHT .F               116:   BHT.
 TCS .HRS               8:   Time Circ. stopped
 MRT .F               116:   Maximum recorded temp.
 LUN .               8611:   Logging unit number
 LUL .             CASPER:   Logging unit location
 ENGI.            C. DOAK:   Recorded By
 WITN.         D. RHOADES:   Witnessed by
 ORIG.           5" PRINT:   Origin of data
 UWI .     49025103780000:   Unique Well ID
 DICO. A2D TECHNOLOGIES, INC.:   Digitizing Company
~OTHER INFORMATION
~A   DEPT       CALD       GRD      RHOB       CORR        SPR       GURD        ILD        ILM   
# ...
 2913.5000    10.0105   130.8162     2.5199     0.0019   -57.4542     7.7772     5.0967     6.0693
 2914.0000    10.0081   132.0016     2.5139     0.0059   -57.4511     7.9222     5.0506     6.0143
 2914.5000    10.0057   130.8149     2.5059     0.0139   -57.4479     7.9958     4.8690     5.9598
 2915.0000    10.0034   130.4188     2.5049     0.0199   -57.4448     7.7084     4.8690     5.9058
 2915.5000    10.0010   131.2089     2.5059     0.0238   -57.4417     7.3635     4.8695     5.7986
 2916.0000     9.9986   131.6036     2.5109     0.0338   -56.8437     7.0339     4.8255     5.7463
 2916.5000     9.9963   133.1844     2.5109     0.0457   -57.2372     6.9703     4.8257     5.7467
 2917.0000     9.9939   130.4160     2.4949     0.0557   -57.4323     7.4335     4.8261     5.7474
 2917.5000     9.9915   127.6476     2.4860     0.0617   -57.6275     7.9274     4.8267     5.7478
 2918.0000     9.9902   123.2975     2.4760     0.0697   -57.6244     8.0011     4.8270     5.8015
 2918.5000     9.9901   122.9014     2.4232     0.0617   -58.0172     7.5732     4.8275     5.8554
 2919.0000     9.9703   122.5052     2.4063     0.0477   -58.2123     7.8570     4.8280     5.9647
 2919.5000     9.9731   122.8999     2.3863     0.0398   -58.6057     7.6444     4.9180     6.1321
 2920.0000     9.9760   122.8991     2.4172     0.0178   -58.4037     7.6451     4.9640     6.2464
 2920.5000     9.9788   124.8754     2.4750     0.0178   -58.7977     8.0787     5.0102     6.3047
 2921.0000     9.9817   122.5022     2.4979     0.0278   -59.5882     8.5368     5.0570     6.3050
 2921.5000     9.9845   121.3151     2.4979     0.0397   -59.9816     9.0208     5.1042     6.3057
 2922.0000     9.9873   122.5006     2.4969     0.0477   -60.5732     8.4602     5.1995     6.3064
 2922.5000     9.9902   120.5227     2.4899     0.0477   -60.5694     8.2312     5.2479     6.1922
 2923.0000     9.9930   121.3128     2.4680     0.0477   -60.5668     8.1566     5.2483     6.1360
 2923.5000     9.9958   122.1029     2.4590     0.0198   -60.5630     8.1576     5.2972     6.3082
 2924.0000     9.9987   122.8930     2.4580     0.0019   -59.5686     8.5413     5.3467     6.9162
 2924.5000    10.0015   122.8922     2.4690    -0.0061   -59.5655     8.7805     5.3967     6.9168
 2925.0000    10.0043   125.6596     2.4859    -0.0061   -59.5623     8.3110     5.3971     6.5461
 2925.5000    10.0072   123.2861     2.4959    -0.0081   -60.1538     8.2358     5.3975     6.3688
 2926.0000    10.0100   125.2627     2.4979    -0.0141   -60.7459     8.2366     5.3982     6.3693
 2926.5000    10.0128   125.6574     2.4969    -0.0101   -61.1386     8.6241     5.3985     6.8560
 2927.0000    10.0157   126.0521     2.4979    -0.0161   -61.3336     9.1972     5.3990     6.9838
 2927.5000    10.0185   126.8423     2.4989    -0.0260   -61.3304     9.8083     5.3502     7.0490
 2928.0000    10.0213   128.4235     2.4969    -0.0201   -61.1296     8.0897     5.3506     6.7950
 2928.5000    10.0242   129.2137     2.4899    -0.0161   -60.7294     7.9430     5.3021     6.2563
 2929.0000    10.0284   130.0040     2.4919    -0.0141   -60.1316     7.7284     5.2539     6.3147
 2929.5000    10.0363   130.3988     2.4989    -0.0121   -58.9393     7.6584     5.1590     6.3149
 2930.0000    10.0442   129.2116     2.5038    -0.0061   -57.9452     7.6591     5.1593     6.2008
 2930.5000    10.0522   129.6064     2.5088    -0.0041   -57.3488     7.8736     5.0195     6.0884
 2931.0000    10.0601   129.6057     2.5218    -0.0041   -57.3444     8.3968     4.9738     5.9780
 2931.5000    10.0680   129.2095     2.5258    -0.0041   -57.7377     6.9257     4.9744     5.9238
 2932.0000    10.0759   128.0223     2.5287    -0.0041   -57.9327     4.7981     4.9293     5.9243
 2932.5000    10.0838   121.6935     2.5208    -0.0021   -58.3265     8.6340     4.9298     6.0349
 2933.0000    10.0918   118.5284     2.5238    -0.0002   -58.5222     8.7138     4.9303     6.0354
 2933.5000    10.0997   117.3411     2.5247     0.0018   -58.7160     8.7951     5.0222     6.0359
 2934.0000    10.1076   116.5492     2.5277    -0.0002   -58.7135     8.5570     5.1158     6.0363
 2934.5000    10.1155   117.7350     2.5287    -0.0002   -58.7097     7.9522     5.2593     6.1490
 2935.0000    10.1235   120.5028     2.5367     0.0018   -58.7065     7.9526     5.3086     6.4982
 2935.5000    10.1314   121.2931     2.5347     0.0038   -58.7047     8.1756     5.5590     6.8675
 2936.0000    10.1393   119.3147     2.5257     0.0058   -58.7009     8.5601     5.6106     7.1252
 2936.5000    10.1462   118.1272     2.5267     0.0058   -58.2996     8.5614     5.7152     7.1260
 2937.0000    10.1461   118.5220     2.5257     0.0038   -58.2977     8.2531     5.7685     7.1266
 2937.5000    10.1461   119.3123     2.5197     0.0038   -57.8983     8.2539     5.8760     6.9974
 2938.0000    10.1460   120.4981     2.5138     0.0038   -57.8952     8.2543     5.8766     6.9339
 2938.5000    10.1658   121.2884     2.5128     0.0038   -57.2977     8.3316     5.8772     6.9344
 2939.0000    10.1657   121.6832     2.5048     0.0058   -57.0965     8.3322     5.8776     6.9353
 2939.5000    10.1656   120.8913     2.4998     0.0058   -57.0934     8.5658     5.8782     6.9357
 2940.0000    10.1656   121.2861     2.4819     0.0058   -57.0903     8.7251     5.7717     6.9364
 2940.5000    10.1457   122.4720     2.4540     0.0078   -56.2947     8.7259     5.5639     6.9372
 2941.0000    10.1655   125.6360     2.4271     0.0118   -56.2916     7.9616     5.3635     6.8742
 2941.5000    10.1654   127.2176     2.3842     0.0177   -55.6942     7.6752     5.0762     6.1570
 2942.0000    10.1653   128.0080     2.3364     0.0237   -55.6912     7.1984     4.7167     5.5145
 2942.5000    10.0861   128.4029     2.2915     0.0317   -55.6881     7.0036     4.4231     5.2673
 2943.0000    10.0861   129.5890     2.2218     0.0337   -55.0907     7.0042     3.8894     4.8051
 2943.5000    10.0861   131.1706     2.1969     0.0337   -55.0877     6.2744     3.5809     4.1865
 2944.0000    10.0860   133.5435     1.9996     0.0237   -55.0846     3.1241     3.5484     4.0730
 2944.5000    10.1453   133.9385     1.9821    -0.0142   -55.0815     3.0958     3.4842     3.9991
 2945.0000    10.2244   131.5642     1.9581    -0.0316   -55.0785     2.9804     3.4844     3.9630
 2945.5000    11.4309   123.2556     1.9542    -0.0999   -55.2735     3.6862     3.5171     4.0000
 2946.0000    12.6770   120.0900     2.4270    -0.0959   -55.2704     6.3936     3.6827     4.4260
 2946.5000    12.5781   111.7811     2.4480    -0.0142   -55.2673     7.5426     3.8563     4.8082
 2947.0000    10.2439   111.3846     2.5227    -0.0062   -55.4623     7.8252     4.0380     5.2716
 2947.5000    10.1054   112.1750     2.5297    -0.0022   -55.8553     8.1187     4.3465     5.5201
 2948.0000    10.0657   113.3610     2.5356     0.0018   -55.8522     7.6141     4.7655     5.8875
 2948.5000    10.0657   115.3383     2.5436     0.0038   -55.8492     8.3469     5.0827     6.2219
 2949.0000    10.0458   116.5246     2.5446     0.0137   -55.8461     8.8200     5.5216     6.4555
 2949.5000    10.0458   117.7105     2.5506     0.0197   -55.8430     8.8210     5.5731     6.8222
 2950.0000    10.0121   118.5010     2.5635     0.0237   -55.8399     8.4261     5.5225     7.0136
 2950.5000    10.0061   119.2915     2.5655     0.0257   -55.8365     8.1983     5.4289     6.5427
 2951.0000     9.9977   120.0820     2.5625     0.0237   -55.8408     7.8997     5.4202     6.2217
 2951.5000     9.9892   121.6638     2.5526     0.0177   -55.8414     7.6832     5.4196     6.0511
 2952.0000     9.9807   122.4543     2.5386     0.0157   -55.8421     7.4732     5.4182     5.9946
 2952.5000     9.9723   122.0579     2.5276     0.0117   -55.8427     7.3359     5.4174     6.0493
 2953.0000     9.9638   121.2658     2.5217     0.0097   -55.8433     7.3345     5.3175     6.2168
 2953.5000     9.9553   122.0564     2.5187     0.0097   -55.8440     7.4693     5.4154     6.2731
