~VERSION INFORMATION
 VERS.                2.0:   CWLS LOG ASCII STANDARD - VERSION 2.0
 WRAP.                 NO:   ONE LINE PER DEPTH STEP
~WELL INFORMATION
#MNEM.UNIT      DATA TYPE    INFORMATION
#----------   ------------   ------------------------------
 STRT.F          200.0000:   START DEPTH
 STOP.F         3060.0000:   STOP DEPTH
 STEP.F            0.5000:   STEP LENGTH
 NULL.          -999.2500:   NO VALUE
 COMP.    FENIX & SCISSON:   COMPANY
 WELL. FENIX NPR 3 "AX" #58-21:   WELL
 FLD .      NPR - WILDCAT:   FIELD
 LOC .      S21 T39N R78W:   LOCATION
 CNTY.            NATRONA:   COUNTY
 STAT.            WYOMING:   STATE
 CTRY. UNITED STATES OF AMERICA:   COUNTRY
 SRVC.              WELEX:   SERVICE COMPANY
 DATE.        12-JUN-1977:   LOGDATE
 API .     49025103790000:   API NUMBER
~CURVE INFORMATION
#MNEM.UNIT       API CODE    CURVE DESCRIPTION
#----------   ------------   ------------------------------
 DEPT.F                  :   
 CALD.IN     45 280 60 00:   CALIPER FROM DENSITY LOG
 GRD .GAPI   45 310 01 00:   GAMMA RAY FROM DENSITY LOG
 CORR.G/C3   45 356 01 00:   DENSITY CORRECTION
 RHOB.G/C3   45 350 01 00:   BULK DENSITY
 SPR .MV     07 010 01 00:   SPONTANEOUS POTENTIAL
 ILD .OHMM   07 120 46 00:   DEEP INDUCTION RESISTIVITY
 GURD.OHMM   07 220 05 00:   GUARD LOG RESISTIVITY
 ILM .OHMM   07 120 44 00:   INDUCTION LOG MEDIUM RESISTIVITY
 DT  .US/F   60 520 00 00:   DELTA TIME
 SPHI.DEC    60 890 00 00:   SONIC POROSITY
~PARAMETER INFORMATION
#MNEM.UNIT          VALUE    DESCRIPTION
#----------   ------------   ------------------------------
 EKB .F         5016.0000:   Kelly bushing
 EGL .F         5006.0000:   Ground level
 EDF .F            0.0000:   Drilling floor
 EPD .F            0.0000:   Permanent datum
 TD  .F         3062.0000:   Total depth
 DATE.        12-JUN-1977:   Date logged
 CLNT.            A2DTECH:   Client Code
 SL  . 280' FSL & 2160' FEL:   Surface Location
 PD  .                 GL:   Permanent Datum
 DD  .F              3060:   Depth driller
 DL  .F              3062:   Depth logger
 BLI .F              3060:   Bottom log interval
 TLI .F              2450:   Top log interval
 CS1 .IN            8.625:   Casing size
 CBD1.      8.625" @ 200':   Casing driller 1
 CBL1.F               218:   Casing logger 1
 BS1 .IN            7.875:   Bit size
 BSD1.F              3060:   Depth drilled with bit1
 DFT .            KCL/MUD:   Type fluid in hole
 DFD .                8.7:   Density
 DFV .                 33:   Viscosity
 DFPH.                7.5:   pH
 DFL .                 36:   Fluid loss
 MSS .           FLOWLINE:   Source of sample
 TCS .HRS             4.5:   Time Circ. stopped
 MRT .F               110:   Maximum recorded temp.
 LUN .               8611:   Logging unit number
 LUL .           GILLETTE:   Logging unit location
 ENGI.            C. DOAK:   Recorded By
 WITN.            RHOADES:   Witnessed by
 ORIG.           5" PRINT:   Origin of data
 UWI .     49025103790000:   Unique Well ID
 DICO. A2D TECHNOLOGIES, INC.:   Digitizing Company
 DAPD.                 10:   Feet Above Permanent Datum
 RMS .OHMM            1.3:   Rm
 MST .F                84:   Rm Meas. temp.
 RMF .OHMM            .52:   Rmf
 MFST.F                84:   Rmf Meas. temp.
 MFSS.               FANN:   Source Rmf.
 RMC .OHMM           1.43:   Rmc
 MCST.F                84:   Rmc Meas. temp.
 MCSS.                KIT:   Source Rmc.
 RMB .OHMM            .99:   Rm. at BHT
 BHT .F               110:   BHT.
~OTHER INFORMATION
~A   DEPT     CALD         GRD      CORR       RHOB        SPR        ILD       GURD        ILM         DT       SPHI   
# ...
 2277.0000     9.0780   132.7700     0.0010     2.4530   -65.6230     2.9720     4.5400     3.3500  -999.2500  -999.2500
 2277.5000     9.0820   131.3330     0.0020     2.4590   -65.6100     2.9180     4.4480     3.3890  -999.2500  -999.2500
 2278.0000     9.0870   129.9980     0.0010     2.4850   -65.5980     2.9320     4.3320     3.4080  -999.2500  -999.2500
 2278.5000     9.0910   128.5270     0.0000     2.4770   -65.5850     2.9560     4.2170     3.4270  -999.2500  -999.2500
 2279.0000     9.0950   127.5360    -0.0020     2.4690   -65.5730     2.9800     3.7740     3.4470  -999.2500  -999.2500
 2279.5000     9.0990   128.2160    -0.0030     2.4680   -65.5600     3.0040     3.5080     3.4660  -999.2500  -999.2500
 2280.0000     9.1030   129.3870    -0.0050     2.4750   -65.5480     3.0290     4.3760     3.4860  -999.2500  -999.2500
 2280.5000     9.1080   130.5070    -0.0070     2.4630   -65.5350     3.0530     4.2230     3.5050  -999.2500  -999.2500
 2281.0000     9.1120   131.6610    -0.0080     2.4490   -65.5230     3.0770     3.9180     3.5240  -999.2500  -999.2500
 2281.5000     9.1160   132.7830    -0.0100     2.4340   -65.5100     3.1010     4.0690     3.5440  -999.2500  -999.2500
 2282.0000     9.1200   133.1890    -0.0100     2.4290   -65.4980     3.1250     4.2960     3.5630  -999.2500  -999.2500
 2282.5000     9.1240   131.1390    -0.0100     2.4300   -65.4850     3.1490     4.2350     3.5830  -999.2500  -999.2500
 2283.0000     9.1280   128.6740    -0.0070     2.4390   -65.4730     3.1730     4.0820     3.6020  -999.2500  -999.2500
 2283.5000     9.1330   126.1880    -0.0050     2.4470   -65.4600     3.1980     3.9910     3.6210  -999.2500  -999.2500
 2284.0000     9.1370   123.5180    -0.0020     2.4570   -65.4480     3.2220     4.1830     3.6410  -999.2500  -999.2500
 2284.5000     9.1410   122.0980     0.0000     2.4620   -65.4350     3.2460     4.3760     3.6600  -999.2500  -999.2500
 2285.0000     9.1450   122.5550     0.0030     2.4750   -65.4230     3.2700     4.2430     3.6790  -999.2500  -999.2500
 2285.5000     9.1490   122.7920     0.0060     2.4840   -65.4100     3.2940     4.0230     3.6990  -999.2500  -999.2500
 2286.0000     9.1540   123.0610     0.0080     2.4850   -65.3980     3.3180     3.8460     3.7180  -999.2500  -999.2500
 2286.5000     9.1580   123.3600     0.0100     2.4840   -65.3850     3.3420     4.4300     3.7380  -999.2500  -999.2500
 2287.0000     9.1620   123.6280     0.0100     2.4830   -65.3730     3.3660     4.6240     3.7570  -999.2500  -999.2500
 2287.5000     9.1660   123.9120     0.0090     2.4830   -65.3600     3.3810     4.3440     3.7760  -999.2500  -999.2500
 2288.0000     9.1700   124.1930     0.0080     2.4830   -65.3480     3.3810     4.0650     3.7960  -999.2500  -999.2500
 2288.5000     9.1750   124.4690     0.0070     2.4870   -65.3350     3.3810     4.6220     3.8150  -999.2500  -999.2500
 2289.0000     9.1790   124.7570     0.0060     2.4890   -65.3230     3.3500     5.4580     3.8460  -999.2500  -999.2500
 2289.5000     9.1820   125.0260     0.0050     2.4840   -65.3100     3.2800     5.4580     3.8210  -999.2500  -999.2500
 2290.0000     9.1820   125.2980     0.0000     2.4770   -65.2980     3.2300     4.9420     3.7570  -999.2500  -999.2500
 2290.5000     9.1820   125.6290    -0.0020     2.4650   -65.2850     3.1810     4.4120     3.6930  -999.2500  -999.2500
 2291.0000     9.1820   125.7740    -0.0050     2.4530   -65.2730     3.1310     3.7760     3.6290  -999.2500  -999.2500
 2291.5000     9.1820   126.7100    -0.0080     2.4390   -65.2600     3.0820     3.5150     3.5650  -999.2500  -999.2500
 2292.0000     9.1820   125.9850    -0.0100     2.4210   -65.2480     3.0320     3.1410     3.5010  -999.2500  -999.2500
 2292.5000     9.1820   124.8930    -0.0130     2.4020   -65.2350     2.9830     4.5400     3.4370  -999.2500  -999.2500
 2293.0000     9.1820   123.7750    -0.0140     2.3980   -65.2230     2.9340     4.4570     3.3740  -999.2500  -999.2500
 2293.5000     9.1820   123.8220    -0.0130     2.4090   -65.2100     2.8840     3.8880     3.3100  -999.2500  -999.2500
 2294.0000     9.1820   124.8550    -0.0120     2.4200   -65.1980     2.8640     3.3190     3.2590  -999.2500  -999.2500
 2294.5000     9.1820   125.8100    -0.0110     2.4310   -65.1850     2.8640     3.7300     3.3830  -999.2500  -999.2500
 2295.0000     9.1820   126.0810    -0.0100     2.4420   -65.1730     2.8640     4.1400     3.5440  -999.2500  -999.2500
 2295.5000     9.1820   125.4920    -0.0090     2.4540   -65.1600     2.8640     3.9240     3.7050  -999.2500  -999.2500
 2296.0000     9.1820   124.8730    -0.0080     2.4540   -65.1480     3.0740     3.7070     3.8660  -999.2500  -999.2500
 2296.5000     9.1820   123.6790    -0.0070     2.4480   -65.1350     3.2830     4.0440     4.0260  -999.2500  -999.2500
 2297.0000     9.1820   121.2320    -0.0060     2.4550   -65.1230     3.4930     4.4660     4.1870  -999.2500  -999.2500
 2297.5000     9.1820   119.0460    -0.0060     2.4690   -65.1100     3.7030     4.8870     4.3480  -999.2500  -999.2500
 2298.0000     9.1820   116.7340    -0.0030     2.4820   -65.0980     3.9120     5.6180     4.5080  -999.2500  -999.2500
 2298.5000     9.1820   114.5390    -0.0010     2.4840   -65.0850     4.1220     6.6840     4.6690  -999.2500  -999.2500
 2299.0000     9.1820   112.0930     0.0040     2.4870   -65.0730     4.3310     6.4470     4.7980  -999.2500  -999.2500
 2299.5000     9.1820   112.0130     0.0080     2.4920   -65.0600     4.5400     6.2090     4.8070  -999.2500  -999.2500
 2300.0000     9.1820   114.5070     0.0130     2.5050   -65.0480     4.6240     5.6650     4.8300  -999.2500  -999.2500
 2300.5000     9.1820   117.1570     0.0180     2.5180   -65.0360     4.6240     5.1200     4.8540  -999.2500  -999.2500
 2301.0000     9.1820   118.1060     0.0230     2.5330   -65.0200     4.6240     4.5400     4.8770  -999.2500  -999.2500
 2301.5000     9.1820   115.9740     0.0260     2.5420   -65.0580     4.6240     4.8790     4.9000  -999.2500  -999.2500
 2302.0000     9.1820   114.2920     0.0260     2.5450   -65.1680     4.6240     6.6840     4.9240  -999.2500  -999.2500
 2302.5000     9.1820   112.4840     0.0250     2.5490   -65.2730     4.6240     6.5620     4.9470  -999.2500  -999.2500
 2303.0000     9.1820   111.0340     0.0240     2.5520   -65.3800     4.6240     5.9890     4.9700  -999.2500  -999.2500
 2303.5000     9.1820   111.6810     0.0230     2.5490   -65.4870     4.6240     5.3580     4.9940  -999.2500  -999.2500
 2304.0000     9.1820   113.3580     0.0220     2.5460   -65.5930     4.6240     5.7030     5.0170  -999.2500  -999.2500
 2304.5000     9.1820   114.3010     0.0220     2.5420   -65.6990     4.6240     6.0960     5.0400  -999.2500  -999.2500
 2305.0000     9.1820   113.4340     0.0210     2.5390   -65.8060     4.6240     6.2090     5.0640  -999.2500  -999.2500
 2305.5000     9.1820   113.7980     0.0180     2.5350   -65.9130     4.6240     6.2090     5.0870  -999.2500  -999.2500
 2306.0000     9.1820   114.6610     0.0160     2.5330   -66.0190     4.6230     5.9850     5.1100  -999.2500  -999.2500
 2306.5000     9.1820   115.5380     0.0140     2.5060   -66.1260     4.6220     5.4860     5.1340  -999.2500  -999.2500
 2307.0000     9.1820   116.6670     0.0120     2.5060   -66.2320     4.6250     5.0340     5.1570  -999.2500  -999.2500
 2307.5000     9.1820   117.3840     0.0100     2.5060   -66.3390     4.6210     4.7980     5.1650  -999.2500  -999.2500
 2308.0000     9.1820   116.0560     0.0100     2.5100   -66.4450     4.6140     5.9620     5.3110  -999.2500  -999.2500
 2308.5000     9.1820   114.7990     0.0100     2.5160   -66.5520     4.7460     7.0640     5.4770  -999.2500  -999.2500
 2309.0000     9.1820   113.3680     0.0110     2.5220   -66.6570     4.9320     7.2720     5.6430  -999.2500  -999.2500
 2309.5000     9.1820   111.0200     0.0120     2.5280   -66.7670     5.1080     7.4650     5.7970  -999.2500  -999.2500
 2310.0000     9.1810   109.0840     0.0140     2.5340   -66.8690     5.2840     7.1390     5.9130  -999.2500  -999.2500
