~VERSION INFORMATION
 VERS.                2.0:   CWLS LOG ASCII STANDARD - VERSION 2.0
 WRAP.                 NO:   ONE LINE PER DEPTH STEP
~WELL INFORMATION
#MNEM.UNIT      DATA TYPE    INFORMATION
#----------   ------------   ------------------------------
 STRT.F          794.0000:   START DEPTH
 STOP.F         2828.0000:   STOP DEPTH
 STEP.F            0.5000:   STEP LENGTH
 NULL.          -999.2500:   NO VALUE
 COMP.           U S NAVY:   COMPANY
 WELL. U S NAVY NPR 3 "A" #10-33:   WELL
 FLD .        TEAPOT DOME:   FIELD
 LOC .      S33 T39N R78W:   LOCATION
 CNTY.            NATRONA:   COUNTY
 STAT.            WYOMING:   STATE
 CTRY. UNITED STATES OF AMERICA:   COUNTRY
 SRVC.         MCCULLOUGH:   SERVICE COMPANY
 DATE.        25-JUL-1968:   LOGDATE
 API .     49025102180000:   API NUMBER
~CURVE INFORMATION
#MNEM.UNIT       API CODE    CURVE DESCRIPTION
#----------   ------------   ------------------------------
 DEPT.F                  :   
 GRN .GAPI   35 310 01 00:   GAMMA RAY
 NEUT.NAPI   35 330 01 00:   NEUTRON
 TEMP.DEG    99 000 00 00:   TEMPERATURE AT TOOL
~PARAMETER INFORMATION
#MNEM.UNIT          VALUE    DESCRIPTION
#----------   ------------   ------------------------------
 EKB .F            0.0000:   Kelly bushing
 EGL .F            0.0000:   Ground level
 EDF .F            0.0000:   Drilling floor
 EPD .F            0.0000:   Permanent datum
 TD  .F         2829.0000:   Total depth
 DATE.        25-JUL-1968:   Date logged
 CLNT.            A2DTECH:   Client Code
 DL  .F              2829:   Depth logger
 BLI .F              2825:   Bottom log interval
 TLI .F               800:   Top log interval
 DFT .                DRY:   Type fluid in hole
 TCS .HRS               2:   Time Circ. stopped
 ENGI.           KIMBERRY:   Recorded By
 ORIG.        2" 5" PRINT:   Origin of data
 UWI .     49025102180000:   Unique Well ID
 DICO. A2D TECHNOLOGIES, INC.:   Digitizing Company
~OTHER INFORMATION
~A   DEPT       GRN      NEUT       TEMP   
# ...
 1977.0000    56.3930   463.0800  -999.2500
 1977.5000    55.3580   460.7060  -999.2500
 1978.0000    55.0320   458.0770  -999.2500
 1978.5000    55.9890   473.5260  -999.2500
 1979.0000    56.1550   479.0360  -999.2500
 1979.5000    57.7480   470.2350  -999.2500
 1980.0000    58.2190   454.0790  -999.2500
 1980.5000    58.6790   453.3800  -999.2500
 1981.0000    61.1500   455.3200  -999.2500
 1981.5000    63.0630   457.0980  -999.2500
 1982.0000    63.6120   458.8570  -999.2500
 1982.5000    65.5270   463.5350  -999.2500
 1983.0000    66.6580   470.4330  -999.2500
 1983.5000    66.3950   478.8860  -999.2500
 1984.0000    65.3380   466.6430  -999.2500
 1984.5000    63.9090   473.9510  -999.2500
 1985.0000    62.5850   465.1580  -999.2500
 1985.5000    62.3910   489.1970  -999.2500
 1986.0000    62.3450   497.3840  -999.2500
 1986.5000    64.0910   485.9020  -999.2500
 1987.0000    64.4110   486.2450  -999.2500
 1987.5000    62.8050   489.2210  -999.2500
 1988.0000    63.2860   475.6210  -999.2500
 1988.5000    63.9220   479.6890  -999.2500
 1989.0000    64.0530   480.3960  -999.2500
 1989.5000    63.9330   482.1960  -999.2500
 1990.0000    64.3250   478.9670  -999.2500
 1990.5000    66.7240   485.4400  -999.2500
 1991.0000    68.5840   486.9950  -999.2500
 1991.5000    68.1510   491.0530  -999.2500
 1992.0000    67.7110   483.1430  -999.2500
 1992.5000    68.6130   480.1640  -999.2500
 1993.0000    69.4660   479.9170  -999.2500
 1993.5000    68.9540   469.9970  -999.2500
 1994.0000    66.5450   464.1760  -999.2500
 1994.5000    64.6590   465.1540  -999.2500
 1995.0000    65.3620   464.7560  -999.2500
 1995.5000    65.9940   474.9400  -999.2500
 1996.0000    65.5930   472.9790  -999.2500
 1996.5000    64.1250   475.5880  -999.2500
 1997.0000    63.4500   469.1650  -999.2500
 1997.5000    62.2440   461.3960  -999.2500
 1998.0000    60.1960   453.9390  -999.2500
 1998.5000    58.5750   458.4150  -999.2500
 1999.0000    58.6270   463.9810  -999.2500
 1999.5000    59.5140   469.6450  -999.2500
 2000.0000    59.1360   474.4660  -999.2500
 2000.5000    61.1260   484.5220  -999.2500
 2001.0000    63.3950   480.5610  -999.2500
 2001.5000    65.9110   475.3870  -999.2500
 2002.0000    67.0270   473.4700  -999.2500
 2002.5000    65.0800   475.4030  -999.2500
 2003.0000    64.1250   485.7940  -999.2500
 2003.5000    64.6660   496.5950  -999.2500
 2004.0000    65.3660   496.9540  -999.2500
 2004.5000    65.5740   473.1240  -999.2500
 2005.0000    64.1980   472.7330  -999.2500
 2005.5000    64.1170   476.6760  -999.2500
 2006.0000    63.4970   484.4350  -999.2500
 2006.5000    61.3240   495.6910  -999.2500
 2007.0000    60.0860   497.6950  -999.2500
 2007.5000    60.7140   499.3540  -999.2500
 2008.0000    60.8500   503.0500  -999.2500
 2008.5000    60.2690   506.7290  -999.2500
 2009.0000    60.1700   515.0620  -999.2500
 2009.5000    60.0850   522.8090  -999.2500
 2010.0000    59.9760   517.9970  -999.2500
 2010.5000    59.5870   504.9700  -999.2500
 2011.0000    59.5790   500.8110  -999.2500
 2011.5000    59.5710   484.8900  -999.2500
 2012.0000    59.2940   473.4230  -999.2500
 2012.5000    58.0950   475.6590  -999.2500
 2013.0000    57.8840   475.0930  -999.2500
 2013.5000    57.7100   479.8100  -999.2500
 2014.0000    57.2000   474.1230  -999.2500
 2014.5000    56.6380   476.8260  -999.2500
 2015.0000    56.7320   471.9890  -999.2500
 2015.5000    55.9870   472.5020  -999.2500
 2016.0000    55.9450   473.1860  -999.2500
 2016.5000    55.9550   475.2730  -999.2500
 2017.0000    55.9020   478.5720  -999.2500
 2017.5000    54.5760   481.8850  -999.2500
 2018.0000    54.2690   485.4540  -999.2500
 2018.5000    52.2890   490.3040  -999.2500
 2019.0000    51.5240   494.8490  -999.2500
 2019.5000    52.1430   496.0740  -999.2500
 2020.0000    53.2570   477.2870  -999.2500
 2020.5000    54.4420   481.9690  -999.2500
 2021.0000    55.3720   480.8430  -999.2500
 2021.5000    56.5700   483.6810  -999.2500
 2022.0000    59.2330   486.6420  -999.2500
 2022.5000    59.8160   489.5410  -999.2500
 2023.0000    59.0100   493.3830  -999.2500
 2023.5000    58.2660   506.9640  -999.2500
 2024.0000    58.4000   521.9520  -999.2500
 2024.5000    58.6160   524.5880  -999.2500
 2025.0000    58.2070   526.5110  -999.2500
 2025.5000    57.7190   525.0930  -999.2500
 2026.0000    58.4940   498.2110  -999.2500
 2026.5000    59.6210   483.1700  -999.2500
 2027.0000    60.3680   470.4740  -999.2500
 2027.5000    60.2280   462.4110  -999.2500
 2028.0000    59.7180   467.4520  -999.2500
 2028.5000    58.2670   470.0140  -999.2500
 2029.0000    58.2320   484.4130  -999.2500
 2029.5000    59.1380   497.5710  -999.2500
 2030.0000    59.2240   484.9440  -999.2500
 2030.5000    58.2410   493.4270  -999.2500
 2031.0000    57.4700   485.9240  -999.2500
 2031.5000    57.9140   488.5500  -999.2500
 2032.0000    58.3970   491.0190  -999.2500
 2032.5000    59.1680   493.9100  -999.2500
 2033.0000    57.7560   492.5790  -999.2500
 2033.5000    57.0930   498.8910  -999.2500
 2034.0000    56.8010   494.7310  -999.2500
 2034.5000    55.9050   493.0140  -999.2500
 2035.0000    55.3390   493.0860  -999.2500
 2035.5000    55.0420   510.5180  -999.2500
 2036.0000    54.6360   524.7930  -999.2500
 2036.5000    56.5330   525.7230  -999.2500
 2037.0000    58.4240   537.3910  -999.2500
 2037.5000    59.7740   548.8230  -999.2500
 2038.0000    59.6140   551.4990  -999.2500
 2038.5000    59.3280   530.0330  -999.2500
 2039.0000    58.7760   527.3840  -999.2500
 2039.5000    57.6940   525.1060  -999.2500
 2040.0000    57.3800   521.1280  -999.2500
 2040.5000    59.5710   503.8470  -999.2500
 2041.0000    59.8660   493.6800  -999.2500
 2041.5000    61.6970   494.0940  -999.2500
 2042.0000    63.8150   490.3980  -999.2500
 2042.5000    62.8050   488.3960  -999.2500
 2043.0000    63.0290   493.7420  -999.2500
 2043.5000    62.5170   495.5080  -999.2500
 2044.0000    62.4610   485.5830  -999.2500
 2044.5000    63.9070   484.4500  -999.2500
 2045.0000    63.9740   489.3090  -999.2500
 2045.5000    63.7850   495.3500  -999.2500
 2046.0000    64.5250   496.4240  -999.2500
 2046.5000    64.8760   489.1090  -999.2500
 2047.0000    64.9440   480.5560  -999.2500
 2047.5000    64.8130   487.2670  -999.2500
 2048.0000    64.6890   493.6870  -999.2500
 2048.5000    65.0890   471.9200  -999.2500
 2049.0000    64.6860   466.0580  -999.2500
 2049.5000    63.2510   454.4290  -999.2500
 2050.0000    62.5220   466.2340  -999.2500
 2050.5000    64.8610   463.4290  -999.2500
 2051.0000    64.2030   475.5480  -999.2500
 2051.5000    61.9990   487.1720  -999.2500
 2052.0000    61.4360   492.4300  -999.2500
 2052.5000    61.7410   488.3530  -999.2500
 2053.0000    61.3140   489.9670  -999.2500
 2053.5000    61.9360   486.2200  -999.2500
 2054.0000    62.7590   487.7800  -999.2500
 2054.5000    63.0790   494.6900  -999.2500
 2055.0000    64.2210   497.9030  -999.2500
 2055.5000    66.6660   507.9990  -999.2500
 2056.0000    67.6860   521.5240  -999.2500
 2056.5000    69.8690   516.5680  -999.2500
 2057.0000    70.6090   504.2770  -999.2500
 2057.5000    70.3560   491.7150  -999.2500
 2058.0000    70.9500   480.7530  -999.2500
 2058.5000    73.3440   483.8150  -999.2500
 2059.0000    77.2380   489.1280  -999.2500
 2059.5000    75.7380   494.7920  -999.2500
 2060.0000    75.2610   475.4380  -999.2500
 2060.5000    76.9430   482.0060  -999.2500
 2061.0000    76.8350   480.9430  -999.2500
 2061.5000    76.0220   487.0220  -999.2500
 2062.0000    74.7490   497.4860  -999.2500
 2062.5000    74.5300   507.0150  -999.2500
 2063.0000    77.0220   503.3810  -999.2500
 2063.5000    80.2540   497.3450  -999.2500
 2064.0000    80.7420   478.9280  -999.2500
 2064.5000    78.3100   458.7070  -999.2500
 2065.0000    77.3070   459.7700  -999.2500
 2065.5000    77.5630   464.1690  -999.2500
 2066.0000    77.4030   468.6010  -999.2500
 2066.5000    78.3040   477.8670  -999.2500
 2067.0000    77.1000   493.2080  -999.2500
 2067.5000    77.9560   482.6370  -999.2500
