~VERSION INFORMATION
 VERS.                2.0:   CWLS LOG ASCII STANDARD - VERSION 2.0
 WRAP.                 NO:   ONE LINE PER DEPTH STEP
~WELL INFORMATION
#MNEM.UNIT      DATA TYPE    INFORMATION
#----------   ------------   ------------------------------
 STRT.F           50.5000:   START DEPTH
 STOP.F         5694.0000:   STOP DEPTH
 STEP.F            0.5000:   STEP LENGTH
 NULL.          -999.2500:   NO VALUE
 COMP. LAWRENCE ALLISON AND ASSOCIATES WEST:   COMPANY
 WELL. LAWRENCE "TX" #57-28:   WELL
 FLD .        TEAPOT DOME:   FIELD
 LOC .      S28 T39N R78W:   LOCATION
 CNTY.            NATRONA:   COUNTY
 STAT.            WYOMING:   STATE
 CTRY. UNITED STATES OF AMERICA:   COUNTRY
 SRVC.       SCHLUMBERGER:   SERVICE COMPANY
 DATE.        26-FEB-1982:   LOGDATE
 API .     49025108850000:   API NUMBER
~CURVE INFORMATION
#MNEM.UNIT       API CODE    CURVE DESCRIPTION
#----------   ------------   ------------------------------
 DEPT.F                  :   
 GRR .GAPI   11 310 01 00:   GAMMA RAY FROM RES.
 CALD.IN     45 280 60 00:   CALIPER FROM DENSITY LOG
 TEND.LBS    45 635 01 00:   TENSION FORM DENSITY LOG
 CORR.G/C3   45 356 01 00:   DENSITY CORRECTION
 RHOB.G/C3   45 350 01 00:   BULK DENSITY
 NPHI.DEC    42 890 03 00:   NEUTRON POROSITY SANDSTONE
 TENR.LBS    06 635 01 00:   TENSION FROM RESISTIVITY
 SPR .MV     11 010 01 00:   SPONTANEOUS POTENTIAL FROM RES.
 LLS .OHMM   11 220 09 00:   LATEROLOG LOG SHALLOW
 LLD .OHMM   11 220 10 00:   LATEROLOG DEEP
 MSFL.OHMM   11 270 04 00:   MICRO SPHERICALLY FOCUSED
~PARAMETER INFORMATION
#MNEM.UNIT          VALUE    DESCRIPTION
#----------   ------------   ------------------------------
 EKB .F         5101.0000:   Kelly bushing
 EGL .F         5091.0000:   Ground level
 EDF .F            0.0000:   Drilling floor
 TD  .F         3248.0000:   Total depth
 CLNT.            A2DTECH:   Client Code
 SL  . 950' FSL & 2100' FEL:   Surface Location
 PD  .                 GL:   Permanent Datum
 EPD .F              5091:   Elevation Permanent Datum
 LMF .                 KB:   Log Measured From
 DMF .                 KB:   Drilling Measured From
 DAPD.F                10:   Feet Above Permanent Datum
 DATE.        26-FEB-1982:   Date Logged [DD-MMM-YYYY]
 DD  .F              3243:   Depth driller
 DL  .F              3248:   Depth logger
 BLI .F              3216:   Bottom log interval
 TLI .F                 0:   Top log interval
 CS1 .IN            9.625:   Casing size
 CBD1.      9.625" @ 401':   Casing driller 1
 CBL1.F               401:   Casing logger 1
 BS1 .IN            7.875:   Bit size
 BSD1.F              3243:   Depth drilled with bit1
 DFT .           CHEM GEL:   Type fluid in hole
 DFD .                8.9:   Density
 DFV .                 55:   Viscosity
 DFPH.                9.5:   pH
 DFL .                 10:   Fluid loss
 MSS .            MUD PIT:   Source of sample
 RMS .OHMM           1.82:   Rm
 MST .F                76:   Rm Meas. temp.
 RMF .OHMM           1.64:   Rmf
 MFST.F                75:   Rmf Meas. temp.
 MFSS.               MEAS:   Source Rmf.
 RMB .OHMM           1.15:   Rm. at BHT
 BHT .F               120:   BHT.
 TCS .HRS            1330:   Time Circ. stopped
 TLAB.HRS            1715:   Time logger at bottom
 MRT .F               120:   Maximum recorded temp.
 LUN .               8043:   Logging unit number
 LUL .               CSPR:   Logging unit location
 ENGI.             TAYLOR:   Recorded By
 WITN.       FIVAS/STRONG:   Witnessed by
 ORIG.      1" 2.5" PRINT:   Origin of data
 UWI .     49025108850000:   Unique Well ID
 DICO. A2D TECHNOLOGIES, INC.:   Digitizing Company
~OTHER INFORMATION
~A   DEPT       GRR      CALD       TEND       CORR       RHOB       NPHI       TENR        SPR        LLS        LLD       MSFL   
# ...
 3924.0000   111.9105    10.9630  1492.8016     0.1540     2.4703     0.2969  1384.3959   -74.1301     3.1981     3.4245     4.5108
 3924.5000   110.5851    10.9622  1493.2927     0.0950     2.4520     0.3031  1384.1282   -74.3360     3.2620     3.4705     4.3834
 3925.0000   106.7035    10.8995  1493.9503     0.0437     2.4374     0.3119  1383.8605   -74.1590     3.4708     3.5824     4.2497
 3925.5000   102.4120    10.8988  1494.5247    -0.0031     2.4385     0.3128  1383.5929   -74.1743     3.6162     3.6589     4.0818
 3926.0000    99.3401    10.8363  1525.6099    -0.0031     2.4424     0.3099  1383.3252   -74.1896     3.6647     3.8173     4.0222
 3926.5000    96.8779    10.8356  1526.2196    -0.0032     2.4498     0.3101  1383.0575   -73.8966     3.6624     3.8684     4.3777
 3927.0000    95.0244    10.9276  1526.8293    -0.0033     2.4558     0.3140  1382.7898   -73.9144     3.5571     3.8128     4.9486
 3927.5000    95.7315    11.0260  1527.4391    -0.0030     2.4633     0.3104  1382.5222   -73.6239     3.3528     3.7067     4.8686
 3928.0000    96.9918    11.1486  1528.0488     0.0082     2.4693     0.3055  1382.2545   -73.6415     3.1059     3.5032     4.5382
 3928.5000    98.8619    11.2030  1528.6586     0.0310     2.4723     0.2910  1381.9868   -73.6559     2.9115     3.2018     4.1145
 3929.0000   100.4391    11.2330  1529.3199     0.0516     2.4722     0.3009  1381.7189   -73.6704     2.8052     2.9868     3.5779
 3929.5000   101.6098    11.2323  1529.8943     0.0399     2.4581     0.3190  1381.4506   -73.6913     2.8422     2.9230     3.3299
 3930.0000   100.3628    11.2005  1530.4879     0.0265     2.4430     0.3348  1381.1816   -74.0061     3.0445     3.1487     3.2865
 3930.5000    98.5103    11.1380  1561.6263     0.0204     2.4485     0.3500  1380.9120   -74.0214     3.3068     3.5932     4.2294
 3931.0000    96.6579    11.1064  1562.1952     0.0249     2.4640     0.3398  1380.6486   -73.9267     3.5917     3.7959     4.8320
 3931.5000    94.0973    11.0748  1562.8049     0.0354     2.4826     0.3264  1380.3809   -73.8910     3.7962     3.9548     5.1777
 3932.0000    90.9275    11.5679  1563.4146     0.0290     2.4885     0.3069  1380.1133   -74.0703     3.9693     4.0080     6.6401
 3932.5000    89.8811    11.5671  1564.0244     0.0100     2.4614     0.3022  1380.3618   -74.0847     4.1188     4.1202     7.0125
 3933.0000    92.1384    11.3585  1564.6342    -0.0168     2.4584     0.2972  1380.9889   -73.9130     4.1738     4.2318     7.1039
 3933.5000    96.1690    10.8443  1565.2439    -0.0206     2.4630     0.2941  1381.6160   -73.8073     4.1431     4.3038     7.1965
 3934.0000   102.6050    10.8695  1565.8536    -0.0044     2.4776     0.2826  1382.2432   -73.5165     4.0536     4.3461     7.1592
 3934.5000   105.6306    10.9337  1566.4635     0.0239     2.4990     0.2631  1382.8702   -73.5321     3.8326     4.1138     5.8002
 3935.0000   104.9977    10.9769  1567.0732     0.0666     2.5265     0.2540  1383.4973   -73.5474     3.6236     3.6252     3.8119
 3935.5000   103.7550    10.9451  1567.6830     0.0876     2.5369     0.2573  1384.1245   -73.4464     3.3323     3.3809     3.1866
 3936.0000   101.2927    10.9135  1568.2927     0.0860     2.5210     0.2655  1384.7516   -73.2722     4.2280     3.6719     3.8357
 3936.5000    99.9759    10.8819  1568.9023     0.0438     2.5078     0.2846  1385.3787   -72.9845     4.7176     4.2739     6.6744
 3937.0000    98.6664    10.8503  1569.5121     0.0471     2.5138     0.2879  1386.0057   -72.6932     4.4489     4.7066     6.3083
 3937.5000    97.3577    10.8805  1570.1219     0.0530     2.5273     0.2596  1386.6329   -72.4018     3.9547     3.9480     4.0999
 3938.0000    96.3171    10.8796  1570.7318     0.0894     2.5378     0.2499  1387.2600   -72.4163     3.6869     3.7007     2.0716
 3938.5000    95.6829    10.8789  1540.8068     0.1903     2.5314     0.2547  1387.8871   -72.7370     3.6381     3.6623     1.9894
 3939.0000    95.0448    10.8472  1532.7122     0.1832     2.4923     0.2760  1388.5143   -72.7523     4.0286     3.7627     2.7118
 3939.5000    98.6801    10.8463  1511.5853     0.1007     2.3768     0.2833  1389.1414   -72.7676     4.1973     3.9197     5.6197
 3940.0000   101.0960    10.8456  1512.1951     0.0042     2.3865     0.2774  1389.7684   -72.6607     4.3730     4.0277     5.8901
 3940.5000   103.5119    10.8758  1482.3170     0.0057     2.4364     0.2742  1390.3956   -72.4924     4.4990     4.1387     5.8453
 3941.0000   100.9509    10.9058  1482.9900     0.0056     2.4771     0.2738  1391.0227   -72.5103     4.7469     4.1942     6.1731
 3941.5000    97.6334    11.0977  1483.5643     0.0070     2.5089     0.2698  1391.6498   -72.5248     4.8954     4.3742     6.9875
 3942.0000    93.1466    11.3103  1484.1387     0.0072     2.5157     0.2543  1392.2769   -72.5393     5.0118     4.5136     7.8003
 3942.5000    92.4436    11.3666  1454.2251     0.0103     2.5058     0.2390  1392.9041   -72.5538     4.8559     4.7375     6.1198
 3943.0000    97.3090    11.2396  1454.8781     0.0140     2.4998     0.2433  1393.5311   -72.5688     4.4171     5.0284     5.7377
 3943.5000   107.0199    11.1345  1455.4878     0.0210     2.4999     0.2597  1394.1582   -72.5841     4.0619     5.0024     5.6532
 3944.0000   111.2651    11.0444  1456.0975     0.0606     2.5137     0.2743  1394.7854   -72.5994     3.8941     4.3573     5.3365
 3944.5000   113.6809    11.1473  1456.8097     0.1708     2.5479     0.2737  1395.4125   -72.6147     3.8918     3.9526     3.8743
 3945.0000   110.6090    11.3317  1475.2683     0.2220     2.5378     0.2718  1396.0396   -72.6300     3.9465     3.8426     2.2562
 3945.5000   108.1219    11.7631  1488.4146     0.2054     2.4458     0.2705  1396.6666   -72.9536     3.9965     3.7356     2.5187
 3946.0000   108.4783    12.2253  1489.0243     0.1586     2.4134     0.2692  1397.2938   -72.8502     3.9938     3.7858     2.3788
 3946.5000   113.5948    12.2245  1489.6343     0.1857     2.4332     0.2670  1397.9209   -72.6758     4.0476     3.9010     2.0992
 3947.0000   120.7030    11.9883  1490.2438     0.1731     2.4181     0.2635  1398.5480   -72.6912     4.0446     3.9422     2.4146
 3947.5000   126.0447    11.4038  1511.9375     0.1359     2.4211     0.2632  1399.1752   -72.7064     3.8235     3.8171     4.4180
 3948.0000   130.2144    11.0963  1521.9512     0.1664     2.4241     0.2696  1399.8022   -72.7217     3.4198     3.3520     4.0801
 3948.5000   133.4204    10.4451  1522.5612     0.1982     2.3993     0.2805  1400.4293   -72.7370     2.8539     2.8222     2.7362
 3949.0000   135.8378    10.6156  1523.1709     0.1899     2.3443     0.2935  1401.0565   -72.5321     2.8108     2.9404     2.3089
 3949.5000   137.6437    10.9852  1523.7806     0.0287     2.2975     0.3008  1401.6836   -72.4618     2.9352     3.0214     4.1752
 3950.0000   140.0612    10.9536  1524.3903     0.0073     2.3848     0.3018  1402.3107   -72.4795     3.0182     3.1046     4.1813
 3950.5000   141.2554    10.8295  1525.0000     0.0331     2.4440     0.2987  1402.9377   -72.4924     3.0516     3.1463     3.1579
 3951.0000   139.1228    10.7965  1525.6099     0.0722     2.4716     0.2961  1403.5649   -72.5077     3.0661     3.1444     2.9847
 3951.5000   136.7127    10.7663  1526.2195     0.0751     2.4630     0.2944  1404.1920   -72.5229     3.0688     3.1427     3.1647
 3952.0000   136.2691    10.9589  1526.8292     0.0392     2.4479     0.2940  1404.8191   -72.5382     3.0453     3.1409     3.8776
 3952.5000   136.2385    11.2718  1497.0614     0.0253     2.4509     0.2936  1405.4463   -72.5179     3.0860     3.1392     3.4664
 3953.0000   137.4261    11.5762  1497.6357     0.0356     2.4734     0.2928  1406.0734   -72.2605     3.1273     3.2253     3.0332
 3953.5000   138.6203    11.8167  1498.1709     0.0417     2.4951     0.2916  1406.7004   -72.2783     3.1691     3.3142     2.9553
 3954.0000   139.8146    11.9043  1498.7806     0.0387     2.5236     0.2898  1407.3275   -71.9878     3.2141     3.4055     4.0257
