~VERSION INFORMATION
 VERS.                2.0:   CWLS LOG ASCII STANDARD - VERSION 2.0
 WRAP.                 NO:   ONE LINE PER DEPTH STEP
~WELL INFORMATION
#MNEM.UNIT      DATA TYPE    INFORMATION
#----------   ------------   ------------------------------
 STRT.F          176.0000:   START DEPTH
 STOP.F         3400.0000:   STOP DEPTH
 STEP.F            0.5000:   STEP LENGTH
 NULL.          -999.2500:   NO VALUE
 COMP.    PENIX & SCISSON:   COMPANY
 WELL. FENIX NPR 3 "AX" #64-4:   WELL
 FLD .                NPR:   FIELD
 LOC .       S4 T38N R78W:   LOCATION
 CNTY.            NATRONA:   COUNTY
 STAT.            WYOMING:   STATE
 CTRY. UNITED STATES OF AMERICA:   COUNTRY
 SRVC.       SCHLUMBERGER:   SERVICE COMPANY
 DATE.        25-JAN-1981:   LOGDATE
 API .     49025108640000:   API NUMBER
~CURVE INFORMATION
#MNEM.UNIT       API CODE    CURVE DESCRIPTION
#----------   ------------   ------------------------------
 DEPT.F                  :   
 SPR .MV     07 010 01 00:   SPONTANEOUS POTENTIAL
 RFOC.OHMM   07 220 01 00:   RESISTIVITY FOCUSED LOG RES.
 ILD .OHMM   07 120 46 00:   DEEP INDUCTION RESISTIVITY
 TENR.LBS    07 635 01 00:   TENSION
 ILM .OHMM   07 120 44 00:   INDUCTION LOG MEDIUM RESISTIVITY
 GRD .GAPI   45 310 01 00:   GAMMA RAY FROM DENSITY LOG
 CALD.IN     45 280 60 00:   CALIPER FROM DENSITY LOG
 RHOB.G/C3   45 350 01 00:   BULK DENSITY
 TEND.LBS    45 635 01 00:   TENSION FROM DENSITY LOG
 CORR.G/C3   45 356 01 00:   DENSITY CORRECTION
~PARAMETER INFORMATION
#MNEM.UNIT          VALUE    DESCRIPTION
#----------   ------------   ------------------------------
 EKB .F         5257.0000:   Kelly bushing
 EGL .F         5247.0000:   Ground level
 EDF .F            0.0000:   Drilling floor
 TD  .F         3388.0000:   Total depth
 DATE.        25-JAN-1981:   Date logged
 CLNT.            A2DTECH:   Client Code
 SL  . 2289' FNL & 1495' FEL:   Surface Location
 PD  .                 GL:   Permanent Datum
 EPD .F              5247:   Elevation Permanent Datum
 LMF .                 KB:   Log Measured From
 DMF .                 KB:   Drilling Measured From
 DAPD.F                10:   Feet Above Permanent Datum
 DD  .F              3388:   Depth driller
 DL  .F              3386:   Depth logger
 BLI .F              3380:   Bottom log interval
 TLI .F               192:   Top log interval
 CS1 .IN            8.625:   Casing size
 CBD1.      8.625" @ 191':   Casing driller 1
 CBL1.F               192:   Casing logger 1
 BS1 .IN            7.875:   Bit size
 BSD1.F              3388:   Depth drilled with bit1
 DFT .                FGM:   Type fluid in hole
 DFD .                8.7:   Density
 DFV .                 32:   Viscosity
 DFPH.                9.5:   pH
 DFL .                 18:   Fluid loss
 MSS .           FLOWLINE:   Source of sample
 RMS .OHMM           1.60:   Rm
 MST .F                60:   Rm Meas. temp.
 RMF .OHMM           1.33:   Rmf
 MFST.F                60:   Rmf Meas. temp.
 MFSS.               MEAS:   Source Rmf.
 RMB .OHMM            .83:   Rm. at BHT
 BHT .F               115:   BHT.
 TCS .HRS            1700:   Time Circ. stopped
 TLAB.HRS            2200:   Time logger at bottom
 MRT .F               115:   Maximum recorded temp.
 LUN .               8039:   Logging unit number
 LUL .               CSPR:   Logging unit location
 ENGI.           C. PFARR:   Recorded By
 WITN.           L. FIVAS:   Witnessed by
 ORIG.           5" PRINT:   Origin of data
 UWI .     49025108640000:   Unique Well ID
 DICO. A2D TECHNOLOGIES, INC.:   Digitizing Company
~OTHER INFORMATION
~A   DEPT      SPR       RFOC        ILD       TENR        ILM         GRD      CALD         RHOB      TEND      CORR   
# ...
 1650.0000   -16.3390    10.5760     9.3760   666.9740     9.0880    90.8670     9.3130     2.6560   850.0000     0.0630
 1650.5000   -16.3390     9.6610     9.3020   667.4000     9.0430    96.9340     9.3130     2.5870   850.3710     0.0430
 1651.0000   -16.3390     9.8470     9.2270   667.8250     8.9990   102.0610     9.3130     2.5410   850.7410     0.0410
 1651.5000   -16.3390    10.0330     9.1520   668.2510     8.9540   103.9300     9.3130     2.5380   851.1120     0.0380
 1652.0000   -16.3380    10.2180     9.0780   668.6770     8.9090   104.4290     9.3130     2.5500   851.4830     0.0360
 1652.5000   -16.3390    10.4000     9.0030   669.1020     8.8650   103.0960     9.3130     2.5540   851.8540     0.0320
 1653.0000   -16.3380    10.2040     8.9710   669.5280     8.8200   101.3080     9.3130     2.5480   852.2250     0.0280
 1653.5000   -16.3380     9.8880     8.9520   669.9540     8.7760   100.3390     9.3130     2.5390   852.5950     0.0230
 1654.0000   -16.3400     9.5720     8.9330   670.3790     8.7310   100.1860     9.3130     2.5280   852.9660     0.0210
 1654.5000   -16.3330     9.1420     8.9150   670.8050     8.6860    99.9200     9.3130     2.5290   853.3370     0.0250
 1655.0000   -16.3980     9.2560     8.8960   671.2310     8.6420    99.4220     9.3130     2.5320   853.7080     0.0280
 1655.5000   -16.5100     9.4340     8.8770   671.6560     8.5970    98.2460     9.3130     2.5300   854.0790     0.0320
 1656.0000   -16.6130     9.6130     8.8580   672.0820     8.5520    97.2480     9.3130     2.5270   854.4490     0.0360
 1656.5000   -16.7170     9.7920     8.8400   672.5080     8.4930    98.5160     9.3130     2.5270   854.8200     0.0420
 1657.0000   -16.8200     9.9710     8.8210   672.9330     8.4960   101.4630     9.3130     2.5400   855.1910     0.0540
 1657.5000   -16.9270    10.2100     8.8110   673.3590     8.5160   103.8520     9.3130     2.5560   855.5620     0.0640
 1658.0000   -17.0280    10.1170     8.8330   673.7850     8.5350   104.5950     9.3130     2.5570   855.9330     0.0680
 1658.5000   -17.1150     9.9770     8.8520   674.2100     8.5540   103.8590     9.3130     2.5500   856.3030     0.0540
 1659.0000   -17.0280     9.8370     8.8710   674.6360     8.5730   103.3560     9.3130     2.5440   856.5740     0.0430
 1659.5000   -16.9420     9.6970     8.8910   675.0620     8.5920   102.0850     9.3130     2.5380   856.5740     0.0350
 1660.0000   -16.8500     9.5570     8.9110   675.4870     8.6110   101.5330     9.3130     2.5310   856.5740     0.0280
 1660.5000   -16.7620     9.4850     8.9300   675.9130     8.6300   101.2160     9.3130     2.5240   856.5740     0.0220
 1661.0000   -16.7160     9.6920     8.9500   676.3390     8.6490   100.8900     9.3130     2.5290   856.5740     0.0210
 1661.5000   -16.6930     9.8840     8.9690   676.7640     8.6680    99.7660     9.3130     2.5410   856.5740     0.0260
 1662.0000   -16.6710    10.0750     8.9890   677.1900     8.6860    98.4690     9.3130     2.5520   856.5740     0.0300
 1662.5000   -16.6470    10.4000     9.0090   677.6160     8.7050    97.1720     9.3130     2.5520   856.5740     0.0350
 1663.0000   -16.6250    10.3950     9.0280   678.0410     8.7240    95.8600     9.3130     2.5420   856.5740     0.0370
 1663.5000   -16.6020    10.3790     9.0480   678.4670     8.7430    96.4660     9.3130     2.5330   856.5740     0.0340
 1664.0000   -16.5790    10.3630     9.0680   678.8930     8.7620    99.4470     9.3130     2.5230   856.5740     0.0310
 1664.5000   -16.5560    10.3470     9.0870   679.3190     8.7810   102.8810     9.3130     2.5120   856.5740     0.0280
 1665.0000   -16.5330    10.3320     9.1070   679.7440     8.8000   106.9310     9.3130     2.5110   856.5740     0.0250
 1665.5000   -16.5100    10.3160     9.1260   680.1700     8.8190   107.3560     9.3130     2.5240   856.5740     0.0300
 1666.0000   -16.4870    10.3000     9.1460   680.5960     8.8380   104.3130     9.3130     2.5370   856.5740     0.0410
 1666.5000   -16.4640    10.2840     9.1660   681.0210     8.8570   101.7700     9.3130     2.5510   856.5740     0.0500
 1667.0000   -16.4410    10.2680     9.1850   681.4470     8.8760    99.1890     9.3130     2.5570   856.5740     0.0590
 1667.5000   -16.4180    10.2520     9.2050   681.8730     8.8950    99.4440     9.3130     2.5470   856.5740     0.0530
 1668.0000   -16.3950    10.2360     9.2240   682.2980     8.9140   101.1860     9.3140     2.5390   856.5740     0.0470
 1668.5000   -16.3720    10.2100     9.2440   682.7240     8.9330   101.2750     9.3140     2.5310   856.5740     0.0400
 1669.0000   -16.3490    10.2220     9.2630   683.1500     8.9520   100.0220     9.3150     2.5340   856.5740     0.0360
 1669.5000   -16.3260    10.2560     9.2830   683.5750     8.9700    98.1960     9.3160     2.5410   856.5740     0.0380
 1670.0000   -16.3030    10.2900     9.3030   684.0010     8.9740    98.1970     9.3170     2.5490   856.5740     0.0360
 1670.5000   -16.2800    10.3240     9.3110   684.4270     8.9220   100.6240     9.3170     2.5380   856.5740     0.0310
 1671.0000   -16.2570    10.3580     9.2460   684.8520     8.8680   103.1930     9.3180     2.5100   858.4060     0.0300
 1671.5000   -16.2340    10.3920     9.1600   685.2780     8.8130   103.5250     9.3190     2.5100   859.9810     0.0370
 1672.0000   -16.2110     9.8410     9.0740   685.7040     8.7580   101.8540     9.3190     2.5210   861.5550     0.0360
 1672.5000   -16.1880     9.9640     8.9890   686.1290     8.7040   101.0230     9.3200     2.5310   863.1300     0.0340
 1673.0000   -16.1650    10.0900     8.9030   686.5550     8.6490   100.4250     9.3210     2.5410   864.7050     0.0320
 1673.5000   -16.1420    10.2160     8.8180   686.9810     8.5950    99.2530     9.3220     2.5500   866.2800     0.0370
 1674.0000   -16.1190    10.3410     8.7320   687.4060     8.5400    98.5700     9.3220     2.5640   867.8550     0.0420
 1674.5000   -16.0960    10.4670     8.6460   687.8320     8.4850    97.7200     9.3230     2.5590   869.4290     0.0470
 1675.0000   -16.0730    10.5930     8.5610   688.2580     8.4310    97.4720     9.3240     2.5520   871.0040     0.0600
 1675.5000   -16.0500    10.4000     8.4750   688.6830     8.3760    97.8720     9.3240     2.5540   872.5790     0.0710
 1676.0000   -16.0270    10.0430     8.3890   689.1090     8.3220    98.9580     9.3250     2.5690   874.1540     0.0830
 1676.5000   -16.0040     9.6000     8.3040   689.5350     8.2670   101.3630     9.3260     2.5740   875.7290     0.0860
 1677.0000   -15.9810     9.1570     8.2180   689.9600     8.2120   102.7450     9.3270     2.5550   877.3030     0.0700
 1677.5000   -15.9570     8.8420     8.1850   690.3860     8.1580   102.5380     9.3270     2.5330   878.8780     0.0520
 1678.0000   -15.9440     8.9830     8.1740   690.8120     8.1030   101.4460     9.3280     2.5270   880.4530     0.0390
 1678.5000   -15.9450     9.1240     8.1460   691.2370     8.0480   100.4930     9.3290     2.5420   882.0280     0.0470
 1679.0000   -15.9450     9.2650     8.1190   691.6630     7.9940    98.8520     9.3290     2.5530   883.6030     0.0580
 1679.5000   -15.9450     9.4060     8.0910   692.0890     7.9390    97.3700     9.3300     2.5640   885.1770     0.0650
 1680.0000   -15.9450     9.4850     8.0630   692.5140     7.8850    96.3100     9.3310     2.5540   886.7520     0.0530
 1680.5000   -15.9450     9.1860     8.0360   692.9400     7.8300    98.3310     9.3320     2.5360   888.3270     0.0420
 1681.0000   -15.9450     8.7200     8.0080   693.3660     7.7750   101.6960     9.3320     2.5230   889.9020     0.0340
 1681.5000   -15.9450     8.1850     7.9810   693.7910     7.7210   104.6880     9.3330     2.5220   891.4770     0.0310
 1682.0000   -15.9450     8.2630     7.9530   694.2170     7.6660   107.5660     9.3340     2.5340   893.0510     0.0440
 1682.5000   -15.9450     8.4350     7.9250   694.6430     7.6040   106.1070     9.3340     2.5470   894.6260     0.0580
 1683.0000   -15.9450     8.6070     7.8920   695.0680     7.6640   103.3700     9.3350     2.5530   896.2010     0.0620
