~VERSION INFORMATION
 VERS.                2.0:   CWLS LOG ASCII STANDARD - VERSION 2.0
 WRAP.                 NO:   ONE LINE PER DEPTH STEP
~WELL INFORMATION
#MNEM.UNIT      DATA TYPE    INFORMATION
#----------   ------------   ------------------------------
 STRT.F           36.0000:   START DEPTH
 STOP.F         3014.5000:   STOP DEPTH
 STEP.F            0.5000:   STEP LENGTH
 NULL.          -999.2500:   NO VALUE
 COMP.    TESRO PETROLEUM:   COMPANY
 WELL. TESORO N.P.R. "A" #6-21:   WELL
 FLD .             TEAPOT:   FIELD
 LOC .      S21 T39N R78W:   LOCATION
 CNTY.            NATRONA:   COUNTY
 STAT.            WYOMING:   STATE
 CTRY. UNITED STATES OF AMERICA:   COUNTRY
 SRVC.              WELEX:   SERVICE COMPANY
 DATE.        16-JUL-1968:   LOGDATE
 API .     49025100180000:   API NUMBER
~CURVE INFORMATION
#MNEM.UNIT       API CODE    CURVE DESCRIPTION
#----------   ------------   ------------------------------
 DEPT.F                  :   
 SPR .MV     05 010 01 00:   SPONTANEOUS POTENTIAL FROM RES.
 ASN .OHMM   05 041 18 00:   AMPLIFIED SHORT NORMAL 18"
 IL  .OHMM   05 120 00 00:   INDUCTION LOG
 GRD .GAPI   45 310 01 00:   GAMMA RAY FROM DENSITY LOG
 CALD.IN     45 280 60 00:   CALIPER FROM DENSITY LOG
 GDEN.CPS    45 350 30 00:   GAMMA DENS
~PARAMETER INFORMATION
#MNEM.UNIT          VALUE    DESCRIPTION
#----------   ------------   ------------------------------
 EKB .F         5002.0000:   Kelly bushing
 EGL .F         4991.0000:   Ground level
 EDF .F         5001.0000:   Drilling floor
 TD  .F         3025.0000:   Total depth
 DATE.        16-JUL-1968:   Date logged
 CLNT.            A2DTECH:   Client Code
 PD  .                 GL:   Permanent Datum
 EPD .F              4991:   Elevation Permanent Datum
 LMF .                 KB:   Log Measured From
 DMF .                 KB:   Drilling Measured From
 DD  .F              3025:   Depth driller
 DL  .F              3019:   Depth logger
 BLI .F              3014:   Bottom log interval
 TLI .F              2670:   Top log interval
 CS1 .IN            10.75:   Casing size
 CBD1.      10.75" @ 325':   Casing driller 1
 CBL1.F               325:   Casing logger 1
 BS1 .IN                9:   Bit size
 BSD1.F              3025:   Depth drilled with bit1
 DFT .     WATER BASE MUD:   Type fluid in hole
 DFD .                9.7:   Density
 DFV .                 60:   Viscosity
 DFL .                6.4:   Fluid loss
 MSS .              CIRC.:   Source of sample
 RMS .OHMM            2.2:   Rm
 MST .F                84:   Rm Meas. temp.
 RMF .OHMM            1.6:   Rmf
 MFST.F                70:   Rmf Meas. temp.
 RMC .OHMM            3.3:   Rmc
 MCST.F                68:   Rmc Meas. temp.
 MFSS.               MEAS:   Source Rmf.
 RMB .OHMM           1.55:   Rm. at BHT
 BHT .F               120:   BHT.
 MRT .F               120:   Maximum recorded temp.
 LUN .               6869:   Logging unit number
 LUL .                 NC:   Logging unit location
 ENGI.          H. STEITZ:   Recorded By
 WITN.                MAY:   Witnessed by
 ORIG.           5" PRINT:   Origin of data
 UWI .     49025100180000:   Unique Well ID
 DICO. A2D TECHNOLOGIES, INC.:   Digitizing Company
~OTHER INFORMATION
~A   DEPT      SPR        ASN           IL      GRD       CALD       GDEN   
# ...
 2376.0000   -30.2840    16.3900    13.1270    69.8240     9.2770  1287.9110
 2376.5000   -30.5070    16.4650    13.2010    67.8590     9.2710  1303.5100
 2377.0000   -30.6810    16.9600    13.3360    69.6260     9.2640  1311.2330
 2377.5000   -30.5010    16.9500    13.4720    70.8750     9.2580  1308.1080
 2378.0000   -30.2500    16.8650    13.6090    71.8450     9.2510  1300.2980
 2378.5000   -29.9990    16.7790    13.7450    71.8970     9.2450  1308.8030
 2379.0000   -29.7480    16.6920    13.8820    69.7760     9.2670  1291.9041
 2379.5000   -29.5010    16.6750    14.0180    69.1790     9.2910  1270.6760
 2380.0000   -29.3280    16.8980    14.1550    68.6760     9.3140  1233.6980
 2380.5000   -29.6010    17.1250    14.2910    68.7420     9.3380  1174.0160
 2381.0000   -29.8680    17.2360    14.4280    69.7520     9.3610  1139.0360
 2381.5000   -30.0710    17.3160    14.5640    69.0350     9.3850  1116.4020
 2382.0000   -29.9960    17.4230    14.7010    67.7730     9.4370  1096.9750
 2382.5000   -29.9250    17.6570    14.8390    67.6780     9.4610  1087.9080
 2383.0000   -29.8550    17.8970    14.8900    68.9650     9.4610  1094.0640
 2383.5000   -29.7860    17.8730    14.8880    70.6000     9.4610  1107.9520
 2384.0000   -29.7160    17.8430    14.8430    70.1950     9.4610  1126.9630
 2384.5000   -29.6840    18.1340    14.7960    68.9230     9.4600  1136.2820
 2385.0000   -29.6840    18.2870    14.7500    67.7680     9.4520  1139.2640
 2385.5000   -29.6850    17.9780    14.7040    68.4870     9.4440  1150.0000
 2386.0000   -29.6850    17.6690    14.6580    71.9140     9.4220  1165.2090
 2386.5000   -29.6870    17.7470    14.6110    73.5910     9.3920  1172.8630
 2387.0000   -29.6150    17.8730    14.6080    72.3060     9.3630  1178.0320
 2387.5000   -29.5320    17.8810    14.6380    72.2740     9.3430  1172.2970
 2388.0000   -29.4480    17.8200    14.6680    72.4900     9.3550  1166.4470
 2388.5000   -29.3650    17.7810    14.6970    75.0390     9.3750  1159.1450
 2389.0000   -29.2960    17.8480    14.8210    72.7070     9.3940  1150.5959
 2389.5000   -29.3910    18.1520    14.9450    70.2480     9.4130  1141.2520
 2390.0000   -29.4840    18.4630    15.0700    68.7760     9.4320  1148.2939
 2390.5000   -29.5770    18.3210    15.1950    71.0650     9.4510  1162.6570
 2391.0000   -29.6700    18.1730    15.3200    72.2270     9.4410  1177.7629
 2391.5000   -29.7630    18.1880    15.4450    70.6190     9.4000  1197.5350
 2392.0000   -29.8550    18.5990    15.5690    70.3460     9.3600  1216.2030
 2392.5000   -29.9480    18.7290    15.6950    68.3240     9.3190  1229.7220
 2393.0000   -30.0410    18.6110    15.8200    66.9490     9.2780  1243.2410
 2393.5000   -30.1330    18.7520    15.9480    67.8430     9.2370  1256.7590
 2394.0000   -30.2260    19.0890    16.0780    69.0760     9.1970  1269.4830
 2394.5000   -30.3180    19.1610    15.9790    72.4350     9.1690  1255.0310
 2395.0000   -30.4090    18.6870    15.7340    75.6350     9.1870  1241.3820
 2395.5000   -30.4170    18.2580    15.4510    74.5730     9.2040  1235.9840
 2396.0000   -30.2080    18.1880    15.1660    71.5120     9.2200  1224.7510
 2396.5000   -30.0060    18.2470    14.8790    69.2560     9.2370  1228.9260
 2397.0000   -29.8040    18.3070    14.5830    68.1110     9.2540  1225.8850
 2397.5000   -29.6040    18.3680    14.3850    65.8470     9.2540  1200.0811
 2398.0000   -29.4060    18.4280    14.3840    66.1430     9.2240  1180.7250
 2398.5000   -29.3630    18.4780    14.5180    68.2440     9.1950  1162.1270
 2399.0000   -29.7060    18.5310    14.7890    70.3330     9.1940  1136.8390
 2399.5000   -30.0580    18.5820    15.2490    71.4580     9.2690  1114.4139
 2400.0000   -30.0790    19.2230    15.7050    70.7400     9.3730  1096.5210
 2400.5000   -30.0800    19.8730    16.1600    69.6580     9.4360  1105.5811
 2401.0000   -30.0790    20.0250    16.6150    68.6750     9.4620  1097.4850
 2401.5000   -30.0790    20.1740    17.0700    69.5160     9.4490  1086.6910
 2402.0000   -30.0790    20.7080    17.5240    71.1400     9.4370  1075.8970
 2402.5000   -30.0790    21.0690    17.9600    73.4640     9.4240  1073.6580
 2403.0000   -30.0790    20.8580    18.0860    74.9410     9.4120  1096.9139
 2403.5000   -30.0790    20.6450    18.1970    74.5790     9.3990  1129.2950
 2404.0000   -30.0790    20.9220    17.7860    74.2320     9.3870  1157.0580
 2404.5000   -30.0790    20.5860    17.3310    74.4550     9.3580  1182.4550
 2405.0000   -30.0790    20.2960    16.8730    75.3550     9.3230  1220.5770
 2405.5000   -30.0790    20.0090    16.4130    74.4130     9.2890  1244.2810
 2406.0000   -30.0780    19.7220    15.9520    72.7180     9.2540  1261.8040
 2406.5000   -30.0750    19.4360    15.4850    72.0660     9.2190  1267.9050
 2407.0000   -30.0670    19.2810    15.3900    71.6610     9.1820  1274.4530
 2407.5000   -30.4150    19.3440    15.4060    71.7920     9.1620  1287.8230
 2408.0000   -30.8360    19.4160    15.8950    72.0770     9.1530  1299.3040
 2408.5000   -31.2580    19.4900    16.4040    72.3610     9.1450  1282.1040
 2409.0000   -31.6560    19.5640    16.9050    72.0540     9.1380  1265.8040
 2409.5000   -31.8260    19.6390    17.0920    71.0530     9.1300  1249.6689
 2410.0000   -31.9840    19.7320    16.8490    72.5900     9.1220  1233.5341
 2410.5000   -32.1420    19.4610    16.5110    73.3940     9.1150  1216.7990
 2411.0000   -32.2800    19.1780    16.1760    70.7930     9.1070  1218.1281
 2411.5000   -32.5820    18.8920    15.8760    68.8510     9.1000  1231.3340
 2412.0000   -33.4200    18.7900    15.8850    67.8300     9.0920  1241.9000
 2412.5000   -34.2670    19.3410    15.9680    66.5650     9.0840  1252.4650
 2413.0000   -35.1120    19.9160    16.4210    65.1750     9.0770  1263.0310
 2413.5000   -35.9510    20.4870    17.2140    63.9000     9.0680  1269.4830
 2414.0000   -36.5880    21.8540    18.4780    64.8650     9.0850  1266.8130
 2414.5000   -36.4840    22.6460    19.7510    63.9440     9.1090  1260.5370
 2415.0000   -36.3920    23.2440    21.1060    62.6240     9.1330  1262.5820
 2415.5000   -36.3010    23.7530    22.3360    62.7940     9.1580  1264.5129
 2416.0000   -36.2080    23.6910    22.7290    64.7680     9.1590  1270.4771
 2416.5000   -36.3640    23.4600    22.2620    67.8740     9.1490  1286.0870
 2417.0000   -36.5890    23.2350    21.6390    68.6800     9.1390  1290.9740
 2417.5000   -36.8150    23.0100    20.8580    66.4040     9.1280  1299.5129
 2418.0000   -37.0410    22.7860    19.7960    62.5970     9.1180  1322.8790
 2418.5000   -37.2670    22.6570    18.9430    61.0430     9.1080  1342.1870
 2419.0000   -37.4940    22.6580    18.9510    61.5880     9.0980  1348.0120
 2419.5000   -37.7210    22.8530    19.3720    60.4480     9.0880  1336.0830
 2420.0000   -37.9570    23.2730    19.8250    59.8210     9.0770  1343.7710
 2420.5000   -38.0930    23.6880    20.2820    59.8870     9.0670  1351.9880
 2421.0000   -38.2300    24.1030    20.7620    61.5540     9.0570  1343.7440
 2421.5000   -38.3670    24.3430    21.5460    63.2650     9.0470  1345.0300
 2422.0000   -38.5090    24.5600    22.3730    64.6200     9.0360  1360.3690
 2422.5000   -38.3480    24.5530    23.2000    63.8890     9.0260  1376.8390
 2423.0000   -37.9890    24.5520    23.4790    64.3110     9.0160  1406.8420
 2423.5000   -37.6300    24.5750    23.6370    62.6130     9.0060  1416.6000
 2424.0000   -37.2710    25.0770    23.7610    62.2140     8.9960  1388.8929
 2424.5000   -36.9120    25.5300    23.4210    63.5930     8.9880  1365.6490
 2425.0000   -36.5750    25.3750    22.7690    64.9840     8.9770  1340.5900
 2425.5000   -36.2610    25.2120    22.7570    65.3970     8.9680  1315.5310
 2426.0000   -36.0090    25.0480    22.7430    62.1980     8.9830  1300.2980
 2426.5000   -36.1830    24.8870    22.3830    58.0480     9.0030  1327.7889
 2427.0000   -36.3540    24.7480    22.0110    55.6110     9.0240  1344.0439
 2427.5000   -36.5260    24.8370    21.6410    55.8200     9.0250  1360.2980
