~VERSION INFORMATION
 VERS.                2.0:   CWLS LOG ASCII STANDARD - VERSION 2.0
 WRAP.                 NO:   ONE LINE PER DEPTH STEP
~WELL INFORMATION
#MNEM.UNIT      DATA TYPE    INFORMATION
#----------   ------------   ------------------------------
 STRT.F          444.0000:   START DEPTH
 STOP.F         3018.0000:   STOP DEPTH
 STEP.F            0.5000:   STEP LENGTH
 NULL.          -999.2500:   NO VALUE
 COMP.    FENIX & SCISSON:   COMPANY
 WELL.  FENIX "AX" #25-28:   WELL
 FLD .             TEAPOT:   FIELD
 LOC .      S28 T39N R78W:   LOCATION
 CNTY.            NATRONA:   COUNTY
 STAT.            WYOMING:   STATE
 CTRY. UNITED STATES OF AMERICA:   COUNTRY
 SRVC.              WELEX:   SERVICE COMPANY
 DATE.        01-DEC-1979:   LOGDATE
 API .     49025107940000:   API NUMBER
~CURVE INFORMATION
#MNEM.UNIT       API CODE    CURVE DESCRIPTION
#----------   ------------   ------------------------------
 DEPT.F                  :   
 SPR .MV     07 010 01 00:   SPONTANEOUS POTENTIAL
 RILM.OHMM   07 120 44 00:   INDUCTION LOG MEDIUM RESISTIVITY
 RILD.OHMM   07 120 46 00:   DEEP INDUCTION RESISTIVITY
 SGRD.OHMM   07 220 05 00:   SHALLOW GUARD LOG RESISTIVITY
 TENR.LBS    07 635 01 00:   TENSION FROM RESISTIVITY
 NPHI.DEC    42 890 03 00:   NEUTRON POROSITY SANDSTONE
 GRD .GAPI   45 310 01 00:   GAMMA RAY FROM DENSITY LOG
 CALD.IN     45 280 60 00:   CALIPER FROM DENSITY LOG
 RHOB.G/C3   45 350 01 00:   BULK DENSITY
 DCOR.G/C3   45 356 01 00:   DENSITY CORRECTION
 TEND.LBS    45 635 01 00:   TENSION FROM DENSITY LOG
~PARAMETER INFORMATION
#MNEM.UNIT          VALUE    DESCRIPTION
#----------   ------------   ------------------------------
 EKB .F         5092.0000:   Kelly bushing
 EGL .F         5082.0000:   Ground level
 EDF .F            0.0000:   Drilling floor
 TD  .F         3013.5000:   Total depth
 DATE.        01-DEC-1979:   Date logged
 CLNT.            A2DTECH:   Client Code
 SL  . 2267' FSL & 1070' FWL:   Surface Location
 PD  .                 GL:   Permanent Datum
 EPD .F              5082:   Elevation Permanent Datum
 LMF .                 KB:   Log Measured From
 DMF .                 KB:   Drilling Measured From
 DAPD.F                10:   Feet Above Permanent Datum
 DD  .F              3000:   Depth driller
 DL  .F            3013.5:   Depth logger
 BLI .F              3013:   Bottom log interval
 TLI .F               350:   Top log interval
 CS1 .IN            8.625:   Casing size
 CBD1.      8.625" @ 465':   Casing driller 1
 CBL1.F               462:   Casing logger 1
 BS1 .IN            7.875:   Bit size
 BSD1.F              3000:   Depth drilled with bit1
 DFT .           CHEM GEL:   Type fluid in hole
 DFD .                8.8:   Density
 DFV .                 55:   Viscosity
 DFPH.                  9:   pH
 DFL .                6.4:   Fluid loss
 MSS .           FLOWLINE:   Source of sample
 RMS .OHMM           1.53:   Rm
 MST .F                75:   Rm Meas. temp.
 RMF .OHMM           1.24:   Rmf
 MFST.F                75:   Rmf Meas. temp.
 RMC .OHMM           1.83:   Rmc
 MCST.F                75:   Rmc Meas. temp.
 MFSS.               MEAS:   Source Rmf.
 MCSS.               MEAS:   Source Rmc.
 RMB .OHMM           1.09:   Rm. at BHT
 BHT .F               105:   BHT.
 TCS .HRS             2.5:   Time Circ. stopped
 MRT .F               105:   Maximum recorded temp.
 LUN .                965:   Logging unit number
 LUL .             CASPER:   Logging unit location
 ENGI.            BENTSEN:   Recorded By
 WITN.           P. AMEND:   Witnessed by
 ORIG.           5" PRINT:   Origin of data
 UWI .     49025107940000:   Unique Well ID
 DICO. A2D TECHNOLOGIES, INC.:   Digitizing Company
~OTHER INFORMATION
~A   DEPT      SPR       RILM       RILD       SGRD       TENR       NPHI         GRD      CALD       RHOB       DCOR       TEND   
# ...
 1633.5000   -40.1100     8.1760     7.3100     9.1390   844.9010     0.3100    88.8210     8.1810     2.5650     0.0260  1280.5990
 1634.0000   -40.2710     8.1190     7.3180     9.1560   845.3530     0.3100    88.5690     8.1710     2.5560     0.0170  1287.2310
 1634.5000   -40.4190     8.0440     7.3270     9.1680   845.8050     0.3090    87.0930     8.1610     2.5480     0.0070  1293.8630
 1635.0000   -40.3920     8.1150     7.3890     9.1530   846.2560     0.3070    86.1200     8.1510     2.5500     0.0070  1300.4960
 1635.5000   -40.3610     8.2160     7.4590     9.1420   846.7080     0.3080    86.1090     8.1410     2.5560     0.0150  1307.1281
 1636.0000   -40.3290     8.3170     7.5350     9.1300   847.1600     0.3100    85.2290     8.1310     2.5650     0.0250  1313.7600
 1636.5000   -40.2990     8.4170     7.5090     9.1190   847.6110     0.3110    84.0710     8.1210     2.5750     0.0330  1320.3929
 1637.0000   -40.2680     8.5080     7.4800     9.1080   848.0630     0.3110    84.0840     8.1110     2.5800     0.0390  1327.0250
 1637.5000   -40.2370     8.4900     7.4510     9.0960   848.5150     0.3100    82.5480     8.1040     2.5760     0.0410  1333.9919
 1638.0000   -40.2060     8.4730     7.4220     9.0850   848.9660     0.3090    82.0490     8.1020     2.5820     0.0510  1318.5110
 1638.5000   -40.1750     8.4560     7.3930     9.0730   849.4180     0.3110    83.3280     8.0990     2.5880     0.0560  1302.2070
 1639.0000   -40.1440     8.4390     7.3650     9.0620   849.8700     0.3140    82.2000     8.0970     2.5770     0.0460  1285.9030
 1639.5000   -40.1130     8.4220     7.3360     9.0500   850.3210     0.3160    81.9360     8.0950     2.5690     0.0370  1269.5980
 1640.0000   -40.0820     8.4060     7.3210     9.0390   850.7730     0.3140    83.6630     8.0920     2.5730     0.0380  1254.9410
 1640.5000   -40.0510     8.3890     7.3130     9.0270   851.2250     0.3130    83.9720     8.0900     2.5670     0.0360  1269.6281
 1641.0000   -40.0200     8.3720     7.3040     9.0160   851.6760     0.3120    82.1630     8.0870     2.5570     0.0270  1282.9680
 1641.5000   -39.9890     8.3550     7.2960     8.9990   852.1280     0.3120    81.2060     8.0850     2.5520     0.0310  1296.3080
 1642.0000   -39.9580     8.3380     7.2870     9.0180   852.5800     0.3150    82.5880     8.0820     2.5530     0.0310  1309.6479
 1642.5000   -39.9270     8.3220     7.2790     9.0560   853.0310     0.3170    81.1210     8.0790     2.5700     0.0460  1315.7590
 1643.0000   -39.8970     8.3050     7.2700     9.0950   853.4830     0.3170    81.6850     8.0760     2.5850     0.0620  1318.0880
 1643.5000   -39.8660     8.2880     7.2620     9.1340   853.9350     0.3170    82.7960     8.0730     2.5970     0.0730  1320.4180
 1644.0000   -39.8350     8.2730     7.2530     9.1680   854.3860     0.3190    82.8210     8.0700     2.6020     0.0760  1322.7469
 1644.5000   -39.8190     8.2570     7.2450     9.1180   854.8380     0.3210    80.6980     8.0660     2.5980     0.0820  1325.0770
 1645.0000   -39.8190     8.2430     7.2360     9.0730   855.2900     0.3200    79.0940     8.0760     2.6010     0.0860  1327.4070
 1645.5000   -39.8190     8.2280     7.2280     9.0280   855.7410     0.3210    80.6080     8.0950     2.6020     0.0820  1329.7360
 1646.0000   -39.8190     8.2140     7.2200     8.9820   856.1930     0.3200    80.5870     8.1130     2.5930     0.0700  1332.0660
 1646.5000   -39.8190     8.1990     7.2110     8.9370   856.6450     0.3150    79.5440     8.1270     2.5860     0.0690  1334.3950
 1647.0000   -39.8190     8.1850     7.2030     8.8920   857.0960     0.3130    82.1770     8.1320     2.5710     0.0580  1336.7250
 1647.5000   -39.8190     8.1700     7.1940     8.8460   857.5480     0.3110    82.7510     8.1370     2.5560     0.0420  1339.0540
 1648.0000   -39.8190     8.1560     7.1860     8.8010   858.0000     0.3120    83.0780     8.1430     2.5490     0.0390  1341.3840
 1648.5000   -39.8190     8.1420     7.1770     8.7560   858.4510     0.3120    85.4970     8.1480     2.5530     0.0350  1343.7130
 1649.0000   -39.8190     8.1270     7.1690     8.7100   858.9030     0.3130    84.2490     8.1540     2.5590     0.0330  1346.0430
 1649.5000   -39.8190     8.0940     7.1600     8.6650   859.3550     0.3120    83.0950     8.1590     2.5620     0.0360  1348.3730
 1650.0000   -39.8190     8.0430     7.1520     8.6190   859.8060     0.3130    83.0300     8.1630     2.5430     0.0190  1350.7020
 1650.5000   -39.8190     7.9920     7.1430     8.5740   860.2580     0.3110    80.3560     8.1510     2.5340     0.0000  1353.0320
 1651.0000   -39.8190     7.9410     7.1350     8.5290   860.7100     0.3080    78.7140     8.1390     2.5370     0.0040  1349.7791
 1651.5000   -39.8190     7.8900     7.1270     5.9120   861.1610     0.3050    78.1480     8.1270     2.5490     0.0200  1344.0129
 1652.0000   -39.8190     7.8390     7.1010     6.4230   861.6130     0.3010    78.6050     8.1160     2.5540     0.0400  1338.2469
 1652.5000   -39.8190     7.7880     7.0710     6.8320   862.0690     0.3000    78.7390     8.1050     2.5590     0.0410  1332.4810
 1653.0000   -39.8190     7.7370     7.0410     7.2400   862.5230     0.2990    77.7370     8.1070     2.5680     0.0440  1326.7150
 1653.5000   -39.8190     7.6770     7.0100     7.9940   862.9820     0.2990    76.8720     8.1080     2.5850     0.0590  1320.9490
 1654.0000   -39.8190     7.8140     6.9800     8.1030   863.4410     0.2970    78.4680     8.1100     2.6010     0.0730  1315.1830
 1654.5000   -39.8180     7.9790     6.9500     8.4660   863.9000     0.2950    76.4270     8.1120     2.6130     0.0820  1309.4160
 1655.0000   -39.7380     8.1960     6.9280     8.8740   864.3590     0.2930    81.0790     8.1130     2.6140     0.0700  1303.6500
 1655.5000   -39.6450     8.1300     6.9940     9.0830   864.8180     0.2930    84.3300     8.1150     2.6080     0.0580  1297.8840
 1656.0000   -39.5510     8.0340     7.0470     8.8130   865.2770     0.2990    83.7040     8.1170     2.6010     0.0540  1292.1180
 1656.5000   -39.4580     7.9700     7.0990     8.5080   865.7350     0.3000    84.0780     8.1190     2.5920     0.0510  1286.3521
 1657.0000   -39.3650     8.0740     7.1520     8.5930   866.1940     0.3020    83.6260     8.1200     2.5830     0.0430  1280.5861
 1657.5000   -39.2720     8.1530     7.2040     8.7500   866.6530     0.3040    84.2820     8.1220     2.5720     0.0350  1274.7040
 1658.0000   -39.2190     8.2310     7.2570     8.9070   867.1120     0.3020    83.2650     8.1240     2.5620     0.0230  1283.1290
 1658.5000   -39.2340     8.3100     7.3090     9.0640   867.5710     0.3040    84.6610     8.1240     2.5540     0.0170  1291.7271
 1659.0000   -39.2490     8.3890     7.3610     9.2210   868.0300     0.3030    86.3840     8.1250     2.5570     0.0170  1300.3260
 1659.5000   -39.2640     8.4680     7.4140     9.3410   868.4890     0.3020    85.3750     8.1250     2.5600     0.0170  1308.9240
 1660.0000   -39.2790     8.5880     7.4660     9.3000   868.9470     0.3030    85.9330     8.1250     2.5670     0.0200  1317.5229
 1660.5000   -39.2940     8.5580     7.5350     9.2680   869.4060     0.3020    84.8260     8.1250     2.5700     0.0190  1326.1219
 1661.0000   -39.3090     8.4930     7.5200     9.2350   869.8650     0.3010    86.7290     8.1250     2.5620     0.0110  1334.7200
 1661.5000   -39.3230     8.4290     7.4970     9.2020   870.3240     0.3020    86.3510     8.1250     2.5530     0.0030  1343.3190
 1662.0000   -39.3380     8.3650     7.4750     9.1690   870.7830     0.3020    85.6130     8.1250     2.5530     0.0120  1351.9170
 1662.5000   -39.3530     8.3000     7.4520     9.1360   871.2420     0.3010    84.4750     8.1280     2.5600     0.0170  1360.5160
 1663.0000   -39.3680     8.2360     7.4300     9.1030   871.7010     0.3010    85.4130     8.1350     2.5660     0.0230  1369.1140
 1663.5000   -39.3830     8.1900     7.4070     9.0700   872.1600     0.3020    85.4910     8.1420     2.5620     0.0230  1369.0890
