~VERSION INFORMATION
 VERS.                2.0:   CWLS LOG ASCII STANDARD - VERSION 2.0
 WRAP.                 NO:   ONE LINE PER DEPTH STEP
~WELL INFORMATION
#MNEM.UNIT      DATA TYPE    INFORMATION
#----------   ------------   ------------------------------
 STRT.F          407.0000:   START DEPTH
 STOP.F         3228.0000:   STOP DEPTH
 STEP.F            0.5000:   STEP LENGTH
 NULL.          -999.2500:   NO VALUE
 COMP.    FENIX & SCISSON:   COMPANY
 WELL.   FENIX "A" #21-34:   WELL
 FLD .             N.P.R.:   FIELD
 LOC .      S34 T39N R78W:   LOCATION
 CNTY.            NATRONA:   COUNTY
 STAT.            WYOMING:   STATE
 CTRY. UNITED STATES OF AMERICA:   COUNTRY
 SRVC.       SCHLUMBERGER:   SERVICE COMPANY
 DATE.        05-MAY-1977:   LOGDATE
 API .     49025103710000:   API NUMBER
~CURVE INFORMATION
#MNEM.UNIT       API CODE    CURVE DESCRIPTION
#----------   ------------   ------------------------------
 DEPT.F                  :   
 SPR .MV     11 010 01 00:   SPONTANEOUS POTENTIAL FROM RES.
 LLS .OHMM   11 220 09 00:   LATEROLOG LOG SHALLOW
 LLD .OHMM   11 220 10 00:   LATEROLOG DEEP
 MSFL.OHMM   11 270 04 00:   MICRO SPHERICALLY FOCUSED
 CALD.IN     45 280 60 00:   CALIPER FROM DENSITY LOG
 NPHI.DEC    42 890 03 00:   NEUTRON POROSITY SANDSTONE
 GRD .GAPI   45 310 01 00:   GAMMA RAY FROM DENSITY LOG
 CORR.G/C3   45 356 01 00:   DENSITY CORRECTION
 RHOB.G/C3   45 350 01 00:   BULK DENSITY
~PARAMETER INFORMATION
#MNEM.UNIT          VALUE    DESCRIPTION
#----------   ------------   ------------------------------
 EKB .F         5086.0000:   Kelly bushing
 EGL .F         5074.0000:   Ground level
 TD  .F         3226.0000:   Total depth
 CLNT.            A2DTECH:   Client Code
 SL  . 990' FWL & 330' FNL:   Surface Location
 PD  .                 GL:   Permanent Datum
 EPD .F              5074:   Elevation Permanent Datum
 LMF .                 KB:   Log Measured From
 DMF .                 KB:   Drilling Measured From
 DAPD.F                12:   Feet Above Permanent Datum
 DATE.        05-MAY-1977:   Date Logged [DD-MMM-YYYY]
 DD  .F              3226:   Depth driller
 DL  .F              3229:   Depth logger
 BLI .F              3227:   Bottom log interval
 TLI .F               430:   Top log interval
 CS1 .IN            8.625:   Casing size
 CBD1.      8.625" @ 424':   Casing driller 1
 CBL1.F               430:   Casing logger 1
 BS1 .IN            7.875:   Bit size
 BSD1.F              3226:   Depth drilled with bit1
 DFT .                KCL:   Type fluid in hole
 DFD .                9.4:   Density
 DFV .                 31:   Viscosity
 DFPH.                  8:   pH
 DFL .                9.6:   Fluid loss
 MSS .           MUD TANK:   Source of sample
 RMS .OHMM          0.202:   Rm
 MST .F                78:   Rm Meas. temp.
 RMF .OHMM          0.191:   Rmf
 MFST.F                76:   Rmf Meas. temp.
 MFSS.               MEAS:   Source Rmf.
 RMC .OHMM           0.30:   Rmc
 MCST.F                78:   Rmc Meas. temp.
 MCSS.               CALC:   Source Rmc.
 RMB .OHMM          0.123:   Rm. at BHT
 BHT .F               128:   BHT.
 TCS .HRS            1400:   Time Circ. stopped
 TLAB.HRS            0300:   Time logger at bottom
 MRT .F               128:   Maximum recorded temp.
 LUN .               5642:   Logging unit number
 LUL .               CSPR:   Logging unit location
 ENGI.                FIX:   Recorded By
 WITN.         HARRINGTON:   Witnessed by
 ORIG.           5" PRINT:   Origin of data
 UWI .     49025103710000:   Unique Well ID
 DICO. A2D TECHNOLOGIES, INC.:   Digitizing Company
~OTHER INFORMATION
~A   DEPT      SPR        LLS        LLD       MSFL       CALD       NPHI         GRD      CORR       RHOB   
# ...
 2086.0000   -33.2177     9.3896     7.6192    10.5744     8.3710     0.3386   111.1888     0.0137     2.4419
 2086.5000   -33.2367     9.5964     7.6811    10.1564     8.3710     0.3482   112.1093     0.0237     2.4495
 2087.0000   -33.2344     9.5399     7.4797     9.7549     8.3710     0.3442   108.5308     0.0321     2.4587
 2087.5000   -33.2309     9.2246     7.2836     9.3693     8.3710     0.3502   103.8183     0.0314     2.4420
 2088.0000   -33.2428     8.9198     7.0760     8.8582     8.3710     0.3574    95.2713     0.0201     2.4393
 2088.5000   -33.4343     8.5558     6.5360     7.7390     8.3710     0.3631    92.5889     0.0233     2.4477
 2089.0000   -34.0815     8.0937     6.1906     7.4331     8.3710     0.3573    90.8088     0.0264     2.4606
 2089.5000   -34.5735     7.5266     5.8230     7.0411     8.3710     0.3522    87.4497     0.0106     2.4555
 2090.0000   -34.7503     6.6975     5.4772     6.7161     8.3710     0.3521    90.4064     0.0069     2.4398
 2090.5000   -35.5861     6.1697     5.2587     6.6758     8.3710     0.3402    95.1677     0.0040     2.4482
 2091.0000   -35.9837     5.9247     5.1223     6.8264     8.3710     0.3417    94.5153     0.0033     2.4423
 2091.5000   -37.9014     5.8491     5.1282     7.6355     8.3710     0.3450    98.7945     0.0072     2.4454
 2092.0000   -38.6506     5.7731     5.2784     9.0271     8.3710     0.3405   104.2634     0.0095     2.4500
 2092.5000   -41.1349     6.2813     5.8634    10.1673     8.3710     0.3389    96.1735     0.0111     2.4411
 2093.0000   -39.1730     7.7934     6.8040    10.7638     8.3710     0.3461    91.6866     0.0105     2.4548
 2093.5000   -43.9751     8.4773     7.8354    11.1526     8.3710     0.3530    90.1321     0.0089     2.4568
 2094.0000   -42.1610     8.7849     8.2652    10.8640     8.3710     0.3499    86.9986     0.0038     2.4497
 2094.5000   -45.1805     8.7283     7.7207     9.6692     8.3710     0.3309    83.1884     0.0009     2.4513
 2095.0000   -43.5851     8.3096     7.4148     8.1420     8.3710     0.3113    80.2804     0.0033     2.4552
 2095.5000   -42.6565     7.4644     6.9745     7.1469     8.3710     0.3061    79.8476     0.0041     2.4613
 2096.0000   -41.8632     6.5963     6.3369     6.4496     8.3832     0.3063    82.3593    -0.0003     2.4549
 2096.5000   -42.3603     5.7889     5.3721     6.0673     8.4067     0.3193    85.9927    -0.0018     2.4412
 2097.0000   -42.6487     5.4447     4.4604     5.9480     8.4278     0.3277    90.9795     0.0036     2.4640
 2097.5000   -44.6701     5.2647     4.0247     6.4286     8.4207     0.3358    97.3196     0.0045     2.4648
 2098.0000   -44.7585     5.2324     4.0573     7.0427     8.3255     0.3532   108.5302     0.0038     2.4529
 2098.5000   -44.2469     5.5760     4.6442     7.7274     8.3302     0.3652   114.5120    -0.0014     2.4427
 2099.0000   -44.9329     6.1499     5.3267     8.3538     8.3315     0.3721   113.6395    -0.0007     2.4214
 2099.5000   -44.0642     6.6896     6.1724     8.7638     8.3306     0.3744   109.3782     0.0260     2.4382
 2100.0000   -43.2901     7.1270     6.3514     8.8328     8.3296     0.3714   103.3123     0.0306     2.4691
 2100.5000   -44.4205     7.0202     5.9347     7.4400     8.3287     0.3557   105.5924     0.0224     2.4814
 2101.0000   -46.4549     6.3271     5.3645     7.0454     8.3277     0.3409   106.7385     0.0172     2.4768
 2101.5000   -48.0590     5.8093     4.8577     7.0054     8.3267     0.3366   105.4095     0.0188     2.4589
 2102.0000   -48.8869     5.8327     4.7994     7.2632     8.3257     0.3483   108.5918     0.0234     2.4567
 2102.5000   -46.3469     6.1256     5.0081     7.4763     8.3247     0.3540   103.6598     0.0319     2.4591
 2103.0000   -47.0099     6.2918     5.0139     7.4854     8.3237     0.3552   101.2030     0.0213     2.4517
 2103.5000   -47.5615     6.4579     5.0535     8.0878     8.3227     0.3533   102.1297     0.0011     2.4307
 2104.0000   -48.4798     6.5289     5.0583     8.8584     8.3217     0.3494   108.7155    -0.0019     2.4232
 2104.5000   -46.9999     6.7219     5.2416     9.5005     8.3207     0.3470   118.8925     0.0164     2.4429
 2105.0000   -46.3837     7.3128     6.3701    10.1426     8.3197     0.3683   121.8514     0.0120     2.4490
 2105.5000   -46.3259     8.1790     7.4264    11.0938     8.3187     0.3828   118.4945     0.0030     2.4341
 2106.0000   -46.3219     9.1479     7.6423    11.1837     8.3177     0.3810   115.1376     0.0016     2.4259
 2106.5000   -46.1386     9.8834     7.6496    10.8156     8.3167     0.3621   111.7808     0.0002     2.4222
 2107.0000   -45.9402     9.6873     7.2374    10.2444     8.3157     0.3539   109.7599     0.0002     2.4286
 2107.5000   -46.3631     9.1795     6.9396     9.7035     8.3147     0.3470   105.6074     0.0034     2.4307
 2108.0000   -45.6641     8.9390     6.4974     9.3193     8.3137     0.3421    97.8292     0.0088     2.4187
 2108.5000   -44.9170     8.7678     6.2387     8.9503     8.3127     0.3381    92.9464     0.0020     2.4316
 2109.0000   -44.1712     8.3048     6.0319     8.9606     8.3116     0.3294    90.9362     0.0100     2.4498
 2109.5000   -43.7555     7.8120     5.9120     9.1097     8.3130     0.3209    91.8717    -0.0015     2.4620
 2110.0000   -43.7294     7.3995     5.8767     9.4956     8.3149     0.3326    94.6050     0.0024     2.4741
 2110.5000   -43.4631     7.3040     6.1761     9.6391     8.3168     0.3486    96.4361     0.0123     2.4847
 2111.0000   -42.3698     7.5199     6.3118     9.7848     8.3186     0.3536    94.4326     0.0215     2.4901
 2111.5000   -42.1083     8.0127     6.3178     9.9326     8.3205     0.3484    95.3548     0.0125     2.4827
 2112.0000   -42.6055     8.4204     6.5954     9.9441     8.3224     0.3411    90.4257     0.0186     2.4759
 2112.5000   -43.8922     8.7273     6.9349     9.8186     8.3242     0.3339    87.2943     0.0354     2.4896
 2113.0000   -42.9420     8.5367     6.9813     9.5613     8.3261     0.3269    85.7420     0.0491     2.5057
 2113.5000   -41.9006     8.1079     6.5669     9.4403     8.3280     0.3205    86.6708     0.0431     2.4898
 2114.0000   -40.6671     7.8955     6.3039     9.3862     8.3298     0.3217    89.6664     0.0183     2.5035
 2114.5000   -40.0210     7.7936     6.3995     9.7337     8.3317     0.3289    93.1552     0.0002     2.4765
 2115.0000   -38.9494     8.4226     6.7707    10.2424     8.3336     0.3325    97.1331    -0.0088     2.4653
 2115.5000   -38.1247     8.7293     7.3648    10.5986     8.3354     0.3288   100.5432    -0.0094     2.4556
 2116.0000   -35.7196     8.5006     7.5296    10.6108     8.3373     0.3246    99.4419    -0.0048     2.4512
 2116.5000   -37.5610     8.0517     7.6933    10.1203     8.3392     0.3396    97.6640     0.0014     2.4513
 2117.0000   -39.0827     7.9501     7.1850     8.8215     8.3410     0.3305    98.8184     0.0128     2.4566
 2117.5000   -38.9441     7.9593     6.8039     7.8508     8.3429     0.3253   102.4540     0.0258     2.4673
 2118.0000   -37.7817     7.6821     6.0956     7.2834     8.3447     0.3349   107.4430     0.0357     2.4742
 2118.5000   -38.8301     7.1429     5.3858     6.9950     8.3466     0.3478   105.8840     0.0055     2.4622
 2119.0000   -39.0066     6.0561     5.0299     6.9545     8.3485     0.3487   109.3007    -0.0027     2.4700
 2119.5000   -38.4042     5.8551     4.8295     7.2581     8.3504     0.3478   117.8987     0.0072     2.4822
 2120.0000   -36.5901     6.2406     4.7677     8.0212     8.3511     0.3586   126.2711     0.0179     2.4700
 2120.5000   -35.6342     6.7891     5.1365     9.1207     8.3474     0.3598   129.6812     0.0271     2.4799
 2121.0000   -35.7282     7.3349     5.8010     9.7446     8.3434     0.3554   127.5885     0.0204     2.4620
 2121.5000   -35.8104     7.2927     6.3101     9.3587     8.3393     0.3512   124.2180     0.0167     2.4681
 2122.0000   -36.2525     6.9556     6.6761     8.2714     8.3353     0.3819   119.8427     0.0138     2.4554
