~VERSION INFORMATION
 VERS.                2.0:   CWLS LOG ASCII STANDARD - VERSION 2.0
 WRAP.                 NO:   ONE LINE PER DEPTH STEP
~WELL INFORMATION
#MNEM.UNIT      DATA TYPE    INFORMATION
#----------   ------------   ------------------------------
 STRT.F            0.0000:   START DEPTH
 STOP.F         3474.0000:   STOP DEPTH
 STEP.F            0.5000:   STEP LENGTH
 NULL.          -999.2500:   NO VALUE
 COMP. LAWRENCE ALLISON & ASSOCIATES:   COMPANY
 WELL. LAWRENCE ALLISON #13-AX-14:   WELL
 FLD .            WILDCAT:   FIELD
 LOC .      S14 T38N R78W:   LOCATION
 CNTY.            NATRONA:   COUNTY
 STAT.            WYOMING:   STATE
 CTRY. UNITED STATES OF AMERICA:   COUNTRY
 SRVC.      DRESSER ATLAS:   SERVICE COMPANY
 DATE.        31-MAR-1986:   LOGDATE
 API .     49025110640000:   API NUMBER
~CURVE INFORMATION
#MNEM.UNIT       API CODE    CURVE DESCRIPTION
#----------   ------------   ------------------------------
 DEPT.F                  :   
 TEND.LBS    45 635 01 00:   TENSION FROM DENSITY LOG
 RHOB.G/C3   45 350 01 00:   BULK DENSITY
 CORR.G/C3   45 356 01 00:   DENSITY CORRECTION
 CALD.IN     45 280 60 00:   CALIPER FROM DENSITY LOG
 NPHI.DEC    42 890 00 00:   NEUTRON POROSITY
 TENR.LBS    07 635 01 00:   TENSION FROM RESISTIVITY
 RFOC.OHMM   07 220 01 00:   RESISTIVITY FOCUSED LOG RES.
 RILD.OHMM   07 120 46 00:   DEEP INDUCTION RESISTIVITY
 RILM.OHMM   07 120 44 00:   INDUCTION LOG MEDIUM RESISTIVITY
 GRR .GAPI   07 310 01 00:   GAMMA RAY FROM RESISTIVITY
 SPR .MV     07 010 01 00:   SPONTANEOUS POTENTIAL
 TENS.LBS    60 635 01 00:   TENSION FROM SONIC LOG
 DT  .US/F   60 520 00 00:   DELTA TIME
~PARAMETER INFORMATION
#MNEM.UNIT          VALUE    DESCRIPTION
#----------   ------------   ------------------------------
 EKB .F         5251.0000:   Kelly bushing
 EGL .F         5239.2000:   Ground level
 EDF .F         5248.1000:   Drilling floor
 TD  .F         3456.0000:   Total depth
 DATE.        31-MAR-1986:   Date logged
 CLNT.            A2DTECH:   Client Code
 SL  . 238' FWL & 1739' FNL:   Surface Location
 PD  .                 GL:   Permanent Datum
 EPD .F            5239.2:   Elevation Permanent Datum
 LMF .                 KB:   Log Measured From
 DMF .                 KB:   Drilling Measured From
 DAPD.F              11.8:   Feet Above Permanent Datum
 DD  .F              3450:   Depth driller
 DL  .F              3456:   Depth logger
 BLI .F              3450:   Bottom log interval
 CS1 .IN            8.625:   Casing size
 CBD1.      8.625" @ 689':   Casing driller 1
 CBL1.F               692:   Casing logger 1
 BS1 .IN            7.875:   Bit size
 BSD1.F              3450:   Depth drilled with bit1
 DFT .        POLYMER/KCL:   Type fluid in hole
 DFD .                9.1:   Density
 DFV .                 38:   Viscosity
 DFPH.                8.5:   pH
 DFL .               11.2:   Fluid loss
 MSS .           FLOWLINE:   Source of sample
 RMS .OHMM            .29:   Rm
 MST .F                65:   Rm Meas. temp.
 RMF .OHMM           .235:   Rmf
 MFST.F                65:   Rmf Meas. temp.
 RMC .OHMM           .378:   Rmc
 MCST.F                65:   Rmc Meas. temp.
 MFSS.               MEAS:   Source Rmf.
 MCSS.               MEAS:   Source Rmc.
 RMB .OHMM           .163:   Rm. at BHT
 BHT .F               115:   BHT.
 TCS .HRS               3:   Time Circ. stopped
 MRT .F               115:   Maximum recorded temp.
 LUN .            HL-6274:   Logging unit number
 LUL .           GILLETTE:   Logging unit location
 ENGI.             RAUTIO:   Recorded By
 WITN.             STRONG:   Witnessed by
 ORIG.           5" PRINT:   Origin of data
 UWI .     49025110640000:   Unique Well ID
 DICO. A2D TECHNOLOGIES, INC.:   Digitizing Company
~OTHER INFORMATION
~A    DEPT    TEND       RHOB       CORR       CALD       NPHI       TENR       RFOC       RILD       RILM          GRR      SPR       TENS         DT   
# ...
 3432.0000   195.4450     2.5500     0.0320     7.7890     0.2410   390.8750     6.7380     4.5610     4.8390  -999.2500   -13.7500   408.2140  -999.2500
 3432.5000   197.3640     2.5390     0.0440     7.7960     0.2460   396.3070     5.6330     4.3540     4.5810  -999.2500   -13.4590   418.9660  -999.2500
 3433.0000   201.4680     2.5190     0.0470     7.8040     0.2540   401.7390     4.9570     4.1500     4.3220  -999.2500   -13.1170   429.7170  -999.2500
 3433.5000   205.5720     2.5070     0.0440     7.8120     0.2640   407.1720     5.0710     3.9460     4.0830  -999.2500   -12.7760   440.4690  -999.2500
 3434.0000   209.6760     2.5030     0.0400     7.8200     0.2730   412.6040     5.2390     3.6880     4.0370  -999.2500   -12.4340   451.2200  -999.2500
 3434.5000   213.7800     2.5010     0.0390     7.8290     0.2820   418.0360     5.1590     3.7070     3.9770  -999.2500   -12.0230   461.9710  -999.2500
 3435.0000   217.8850     2.5020     0.0440     7.8330     0.2850   423.4680     5.0490     3.7430     3.9350  -999.2500   -11.5320   465.7160  -999.2500
 3435.5000   221.9890     2.5080     0.0490     7.8330     0.2820   428.9000     5.1470     3.7780     3.9700  -999.2500   -11.0690   465.7160  -999.2500
 3436.0000   226.0930     2.5170     0.0540     7.8330     0.2750   434.3320     5.2550     3.8140     3.9970  -999.2500   -11.0540   466.7370  -999.2500
 3436.5000   230.1970     2.5260     0.0550     7.8330     0.2680   439.7640     5.3370     3.8500     4.0240  -999.2500   -11.0560   471.6520  -999.2500
 3437.0000   234.3010     2.5260     0.0500     7.8330     0.2700   445.1960     5.2490     3.9080     4.0450  -999.2500   -11.0560   476.5670  -999.2500
 3437.5000   238.4050     2.5250     0.0450     7.8330     0.2700   450.6280     5.1440     3.9790     4.1590  -999.2500   -11.0560   481.4810  -999.2500
 3438.0000   242.5090     2.5160     0.0460     7.8330     0.2690   456.0600     5.2350     4.0080     4.3160  -999.2500   -11.0590   486.3960  -999.2500
 3438.5000   248.7150     2.5040     0.0520     7.8330     0.2730   461.4920     5.4370     4.2120     4.4780  -999.2500   -11.0600   491.3110  -999.2500
 3439.0000   260.5350     2.4920     0.0560     7.8330     0.2770   466.9240     5.3980     4.4210     4.6470  -999.2500   -11.4090   496.2260  -999.2500
 3439.5000   272.3540     2.4800     0.0590     7.8330     0.2750   472.3570     5.3870     4.6520     4.9570  -999.2500   -12.0980   501.1410  -999.2500
 3440.0000   284.1740     2.4680     0.0630     7.8340     0.2730   477.7890     5.6680     5.0460     5.3870  -999.2500   -12.7870   505.7560  -999.2500
 3440.5000   295.9940     2.4690     0.0640     7.8490     0.2680   483.2210     6.4040     5.4390     5.8540  -999.2500   -13.4340   513.7830  -999.2500
 3441.0000   305.5560     2.4850     0.0580     7.8650     0.2590   491.3290     8.2090     5.8330     7.1160  -999.2500   -13.5210   523.1450  -999.2500
 3441.5000   305.5560     2.5030     0.0500     7.8710     0.2500   506.8490    10.5060     6.1300     8.2830  -999.2500   -13.5890   532.5060  -999.2500
 3442.0000   305.5560     2.5200     0.0340     7.8680     0.2420   522.3700    12.8030     6.2110     9.4500  -999.2500   -13.6580   541.8680  -999.2500
 3442.5000   305.5560     2.5370     0.0180     7.8640     0.2250   537.8900    13.9150     6.2450    10.3790  -999.2500   -13.7260   555.8060  -999.2500
 3443.0000   305.5560     2.5510     0.0100     7.8610     0.2140   549.3540    14.2100     6.2450    10.6430  -999.2500   -13.7960   560.5710  -999.2500
 3443.5000   310.6410     2.5570     0.0160     7.8580     0.2050   554.4130    13.6970     6.2330    10.9070  -999.2500   -13.8620   565.4850  -999.2500
 3444.0000   320.4900     2.5620     0.0160     7.8540     0.2000   559.4730    12.6700     6.2190    11.1930  -999.2500   -13.7780   570.4000  -999.2500
 3444.5000   330.3400     2.5580     0.0150     7.8640     0.1860   564.5320    11.3840     6.2030    11.4880  -999.2500    -8.5610   575.3150  -999.2500
 3445.0000   340.1900     2.5520     0.0160     7.8870     0.1770   569.5910    11.2790     6.1860    11.8130  -999.2500    -2.5870   580.2300  -999.2500
 3445.5000   345.5960     2.5510     0.0220     7.9100     0.1750   574.6500    12.0760     6.1890  -999.2500  -999.2500    -0.4990   585.1450  -999.2500
 3446.0000   345.5960     2.5670     0.0330     7.9320     0.1780   579.7100    13.2730     6.1280  -999.2500  -999.2500    -0.3580   587.8060  -999.2500
 3446.5000   345.5960     2.5850     0.0350     7.9490     0.1830   584.7690    13.4440     6.1300  -999.2500  -999.2500    -0.2870   595.7330  -999.2500
 3447.0000   349.3710     2.5920     0.0330     7.9370     0.1830   589.8280    12.1510     6.1250  -999.2500  -999.2500    -0.9100   603.6600  -999.2500
 3447.5000   358.7520     2.5780     0.0320     7.9260     0.1820   594.8880    11.1130     6.1120  -999.2500  -999.2500    -1.5710   611.5870  -999.2500
 3448.0000   368.1320     2.5610     0.0330     7.9140     0.1820   599.9470    10.0750     6.1000  -999.2500  -999.2500    -2.2730   619.5150  -999.2500
 3448.5000   377.5130     2.5440     0.0360     7.9120     0.1870   605.0060     9.0370     6.0870  -999.2500  -999.2500    -6.8290   627.4420  -999.2500
 3449.0000   385.6360     2.5320     0.0390     7.9120     0.1900   610.0650     7.9990     6.0740  -999.2500  -999.2500   -13.9460   635.8860  -999.2500
 3449.5000   393.1130     2.5270     0.0420     7.9120     0.1870   615.1250     7.3650     6.0740  -999.2500  -999.2500   -21.1450   629.5700  -999.2500
 3450.0000   401.1460     2.5210     0.0410     7.9120     0.1840   611.3580     7.0890     6.0740  -999.2500  -999.2500   -28.6160   610.0670  -999.2500
 3450.5000   409.1780     2.5150     0.0370     7.9120     0.1880   518.4010     6.8130     6.0750  -999.2500  -999.2500  -999.2500   575.8260  -999.2500
 3451.0000   417.2110     2.5030     0.0360     7.9120     0.1910   389.3030     6.6280     6.0700  -999.2500  -999.2500  -999.2500   445.5580  -999.2500
 3451.5000   425.2430     2.4910     0.0400     7.9120     0.1890   260.2040     6.6010     6.1270  -999.2500  -999.2500  -999.2500   322.9520  -999.2500
 3452.0000   433.2760     2.4820     0.0440     7.9120     0.1840   131.1050  -999.2500     6.1300  -999.2500  -999.2500  -999.2500   200.3470  -999.2500
 3452.5000   441.3080     2.4830     0.0450     7.9120     0.1820     2.0060  -999.2500  -999.2500  -999.2500  -999.2500  -999.2500    77.7420  -999.2500
 3453.0000   445.6960     2.4840     0.0410     7.9120     0.1860  -104.1180  -999.2500  -999.2500  -999.2500  -999.2500  -999.2500   -44.8640  -999.2500
 3453.5000   445.6960     2.4850     0.0290     7.9120     0.1870  -163.5740  -999.2500  -999.2500  -999.2500  -999.2500  -999.2500  -164.9150  -999.2500
 3454.0000   435.6860     2.4760     0.0160     7.9120     0.1840  -198.1900  -999.2500  -999.2500  -999.2500  -999.2500  -999.2500  -194.9450  -999.2500
 3454.5000   417.8110     2.4670     0.0080     7.9120     0.1810  -205.2660  -999.2500  -999.2500  -999.2500  -999.2500  -999.2500  -204.9550  -999.2500
 3455.0000   369.3100     2.4590     0.0080     7.9120     0.1830  -212.3420  -999.2500  -999.2500  -999.2500  -999.2500  -999.2500  -204.9550  -999.2500
 3455.5000   248.7730     2.4560     0.0110     7.9130     0.1860  -219.4170  -999.2500  -999.2500  -999.2500  -999.2500  -999.2500  -204.9550  -999.2500
 3456.0000   128.2350     2.4530     0.0140     7.9180     0.1900  -226.4930  -999.2500  -999.2500  -999.2500  -999.2500  -999.2500  -204.9550  -999.2500
 3456.5000     7.6980     2.4500     0.0170     7.9230     0.1930  -233.5690  -999.2500  -999.2500  -999.2500  -999.2500  -999.2500  -204.9550  -999.2500
 3457.0000  -114.8650     2.4450     0.0170     7.9280     0.1910  -240.6450  -999.2500  -999.2500  -999.2500  -999.2500  -999.2500  -204.9550  -999.2500
 3457.5000  -134.8850     2.4400     0.0160  -999.2500     0.1840  -247.7200  -999.2500  -999.2500  -999.2500  -999.2500  -999.2500  -204.9550  -999.2500
