~VERSION INFORMATION
 VERS.                2.0:   CWLS LOG ASCII STANDARD - VERSION 2.0
 WRAP.                 NO:   ONE LINE PER DEPTH STEP
~WELL INFORMATION
#MNEM.UNIT      DATA TYPE    INFORMATION
#----------   ------------   ------------------------------
 STRT.F            0.0000:   START DEPTH
 STOP.F         5670.0000:   STOP DEPTH
 STEP.F            0.5000:   STEP LENGTH
 NULL.          -999.2500:   NO VALUE
 COMP.          INTEX OIL:   COMPANY
 WELL.    INTEX TP #71-15:   WELL
 FLD .             TEAPOT:   FIELD
 LOC .      S15 T38N R78W:   LOCATION
 CNTY.            NATRONA:   COUNTY
 STAT.            WYOMING:   STATE
 CTRY. UNITED STATES OF AMERICA:   COUNTRY
 SRVC.       SCHLUMBERGER:   SERVICE COMPANY
 DATE.        05-AUG-1966:   LOGDATE
 API .     49025097110000:   API NUMBER
~CURVE INFORMATION
#MNEM.UNIT       API CODE    CURVE DESCRIPTION
#----------   ------------   ------------------------------
 DEPT.F                  :   
 GRD .GAPI   45 310 01 00:   GAMMA RAY FROM DENSITY LOG
 CALD.IN     45 280 60 00:   CALIPER FROM DENSITY LOG
 CORR.G/C3   45 356 01 00:   DENSITY CORRECTION
 RHOB.G/C3   45 350 01 00:   BULK DENSITY
 SPR .MV     05 010 01 00:   SPONTANEOUS POTENTIAL FROM RES.
 ASN .OHMM   05 041 16 00:   AMPLIFIED SHORT NORMAL 16"
 ILD .OHMM   05 120 46 00:   INDUCTION LOG DEEP RESISTIVITY
~PARAMETER INFORMATION
#MNEM.UNIT          VALUE    DESCRIPTION
#----------   ------------   ------------------------------
 EKB .F         5247.5500:   Kelly bushing
 EGL .F         5236.1000:   Ground level
 EDF .F            0.0000:   Drilling floor
 EPD .F         5236.1000:   Permanent datum
 TD  .F         5670.0000:   Total depth
 CLNT.            A2DTECH:   Client Code
 SL  . 610' FNL & 710' FEL:   Surface Location
 PD  .                 GL:   Permanent Datum
 LMF .                 KB:   Log Measured From
 DMF .                 KB:   Drilling Measured From
 DAPD.F             11.45:   Feet Above Permanent Datum
 DATE.        05-AUG-1966:   Date Logged [DD-MMM-YYYY]
 DD  .F              5665:   Depth driller
 DL  .F              5670:   Depth logger
 BLI .F              5669:   Bottom log interval
 TLI .F              5551:   Top log interval
 CS1 .IN            10.75:   Casing size
 CBD1.    10.75" @ 567.9':   Casing driller 1
 CBL1.F               569:   Casing logger 1
 BS1 .IN           8.9375:   Bit size
 BSD1.F              5665:   Depth drilled with bit1
 DFT .            DEXTRID:   Type fluid in hole
 DFD .                9.4:   Density
 DFV .                 59:   Viscosity
 DFPH.                7.5:   pH
 DFL .                8.2:   Fluid loss
 MSS .           FLOWLINE:   Source of sample
 RMS .OHMM           1.80:   Rm
 MST .F                72:   Rm Meas. temp.
 RMF .OHMM           1.00:   Rmf
 MFST.F                82:   Rmf Meas. temp.
 MFSS.               MEAS:   Source Rmf.
 BHT .F               163:   BHT.
 TCS .HRS               3:   Time Circ. stopped
 MRT .F               163:   Maximum recorded temp.
 LUN .               4507:   Logging unit number
 LUL .               CSPR:   Logging unit location
 ENGI.            MANGOLD:   Recorded By
 ORIG.      2.5" 5" PRINT:   Origin of data
 UWI .     49025097110000:   Unique Well ID
 DICO. A2D TECHNOLOGIES, INC.:   Digitizing Company
~OTHER INFORMATION
~A    DEPT      GRD      CALD       CORR       RHOB        SPR        ASN        ILD   
# ...
 2320.5000    84.0403    10.5168     0.0144     2.5564   -67.5374    14.6260    10.4738
 2321.0000    84.4761    10.5171     0.0145     2.5475   -67.6706    14.7820    10.4825
 2321.5000    85.9183    10.5174     0.0145     2.5540   -67.6457    14.8633    10.4163
 2322.0000    92.3166    10.5177     0.0146     2.5580   -67.6216    14.8698    10.3502
 2322.5000   100.3960    10.5180     0.0146     2.5440   -67.5999    14.6537    10.2092
 2323.0000   107.1282    10.5183     0.0147     2.5118   -67.7280    14.6592    10.0682
 2323.5000   112.0640    10.5186     0.0117     2.4864   -67.7055    14.6659     9.9864
 2324.0000   113.4072    10.5189     0.0014     2.4704   -67.8335    14.6733     9.9359
 2324.5000   111.1571    10.5192    -0.0015     2.4843   -67.8102    14.6798     9.9468
 2325.0000   110.2545    10.5496     0.0030     2.5030   -67.7846    14.6864     9.8802
 2325.5000   112.0997    10.5498     0.0060     2.5044   -67.7628    14.6182     9.8144
 2326.0000   113.8386    10.5566     0.0075     2.4926   -67.8905    14.4693     9.8234
 2326.5000   110.9775    10.5805     0.0105     2.4907   -67.8688    14.4070     9.9089
 2327.0000   110.2371    10.6108     0.0137     2.5062   -67.8470    14.4151     9.9176
 2327.5000   113.1966    10.6111     0.0295     2.5301   -67.8251    14.3453     9.9263
 2328.0000   114.2702    10.6114     0.0543     2.5541   -67.6532    14.2787    10.0098
 2328.5000   113.4381    10.6117     0.0622     2.5661   -67.6308    14.1341     9.9415
 2329.0000   111.1529    10.6120     0.0726     2.5661   -67.6084    14.0659     9.8772
 2329.5000   108.3815    10.6423     0.0570     2.5601   -67.5833    13.9245     9.8114
 2330.0000   105.2686    10.6426     0.0341     2.5385   -67.5635    13.7731     9.7452
 2330.5000   104.8151    10.6429     0.0214     2.4904   -67.5398    13.5539     9.7561
 2331.0000   107.0563    10.6432     0.0088     2.4519   -67.3685    13.4880     9.6151
 2331.5000   108.3992    10.6435     0.0080     2.4468   -67.3468    13.4204     9.5468
 2332.0000   110.1913    10.6587     0.0202     2.4507   -67.3244    13.3528     9.4806
 2332.5000   111.9833    10.7197     0.0357     2.4625   -67.1483    13.1354     9.3418
 2333.0000   112.8773    10.7508     0.0304     2.4961   -67.1266    12.9199     9.2008
 2333.5000   109.6604    10.7649     0.0215     2.5366   -67.2543    12.8504     9.1284
 2334.0000   104.7844    10.7351     0.0212     2.5600   -67.0399    12.5600     8.6816
 2334.5000   104.7799    10.7355     0.0201     2.5673   -66.7624    12.3360     8.1812
 2335.0000   104.3263    10.7358     0.0172     2.5323   -66.7406    11.9774     7.6659
 2335.5000   103.7557    10.7361     0.0158     2.5249   -66.7188    11.6103     7.0758
 2336.0000   103.2755    10.7664     0.0173     2.5428   -66.6966    11.3181     6.7102
 2336.5000   102.7948    10.8568     0.0307     2.5743   -66.6699    10.5768     6.5671
 2337.0000   101.2184    10.8871     0.0555     2.5848   -66.6481    10.0601     6.5779
 2337.5000    98.6901    10.8874     0.0994     2.5878   -66.6264     9.7086     6.5868
 2338.0000    95.7128    10.8877     0.1020     2.5729   -66.6046     9.5060     6.5975
 2338.5000    93.9647    10.8580     0.0739     2.5366   -66.5828     9.9637     6.7559
 2339.0000    93.9604    10.8282     0.0344     2.5161   -66.5620    10.0901     6.9143
 2339.5000    93.9560    10.7985     0.0250     2.5295   -66.5393    10.2476     7.2224
 2340.0000    93.9517    10.7988     0.0290     2.5653   -66.5172    10.4915     7.6054
 2340.5000    94.3964    10.7991     0.0331     2.5806   -66.4904    10.7123     7.9883
 2341.0000    94.8413    10.7694     0.0362     2.5752   -66.4686    10.8692     8.2964
 2341.5000    95.2859    10.7697     0.0371     2.5717   -66.6018    11.1009     8.4551
 2342.0000    94.8143    10.7700     0.0371     2.5724   -66.7295    11.3327     8.6154
 2342.5000    93.7489    10.7703     0.0348     2.5533   -66.8572    11.5644     8.6989
 2343.0000    90.0450    10.7706     0.0268     2.5435   -66.9795    11.8801     8.7825
 2343.5000    86.0424    10.7709     0.0239     2.5495   -66.9577    12.2543     8.7912
 2344.0000    80.9635    10.7712     0.0225     2.5705   -66.9357    12.4094     8.7999
 2344.5000    78.9386    10.7738     0.0240     2.5795   -66.9133    12.2669     8.8834
 2345.0000    78.6386    10.8018     0.0270     2.5855   -66.8870    12.2759     9.0445
 2345.5000    79.7379    10.7984     0.0330     2.5855   -66.8685    12.3579     9.2128
 2346.0000    82.4913    10.7724     0.0375     2.5736   -66.6940    12.5200     9.4357
 2346.5000    85.8813    10.7727     0.0435     2.5542   -66.6722    12.8232     9.5192
 2347.0000    86.4162    10.7730     0.0539     2.5199   -66.6505    13.1299     9.6776
 2347.5000    85.3511    10.7733     0.0604     2.5155   -66.4792    13.2868     9.7612
 2348.0000    83.9995    10.7736     0.0711     2.5480   -66.3079    13.2940     9.6202
 2348.5000    82.6478    10.7739     0.0845     2.5619   -66.2754    13.0766     9.2546
 2349.0000    81.7452    10.7742     0.0897     2.5606   -66.1096    12.7832     9.0335
 2349.5000    81.2918    10.7838     0.0261     2.5335   -66.0878    12.3443     8.6005
 2350.0000    81.2874    10.8048     0.0364     2.4978   -66.0660    11.7527     8.3077
 2350.5000    83.1607    10.8051     0.0641     2.4903   -66.0443    11.3856     8.0918
 2351.0000    86.9926    10.8054     0.0707     2.5327   -66.1774    11.3162     8.0257
 2351.5000    92.4568    10.8057     0.0234     2.5322   -66.3004    11.2142     7.7350
 2352.0000    96.8449    10.8060     0.0136     2.4769   -66.2780    11.6641     7.4461
 2352.5000   101.4294    10.8063     0.0175     2.4786   -66.4213    11.6653     7.2306
 2353.0000   102.8181    10.8066     0.0233     2.4906   -66.5321    11.3675     6.8650
 2353.5000   100.9004    10.8069     0.0293     2.5041   -66.3567    11.0697     6.4268
 2354.0000    99.2156    10.8072     0.0367     2.5116   -66.1883    10.7628     6.0612
 2354.5000   101.9770    10.8075     0.0471     2.5191   -66.0164    10.2501     5.9929
 2355.0000   105.0440    10.8078     0.0739     2.5251   -65.9940    10.1360     6.0038
 2355.5000   107.2852    10.8081     0.0858     2.5087   -66.1202     9.1165     6.2370
 2356.0000   109.9754    10.8085     0.0710     2.4772   -66.0209     8.8636     6.5451
 2356.5000   110.6179    10.8088     0.0859     2.4297   -66.0767     9.5983     6.7803
 2357.0000   109.0685    10.8091     0.1039     2.3879   -66.2044    10.0318     7.1098
 2357.5000   109.5133    10.7793     0.0425     2.3499   -66.3321    11.3782     7.6213
 2358.0000   112.6526    10.7796     0.0059     2.3475   -66.3049    12.5752     8.1540
 2358.5000   116.3133    10.7799     0.0296     2.4497   -66.2831    13.2560     8.4621
 2359.0000   122.7406    10.7802     0.0401     2.5296   -66.4163    13.3999     8.7702
 2359.5000   126.7498    10.8105     0.0364     2.5057   -66.3891    13.1766     8.7789
 2360.0000   130.2401    10.8108     0.0328     2.4458   -66.3674    12.6549     8.4882
 2360.5000   134.5368    10.8111     0.0385     2.4264   -66.3453    11.6844     8.0385
 2361.0000   137.7574    10.8114     0.0547     2.4443   -66.1689    10.6392     7.0107
 2361.5000   136.1276    10.8418     0.0451     2.4330   -66.1472     9.8483     6.2709
 2362.0000   131.5333    10.8721     0.0130     2.4226   -66.1286     8.5639     5.7557
 2362.5000   130.3518    10.9024     0.0193     2.4286   -66.1036     7.7728     5.2404
 2363.0000   129.6736    10.9327     0.0375     2.4466   -66.0819     7.1611     4.8749
 2363.5000   126.5246    10.9931     0.0717     2.4676   -65.9118     6.5526     4.4345
 2364.0000   114.8436    11.0234     0.1044     2.4960   -65.7394     6.1921     4.2186
 2364.5000   113.0428    11.1141     0.1148     2.5155   -65.7130     6.0588     4.0776
 2365.0000   112.5894    11.1762     0.0867     2.4960   -65.5456     5.8656     4.0885
 2365.5000   111.6868    11.2363     0.0882     2.4947   -65.5192     5.7472     4.0972
