~VERSION INFORMATION
 VERS.                2.0:   CWLS LOG ASCII STANDARD - VERSION 2.0
 WRAP.                 NO:   ONE LINE PER DEPTH STEP
~WELL INFORMATION
#MNEM.UNIT      DATA TYPE    INFORMATION
#----------   ------------   ------------------------------
 STRT.F          720.0000:   START DEPTH
 STOP.F         3416.0000:   STOP DEPTH
 STEP.F            0.5000:   STEP LENGTH
 NULL.          -999.2500:   NO VALUE
 COMP.    FENIX & SCISSON:   COMPANY
 WELL.  FENIX "AX" #31-14:   WELL
 FLD .                NPR:   FIELD
 LOC .      S14 T38N R78W:   LOCATION
 CNTY.            NATRONA:   COUNTY
 STAT.            WYOMING:   STATE
 CTRY. UNITED STATES OF AMERICA:   COUNTRY
 SRVC.       SCHLUMBERGER:   SERVICE COMPANY
 DATE.        04-JUN-1981:   LOGDATE
 API .     49025108730000:   API NUMBER
~CURVE INFORMATION
#MNEM.UNIT       API CODE    CURVE DESCRIPTION
#----------   ------------   ------------------------------
 DEPT.F                  :   
 TEND.LBS    45 635 01 00:   TENSION FROM DENSITY LOG
 CORR.G/C3   45 356 01 00:   DENSITY CORRECTION
 RHOB.G/C3   45 350 01 00:   BULK DENSITY
 CALD.IN     45 280 60 00:   CALIPER FROM DENSITY LOG
 GRD .GAPI   45 310 01 00:   GAMMA RAY FROM DENSITY LOG
 SPR .MV     07 010 01 00:   SPONTANEOUS POTENTIAL
 SFL .OHMM   07 220 01 00:   SHALLOW FOCUSED LOG RESISTIVITY
 ILD .OHMM   07 120 46 00:   INDUCTION LOG DEEP RESISTIVITY
 ILM .OHMM   07 120 44 00:   INDUCTION LOG MEDIUM RESISTIVITY
 TENR.LBS    07 635 01 00:   TENSION FROM RESISTIVITY
~PARAMETER INFORMATION
#MNEM.UNIT          VALUE    DESCRIPTION
#----------   ------------   ------------------------------
 EKB .F         5196.0000:   Kelly bushing
 EGL .F         5186.0000:   Ground level
 EDF .F            0.0000:   Drilling floor
 TD  .F         3402.0000:   Total depth
 DATE.        04-JUN-1981:   Date logged
 CLNT.            A2DTECH:   Client Code
 SL  . 377' FWL & 1733' FWL:   Surface Location
 PD  .                 GL:   Permanent Datum
 DD  .F              3400:   Depth driller
 DL  .F              3402:   Depth logger
 BLI .F              3395:   Bottom log interval
 TLI .F               720:   Top log interval
 CS1 .IN            8.625:   Casing size
 CBD1.      8.625" @ 707':   Casing driller 1
 CBL1.F               751:   Casing logger 1
 BS1 .IN            7.875:   Bit size
 BSD1.F              3400:   Depth drilled with bit1
 DFT .                FGM:   Type fluid in hole
 DFD .                8.8:   Density
 DFV .                 55:   Viscosity
 DFPH.                9.5:   pH
 DFL .                  9:   Fluid loss
 MSS .           MUD TANK:   Source of sample
 RMS .OHMM            1.7:   Rm
 MST .F                78:   Rm Meas. temp.
 RMF .OHMM           1.45:   Rmf
 MFST.F                78:   Rmf Meas. temp.
 MFSS.               MEAS:   Source Rmf.
 RMB .OHMM           1.12:   Rm. at BHT
 BHT .F               118:   BHT.
 TCS .HRS            1200:   Time Circ. stopped
 TLAB.HRS            1600:   Time logger at bottom
 MRT .F               118:   Maximum recorded temp.
 LUN .               8043:   Logging unit number
 LUL .             CASPER:   Logging unit location
 ENGI.             LARSON:   Recorded By
 WITN.              FIVAS:   Witnessed by
 ORIG.      2.5" 5" PRINT:   Origin of data
 UWI .     49025108730000:   Unique Well ID
 DICO. A2D TECHNOLOGIES, INC.:   Digitizing Company
 EPD .               5186:   Elevation Permanent Datum
 LMF .                 KB:   Log Measured From
 DMF .                 KB:   Drilling Measured From
 DAPD.                 10:   Feet Above Permanent Datum
~OTHER INFORMATION
~A   DEPT     TEND       CORR       RHOB       CALD         GRD       SPR        SFL        ILD        ILM       TENR   
# ...
 2495.5000  1408.6899    -0.0010     2.5110     8.4420   124.6430   -14.1050     7.8070     5.0190     5.1880  1460.7850
 2496.0000  1409.5870     0.0020     2.5170     8.4440   129.6560   -14.3960     7.6200     5.0370     5.1880  1461.0380
 2496.5000  1410.4840     0.0160     2.5320     8.4470   134.7590   -14.6780     6.7290     5.0550     5.1880  1461.2910
 2497.0000  1411.3810     0.0310     2.5490     8.4490   136.6540   -14.9720     5.7010     5.0730     5.1880  1461.5450
 2497.5000  1412.2780     0.0320     2.5520     8.4510   132.4450   -15.2550     5.5940     5.0910     5.1880  1461.7980
 2498.0000  1413.1750     0.0230     2.5350     8.4540   129.4930   -15.5650     5.9200     5.1880     5.1880  1462.0520
 2498.5000  1414.0720     0.0110     2.5060     8.4560   126.3170   -15.7200     6.3080     5.1880     5.2860  1462.3051
 2499.0000  1414.9690     0.0020     2.5020     8.4580   122.9410   -15.6800     6.7740     5.5210     5.4950  1462.5580
 2499.5000  1415.8660     0.0020     2.4990     8.4600   119.5790   -15.6640     7.2410     5.8460     5.8320  1462.8120
 2500.0000  1416.7629     0.0020     2.4950     8.4630   117.8680   -15.6440     7.8690     6.1710     6.1680  1463.0649
 2500.5000  1417.6591     0.0050     2.4910     8.4650   118.6820   -15.6210     8.6030     6.4960     6.5050  1463.3180
 2501.0000  1418.5560     0.0040     2.4870     8.4670   118.5400   -15.6020     9.3370     6.8210     6.8410  1463.5720
 2501.5000  1419.4530     0.0000     2.4830     8.4690   118.0140   -15.5810     9.6340     7.1500     7.1780  1463.8250
 2502.0000  1420.3500    -0.0010     2.4840     8.4720   117.9160   -15.5600    10.2340     7.3210     7.5140  1464.0790
 2502.5000  1421.2469     0.0030     2.4860     8.4740   118.0180   -15.5400    10.1580     7.4940     7.8580  1464.3320
 2503.0000  1422.1440     0.0040     2.4880     8.4760   116.6130   -15.5190     9.9570     7.5990     7.8840  1464.5850
 2503.5000  1423.0410     0.0000     2.4860     8.4790   115.0930   -15.4980     9.7570     7.6560     7.9300  1464.8390
 2504.0000  1423.9380    -0.0020     2.4840     8.4800   113.8150   -15.4770     9.6710     7.7130     7.9750  1465.0920
 2504.5000  1424.8350    -0.0030     2.4930     8.4800   113.9770   -15.4570    10.2130     7.7700     8.0210  1465.3450
 2505.0000  1425.7321    -0.0040     2.4990     8.4800   114.4140   -15.4360    11.0370     7.8270     8.0660  1465.5990
 2505.5000  1426.6290    -0.0030     2.5000     8.4800   116.2010   -15.4150    11.2470     7.8840     8.1120  1465.8521
 2506.0000  1427.5260     0.0020     2.5000     8.4800   119.7120   -15.3950    10.7740     7.9400     8.1580  1466.1060
 2506.5000  1428.4230     0.0050     2.4990     8.4800   125.1360   -15.3750    10.2780     7.9970     8.2030  1466.3590
 2507.0000  1429.3199     0.0040     2.4910     8.4800   130.5580   -15.3510     9.8550     8.0540     8.2490  1466.6121
 2507.5000  1430.2159     0.0030     2.4750     8.4800   135.2220   -15.3380     9.8550     8.1110     8.2940  1466.8660
 2508.0000  1431.1130     0.0020     2.4600     8.4800   135.8980   -15.3140     9.8550     8.1600     8.3150  1467.1190
 2508.5000  1432.0100     0.0020     2.4650     8.4790   134.0330   -15.5970    10.4280     8.1070     8.2390  1467.3719
 2509.0000  1432.9070     0.0020     2.4730     8.4780   133.4360   -16.0140    11.5860     8.0600     8.1720  1467.6260
 2509.5000  1433.8040     0.0020     2.4750     8.4770   134.8080   -16.4150    12.0050     8.0140     8.1050  1467.8790
 2510.0000  1434.7010     0.0030     2.4740     8.4760   136.0500   -16.8220    12.1290     7.9670     8.0380  1468.1331
 2510.5000  1435.5980    -0.0010     2.4720     8.4750   133.5090   -16.9470    11.1110     7.9210     7.9710  1468.3860
 2511.0000  1436.4950    -0.0050     2.4800     8.4740   125.3210   -16.9380     9.8550     7.8740     7.9040  1468.6390
 2511.5000  1437.3920    -0.0090     2.4890     8.4730   122.0880   -16.9370     9.6710     7.8270     7.8580  1468.8929
 2512.0000  1438.2889    -0.0100     2.4900     8.4720   120.6000   -16.9410     9.6710     7.7810     7.8580  1469.1460
 2512.5000  1439.1860    -0.0090     2.4850     8.4710   118.3920   -16.9370     9.7650     7.7340     7.8440  1469.3990
 2513.0000  1440.0830    -0.0040     2.4830     8.4700   114.6410   -16.9380    10.0800     7.7110     7.8250  1469.6530
 2513.5000  1440.9800    -0.0020     2.4820     8.4690   111.1740   -16.9470    10.4290     7.7470     7.8060  1469.9060
 2514.0000  1441.8770     0.0010     2.4800     8.4670   108.9450   -16.9160    10.8960     7.8700     7.7860  1470.1600
 2514.5000  1442.7729    -0.0020     2.4710     8.4660   110.0710   -17.1650    11.4200     7.9930     7.7670  1470.4130
 2515.0000  1443.6700    -0.0090     2.4700     8.4650   111.3560   -17.5660    11.9020     8.1170     7.7480  1470.6660
 2515.5000  1444.5670    -0.0110     2.4690     8.4640   109.4950   -17.9320    11.9020     8.2400     7.7290  1470.9200
 2516.0000  1445.4640    -0.0100     2.4730     8.4630   104.8470   -18.3070    11.4190     8.3630     7.7110  1471.1730
 2516.5000  1446.3610    -0.0080     2.4880     8.4620    99.7170   -18.5460    10.3990     8.4860     7.9760  1471.4260
 2517.0000  1447.2581    -0.0080     2.4910     8.4610    95.9690   -18.4480     9.8550     8.6100     8.1520  1471.6801
 2517.5000  1448.1550    -0.0090     2.4760     8.4600    93.5650   -18.3640    10.2340     8.7330     8.3280  1471.9330
 2518.0000  1449.0520    -0.0070     2.4610     8.4590    93.8810   -18.2680    11.4520     8.8000     8.5040  1472.1870
 2518.5000  1449.9490    -0.0040     2.4600     8.4580   103.7320   -18.1770    13.0800     8.8000     8.6350  1472.4399
 2519.0000  1450.8459    -0.0010     2.4600     8.4570   120.2490   -18.0840    13.3290     8.8000     8.6350  1472.6930
 2519.5000  1451.7430     0.0020     2.4600     8.4560   134.2050   -17.9920    12.9150     8.8000     8.5810  1472.9470
 2520.0000  1452.6400     0.0020     2.4590     8.4550   138.2300   -17.9020    12.5200     8.9670     8.5290  1473.2000
 2520.5000  1453.5370     0.0020     2.4510     8.4540   131.4090   -17.8010    12.1260     8.9670     8.4760  1473.4540
 2521.0000  1454.4340     0.0010     2.4480     8.4530   126.0820   -17.7680    11.6750     8.9420     8.4240  1473.7070
 2521.5000  1455.3300    -0.0010     2.4470     8.4520   123.6650   -17.8180    11.1510     8.8830     8.3720  1473.9600
 2522.0000  1456.2271    -0.0030     2.4470     8.4510   124.1800   -17.8580    10.4290     8.8250     8.3200  1474.2140
 2522.5000  1457.1240    -0.0050     2.4410     8.4500   127.0720   -17.9000    10.8080     8.7660     8.2680  1474.4670
 2523.0000  1458.0210    -0.0070     2.4470     8.4490   128.6370   -17.9430    11.6250     8.7070     8.2160  1474.7200
 2523.5000  1458.9180    -0.0020     2.4550     8.4480   129.8040   -17.9850    12.5950     8.6370     8.1640  1474.9740
 2524.0000  1459.8149     0.0040     2.4650     8.4460   131.2700   -18.0270    12.5950     8.6670     8.1120  1475.2271
 2524.5000  1460.7120     0.0030     2.4720     8.4450   131.8650   -18.0710    11.7720     8.7040     8.0600  1475.4810
 2525.0000  1461.6090    -0.0040     2.4660     8.4440   129.4000   -18.1110    10.9560     8.7410     8.0070  1475.7340
 2525.5000  1462.5060    -0.0100     2.4600     8.4430   126.5940   -18.1590    10.6280     8.8000     8.0070  1475.9871
 2526.0000  1463.4030    -0.0070     2.4830     8.4420   123.7540   -18.1630    11.3650     8.7520     7.9870  1476.2410
 2526.5000  1464.3000     0.0090     2.5080     8.4410   122.8940   -18.1640    12.3600     8.6290     7.9700  1476.4940
 2527.0000  1465.1970     0.0130     2.5140     8.4400   122.9100   -18.1630    12.1970     8.5060     7.9530  1476.7469
 2527.5000  1466.0940     0.0080     2.5010     8.4390   122.1320   -18.1630    11.7730     8.3840     7.9360  1477.0010
 2528.0000  1466.9910     0.0030     2.4850     8.4390   121.2720   -18.1630    11.3500     8.2610     7.9190  1477.2540
 2528.5000  1467.4821     0.0020     2.4760     8.4390   122.1460   -18.1630    10.9270     8.1600     7.9020  1477.5081
