~VERSION INFORMATION
 VERS.                2.0:   CWLS LOG ASCII STANDARD - VERSION 2.0
 WRAP.                 NO:   ONE LINE PER DEPTH STEP
~WELL INFORMATION
#MNEM.UNIT      DATA TYPE    INFORMATION
#----------   ------------   ------------------------------
 STRT.F          200.0000:   START DEPTH
 STOP.F         3080.0000:   STOP DEPTH
 STEP.F            0.5000:   STEP LENGTH
 NULL.          -999.2500:   NO VALUE
 COMP.    FENIX & SCISSON:   COMPANY
 WELL. FENIX NPR 3 "AX" #55-33:   WELL
 FLD .        TEAPOT DOME:   FIELD
 LOC .      S33 T38N R78W:   LOCATION
 CNTY.            NATRONA:   COUNTY
 STAT.            WYOMING:   STATE
 CTRY. UNITED STATES OF AMERICA:   COUNTRY
 SRVC.           BIRDWELL:   SERVICE COMPANY
 DATE.        08-FEB-1978:   LOGDATE
 API .     49025105740000:   API NUMBER
~CURVE INFORMATION
#MNEM.UNIT       API CODE    CURVE DESCRIPTION
#----------   ------------   ------------------------------
 DEPT.F                  :   
 CALD.IN     45 280 60 00:   CALIPER FROM DENSITY LOG
 GRD .GAPI   45 310 01 00:   GAMMA RAY FROM DENSITY LOG
 RHOB.G/C3   45 350 01 00:   BULK DENSITY
 CORR.G/C3   45 356 01 00:   DENSITY CORRECTION
 NPOR.DEC    42 890 03 00:   ALPHA PROCESSED NEUTRON POROSITY
 SPR .MV     05 010 01 00:   SPONTANEOUS POTENTIAL
 SN  .OHMM   05 040 16 00:   SHORT NORMAL 16"
 ILD .OHMM   05 120 46 00:   DEEP INDUCTION RESISTIVITY
~PARAMETER INFORMATION
#MNEM.UNIT          VALUE    DESCRIPTION
#----------   ------------   ------------------------------
 EKB .F         5197.0000:   Kelly bushing
 EGL .F         5187.0000:   Ground level
 EDF .F            0.0000:   Drilling floor
 TD  .F         3084.0000:   Total depth
 DATE.        08-FEB-1978:   Date logged
 CLNT.            A2DTECH:   Client Code
 SL  . 2000' FSL & 2310' FEL:   Surface Location
 PD  .                 GL:   Permanent Datum
 EPD .F              5187:   Elevation Permanent Datum
 LMF .                 KB:   Log Measured From
 DMF .                 KB:   Drilling Measured From
 DAPD.F                10:   Feet Above Permanent Datum
 DD  .F              3084:   Depth driller
 DL  .F              3080:   Depth logger
 BLI .F              3074:   Bottom log interval
 TLI .F               200:   Top log interval
 CS1 .IN            8.625:   Casing size
 CBD1.      8.625" @ 229':   Casing driller 1
 CBL1.F               230:   Casing logger 1
 BS1 .IN            7.875:   Bit size
 BSD1.F              3084:   Depth drilled with bit1
 DFT .     LIGNOSULFONATE:   Type fluid in hole
 DFD .                9.2:   Density
 DFV .                 30:   Viscosity
 DFPH.                  9:   pH
 DFL .                  5:   Fluid loss
 MSS .           FLOWLINE:   Source of sample
 RMS .OHMM            1.5:   Rm
 MST .F                62:   Rm Meas. temp.
 RMF .OHMM            1.2:   Rmf
 MFST.F                66:   Rmf Meas. temp.
 RMC .OHMM            2.8:   Rmc
 MCST.F                65:   Rmc Meas. temp.
 MFSS.               MEAS:   Source Rmf.
 RMB .OHMM            .82:   Rm. at BHT
 BHT .F               114:   BHT.
 TCS .HRS               3:   Time Circ. stopped
 MRT .F               114:   Maximum recorded temp.
 LUN .               2958:   Logging unit number
 LUL .               CASP:   Logging unit location
 ENGI.            POINTER:   Recorded By
 WITN.         HARRINGTON:   Witnessed by
 ORIG.           5" PRINT:   Origin of data
 UWI .     49025105740000:   Unique Well ID
 DICO. A2D TECHNOLOGIES, INC.:   Digitizing Company
~OTHER INFORMATION
~A   DEPT       CALD      GRD       RHOB        CORR      NPOR        SPR         SN        ILD   
# ...
  969.5000     9.6367    80.0691     2.5302     0.0825  -999.2500   -47.5474     8.1367     7.9332
  970.0000     9.6366    78.8800     2.5312     0.0785  -999.2500   -47.5495     8.1359     7.9324
  970.5000     9.6167    77.6909     2.5322     0.0784  -999.2500   -47.5520     8.1351     7.9317
  971.0000     9.6167    77.8887     2.5312     0.0784  -999.2500   -47.5546     8.2097     7.9309
  971.5000     9.6365    78.0866     2.5282     0.0764  -999.2500   -47.1601     8.2089     7.9302
  972.0000     9.6563    78.6807     2.5252     0.0764  -999.2500   -46.9641     8.2081     7.8567
  972.5000     9.6562    79.8693     2.5232     0.0764  -999.2500   -46.9666     8.1321     7.9287
  973.0000     9.6759    78.4820     2.5182     0.0744  -999.2500   -47.1677     8.1313     7.9280
  973.5000     9.6957    78.4817     2.5122     0.0744  -999.2500   -46.9717     8.0560     7.8544
  974.0000     9.7155    78.0852     2.5043     0.0744  -999.2500   -46.9743     8.0556     7.8537
  974.5000     9.7155    77.0943     2.5023     0.0744  -999.2500   -46.9768     8.0545     7.8530
  975.0000     9.7550    73.7261     2.5032     0.0764  -999.2500   -46.9794     8.0544     7.9251
  975.5000     9.7550    73.5277     2.5132     0.0803  -999.2500   -46.7829     8.0533     7.8516
  976.0000     9.6955    76.4992     2.5172     0.0823  -999.2500   -46.7854     8.0523     7.7788
  976.5000     9.6360    79.6687     2.5182     0.0843  -999.2500   -46.7880     8.0523     7.9229
  977.0000     9.6360    81.2533     2.5182     0.0883  -999.2500   -46.9891     8.0308     7.9222
  977.5000     9.6557    79.0738     2.5172     0.0943  -999.2500   -46.9916     8.0093     7.8487
  978.0000     9.6755    74.1208     2.5132     0.0943  -999.2500   -46.9942     7.9880     7.7759
  978.5000     9.6953    74.1206     2.5122     0.0962  -999.2500   -47.3939     7.9666     7.7752
  979.0000     9.7150    75.3090     2.5152     0.0982  -999.2500   -47.5950     7.9454     7.7031
  979.5000     9.7150    77.0917     2.5202     0.1022  -999.2500   -47.5976     7.9242     7.7024
  980.0000     9.7545    77.6857     2.5252     0.1062  -999.2500   -47.7987     7.8994     7.6309
  980.5000     9.7743    77.8835     2.5261     0.1062  -999.2500   -47.8013     7.8989     7.4908
  981.0000     9.7743    80.0622     2.5251     0.1062  -999.2500   -48.2010     7.8256     7.4213
  981.5000     9.7742    83.4295     2.5251     0.1062  -999.2500   -48.2035     7.8251     7.4206
  982.0000     9.7742    86.5987     2.5251     0.1022  -999.2500   -48.2056     7.6815     7.4200
  982.5000     9.7741    81.0518     2.5251     0.0982  -999.2500   -48.2082     7.6808     7.3351
  983.0000     9.7741    77.0898     2.5251     0.0981  -999.2500   -48.2107     7.6097     7.2672
  983.5000     9.7741    77.0895     2.5241     0.0981  -999.2500   -47.6175     7.6090     7.1999
  984.0000     9.7740    77.8816     2.5231     0.0981  -999.2500   -46.8257     7.4694     7.1332
  984.5000     9.7739    78.8717     2.5251     0.0981  -999.2500   -47.0268     7.4687     7.1326
  985.0000     9.7739    79.4657     2.5251     0.0981  -999.2500   -47.0294     7.4680     7.1319
  985.5000     9.7937    82.6346     2.5251     0.0961  -999.2500   -46.8333     7.3992     7.1313
  986.0000     9.8134    85.6054     2.5221     0.0961  -999.2500   -46.6373     7.3983     7.1308
  986.5000     9.8133    83.8224     2.5231     0.0941  -999.2500   -46.6398     7.3974     7.1299
  987.0000     9.8133    83.8221     2.5201     0.0901  -999.2500   -46.6419     7.3968     7.1292
  987.5000     9.8133    84.0198     2.5141     0.0801  -999.2500   -46.8430     7.3961     7.1285
  988.0000     9.8132    85.8020     2.5041     0.0701  -999.2500   -46.8456     7.3955     7.1279
  988.5000     9.8330    80.0577     2.4961     0.0701  -999.2500   -47.0467     7.3948     7.1273
  989.0000     9.8527    80.6517     2.4961     0.0721  -999.2500   -47.0493     7.3263     7.0613
  989.5000     9.8923    82.4339     2.4931     0.0741  -999.2500   -47.0518     7.2585     6.9318
  990.0000     9.9319    81.6415     2.4821     0.0800  -999.2500   -46.6571     7.1913     6.8047
  990.5000     9.9318    77.8780     2.4821     0.0920  -999.2500   -46.8583     7.0594     6.4978
  991.0000     9.9318    79.0661     2.4801     0.1000  -999.2500   -46.8609     6.8034     6.1479
  991.5000     9.9515    80.6502     2.4751     0.1100  -999.2500   -46.8634     6.4966     6.0351
  992.0000     9.9713    82.4324     2.4572     0.1239  -999.2500   -47.0646     6.2610     5.9792
  992.5000     9.9911    83.2243     2.4382     0.1259  -999.2500   -47.0666     6.1462     5.9239
  993.0000    10.0504    80.4513     2.3993     0.1319  -999.2500   -46.8706     5.9672     5.8152
  993.5000    10.2880    73.5194     2.3753     0.1718  -999.2500   -47.2704     5.9121     5.7614
  994.0000    12.0505    70.1524     2.4731     0.2037  -999.2500   -47.2729     6.1328     5.8141
  994.5000    10.2087    73.1228     2.4701     0.1319  -999.2500   -47.4741     6.3042     6.0317
  995.0000    10.2285    75.6971     2.5230     0.1119  -999.2500   -47.4767     6.9103     6.2575
  995.5000    10.2680    77.6772     2.5160     0.1039  -999.2500   -47.4793     6.9739     6.6125
  996.0000    10.1293    76.2907     2.4911     0.0899  -999.2500   -47.6805     6.9733     6.8744
  996.5000    10.0699    75.3004     2.4960     0.1059  -999.2500   -47.4844     7.0370     6.9375
  997.0000    10.0698    79.0627     2.4990     0.1098  -999.2500   -47.4869     7.0364     6.9368
  997.5000    10.0499    81.6368     2.5050     0.1198  -999.2500   -47.0922     7.0357     6.9362
  998.0000    10.0301    85.5970     2.5240     0.1298  -999.2500   -46.8961     7.0351     6.9355
  998.5000    10.1489    86.9829     2.5180     0.1098  -999.2500   -46.8981     7.0344     6.9349
  999.0000     9.9904    81.4378     2.5140     0.1078  -999.2500   -46.9017     7.0338     6.9342
  999.5000     9.9903    80.2494     2.5140     0.1098  -999.2500   -46.9032     6.9687     6.8554
 1000.0000     9.9705    83.8134     2.5389     0.1138  -999.2500   -46.9058     7.1630     6.8549
 1000.5000     9.9526    82.8308     2.5290     0.0986  -999.2500   -46.9086     7.1623     6.8543
 1001.0000     9.8910    80.8397     2.5319     0.0958  -999.2500   -47.3062     7.1617     6.8536
 1001.5000     9.8909    81.0364     2.5329     0.0938  -999.2500   -47.5064     7.1615     6.8530
 1002.0000     9.8907    85.1931     2.5219     0.0818  -999.2500   -47.5079     7.1604     6.8524
 1002.5000     9.9499    87.3697     2.5139     0.0758  -999.2500   -47.9067     7.1598     6.8517
 1003.0000     9.9498    86.1799     2.5069     0.0758  -999.2500   -48.1068     7.1591     6.8511
 1003.5000     9.9497    85.3862     2.5199     0.0778  -999.2500   -48.3070     7.0929     6.8505
 1004.0000     9.9495    86.1763     2.5229     0.0778  -999.2500   -47.9108     7.0922     6.9133
 1004.5000     9.9494    84.3927     2.5239     0.0777  -999.2500   -47.9123     7.1571     6.9766
 1005.0000     9.9690    83.9950     2.5239     0.0757  -999.2500   -47.9138     7.2225     7.0405
 1005.5000     9.9887    83.0031     2.5229     0.0737  -999.2500   -47.7166     7.3560     7.1708
 1006.0000     9.9885    82.0112     2.5219     0.0737  -999.2500   -47.5195     7.6310     7.3034
 1006.5000     9.9091    81.8118     2.5209     0.0717  -999.2500   -47.3223     7.7719     7.4385
 1007.0000     9.8298    80.4235     2.5199     0.0717  -999.2500   -47.5225     7.9886     7.5761
 1007.5000     9.8098    79.6300     2.5208     0.0717  -999.2500   -47.5240     8.1361     7.7876
 1008.0000     9.7899    79.8263     2.5188     0.0717  -999.2500   -47.9227     8.2864     7.9316
 1008.5000     9.7897    79.8246     2.5178     0.0737  -999.2500   -47.9242     8.2097     8.0783
 1009.0000     9.7499    79.8229     2.5148     0.0756  -999.2500   -47.9254     8.2091     8.0966
 1009.5000     9.7300    78.6328     2.5248     0.0796  -999.2500   -47.9269     8.3799     8.1708
