~VERSION INFORMATION
 VERS.                2.0:   CWLS LOG ASCII STANDARD - VERSION 2.0
 WRAP.                 NO:   ONE LINE PER DEPTH STEP
~WELL INFORMATION
#MNEM.UNIT      DATA TYPE    INFORMATION
#----------   ------------   ------------------------------
 STRT.F            7.0000:   START DEPTH
 STOP.F         3304.0000:   STOP DEPTH
 STEP.F            0.5000:   STEP LENGTH
 NULL.          -999.2500:   NO VALUE
 COMP. LAWRENCE ALLISON ASSOC. WEST:   COMPANY
 WELL. LAWRENCE NPR  "X" #18-2:   WELL
 FLD .              N P R:   FIELD
 LOC .       S2 T38N R78W:   LOCATION
 CNTY.            NATRONA:   COUNTY
 STAT.            WYOMING:   STATE
 CTRY. UNITED STATES OF AMERICA:   COUNTRY
 SRVC.      DRESSER ATLAS:   SERVICE COMPANY
 DATE.        28-APR-1986:   LOGDATE
 API .     49025110710000:   API NUMBER
~CURVE INFORMATION
#MNEM.UNIT       API CODE    CURVE DESCRIPTION
#----------   ------------   ------------------------------
 DEPT.F                  :   
 TEND.LBS    45 635 01 00:   TENSION FROM DENSITY LOG
 DEN .G/C3   45 635 01 00:   DENSITY
 CORR.G/C3   45 356 01 00:   DENSITY CORRECTION
 CNC .DEC    42 890 03 00:   NEUTRON PORISITY SANDSTONE
 TENR.LBS    07 635 01 00:   TENSION FROM RESISTIVITY
 CALR.IN     07 280 01 00:   CALIPER FROM RESISTIVITY
 SPR .MV     07 010 01 00:   SPONTANEOUS POTENTIAL
 GRR .GAPI   07 310 01 00:   GAMMA RAY FROM RESISTIVITY
 RFOC.OHMM   07 220 04 00:   RESISTIVITY FOCUSED LOG RES.
 RILD.OHMM   07 120 46 00:   DEEP INDUCTION RESISTIVITY
 RILM.OHMM   07 120 44 00:   INDUCTION LOG MEDIUM RESISTIVITY
 TENS.LBS    60 635 01 00:   TENSION
 AC  .US/F   60 250 00 00:   ACCOUSTIC
~PARAMETER INFORMATION
#MNEM.UNIT          VALUE    DESCRIPTION
#----------   ------------   ------------------------------
 EKB .F         5142.0000:   Kelly bushing
 EGL .F         5130.0000:   Ground level
 EDF .F            0.0000:   Drilling floor
 EPD .F         5130.0000:   Permanent datum
 TD  .F         3296.0000:   Total depth
 DATE.        28-APR-1986:   Date logged
 CLNT.            A2DTECH:   Client Code
 SL  . 210' FSL & 204' FWL:   Surface Location
 PD  .                 GL:   Permanent Datum
 DD  .F              3295:   Depth driller
 DL  .F              3290:   Depth logger
 BLI .F              3296:   Bottom log interval
 CS1 .IN            8.625:   Casing size
 CBD1.      8.625" @ 563':   Casing driller 1
 CBL1.F               560:   Casing logger 1
 BS1 .IN            7.875:   Bit size
 BSD1.F              3295:   Depth drilled with bit1
 DFT .        POLYMER KCL:   Type fluid in hole
 DFD .                8.9:   Density
 DFV .                 38:   Viscosity
 DFPH.                8.5:   pH
 DFL .                9.2:   Fluid loss
 MSS .           FLOWLINE:   Source of sample
 RMS .OHMM           .435:   Rm
 MST .F                74:   Rm Meas. temp.
 RMF .OHMM            .33:   Rmf
 MFST.F                74:   Rmf Meas. temp.
 RMC .OHMM            .54:   Rmc
 MCST.F                74:   Rmc Meas. temp.
 MFSS.               CALC:   Source Rmf.
 MCSS.               CALC:   Source Rmc.
 RMB .OHMM            .77:   Rm. at BHT
 BHT .F               119:   BHT.
 TCS .HRS               4:   Time Circ. stopped
 MRT .F               119:   Maximum recorded temp.
 LUN .            HL 6264:   Logging unit number
 LUL .           GILLETTE:   Logging unit location
 ENGI.      P.M. FAHLSING:   Recorded By
 WITN.             STRONG:   Witnessed by
 ORIG.         2.5" PRINT:   Origin of data
 UWI .     49025110710000:   Unique Well ID
 DICO. A2D TECHNOLOGIES, INC.:   Digitizing Company
 DAPD.                 12:   Feet Above Permanent Datum
~OTHER INFORMATION
~A    DEPT    TEND        DEN       CORR        CNC       TENR       CALR        SPR         GRR      RFOC       RILD       RILM       TENS         AC   
# ...
 2919.0000   -63.3600     2.5310     0.0570     0.2260   -72.0020    10.0000   -35.5440   111.3200     7.2090     5.4330     6.4690   -63.3600    80.1770
 2919.5000   -58.0300     2.5350     0.0580     0.2350   -74.6230    10.0530   -34.7880   115.6730     6.8300     4.9410     5.9260   -63.3600    80.1770
 2920.0000   -51.8170     2.5360     0.0600     0.2400   -77.2450    10.1080   -33.9680   127.5730     6.4690     4.4500     5.3880   -63.3600    82.1430
 2920.5000   -45.6040     2.5330     0.0620     0.2560   -79.8660    10.1660   -33.1170   139.2450     5.9000     3.9580     4.8490   -63.3600    84.7400
 2921.0000   -43.7130     2.5230     0.0670     0.2860   -82.4870    10.2220   -32.2870   151.1950     5.1990     3.5010     4.3110   -63.3600    87.3370
 2921.5000   -53.7110     2.4960     0.1040     0.3000   -81.5580    10.2770   -31.4110   163.1100     4.4980     3.3590     3.7720   -63.3600    89.9340
 2922.0000   -64.7570     2.4610     0.1480     0.2990   -78.9370    10.3340   -30.4160   174.4130     3.7970     3.2270     3.5010   -63.3600    92.5310
 2922.5000   -75.8020     2.4330     0.1690     0.2810   -76.3160    10.3320   -29.3410   171.4680     3.3160     3.0850     3.5010   -63.3600    95.1280
 2923.0000   -80.8450     2.4530     0.1520     0.2610   -73.6950    10.3020   -29.2930   154.9920     3.2570     3.0850     3.9580   -63.3600    95.3200
 2923.5000   -74.6320     2.4830     0.0870     0.2440   -71.0730    10.2730   -30.4930   136.4670     4.1510     3.4340     4.4530   -63.3600    94.5190
 2924.0000   -68.4180     2.5130     0.0470     0.2300   -68.4520    10.2450   -31.4560   116.2590     5.3590     3.9050     4.9490   -63.3600    88.4690
 2924.5000   -63.3600     2.5420     0.0350     0.2240   -65.8310    10.2160   -32.4580   104.8290     6.5870     4.3770     5.4450   -63.3600    82.3380
 2925.0000   -63.3600     2.5510     0.0170     0.2210   -63.7250    10.1930   -33.4670   104.9050     6.8290     4.8480     5.9410   -63.3600    80.8970
 2925.5000   -63.3600     2.5490     0.0110     0.2250   -66.4350    10.1950   -34.4650   104.2650     6.8530     5.3190     6.4360   -63.3600    79.9540
 2926.0000   -68.4180     2.5470     0.0260     0.2280   -68.6990    10.2010   -35.4580   104.7470     6.9110     5.7900     6.9320   -63.3600    79.5840
 2926.5000   -74.6320     2.5490     0.0450     0.2310   -70.9630    10.2070   -36.4740   106.7670     6.9690     6.2390     7.4740   -63.3600    79.2150
 2927.0000   -80.8450     2.5520     0.0640     0.2290   -73.2260    10.2130   -37.4780   108.9380     7.0270     6.2910     7.6110   -63.3600    78.6920
 2927.5000   -83.0060     2.5560     0.0810     0.2300   -75.4900    10.2190   -38.3320   108.0060     7.0800     6.3400     7.6190   -63.3600    78.3220
 2928.0000   -83.0060     2.5590     0.0810     0.2320   -77.7540    10.2250   -38.6820   105.4280     7.1690     6.3890     7.6370   -63.3600    78.1810
 2928.5000   -83.0060     2.5610     0.0820     0.2270   -80.0180    10.2310   -39.1690   104.2110     7.2520     6.4380     7.6540   -63.3600    78.0400
 2929.0000   -83.0060     2.5520     0.0810     0.2190   -82.2820    10.2240   -39.1860   104.2350     7.3410     6.4870     7.6720   -63.3600    77.8990
 2929.5000   -83.0060     2.5420     0.0810     0.2110   -82.9290    10.1960   -38.9640   103.9690     7.4200     6.5360     7.6890   -63.3600    77.7580
 2930.0000   -83.0060     2.5340     0.0820     0.2040   -82.1750    10.1690   -38.4870   103.7810     7.5060     6.5870     7.7070   -63.3600    77.6170
 2930.5000   -83.0060     2.5370     0.0820     0.2050   -81.4200    10.1420   -38.0330   103.6290     7.5920     6.5010     7.7250   -63.3600    77.4760
 2931.0000   -83.0060     2.5470     0.0790     0.2050   -80.6650    10.1150   -37.6670   103.3880     7.5290     6.4110     7.7420   -63.3600    77.3350
 2931.5000   -83.0060     2.5570     0.0790     0.2090   -79.9110    10.1200   -37.2820   105.4010     7.4250     6.3210     7.7490   -63.3600    77.2300
 2932.0000   -83.0060     2.5600     0.0630     0.2140   -79.1560    10.1280   -37.1950   108.9340     7.3200     6.2320     7.7160   -63.3600    77.8080
 2932.5000   -83.0060     2.5500     0.0330     0.2280   -78.4020    10.1380   -37.2840   108.9730     7.2160     6.1280     7.6350   -63.3600    78.4860
 2933.0000   -83.0060     2.5410     0.0240     0.2260   -77.6470    10.1470   -37.6880   109.7720     7.1110     6.1280     7.5540   -63.3600    79.1640
 2933.5000   -83.0060     2.5390     0.0560     0.2220   -76.8920    10.1520   -38.0290   110.8930     7.0070     6.1280     7.4740   -63.3600    79.6100
 2934.0000   -83.0060     2.5430     0.0830     0.2200   -76.1380    10.1570   -38.3740   111.9970     6.9020     6.1280     7.3930   -63.3600    79.9380
 2934.5000   -83.0060     2.5520     0.0980     0.2190   -75.3830    10.1230   -38.4510   111.1930     6.8290     6.3300     7.3120   -63.3600    80.1320
 2935.0000   -83.0060     2.5570     0.0860     0.2140   -74.6290    10.0990   -38.8390   107.8940     7.0090     6.5870     7.2320   -63.3600    79.9800
 2935.5000   -83.0060     2.5570     0.0780     0.2070   -73.8740    10.0650   -38.7450   104.5450     7.2070     6.5270     7.1590   -63.3600    79.0340
 2936.0000   -83.0060     2.5560     0.0700     0.2020   -73.1190    10.0350   -38.7460   104.0660     7.4060     6.4730     7.0080   -63.3600    78.1570
 2936.5000   -83.0060     2.5550     0.0710     0.2050   -72.3650    10.0020   -38.0470   103.5950     7.6110     6.4190     6.8570   -63.3600    77.2810
 2937.0000   -83.0060     2.5540     0.0720     0.2120   -71.6100     9.9710   -37.8210   103.8060     7.7490     6.3650     6.7050   -63.3600    76.9180
 2937.5000   -83.0060     2.5530     0.0730     0.2190   -70.8560     9.9390   -37.4040   104.3650     7.4000     6.3050     6.5540   -63.3600    77.3070
 2938.0000   -83.0060     2.5520     0.0730     0.2240   -70.1010     9.9060   -37.0620   105.3790     7.1040     6.1840     6.4030   -63.3600    78.2230
 2938.5000   -83.0060     2.5520     0.0710     0.2240   -69.3460     9.8760   -36.7030   106.4610     6.8090     6.0620     6.2520   -63.3600    79.1390
 2939.0000   -83.0060     2.5640     0.0680     0.2150   -68.5920     9.8410   -36.2170   107.6880     6.4690     5.9100     6.1000   -63.3600    79.6150
 2939.5000   -83.0060     2.5640     0.0650     0.2050   -67.8370     9.8310   -35.4210   108.3990     6.3530     5.7010     5.8050   -63.3600    79.6700
 2940.0000   -83.0060     2.5650     0.0620     0.2110   -67.0830     9.8220   -34.6310   111.4790     6.3020     5.0060     5.3400   -63.3600    79.7250
 2940.5000   -83.0060     2.5550     0.0580     0.2400   -66.3280     9.8110   -33.7900   115.4740     6.2540     4.3520     4.8740   -63.3600    79.7840
 2941.0000   -78.7270     2.5200     0.0580     0.2760   -65.5730     9.8040   -32.7760   125.2510     6.2390     3.6990     4.4090   -63.3600    81.1510
 2941.5000   -73.2050     2.4680     0.0590     0.3210   -64.8190     9.8100   -31.3680   147.2140     6.0180     3.0450     3.9430   -63.3600    83.7310
 2942.0000   -67.6820     2.4080     0.1000     0.3120   -64.0640     9.9620   -29.9080   173.7290     4.5420     2.8040     3.4770   -63.3600    88.5390
 2942.5000   -63.3600     2.3490     0.1530     0.2990   -66.0130    10.0680   -28.4520   183.6400     3.2320     2.7140     3.0850   -63.3600    93.3470
 2943.0000   -63.3600     2.3160     0.2240     0.2800   -70.1630    10.0680   -27.0160   177.2600     2.8190     2.6220     3.1990   -63.3600    98.2510
 2943.5000   -63.3600     2.3760     0.2020     0.2440   -74.3140     9.9560   -26.3150   154.5600     2.7190     2.6220     3.9240   -63.3600    95.8830
 2944.0000   -63.3600     2.4330     0.0960     0.2160   -78.4640     9.8350   -27.1980   129.5940     3.8630     2.9910     4.6660   -63.3600    89.0500
 2944.5000   -63.3600     2.4890     0.0220     0.1840   -83.3330     9.7040   -28.7720   107.8150     5.1760     3.7920     5.4090   -63.3600    82.2160
