~VERSION INFORMATION
 VERS.                2.0:   CWLS LOG ASCII STANDARD - VERSION 2.0
 WRAP.                 NO:   ONE LINE PER DEPTH STEP
~WELL INFORMATION
#MNEM.UNIT      DATA TYPE    INFORMATION
#----------   ------------   ------------------------------
 STRT.F          198.0000:   START DEPTH
 STOP.F         3252.0000:   STOP DEPTH
 STEP.F            0.5000:   STEP LENGTH
 NULL.          -999.2500:   NO VALUE
 COMP. FENIX & SCISSON - U.S. NAVY:   COMPANY
 WELL.   FENIX A X #21-33:   WELL
 FLD .              NPR-3:   FIELD
 LOC .      S33 T39N R78W:   LOCATION
 CNTY.            NATRONA:   COUNTY
 STAT.            WYOMING:   STATE
 CTRY. UNITED STATES OF AMERICA:   COUNTRY
 SRVC.              WELEX:   SERVICE COMPANY
 DATE.        06-JUN-1977:   LOGDATE
 API .     49025103750000:   API NUMBER
~CURVE INFORMATION
#MNEM.UNIT       API CODE    CURVE DESCRIPTION
#----------   ------------   ------------------------------
 DEPT.F                  :   
 CALD.IN     45 280 60 00:   CALIPER FROM DENSITY LOG
 GRD .GAPI   45 310 01 00:   GAMMA RAY FROM DENSITY LOG
 RHOB.G/C3   45 350 01 00:   BULK DENSITY
 CORR.G/C3   45 356 01 00:   DENSITY CORRECTION
 NPHI.DEC    42 890 01 00:   NEUTRON POROSITY LIMESTONE
 SPR .MV     07 010 01 00:   SPONTANEOUS POTENTIAL
 GURD.OHMM   07 220 05 00:   GUARD LOG RESISTIVITY
 FORX.OHMM   07 220 00 00:   FORMATION FACTOR
~PARAMETER INFORMATION
#MNEM.UNIT          VALUE    DESCRIPTION
#----------   ------------   ------------------------------
 EKB .F         5147.0000:   Kelly bushing
 EGL .F         5137.0000:   Ground level
 EDF .F            0.0000:   Drilling floor
 EPD .F            0.0000:   Permanent datum
 TD  .F         3254.0000:   Total depth
 CLNT.            A2DTECH:   Client Code
 SL  . 660' FNL & 1320' FWL:   Surface Location
 PD  .                 GL:   Permanent Datum
 DAPD.F                10:   Feet Above Permanent Datum
 DATE.        06-JUN-1977:   Date Logged [DD-MMM-YYYY]
 DD  .F              3249:   Depth driller
 DL  .F              3254:   Depth logger
 BLI .F              3252:   Bottom log interval
 TLI .F               200:   Top log interval
 CS1 .IN            8.625:   Casing size
 CBD1.      8.625" @ 204':   Casing driller 1
 CBL1.F               221:   Casing logger 1
 BS1 .IN            7.875:   Bit size
 BSD1.F              3249:   Depth drilled with bit1
 DFT .            KCL MUD:   Type fluid in hole
 DFD .                  9:   Density
 DFV .                134:   Viscosity
 DFPH.                7.5:   pH
 DFL .                7.8:   Fluid loss
 MSS .           FLOWLINE:   Source of sample
 RMS .OHMM           0.64:   Rm
 MST .F                85:   Rm Meas. temp.
 RMF .OHMM           0.61:   Rmf
 MFST.F                85:   Rmf Meas. temp.
 MFSS.           FANN KIT:   Source Rmf.
 RMC .OHMM              1:   Rmc
 MCST.F                85:   Rmc Meas. temp.
 MCSS.           FANN KIT:   Source Rmc.
 RMB .OHMM           0.46:   Rm. at BHT
 BHT .F               116:   BHT.
 TCS .HRS             2.5:   Time Circ. stopped
 MRT .F               116:   Maximum recorded temp.
 LUN .               8611:   Logging unit number
 LUL .             CASPER:   Logging unit location
 ENGI.            C. DOAK:   Recorded By
 WITN.      B. HARRINGTON:   Witnessed by
 ORIG.           5" PRINT:   Origin of data
 UWI .     49025103750000:   Unique Well ID
 DICO. A2D TECHNOLOGIES, INC.:   Digitizing Company
~OTHER INFORMATION
~A   DEPT     CALD         GRD      RHOB       CORR       NPHI        SPR       GURD       FORX   
# ...
  400.5000    12.2519    61.9482     2.4189     0.0527     0.2202   -61.3100    10.9323     7.6892
  401.0000    12.2539    60.8214     2.4250     0.0529     0.2202   -60.9745    10.1443     7.6395
  401.5000    12.2562    62.3632     2.4320     0.0546     0.2196   -60.5872    10.2218     7.4829
  402.0000    12.2581    63.0106     2.4455     0.0592     0.2207   -60.3106    10.8882     7.3818
  402.5000    12.2600    60.6948     2.4568     0.0624     0.2222   -60.0392    10.6444     7.4393
  403.0000    12.2619    59.8411     2.4514     0.0671     0.2231   -59.7649    10.2441     7.4449
  403.5000    12.2489    61.0968     2.4473     0.0687     0.2237   -59.4902    11.2113     7.5028
  404.0000    12.2508    62.3394     2.4415     0.0704     0.2236   -59.2156    10.2609     7.6150
  404.5000    12.2527    63.8797     2.4348     0.0721     0.2227   -58.9442    10.0567     7.6742
  405.0000    12.2393    65.7175     2.4267     0.0722     0.2218   -58.7568    10.4183     7.6790
  405.5000    12.1970    65.8100     2.4193     0.0739     0.2209   -58.7603    10.5685     7.6838
  406.0000    12.1840    58.9766     2.4097     0.0714     0.2202   -58.7597     9.8745     7.6886
  406.5000    12.1711    51.5000     2.3964     0.0686     0.2193   -58.7599     9.9499     7.6934
  407.0000    12.1283    45.7011     2.3741     0.0628     0.2181   -58.7592     9.6824     7.7531
  407.5000    12.0856    44.8474     2.3472     0.0540     0.2166   -58.8451     9.3987     7.6981
  408.0000    12.0724    45.4629     2.3316     0.0497     0.2163   -58.9966     4.3963     7.4397
  408.5000    12.0448    46.3469     2.3288     0.0499     0.2162   -59.1487     5.1189     7.1843
  409.0000    12.0169    48.4771     2.3371     0.0516     0.2162   -59.3009     5.5256     6.9872
  409.5000    11.9746    51.7977     2.3709     0.0533     0.2168   -59.4516     6.1311     6.5580
  410.0000    11.9765    54.5832     2.3875     0.0580     0.2186   -59.5485     7.3380     4.0458
  410.5000    11.9631    57.3720     2.3973     0.0597     0.2191   -59.5471     9.2798     3.8517
  411.0000    11.9357    59.3902     2.3996     0.0614     0.2185   -59.5475    10.3060     3.8262
  411.5000    11.9227    60.3299     2.3975     0.0616     0.2176   -59.5482     9.2934     4.1115
  412.0000    11.9246    60.6743     2.3931     0.0618     0.2173   -59.5427     8.9238     4.7768
  412.5000    11.9117    60.7211     2.3865     0.0604     0.2178   -59.3886    10.1902     5.4022
  413.0000    11.9136    60.7679     2.3836     0.0591     0.2187   -59.2276     9.5754     6.1528
  413.5000    11.9155    59.9219     2.3867     0.0609     0.2202   -59.0671     9.1299     6.9284
  414.0000    11.9020    56.3972     2.3898     0.0625     0.2208   -58.9069    10.2727     7.2350
  414.5000    11.8746    56.4440     2.3952     0.0657     0.2216   -58.7466     7.6991     6.8879
  415.0000    11.8616    57.3837     2.4021     0.0674     0.2225   -58.5864    10.7215     6.3284
  415.5000    11.8338    57.7281     2.4104     0.0676     0.2225   -58.4262     9.7435     6.0669
  416.0000    11.8204    55.3940     2.3985     0.0663     0.2225   -58.2659     9.8858     7.2017
  416.5000    11.8065    52.1669     2.3852     0.0620     0.2218   -58.1057    10.7449     8.1904
  417.0000    11.7778    51.6185     2.3733     0.0606     0.2200   -57.9454     9.8102     8.5528
  417.5000    11.7521    52.2966     2.3719     0.0624     0.2164   -57.7852     8.3723     8.6808
  418.0000    11.7099    52.9143     2.3870     0.0671     0.2138   -57.6249     7.2250     8.4324
  418.5000    11.6671    52.9611     2.4021     0.0690     0.2095   -57.4642     8.8887     7.5404
  419.0000    11.6393    53.3055     2.4052     0.0705     0.2079   -57.3036     9.9994     6.2713
  419.5000    11.6109    53.0430     2.3963     0.0692     0.2061   -57.1831    10.9435     5.8030
  420.0000    11.5831    51.6134     2.3628     0.0679     0.2055   -57.2728     8.5477     6.3691
  420.5000    11.5701    48.3864     2.3515     0.0650     0.2055   -57.6806     8.3201     6.8429
  421.0000    11.5571    48.1239     2.3486     0.0637     0.2051   -58.0893     8.5601     7.3519
  421.5000    11.5297    49.0752     2.3534     0.0595     0.2048   -58.6677     8.1074     7.4618
  422.0000    11.5163    50.3125     2.3647     0.0582     0.2039   -58.7675     7.2671     7.6275
  422.5000    11.4740    51.5498     2.3768     0.0599     0.2036   -58.7619     8.7094     6.5734
  423.0000    11.4164    53.3823     2.3836     0.0615     0.2053   -58.7593     9.8522     5.6162
  423.5000    11.3737    54.6196     2.3733     0.0617     0.2074   -58.7756     8.7722     4.8641
  424.0000    11.3756    54.9640     2.3494     0.0559     0.2101   -58.5079     8.1369     5.5532
  424.5000    11.3165    53.5227     2.3465     0.0456     0.2131   -58.0865     8.5464     6.1384
  425.0000    11.2728    52.3313     2.3586     0.0473     0.2166   -57.7679     9.6143     5.8857
  425.5000    11.2474    50.9377     2.3752     0.0520     0.2196   -57.4581     9.8881     5.8053
  426.0000    11.2344    50.6869     2.3858     0.0537     0.2226   -57.1790     9.3026     6.9899
  426.5000    11.2070    51.3406     2.3820     0.0524     0.2250   -57.4631     9.3094     7.4566
  427.0000    11.1936    53.4708     2.3768     0.0526     0.2283   -57.7733     9.7760     8.0684
  427.5000    11.1662    59.4699     2.3645     0.0483     0.2315   -58.0936     9.5725     8.0163
  428.0000    11.1527    66.9572     2.3533     0.0424     0.2336   -58.2038     8.5326     7.6862
  428.5000    11.0956    74.4445     2.3961     0.0502     0.2342   -58.5689     7.8618     7.1507
  429.0000    11.0672    81.0389     2.4231     0.0594     0.2332   -58.5986     7.8676     6.5023
  429.5000    11.0399    82.5738     2.4322     0.0686     0.2320   -58.9625     9.8134     6.1331
  430.0000    11.0269    81.4301     2.4211     0.0733     0.2314   -59.0123    20.6542     6.8290
  430.5000    10.9990    79.3936     2.4197     0.0750     0.2314   -59.0887    11.2783     7.0806
  431.0000    10.9711    78.5475     2.4168     0.0736     0.2298   -59.1648     8.8092     7.4467
  431.5000    10.9135    79.2133     2.4081     0.0724     0.2199   -59.2406     9.1873     7.7762
  432.0000    10.8708    80.7699     2.3956     0.0681     0.2211   -59.3171     8.9242     7.8925
  432.5000    10.8578    82.8663     2.3830     0.0607     0.2355   -59.3498     8.4038     7.9062
  433.0000    10.8423    83.5083     2.3717     0.0563     0.2410   -59.3504     8.4790     7.3599
  433.5000    10.8021    82.3647     2.3635     0.0536     0.2444   -59.3501     9.7375     7.0022
  434.0000    10.8045    80.6258     2.3674     0.0554     0.2513   -59.3456     8.2607     6.8146
  434.5000    10.8064    79.4704     2.3795     0.0540     0.2516   -59.3363     8.0407     5.8737
  435.0000    10.8083    80.7194     2.3795     0.0527     0.2503   -60.2226     9.2997     5.3204
  435.5000    10.7656    81.3614     2.3737     0.0514     0.2494   -60.6507    10.1061     5.1736
  436.0000    10.7228    82.0034     2.3679     0.0471     0.2476   -61.0828     8.5161     5.8430
  436.5000    10.6945    82.6455     2.3590     0.0383     0.2455   -61.5031     9.0047     6.4131
  437.0000    10.6522    83.2875     2.3524     0.0354     0.2443   -61.5217     8.6235     6.8901
  437.5000    10.6244    84.2272     2.3570     0.0372     0.2442   -61.4981     7.6974     6.9425
  438.0000    10.5964    81.0002     2.3803     0.0389     0.2436   -61.0726     9.4066     6.5171
  438.5000    10.5835    76.2352     2.4058     0.0421     0.2424   -60.9139     9.7431     6.1169
  439.0000    10.5705    73.8770     2.4186     0.0453     0.2412   -60.9110    14.9516     5.9069
  439.5000    10.5575    71.9261     2.4105     0.0485     0.2402   -60.9471    18.7633     5.9107
  440.0000    10.5446    71.6635     2.3874     0.0486     0.2393   -61.4828    12.5960     8.3221
  440.5000    10.5466    74.6982     2.3892     0.0504     0.2387   -62.2645     7.8933     8.5676
