~VERSION INFORMATION
 VERS.                2.0:   CWLS LOG ASCII STANDARD - VERSION 2.0
 WRAP.                 NO:   ONE LINE PER DEPTH STEP
~WELL INFORMATION
#MNEM.UNIT      DATA TYPE    INFORMATION
#----------   ------------   ------------------------------
 STRT.F          148.0000:   START DEPTH
 STOP.F         3394.0000:   STOP DEPTH
 STEP.F            0.5000:   STEP LENGTH
 NULL.          -999.2500:   NO VALUE
 COMP.    FENIX & SCISSON:   COMPANY
 WELL.  FENIX "AX" #28-10:   WELL
 FLD .        TEAPOT DOME:   FIELD
 LOC .      S10 T38N R78W:   LOCATION
 CNTY.            NATRONA:   COUNTY
 STAT.            WYOMING:   STATE
 CTRY. UNITED STATES OF AMERICA:   COUNTRY
 SRVC.       SCHLUMBERGER:   SERVICE COMPANY
 DATE.        03-MAR-1981:   LOGDATE
 API .     49025108680000:   API NUMBER
~CURVE INFORMATION
#MNEM.UNIT       API CODE    CURVE DESCRIPTION
#----------   ------------   ------------------------------
 DEPT.F                  :   
 SFL .OHMM   07 220 01 00:   SHALLOW FOCUSED LOG RESISTIVITY
 ILD .OHMM   07 120 46 00:   INDUCTION LOG DEEP RESISTIVITY
 ILM .OHMM   07 120 44 00:   INDUCTION LOG MEDIUM RESISTIVITY
 TENR.LBS    07 635 01 00:   TENSION
 SPR .MV     07 010 01 00:   SPONTANEOUS POTENTIAL
 CALD.IN     45 280 60 00:   CALIPER FROM DENSITY LOG
 GRD .GAPI   45 310 01 00:   GAMMA RAY FROM DENSITY LOG
 TEND.LBS    45 635 01 00:   TENSION FROM DENSITY LOG
 CORR.G/C3   45 356 01 00:   DENSITY CORRECTION
 RHOB.G/C3   45 350 01 00:   BULK DENSITY
~PARAMETER INFORMATION
#MNEM.UNIT          VALUE    DESCRIPTION
#----------   ------------   ------------------------------
 EKB .F         5241.0000:   Kelly bushing
 EGL .F         5231.0000:   Ground level
 EDF .F            0.0000:   Drilling floor
 TD  .F         3381.0000:   Total depth
 DATE.        03-MAR-1981:   Date logged
 CLNT.            A2DTECH:   Client Code
 SL  . 640' FSL & 720' FWL:   Surface Location
 PD  .                 GL:   Permanent Datum
 EPD .F              5231:   Elevation Permanent Datum
 LMF .                 KB:   Log Measured From
 DMF .                 KB:   Drilling Measured From
 DAPD.F                10:   Feet Above Permanent Datum
 DD  .F              3361:   Depth driller
 DL  .F              3381:   Depth logger
 BLI .F              3375:   Bottom log interval
 TLI .F               233:   Top log interval
 CS1 .IN            8.625:   Casing size
 CBD1.      8.625" @ 224':   Casing driller 1
 CBL1.F               233:   Casing logger 1
 BS1 .IN            7.875:   Bit size
 BSD1.F              3361:   Depth drilled with bit1
 DFT .           CHEM/GEL:   Type fluid in hole
 DFD .                  9:   Density
 DFV .                 40:   Viscosity
 DFPH.                8.5:   pH
 DFL .                 11:   Fluid loss
 MSS .           MUD/TANK:   Source of sample
 RMS .OHMM           2.52:   Rm
 MST .F                66:   Rm Meas. temp.
 RMF .OHMM            1.8:   Rmf
 MFST.F                67:   Rmf Meas. temp.
 MFSS.               MEAS:   Source Rmf.
 RMB .OHMM           1.47:   Rm. at BHT
 BHT .F               118:   BHT.
 TCS .HRS            0500:   Time Circ. stopped
 TLAB.HRS            0830:   Time logger at bottom
 MRT .F               118:   Maximum recorded temp.
 LUN .               8035:   Logging unit number
 LUL .               CSPR:   Logging unit location
 ENGI.            BEATTLE:   Recorded By
 WITN.              FIVAS:   Witnessed by
 ORIG.           5" PRINT:   Origin of data
 UWI .     49025108680000:   Unique Well ID
 DICO. A2D TECHNOLOGIES, INC.:   Digitizing Company
~OTHER INFORMATION
~A   DEPT      SFL        ILD        ILM       TENR        SPR         CALD       GRD      TEND       CORR       RHOB   
# ...
  416.0000     8.6940     7.6130     7.2910   254.0650   -15.7270     9.0130   108.7280   317.6960     0.0180     2.4840
  416.5000     8.6240     7.7810     7.5000   254.0650   -15.7950     9.0020   109.1950   317.9400     0.0120     2.4740
  417.0000     8.4900     7.9490     7.7910   254.0650   -15.8680     8.9910   109.4380   318.1830     0.0070     2.4650
  417.5000     8.3750     8.1160     8.0820   254.0650   -15.9360     8.9800   106.8680   318.4260     0.0010     2.4610
  418.0000     8.3750     8.2840     8.3730   254.0650   -15.9780     8.9700   104.2830   318.6700     0.0010     2.4640
  418.5000     8.8620     8.4520     8.6640   254.0650   -15.8290     8.9580   101.6260   318.9130    -0.0010     2.4900
  419.0000     9.6590     8.6940     8.9540   254.0650   -15.7050     8.9530    99.0740   319.1560     0.0070     2.5150
  419.5000    11.7310     8.5890     9.2450   254.0650   -15.5680     8.9570    96.1280   319.4000     0.0180     2.5450
  420.0000    11.3000     8.4000     9.5480   254.0650   -15.4380     8.9610    95.7310   319.6430     0.0310     2.5570
  420.5000    10.2530     8.2100     8.9950   254.0650   -15.3050     8.9640    99.3430   319.8860     0.0410     2.5430
  421.0000     9.1630     8.0200     8.6370   254.0650   -15.1740     8.9680   102.5370   320.1300     0.0380     2.5230
  421.5000     8.5790     7.8310     8.2790   254.0650   -15.0390     8.9720   105.4010   320.3730     0.0260     2.5050
  422.0000     8.4200     7.6410     7.9210   254.0650   -14.9110     8.9750   105.8400   320.6160     0.0230     2.4950
  422.5000     8.2740     7.4850     7.6270   254.0650   -14.7880     8.9790   106.6280   320.8600     0.0230     2.4910
  423.0000     8.1280     7.7240     7.7360   254.0650   -14.8470     8.9830   107.8820   321.1030     0.0190     2.4860
  423.5000     8.0670     7.9270     7.8290   254.0650   -14.9100     8.9860   108.4270   321.3460     0.0150     2.4810
  424.0000     8.4240     8.1300     7.9220   254.0650   -14.9810     8.9900   108.1870   321.5900     0.0110     2.4750
  424.5000     8.7250     8.3330     8.0150   254.0650   -15.0480     8.9940   107.7910   321.8330     0.0070     2.4760
  425.0000     9.0260     8.5360     8.1080   254.0650   -15.1140     8.9970   109.3930   322.0760     0.0110     2.4860
  425.5000     9.1970     8.8590     8.2200   254.0650   -15.1790     9.0010   112.2350   322.3200     0.0180     2.4950
  426.0000     9.0260     8.8110     8.1270   254.0650   -15.1810     9.0040   114.9340   322.5630     0.0250     2.5030
  426.5000     8.8430     8.6930     8.0130   254.0650   -15.1830     9.0080   113.8570   322.8060     0.0200     2.4980
  427.0000     8.6610     8.5740     7.8980   254.0650   -15.1820     9.0120   111.2020   323.0500     0.0110     2.4850
  427.5000     8.4800     8.4560     7.7840   254.0650   -15.1820     9.0150   108.3960   323.2930     0.0050     2.4720
  428.0000     8.3750     8.3380     7.6270   254.0650   -15.1830     9.0190   105.6070   323.5370     0.0050     2.4730
  428.5000     8.3750     8.2200     7.6350   254.0650   -15.1820     9.0230   105.0730   323.7800     0.0030     2.4740
  429.0000     8.4410     8.1020     7.6740   254.0650   -15.1810     9.0260   104.8470   324.0230     0.0030     2.4760
  429.5000     8.5220     7.9180     7.7120   254.0650   -15.1460     9.0300   104.9690   324.2670     0.0030     2.4760
  430.0000     8.6020     7.9850     7.7510   254.0650   -15.0990     9.0340   106.7930   324.5100     0.0050     2.4750
  430.5000     8.6940     8.1400     7.7890   254.0650   -15.0530     9.0370   108.0900   324.7530     0.0110     2.4750
  431.0000     8.8590     8.2940     7.8280   254.0650   -15.0070     9.0410   106.6120   324.9970     0.0130     2.4810
  431.5000     8.8590     8.5330     7.8660   254.0650   -14.9610     9.0450   105.2300   325.2400     0.0180     2.4890
  432.0000     8.7720     8.4730     7.9180   254.0650   -14.9150     9.0480   103.8250   325.4830     0.0230     2.4980
  432.5000     8.6700     8.3260     7.8970   254.0650   -14.8690     9.0520   104.8330   325.7270     0.0230     2.5000
  433.0000     8.5670     8.1360     7.8160   254.0650   -14.8250     9.0560   105.7970   325.9700     0.0170     2.4960
  433.5000     8.5180     7.9470     7.7340   254.0650   -14.7760     9.0590   106.7590   326.2130     0.0120     2.4930
  434.0000     8.4610     7.7710     7.6530   254.0650   -14.8230     9.0630   107.1470   326.4570     0.0110     2.4890
  434.5000     8.4050     7.9340     7.6150   254.0650   -14.9130     9.0670   106.6320   326.7000     0.0130     2.4860
  435.0000     8.3750     7.9590     7.5980   254.0650   -14.9970     9.0700   106.1070   326.9430     0.0150     2.4830
  435.5000     8.3750     7.9840     7.5810   254.0650   -15.0800     9.0740   106.0100   327.1870     0.0170     2.4790
  436.0000     8.5050     8.0100     7.5640   254.0650   -15.1660     9.0780   105.0290   327.4300     0.0150     2.4800
  436.5000     8.8170     8.0350     7.5470   254.0650   -15.2500     9.0810   104.0110   327.6730     0.0140     2.4900
  437.0000     9.1970     8.0600     7.5310   254.0650   -15.3330     9.0850   104.1690   327.9170     0.0130     2.5020
  437.5000     8.8550     8.0670     7.5130   254.0650   -15.4200     9.0890   105.1690   328.1600     0.0130     2.5100
  438.0000     8.3640     8.0430     7.4960   254.0650   -15.5010     9.0920   106.2020   328.4030     0.0130     2.5100
  438.5000     8.2160     7.9950     7.4850   254.0650   -15.5780     9.0960   106.3240   328.6470     0.0230     2.5080
  439.0000     8.2040     7.9470     7.4750   254.0650   -15.5080     9.1000   104.8930   328.8900     0.0300     2.5080
  439.5000     8.1930     7.8990     7.4560   254.0650   -15.4330     9.1030   104.8140   329.1330     0.0380     2.5100
  440.0000     8.1810     7.8510     7.4360   254.0650   -15.3520     9.1070   106.6040   329.3770     0.0410     2.5110
  440.5000     8.1700     7.8030     7.4160   254.0650   -15.2770     9.1110   108.2960   329.6200     0.0340     2.5110
  441.0000     8.1580     7.7550     7.3960   254.0650   -15.1870     9.1060   108.1160   329.8630     0.0310     2.5110
  441.5000     8.1460     7.7060     7.3760   254.0650   -15.0500     9.0900   108.0020   330.1070     0.0280     2.5110
  442.0000     8.1350     7.6270     7.3570   254.0650   -14.8780     9.0750   109.5890   330.3500     0.0240     2.5040
  442.5000     8.1230     7.6320     7.3370   254.0650   -14.7090     9.0610   111.8490   330.5930     0.0130     2.4840
  443.0000     8.1120     7.6490     7.3170   254.0650   -14.5420     9.0460   112.0590   330.8370     0.0020     2.4770
  443.5000     8.1000     7.6650     7.2980   254.0650   -14.3750     9.0310   112.2060   331.0800     0.0030     2.4690
  444.0000     8.0890     7.6820     7.2780   254.0650   -14.2740     9.0160   113.6000   331.3250     0.0060     2.4750
  444.5000     8.0780     7.6990     7.2580   254.0650   -14.1650     9.0010   116.6410   331.5730     0.0090     2.4840
  445.0000     8.0670     7.7150     7.2390   254.0650   -14.0730     8.9870   117.5950   331.8230     0.0120     2.4880
  445.5000     8.0710     7.7300     7.2080   254.0650   -13.9880     8.9720   115.8860   332.0730     0.0130     2.4820
  446.0000     8.1360     7.7450     7.2110   254.0650   -14.2480     8.9570   111.8060   332.3220     0.0060     2.4770
  446.5000     8.1920     7.7600     7.3290   254.0650   -14.5160     8.9420   108.3110   332.5720     0.0010     2.4770
  447.0000     8.2760     7.8760     7.4290   254.0650   -14.7950     8.9270   107.2860   332.8220     0.0000     2.4810
  447.5000     8.3750     8.0020     7.5290   254.0650   -15.0770     8.9130   108.7780   333.0720     0.0060     2.4980
  448.0000     8.5330     8.1100     7.6290   254.0650   -15.1910     8.8980   108.6120   333.3220     0.0120     2.5170
  448.5000     9.9120     8.2200     7.7290   254.0650   -15.1810     8.8820   106.6560   333.5710     0.0170     2.5360
  449.0000     9.6220     8.2710     7.7980   254.0650   -15.1810     8.8740   106.3780   333.8210     0.0230     2.5310
