~VERSION INFORMATION
 VERS.                2.0:   CWLS LOG ASCII STANDARD - VERSION 2.0
 WRAP.                 NO:   ONE LINE PER DEPTH STEP
~WELL INFORMATION
#MNEM.UNIT      DATA TYPE    INFORMATION
#----------   ------------   ------------------------------
 STRT.F          492.0000:   START DEPTH
 STOP.F         3008.0000:   STOP DEPTH
 STEP.F            0.5000:   STEP LENGTH
 NULL.          -999.2500:   NO VALUE
 COMP.    FENIX & SCISSON:   COMPANY
 WELL. FENIX & SCISSON AX #24-28:   WELL
 FLD .             TEAPOT:   FIELD
 LOC .      S28 T39N R78W:   LOCATION
 CNTY.            NATRONA:   COUNTY
 STAT.            WYOMING:   STATE
 CTRY. UNITED STATES OF AMERICA:   COUNTRY
 SRVC.              WELEX:   SERVICE COMPANY
 DATE.        03-AUG-1980:   LOGDATE
 API .     49025108490000:   API NUMBER
~CURVE INFORMATION
#MNEM.UNIT       API CODE    CURVE DESCRIPTION
#----------   ------------   ------------------------------
 DEPT.F                  :   
 SPR .MV     07 010 01 00:   SPONTANEOUS POTENTIAL
 ILD .OHMM   07 120 46 00:   DEEP INDUCTION RESISTIVITY
 ILM .OHMM   07 120 44 00:   INDUCTION LOG MEDIUM RESISTIVITY
 SGRD.OHMM   07 220 05 00:   SHALLOW SHORT GUARD RESISTIVITY
 GRD .GAPI   45 310 01 00:   GAMMA RAY FROM DENSITY LOG
 CALD.IN     45 280 60 00:   CALIPER FROM DENSITY LOG
 CORR.G/C3   45 356 01 00:   DENSITY CORRECTION
 RHOB.G/C3   45 350 01 00:   BULK DENSITY
~PARAMETER INFORMATION
#MNEM.UNIT          VALUE    DESCRIPTION
#----------   ------------   ------------------------------
 EKB .F         5061.0000:   Kelly bushing
 EGL .F         5051.0000:   Ground level
 TD  .F         3000.0000:   Total depth
 CLNT.            A2DTECH:   Client Code
 SL  . 2350' FNL & 1000' FWL:   Surface Location
 DATE.         3-AUG-1980:   Date Logged [DD-MMM-YYYY]
 DD  .F              3000:   Depth driller
 DL  .F              3010:   Depth logger
 BLI .F              3008:   Bottom log interval
 TLI .F               308:   Top log interval
 CS1 .              8.625:   Casing size
 CBD1.      8.625" @ 393':   Casing driller 1
 BS1 .IN            7.875:   Bit size
 BSD1.F              3000:   Depth drilled with bit1
 DFT .     WATER BASE MUD:   Type fluid in hole
 DFD .                8.9:   Density
 TCS .HRS               8:   Time Circ. stopped
 MRT .F               115:   Maximum recorded temp.
 ENGI.           WACHTELL:   Recorded By
 WITN.           DINSMORE:   Witnessed by
 ORIG.      2.5" 5" PRINT:   Origin of data
 UWI .     49025108490000:   Unique Well ID
 DICO. A2D TECHNOLOGIES, INC.:   Digitizing Company
 PD  .                 GL:   Permanent Datum
 EPD .F              3051:   Elevation Permanent Datum
 LMF .                 KB:   Log Measured From
 DMF .                 KB:   Drilling Measured From
 DAPD.F                10:   Feet Above Permanent Datum
 DFV .                 43:   Viscosity
 DFPH.                9.5:   pH
 DFL .                7.2:   Fluid loss
 MSS .           FLOWLINE:   Source of sample
 RMS .OHMM             .9:   Rm
 MST .F                80:   Rm Meas. temp.
 RMF .OHMM            .72:   Rmf
 MFST.F                80:   Rmf Meas. temp.
 MFSS.               MEAS:   Source Rmf.
 RMC .OHMM           1.08:   Rmc
 MCST.F                80:   Rmc Meas. temp.
 MCSS.               MEAS:   Source Rmc.
 RMB .OHMM            .06:   Rm. at BHT
 BHT .F               115:   BHT.
 LUN .               1892:   Logging unit number
 LUL .             CASPER:   Logging unit location
~OTHER INFORMATION
~A   DEPT      SPR        ILD        ILM       SGRD        GRD       CALD       CORR       RHOB   
# ...
 1464.0000   -20.5952     6.2688     7.9747     8.9095    82.0492    10.2579     0.0298     2.5277
 1464.5000   -20.6027     6.2837     7.7519     8.7815    81.1546    10.1529     0.0647     2.5440
 1465.0000   -20.6101     6.3494     7.5352     8.7766    80.2616    10.0930     0.0740     2.5556
 1465.5000   -20.6176     6.3449     7.4274     8.6505    80.2698    10.1229     0.0895     2.5269
 1466.0000   -20.9241     6.3409     7.3212     8.6448    81.4009    10.1679     0.1035     2.5253
 1466.5000   -20.9313     6.3369     7.3177     8.6401    82.7568    10.2129     0.1205     2.5828
 1467.0000   -20.9386     6.3329     7.3142     8.6354    83.6629    10.2279     0.1360     2.6023
 1467.5000   -20.9458     6.3290     7.3108     8.6307    84.1193    10.2429     0.1593     2.6053
 1468.0000   -20.9531     6.3250     7.3072     8.6260    84.3569    10.2279     0.1795     2.5376
 1468.5000   -20.9603     6.4090     7.3037     8.6213    84.8613    10.2429     0.0892     2.6052
 1469.0000   -20.9675     6.4956     7.4160     8.6166    86.6145    10.2879     0.0768     2.6114
 1469.5000   -20.6771     6.4910     7.7544     8.6120    87.0692    10.3628     0.0643     2.5539
 1470.0000   -20.6845     6.5785     8.0932     8.6073    84.1539    10.4378     0.0565     2.5127
 1470.5000   -20.3940     6.6663     8.4468     8.6025    81.0121    10.0480     0.0735     2.5111
 1471.0000   -20.4018     6.6622     8.7740     8.5977    80.3424    10.0330     0.0859     2.5258
 1471.5000   -20.4092     6.6582     8.8992     8.6110    81.2502    10.0930     0.1037     2.5421
 1472.0000   -20.4167     6.5620     9.1528     8.7090    81.9314    10.1529     0.1698     2.5724
 1472.5000   -20.4241     6.5518     9.2198     8.7341    81.9079    10.1379     0.1884     2.5977
 1473.0000   -20.4315     6.4631     9.2153     8.8214    82.3944    10.1229     0.1821     2.6042
 1473.5000   -20.4390     6.4590     9.2099     8.8158    83.0878    10.1979     0.1183     2.5832
 1474.0000   -20.7440     6.4550     9.0782     8.8109    83.0496    10.2579     0.0887     2.5521
 1474.5000   -20.7515     6.4509     8.8245     8.8060    81.9660    10.3028     0.0747     2.5249
 1475.0000   -20.7589     6.3284     8.8203     8.8011    81.0731    10.3328     0.0638     2.5132
 1475.5000   -21.0653     6.1791     8.4552     8.7962    80.4033    10.2729     0.0557     2.5124
 1476.0000   -21.3702     6.1752     8.2189     8.7903    79.7353    10.1829     0.0683     2.5248
 1476.5000   -21.3774     6.1713     7.9892     8.7855    80.4182    10.1229     0.1087     2.5427
 1477.0000   -21.3846     6.1675     7.8749     8.7808    81.0994    10.1229     0.1304     2.5528
 1477.5000   -21.3919     6.1629     7.8711     8.7760    81.5558    10.1529     0.1413     2.5570
 1478.0000   -21.3991     6.1591     7.8674     8.7712    81.7873    10.1679     0.1506     2.5884
 1478.5000   -21.4064     6.1553     7.9863     8.7665    80.6694    10.1679     0.1599     2.6016
 1479.0000   -21.4137     6.2383     8.1003     8.7617    79.5338    10.1679     0.1472     2.6063
 1479.5000   -21.4211     6.2341     8.2158     8.7570    78.6586    10.1679     0.1224     2.5511
 1480.0000   -21.4286     6.3177     8.3331     8.7522    77.7673    10.1829     0.1006     2.5907
 1480.5000   -21.4360     6.4024     8.5331     8.7473    77.3241    10.2129     0.0928     2.6140
 1481.0000   -21.4435     6.3985     8.5283     8.6217    76.8793    10.2429     0.0943     2.6069
 1481.5000   -21.4509     6.4867     8.6438     8.6169    77.7871    10.2579     0.0989     2.5665
 1482.0000   -21.1594     6.5713     8.7608     8.6121    79.3679    10.2429     0.1020     2.5315
 1482.5000   -21.1682     6.5670     8.7565     8.7285    80.4989    10.2429     0.1051     2.5560
 1483.0000   -21.1756     6.5629     8.9469     8.7230    80.9553    10.2429     0.1066     2.5734
 1483.5000   -21.1830     6.5809     8.9952     8.7182    80.9619    10.2579     0.1065     2.5548
 1484.0000   -21.1905     6.6473     9.1163     8.7133    81.6461    10.2879     0.0971     2.5415
 1484.5000   -21.1993     6.6425     9.1119     8.7085    82.7984    10.3628     0.0940     2.5501
 1485.0000   -21.2065     6.6383     9.1076     8.7036    83.9069    10.4378     0.0939     2.5555
 1485.5000   -21.2137     6.7273     9.1033     8.6988    84.3632    10.4228     0.0954     2.5454
 1486.0000   -21.2210     6.7230     9.0989     8.6930    84.3698    10.2879     0.1016     2.5337
 1486.5000   -21.2282     6.7188     9.0946     8.6883    84.1499    10.2279     0.1079     2.5282
 1487.0000   -21.2355     6.7138     9.0903     8.6836    83.4835    10.2429     0.1171     2.5407
 1487.5000   -21.2427     6.7097     9.0859     8.6789    83.2635    10.2729     0.1248     2.5552
 1488.0000   -21.2500     6.7056     9.0698     8.6742    83.2718    10.3028     0.1108     2.5717
 1488.5000   -21.2371     6.7015     8.9335     8.6694    83.2784    10.3328     0.0656     2.5398
 1489.0000   -20.9668     6.6974     8.7012     8.6647    83.0600    10.3478     0.0391     2.5071
 1489.5000   -20.9747     6.6933     8.6969     8.6600    82.6169    10.3478     0.0173     2.4923
 1490.0000   -20.9821     6.6893     8.6927     8.6553    82.3986    10.3478     0.0033     2.5148
 1490.5000   -20.9896     6.6852     8.6884     8.6505    81.7322    10.3178     0.0118     2.5304
 1491.0000   -20.9970     6.6810     8.6842     8.6457    80.8392    10.2579     0.0374     2.5179
 1491.5000   -21.0045     6.7707     8.6800     8.6409    80.3944    10.1979     0.0653     2.5117
 1492.0000   -21.0119     6.7663     8.6757     8.7576    80.6275    10.1827     0.0839     2.5495
 1492.5000   -21.0193     6.7810     8.7394     8.7522    79.9594    10.1661     0.0979     2.5567
 1493.0000   -21.0268     6.8531     8.7889     8.7473    77.9420    10.1229     0.1056     2.5528
 1493.5000   -21.0356     6.8483     8.9072     8.7425    75.9246    10.1079     0.1102     2.6009
 1494.0000   -21.0428     6.9408     8.9029     8.7376    79.9792    10.1529     0.1086     2.6102
 1494.5000   -21.0501     6.9759     8.8987     8.7878    82.0098    10.2279     0.1086     2.6024
 1495.0000   -21.0573     7.0286     9.0193     8.8502    83.3809    10.3178     0.1054     2.5550
 1495.5000   -21.0646     6.9270     9.0150     8.8452    84.5689    10.3928     0.1007     2.5146
 1496.0000   -21.0718     6.9227     9.0107     8.8394    87.4285    10.1679     0.0960     2.5067
 1496.5000   -21.0791     6.9175     9.0064     8.8346    87.8849    10.0930     0.0913     2.5200
 1497.0000   -21.0863     6.9133     9.0021     8.8298    86.0924    10.0630     0.0897     2.5432
 1497.5000   -21.0938     6.9091     8.9883     8.8250    82.9505    10.0952     0.0897     2.5580
 1498.0000   -21.1012     6.9049     8.8533     8.8202    80.4834    10.1529     0.0912     2.4989
 1498.5000   -20.8104     6.9007     8.7419     8.8154    78.0162    10.2279     0.0946     2.5207
 1499.0000   -20.8185     6.9932     8.6167     8.6889    79.5970    10.2579     0.0946     2.5416
 1499.5000   -20.8259     6.9889     8.6125     8.6842    81.1778    10.2879     0.0991     2.5362
 1500.0000   -20.5345     6.9847     8.6083     8.6795    82.3090    10.2729     0.1021     2.5813
 1500.5000   -20.5432     6.9803     8.6041     8.6746    83.4610    10.1979     0.1157     2.6067
 1501.0000   -20.5506     6.9759     8.5999     8.6698    84.1211    10.1379     0.1293     2.6052
 1501.5000   -20.5610     6.9716     8.5957     8.6650    81.6556    10.1679     0.1384     2.5708
 1502.0000   -20.5724     6.9442     8.5915     8.6284    78.5138    10.2291     0.1051     2.5955
 1502.5000   -20.5839     6.9010     8.5865     8.5692    76.2715    10.2879     0.0915     2.5835
 1503.0000   -20.5953     6.8577     8.5411     8.5101    76.7279    10.3028     0.0852     2.5685
 1503.5000   -20.6068     6.8145     8.4028     8.4510    79.2082    10.2620     0.0823     2.5760
 1504.0000   -20.6182     6.7712     8.2646     8.3919    81.9135    10.2178     0.0854     2.5827
