~VERSION INFORMATION
 VERS.                2.0:   CWLS LOG ASCII STANDARD - VERSION 2.0
 WRAP.                 NO:   ONE LINE PER DEPTH STEP
~WELL INFORMATION
#MNEM.UNIT      DATA TYPE    INFORMATION
#----------   ------------   ------------------------------
 STRT.F          200.0000:   START DEPTH
 STOP.F         3196.5000:   STOP DEPTH
 STEP.F            0.5000:   STEP LENGTH
 NULL.          -999.2500:   NO VALUE
 COMP.    FENIX & SCISSON:   COMPANY
 WELL. FENIX & SCISSON #82-15:   WELL
 FLD .                NPR:   FIELD
 LOC .      S15 T38N R78W:   LOCATION
 CNTY.            NATRONA:   COUNTY
 STAT.            WYOMING:   STATE
 CTRY. UNITED STATES OF AMERICA:   COUNTRY
 SRVC.              WELEX:   SERVICE COMPANY
 DATE.        14-AUG-1977:   LOGDATE
 API .     49025104100000:   API NUMBER
~CURVE INFORMATION
#MNEM.UNIT       API CODE    CURVE DESCRIPTION
#----------   ------------   ------------------------------
 DEPT.F                  :   
 CALD.IN     45 280 60 00:   CALIPER FROM DENSITY LOG
 GRD .GAPI   45 310 01 00:   GAMMA RAY FROM DENSITY LOG
 RHOB.G/C3   45 350 01 00:   BULK DENSITY
 CORR.G/C3   45 356 01 00:   DENSITY CORRECTION
 SPR .MV     07 010 01 00:   SPONTANEOUS POTENTIAL
 ILD .OHMM   07 120 46 00:   DEEP INDUCTION RESISTIVITY
 ILM .OHMM   07 120 44 00:   INDUCTION LOG MEDIUM RESISTIVITY
 GURD.OHMM   07 220 05 00:   GUARD LOG RESISTIVITY
~PARAMETER INFORMATION
#MNEM.UNIT          VALUE    DESCRIPTION
#----------   ------------   ------------------------------
 EKB .F         5259.0000:   Kelly bushing
 EGL .F         5249.0000:   Ground level
 EDF .F            0.0000:   Drilling floor
 EPD .F            0.0000:   Permanent datum
 TD  .F         3197.0000:   Total depth
 CLNT.            A2DTECH:   Client Code
 SL  . 990' FNL & 330' FEL:   Surface Location
 PD  .                 GL:   Permanent Datum
 DAPD.F                10:   Feet Above Permanent Datum
 DATE.        14-AUG-1977:   Date Logged [DD-MMM-YYYY]
 DD  .F              3197:   Depth driller
 DL  .F              3200:   Depth logger
 BLI .F              3198:   Bottom log interval
 TLI .F               200:   Top log interval
 CS1 .IN            8.625:   Casing size
 CBD1.      8.625" @ 236':   Casing driller 1
 CBL1.F               220:   Casing logger 1
 BS1 .IN            7.875:   Bit size
 BSD1.F              3197:   Depth drilled with bit1
 DFT .            KCL MUD:   Type fluid in hole
 DFD .                9.1:   Density
 DFV .                 42:   Viscosity
 DFPH.               10.5:   pH
 DFL .                7.2:   Fluid loss
 MSS .           FLOWLINE:   Source of sample
 RMS .OHMM          0.240:   Rm
 MST .F                92:   Rm Meas. temp.
 RMF .OHMM          0.160:   Rmf
 MFST.F                92:   Rmf Meas. temp.
 MFSS.               MEAS:   Source Rmf.
 RMC .OHMM          0.238:   Rmc
 MCST.F                92:   Rmc Meas. temp.
 MCSS.               MEAS:   Source Rmc.
 RMB .OHMM          0.194:   Rm. at BHT
 BHT .F               114:   BHT.
 TCS .HRS               3:   Time Circ. stopped
 MRT .F               114:   Maximum recorded temp.
 LUN .               9685:   Logging unit number
 LUL .             CASPER:   Logging unit location
 ENGI.            C. DOAK:   Recorded By
 WITN.      W. PETTINGILL:   Witnessed by
 ORIG.           5" PRINT:   Origin of data
 UWI .     49025104100000:   Unique Well ID
 DICO. A2D TECHNOLOGIES, INC.:   Digitizing Company
~OTHER INFORMATION
~A   DEPT       CALD       GRD        RHOB      CORR       SPR        ILD        ILM       GURD   
# ...
 1577.0000    12.9360   111.8261     2.4766     0.0259   -70.2750     6.2029     6.1599     6.3294
 1577.5000    12.9239   111.8591     2.4767     0.0276   -70.4086     6.2507     6.2074     6.3773
 1578.0000    12.9107   111.8933     2.4806     0.0307   -70.8439     6.2988     6.2130     6.3813
 1578.5000    12.9135   112.2250     2.4888     0.0338   -71.1330     6.3036     6.2609     6.3853
 1579.0000    12.9159   112.2579     2.4949     0.0399   -71.4189     6.3093     6.2655     6.4791
 1579.5000    12.9182   111.9890     2.4994     0.0415   -71.4026     6.3139     6.2702     6.4830
 1580.0000    12.9205   110.8294     2.5032     0.0401   -71.2400     6.3186     6.2749     6.4870
 1580.5000    12.9078   110.1769     2.5040     0.0342   -71.0774     6.3233     6.2795     6.5360
 1581.0000    12.9107   109.9856     2.4944     0.0281   -70.9148     6.3280     6.2842     6.5400
 1581.5000    12.9130   110.0254     2.4882     0.0237   -70.9013     6.3327     6.2889     6.5895
 1582.0000    12.9154   110.6570     2.4855     0.0211   -70.7360     6.3374     6.3373     6.5935
 1582.5000    12.8727   110.9895     2.4870     0.0168   -70.7229     6.3421     6.3862     6.6433
 1583.0000    12.8450   111.6282     2.4901     0.0169   -70.7098     6.3469     6.3910     6.6936
 1583.5000    12.7717   112.2598     2.4947     0.0155   -70.6967     6.3526     6.5311     6.6978
 1584.0000    12.6997   111.0923     2.4992     0.0126   -70.8364     6.3573     6.5814     6.7028
 1584.5000    12.6871   109.3250     2.5023     0.0098   -70.8200     6.3621     6.6320     6.7068
 1585.0000    12.6450   109.3569     2.5046     0.0189   -70.9566     6.3668     6.6818     6.7109
 1585.5000    12.6167   110.8880     2.5046     0.0250   -70.9432     6.3715     6.5506     6.7150
 1586.0000    12.5897   109.3973     2.5039     0.0281   -70.9058     6.3762     6.5090     6.7191
 1586.5000    12.5920   108.2531     2.5018     0.0192   -70.7644     6.3809     6.5603     6.7232
 1587.0000    12.5793   109.4924     2.4958     0.0163   -70.7514     6.3857     6.5652     6.7273
 1587.5000    12.5666   110.7236     2.4880     0.0135   -70.7383     6.3463     6.6157     6.7314
 1588.0000    12.5695   112.5546     2.4776     0.0121   -70.8779     6.3522     6.6208     6.7355
 1588.5000    12.5715   112.8863     2.4686     0.0107   -70.7121     6.3569     6.6268     6.6931
 1589.0000    12.5742   112.0180     2.4617     0.0124   -70.6990     6.3616     6.5406     6.6060
 1589.5000    12.5915   113.2867     2.4554     0.0170   -70.8354     6.2354     6.4542     6.5181
 1590.0000    12.5787   115.0888     2.4509     0.0171   -70.8221     6.1958     6.4144     6.4771
 1590.5000    12.5510   114.2212     2.4503     0.0172   -70.8060     6.2447     6.4204     6.4820
 1591.0000    12.5213   112.7538     2.4586     0.0203   -70.7929     6.2493     6.5601     6.5310
 1591.5000    12.4958   112.7856     2.4729     0.0264   -70.7798     6.2540     6.7493     6.5804
 1592.0000    12.4831   113.1154     2.4887     0.0370   -70.7667     6.2597     7.0409     6.6302
 1592.5000    12.5010   113.7489     2.4985     0.0431   -70.7537     6.2643     7.4475     6.7735
 1593.0000    12.5033   113.4810     2.5061     0.0433   -70.7406     6.2690     7.7172     6.8247
 1593.5000    12.5269   112.9211     2.5107     0.0418   -70.7275     6.2736     7.7214     6.8764
 1594.0000    12.5453   112.3453     2.5122     0.0390   -70.8640     6.2783     7.2115     6.8807
 1594.5000    12.5572   112.9848     2.5101     0.0376   -71.0003     6.3266     6.8754     6.8857
 1595.0000    12.5731   113.3165     2.5064     0.0347   -70.9839     6.4642     6.6925     6.8899
 1595.5000    12.5599   113.6483     2.5020     0.0334   -71.1236     6.4690     6.6042     6.8465
 1596.0000    12.5472   113.0804     2.4968     0.0350   -71.1072     6.4291     6.6103     6.8024
 1596.5000    12.5195   112.5126     2.4909     0.0366   -71.2469     6.4351     6.5683     6.8076
 1597.0000    12.4925   113.1454     2.4827     0.0367   -71.2306     6.3942     6.6202     6.8117
 1597.5000    12.4498   112.5843     2.4760     0.0339   -71.2175     6.4001     6.7175     6.8159
 1598.0000    12.4206   111.7166     2.4724     0.0280   -71.2044     6.4494     6.7225     6.8200
 1598.5000    12.3945   110.2492     2.4777     0.0206   -71.0418     6.4990     6.7276     6.8242
 1599.0000    12.3524   109.6734     2.4832     0.0192   -71.0284     6.5038     6.6860     6.8285
 1599.5000    12.3391   110.3130     2.4898     0.0193   -71.0124     6.4636     6.6923     6.8810
 1600.0000    12.3333   111.2444     2.4948     0.0210   -70.8531     6.4233     6.7425     6.9320
 1600.5000    12.2830   110.3709     2.5008     0.0237   -70.6916     6.4276     6.7552     7.0823
 1601.0000    12.2399   109.8039     2.5080     0.0265   -70.6815     6.4311     6.8515     7.1353
 1601.5000    12.1966   108.9239     2.5081     0.0275   -70.3722     6.4346     6.8579     7.1888
 1602.0000    12.1685   111.6552     2.5044     0.0262   -70.2103     6.4388     6.8644     7.1927
 1602.5000    12.1252   112.2810     2.5007     0.0232   -70.2001     6.3970     6.8708     7.1468
 1603.0000    12.1098   112.0008     2.4963     0.0205   -70.3395     6.4012     6.6894     7.0523
 1603.5000    12.0684   113.2523     2.4941     0.0162   -70.6309     6.4047     6.4232     7.0571
 1604.0000    12.0250   112.3594     2.4965     0.0149   -70.7702     6.4081     6.4292     7.0609
 1604.5000    12.0116   113.5914     2.5010     0.0106   -70.9073     6.4115     6.4354     7.0647
 1605.0000    11.9982   113.9174     2.5026     0.0108   -70.8969     6.4150     6.4429     6.9703
 1605.5000    12.0151   116.0424     2.5034     0.0125   -70.8864     6.4185     6.4489     7.0722
 1606.0000    12.0168   116.3619     2.5019     0.0127   -70.8742     6.4227     6.4550     7.1747
 1606.5000    12.0184   114.8953     2.4975     0.0128   -71.0135     6.3818     6.4611     7.2787
 1607.0000    12.0354   114.3208     2.4938     0.0115   -71.1554     6.3403     6.5573     7.2827
 1607.5000    12.0370   115.2474     2.4931     0.0102   -71.1428     6.3446     6.5182     7.1863
 1608.0000    12.0686   115.2744     2.4940     0.0089   -71.2825     6.3480     6.5243     6.9464
 1608.5000    12.0702   113.2072     2.4955     0.0105   -71.4215     6.3514     6.5305     6.9012
 1609.0000    12.0868   111.7341     2.4975     0.0124   -71.5609     6.3548     6.4467     6.9059
 1609.5000    12.1333   112.9596     2.5007     0.0169   -71.5482     6.3591     6.4543     6.9096
 1610.0000    12.1499   113.8852     2.5040     0.0186   -71.5381     6.3625     6.4604     6.9133
 1610.5000    12.1966   114.2112     2.5070     0.0203   -71.3785     6.3659     6.4664     6.9170
 1611.0000    12.2135   113.9370     2.5096     0.0249   -71.2189     6.3253     6.4725     6.9208
 1611.5000    12.1701   113.3062     2.5124     0.0281   -71.0593     6.3287     6.3895     6.9254
 1612.0000    12.1417   113.1078     2.5125     0.0314   -70.7502     6.3321     6.3513     6.9772
 1612.5000    12.0983   112.9094     2.5118     0.0315   -70.5904     6.3355     6.4017     7.1275
 1613.0000    12.0699   114.3483     2.5089     0.0257   -70.5780     6.3390     6.5891     7.2308
 1613.5000    12.0565   115.5739     2.5059     0.0243   -70.5679     6.2985     6.6873     7.1848
 1614.0000    12.0582   114.0941     2.5045     0.0215   -70.5578     6.2593     6.6936     7.1389
 1614.5000    12.0751   115.9259     2.5038     0.0187   -70.5476     6.2626     6.6536     6.9957
 1615.0000    12.0831   115.6522     2.5046     0.0159   -70.5375     6.2660     6.6124     6.8973
 1615.5000    12.0931   114.7787     2.5040     0.0145   -70.5274     6.2693     6.5291     6.8595
 1616.0000    12.0949   117.2102     2.5025     0.0148   -70.6668     6.2727     6.4008     6.9118
 1616.5000    12.1115   118.4357     2.4996     0.0179   -70.8036     6.3197     6.3188     6.9636
 1617.0000    12.1130   116.9626     2.4952     0.0166   -70.9455     6.2794     6.4590     6.9673
