~VERSION INFORMATION
 VERS.                2.0:   CWLS LOG ASCII STANDARD - VERSION 2.0
 WRAP.                 NO:   ONE LINE PER DEPTH STEP
~WELL INFORMATION
#MNEM.UNIT      DATA TYPE    INFORMATION
#----------   ------------   ------------------------------
 STRT.F          200.5000:   START DEPTH
 STOP.F         3118.5000:   STOP DEPTH
 STEP.F            0.5000:   STEP LENGTH
 NULL.          -999.2500:   NO VALUE
 COMP.    FENIX & SCISSON:   COMPANY
 WELL. FENIX SCISSON "A" #16-27:   WELL
 FLD .                NPR:   FIELD
 LOC .      S27 T39N R78W:   LOCATION
 CNTY.            NATRONA:   COUNTY
 STAT.            WYOMING:   STATE
 CTRY. UNITED STATES OF AMERICA:   COUNTRY
 SRVC.       SCHLUMBERGER:   SERVICE COMPANY
 DATE.        31-AUG-1977:   LOGDATE
 API .     49025104180000:   API NUMBER
~CURVE INFORMATION
#MNEM.UNIT       API CODE    CURVE DESCRIPTION
#----------   ------------   ------------------------------
 DEPT.F                  :   
 CALD.IN     45 280 60 00:   CALIPER FROM DENSITY LOG
 GRD .GAPI   45 310 01 00:   GAMMA RAY FROM DENSITY LOG
 DPHI.DEC    42 890 03 00:   DENSITY POROSITY SANDSTONE
 RHOB.G/C3   45 350 01 00:   BULK DENSITY
 CORR.G/C3   45 356 01 00:   DENSITY CORRECTION
 SPR .MV     07 010 01 00:   SPONTANEOUS POTENTIAL
 GURD.OHMM   07 220 05 00:   GUARD LOG RESISTIVITY
 ILD .OHMM   07 120 46 00:   DEEP INDUCTION RESISTIVITY
 ILM .OHMM   07 120 44 00:   INDUCTION LOG MEDIUM RESISTIVITY
~PARAMETER INFORMATION
#MNEM.UNIT          VALUE    DESCRIPTION
#----------   ------------   ------------------------------
 EKB .F         5095.0000:   Kelly bushing
 EGL .F         5085.0000:   Ground level
 EDF .F            0.0000:   Drilling floor
 TD  .F         3121.0000:   Total depth
 DATE.        31-AUG-1977:   Date logged
 CLNT.            A2DTECH:   Client Code
 SL  . 1430' FSL & 330' FNL:   Surface Location
 PD  .                 GL:   Permanent Datum
 EPD .F              5085:   Elevation Permanent Datum
 LMF .                 KB:   Log Measured From
 DMF .                 KB:   Drilling Measured From
 DAPD.F                10:   Feet Above Permanent Datum
 DD  .F              3120:   Depth driller
 DL  .F              3121:   Depth logger
 BLI .F              3119:   Bottom log interval
 TLI .F               200:   Top log interval
 CS1 .IN            8.625:   Casing size
 CBD1.      8.625" @ 206':   Casing driller 1
 CBL1.F               215:   Casing logger 1
 BS1 .IN            7.875:   Bit size
 BSD1.F              3120:   Depth drilled with bit1
 DFT .            KCL/MUD:   Type fluid in hole
 DFD .                  9:   Density
 DFV .                 36:   Viscosity
 DFPH.                 11:   pH
 DFL .                8.4:   Fluid loss
 MSS .           FLOWLINE:   Source of sample
 RMS .OHMM            2.5:   Rm
 MST .F                89:   Rm Meas. temp.
 RMF .OHMM           2.45:   Rmf
 MFST.F                89:   Rmf Meas. temp.
 RMC .OHMM           3.30:   Rmc
 MCST.F                89:   Rmc Meas. temp.
 MFSS.               FANN:   Source Rmf.
 MCSS.                KIT:   Source Rmc.
 RMB .OHMM           1.91:   Rm. at BHT
 BHT .F               116:   BHT.
 TCS .HRS              12:   Time Circ. stopped
 MRT .F               116:   Maximum recorded temp.
 LUN .               9585:   Logging unit number
 LUL .             CASPEN:   Logging unit location
 ENGI.         G. BENTSEN:   Recorded By
 WITN.      W. PETTINGILL:   Witnessed by
 ORIG.           5" PRINT:   Origin of data
 UWI .     49025104180000:   Unique Well ID
 DICO. A2D TECHNOLOGIES, INC.:   Digitizing Company
~OTHER INFORMATION
~A   DEPT     CALD         GRD      DPHI       RHOB        CORR       SPR       GURD        ILD        ILM   
# ...
 1916.0000     8.3800   109.4093     0.1304     2.4290     0.0017   -65.7385    13.5071     7.0463     7.9629
 1916.5000     8.3793   109.3955     0.1312     2.4290     0.0017   -66.1321    13.7584     7.0468     7.8907
 1917.0000     8.3786   109.7753     0.1328     2.4300     0.0016   -66.5256    14.2742     7.0475     7.9642
 1917.5000     8.3779   109.3679     0.1328     2.4299     0.0016   -66.5226    14.2752     7.0480     7.8922
 1918.0000     8.3772   109.7477     0.1328     2.4299     0.0015   -66.7179    14.0166     7.0486     7.8925
 1918.5000     8.3765   110.9148     0.1308     2.4299     0.0015   -66.7149    13.8895     7.0491     7.8932
 1919.0000     8.3758   110.1137     0.1297     2.4328     0.0014   -66.5137    13.6378     7.0495     7.8216
 1919.5000     8.3751   109.7062     0.1269     2.4358     0.0034   -66.7089    13.6388     7.0502     7.6796
 1920.0000     8.3548   110.0861     0.1269     2.4387     0.0093   -66.7059    13.3917     7.0509     7.6802
 1920.5000     8.3738   109.2850     0.1265     2.4387     0.0072   -66.7030    13.2703     7.0512     7.6809
 1921.0000     8.3927   109.2711     0.1269     2.4377     0.0092   -66.8964    13.2713     7.0518     7.6814
 1921.5000     8.3724   108.8637     0.1265     2.4356     0.0131   -66.8952    13.1508     6.9879     7.6118
 1922.0000     8.3717   109.6371     0.1222     2.4366     0.0210   -66.8923    12.9127     6.8612     7.4742
 1922.5000     8.3710   109.6261     0.1190     2.4386     0.0229   -66.8893    12.7954     6.7987     7.4060
 1923.0000     8.3703   109.6095     0.1174     2.4445     0.0268   -66.8863    12.7964     6.6755     7.2051
 1923.5000     8.3696   109.5984     0.1153     2.4484     0.0268   -66.6851    12.5645     6.6149     7.0745
 1924.0000     8.3886   109.5846     0.1131     2.4544     0.0287   -66.6821    11.3587     6.4948     7.0750
 1924.5000     8.3682   108.3871     0.1110     2.4603     0.0266   -66.6791    11.1529     6.3185     7.0108
 1925.0000     8.3675   108.3733     0.1087     2.4632     0.0286   -66.6761    12.1143     6.1475     7.0115
 1925.5000     8.3865   108.3595     0.1068     2.4692     0.0305   -66.2767    12.9193     6.2605     7.1419
 1926.0000     8.3858   108.7393     0.1036     2.4751     0.0305   -66.2737    12.8022     6.3202     7.3422
 1926.5000     8.3655   107.5446     0.1056     2.4771     0.0284   -66.0725    12.8031     6.3790     7.4791
 1927.0000     8.3845   107.9244     0.1072     2.4761     0.0244   -66.0695    12.9222     6.4980     7.5486
 1927.5000     8.3641   107.9106     0.1088     2.4651     0.0223   -66.0665    13.4065     6.6191     7.6894
 1928.0000     8.3634   109.4713     0.1120     2.4611     0.0203   -66.0635    13.6560     6.7424     7.7609
 1928.5000     8.3627   109.0639     0.1148     2.4581     0.0183   -66.2588    13.6570     6.8681     7.7613
 1929.0000     8.3620   105.9009     0.1152     2.4560     0.0123   -66.2558    13.4095     6.9322     7.9062
 1929.5000     8.3613   105.4962     0.1164     2.4550     0.0082   -66.2528    13.5342     6.9326     7.9067
 1930.0000     8.3606   104.6860     0.1172     2.4550     0.0082   -66.2499    13.7860     6.9331     7.7633
 1930.5000     8.3599   104.2785     0.1172     2.4540     0.0081   -66.2469    13.6611     6.9336     7.6226
 1931.0000     8.3592   103.8711     0.1172     2.4539     0.0120   -66.2439    13.4136     6.9343     7.5535
 1931.5000     8.3782   103.8572     0.1168     2.4539     0.0120   -66.2409    13.2920     6.9349     7.5541
 1932.0000     8.3775   103.8434     0.1161     2.4549     0.0139   -66.2379    13.2930     6.9354     7.5547
 1932.5000     8.3769   104.6169     0.1161     2.4548     0.0158   -66.2350    13.2940     6.9359     7.6249
 1933.0000     8.3762   105.3904     0.1157     2.4558     0.0178   -66.2320    13.2950     6.9366     7.6256
 1933.5000     8.3558   105.7702     0.1149     2.4588     0.0177   -66.6255    13.2960     6.9369     7.6261
 1934.0000     8.3551   106.1500     0.1137     2.4657     0.0236   -66.8208    12.9358     6.9377     7.6267
 1934.5000     8.3741   106.1362     0.1114     2.4686     0.0256   -66.8178    12.8186     6.9382     7.6977
 1935.0000     8.3734   105.7287     0.1090     2.4716     0.0255   -67.0130    12.9377     6.9386     7.6982
 1935.5000     8.3727   105.3213     0.1070     2.4686     0.0215   -66.8118    13.0580     6.8757     7.5589
 1936.0000     8.3523   104.9138     0.1058     2.4695     0.0214   -66.8088    13.1794     6.8764     7.5595
 1936.5000     8.3713   104.5063     0.1058     2.4705     0.0214   -67.0041    13.1804     6.8768     7.5599
 1937.0000     8.3706   104.4925     0.1062     2.4695     0.0233   -66.8029    12.8234     6.8774     7.6304
 1937.5000     8.3698   105.6596     0.1067     2.4704     0.0233   -66.7999    12.5911     6.8778     7.8443
 1938.0000     8.3693   106.0394     0.1075     2.4754     0.0252   -66.7969    13.4276     6.8786     7.9174
 1938.5000     8.3686   104.8475     0.1095     2.4664     0.0251   -66.7939    13.8035     6.8789     7.9179
 1939.0000     8.3679   104.8309     0.1111     2.4654     0.0231   -66.7910    13.9319     6.7543     7.7744
 1939.5000     8.3672   104.8171     0.1127     2.4604     0.0210   -66.1920    13.8056     6.6316     7.2906
 1940.0000     8.3665   104.8032     0.1155     2.4554     0.0210   -66.3885    12.3667     6.5716     6.7745
 1940.5000     8.3855   104.7894     0.1175     2.4484     0.0150   -66.5838    11.3870     6.5721     7.0934
 1941.0000     8.3651   102.8138     0.1195     2.4464     0.0149   -66.7790    12.1436     6.4528     7.0942
 1941.5000     8.3644   102.4063     0.1199     2.4463     0.0149   -66.7761    12.0336     6.4532     7.0947
 1942.0000     8.3637   102.7861     0.1199     2.4463     0.0148   -66.7731    10.3908     6.2786     7.0951
 1942.5000     8.3630   103.1687     0.1199     2.4453     0.0148   -66.7701    10.8793     6.2789     7.0956
 1943.0000     8.3623   104.3358     0.1199     2.4433     0.0147   -66.7671    13.6868     6.3374     7.0961
 1943.5000     8.3617   106.2838     0.1199     2.4442     0.0147   -66.7641    13.4387     6.3964     7.0967
 1944.0000     8.3610   105.4827     0.1199     2.4452     0.0146   -66.7612    13.0747     6.5156     7.0974
 1944.5000     8.3800   105.0753     0.1195     2.4462     0.0165   -66.7582    12.7206     6.6371     7.0330
 1945.0000     8.3793   105.0615     0.1184     2.4471     0.0185   -66.3587    12.4901     6.5767     7.0334
 1945.5000     8.3786   105.0476     0.1176     2.4471     0.0224   -66.3557    12.4911     6.6379     7.0342
 1946.0000     8.3779   105.0338     0.1160     2.4520     0.0263   -65.7580    12.7232     6.6999     7.0345
 1946.5000     8.3772   104.6264     0.1160     2.4560     0.0302   -65.7550    12.7242     6.8877     7.0353
 1947.0000     8.3568   104.2189     0.1164     2.4560     0.0302   -65.7521    12.4937     6.8256     7.0357
 1947.5000     8.3759   103.8114     0.1168     2.4559     0.0321   -65.7490    12.2674     6.7633     7.0364
 1948.0000     8.3556   103.7976     0.1168     2.4559     0.0301   -65.7460    11.8263     6.7020     7.0369
 1948.5000     8.3549   103.7838     0.1165     2.4559     0.0320   -65.7430    11.9361     6.6412     7.3010
 1949.0000     8.3739   103.7700     0.1149     2.4578     0.0319   -65.7401    12.9648     6.7649     7.5748
 1949.5000     8.3732   103.7562     0.1133     2.4618     0.0319   -65.7372    13.2059     6.8910     7.8590
 1950.0000     8.3725   103.7424     0.1125     2.4627     0.0298   -65.7342    13.0863     6.8915     7.9320
 1950.5000     8.3718   104.1222     0.1121     2.4637     0.0318   -65.7312    13.3297     6.8921     8.0060
 1951.0000     8.3711   104.5020     0.1121     2.4637     0.0297   -65.7282    13.2089     6.8926     7.8607
 1951.5000     8.3311   104.8818     0.1122     2.4636     0.0297   -65.7252    13.0892     6.8932     7.4399
 1952.0000     8.3304   104.8680     0.1122     2.4636     0.0296   -65.7223    12.6184     6.8938     7.3050
