~VERSION INFORMATION
 VERS.                2.0:   CWLS LOG ASCII STANDARD - VERSION 2.0
 WRAP.                 NO:   ONE LINE PER DEPTH STEP
~WELL INFORMATION
#MNEM.UNIT      DATA TYPE    INFORMATION
#----------   ------------   ------------------------------
 STRT.F          502.0000:   START DEPTH
 STOP.F         3068.0000:   STOP DEPTH
 STEP.F            0.5000:   STEP LENGTH
 NULL.          -999.2500:   NO VALUE
 COMP. LAWRENCE ALLISON AND ASSOCIATES:   COMPANY
 WELL. LAWRENCE NPR TX #85-33:   WELL
 FLD .              N P R:   FIELD
 LOC .      S33 T39N R78W:   LOCATION
 CNTY.            NATRONA:   COUNTY
 STAT.            WYOMING:   STATE
 CTRY. UNITED STATES OF AMERICA:   COUNTRY
 SRVC.       SCHLUMBERGER:   SERVICE COMPANY
 DATE.        20-JUN-1982:   LOGDATE
 API .     49025107990001:   API NUMBER
~CURVE INFORMATION
#MNEM.UNIT       API CODE    CURVE DESCRIPTION
#----------   ------------   ------------------------------
 DEPT.F                  :   
 RHOB.G/C3   45 350 01 00:   BULK DENSITY
 GRD .GAPI   45 310 01 00:   GAMMA RAY FROM DENSITY LOG
 CALD.IN     45 280 60 00:   CALIPER FROM DENSITY LOG
 CORR.G/C3   45 356 01 00:   DENSITY CORRECTION
 TEND.LBS    45 635 01 00:   TENSION FROM DENSITY LOG
 NPHI.DEC    42 890 03 00:   NEUTRON POROSITY SANDSTONE
 TENR.LBS    07 635 01 00:   TENSION FROM RESISTIVITY
 SPR .MV     07 010 01 00:   SPONTANEOUS POTENTIAL
 ILD .OHMM   07 120 46 00:   DEEP INDUCTION RESISTIVITY
 ILM .OHMM   07 120 44 00:   INDUCTION LOG MEDIUM RESISTIVITY
 SFL .OHMM   07 220 01 00:   SHALLOW FOCUSED LOG RESISTIVITY
~PARAMETER INFORMATION
#MNEM.UNIT          VALUE    DESCRIPTION
#----------   ------------   ------------------------------
 EKB .F         5123.0000:   Kelly bushing
 EGL .F         5113.0000:   Ground level
 EDF .F         5122.0000:   Drilling floor
 EPD .F         5113.0000:   Permanent datum
 TD  .F         3100.0000:   Total depth
 DATE.        20-JUN-1982:   Date logged
 CLNT.            A2DTECH:   Client Code
 SL  . 2263' FSL & 293' FEL:   Surface Location
 PD  .                 GL:   Permanent Datum
 DD  .F              3100:   Depth driller
 DL  .F              3056:   Depth logger
 BLI .F              3050:   Bottom log interval
 CS1 .IN            9.625:   Casing size
 CBD1.      9.625" @ 524':   Casing driller 1
 CBL1.F               520:   Casing logger 1
 BS1 .IN            7.875:   Bit size
 DFT .           POLY/KCL:   Type fluid in hole
 DFD .                8.4:   Density
 DFV .                 40:   Viscosity
 DFPH.                7.6:   pH
 DFL .                 10:   Fluid loss
 MSS .               TANK:   Source of sample
 RMS .OHMM            .92:   Rm
 MST .F                66:   Rm Meas. temp.
 RMF .OHMM           .603:   Rmf
 MFST.F                68:   Rmf Meas. temp.
 MFSS.               MEAS:   Source Rmf.
 RMB .OHMM           .515:   Rm. at BHT
 BHT .F               118:   BHT.
 TCS .HRS             815:   Time Circ. stopped
 MRT .F               118:   Maximum recorded temp.
 LUN .               8035:   Logging unit number
 LUL .               CSPR:   Logging unit location
 ENGI.              PENNY:   Recorded By
 WITN.           JENNINGS:   Witnessed by
 ORIG.           5" PRINT:   Origin of data
 UWI .     49025107990001:   Unique Well ID
 DICO. A2D TECHNOLOGIES, INC.:   Digitizing Company
 DAPD.                 10:   Feet Above Permanent Datum
 BSD1.               3100:   Depth drilled with bit1
 TLI .                520:   Top log interval
 TLAB.               1100:   Time logger at bottom
~OTHER INFORMATION
~A   DEPT     RHOB         GRD      CALD       CORR       TEND       NPHI       TENR        SPR        ILD        ILM        SFL   
# ...
 2362.5000     2.5270   134.4380     8.8650     0.0060  1437.7620     0.2670  1751.5360   -41.5470     7.1890     7.3950     8.6520
 2363.0000     2.5220   132.4730     8.8690     0.0080  1438.2980     0.2700  1754.0320   -41.7290     7.2250     7.4310     8.4360
 2363.5000     2.5270   133.7380     8.8710     0.0130  1438.8330     0.2730  1756.5280   -41.7960     7.2600     7.4670     8.6120
 2364.0000     2.5430   136.6440     8.8740     0.0230  1439.3690     0.2700  1759.0240   -41.8230     7.2960     7.5020     8.8760
 2364.5000     2.5600   137.3720     8.8760     0.0340  1439.9041     0.2600  1761.5200   -41.8470     7.3310     7.5380     9.1630
 2365.0000     2.5650   133.3690     8.8780     0.0360  1440.4399     0.2500  1764.0170   -41.8720     7.3670     7.5740     8.9370
 2365.5000     2.5580   129.1470     8.8800     0.0310  1440.9750     0.2470  1764.7061   -41.8970     7.4020     7.6090     8.6720
 2366.0000     2.5530   126.8460     8.8830     0.0240  1441.5110     0.2520  1764.7061   -41.9220     7.4190     7.6960     8.6720
 2366.5000     2.5580   125.7570     8.8850     0.0240  1442.0460     0.2530  1764.7061   -41.9440     7.3310     7.5840     8.8420
 2367.0000     2.5680   126.8980     8.8870     0.0320  1442.5820     0.2470  1764.7061   -41.9520     7.2080     7.4360     9.0690
 2367.5000     2.5740   129.9730     8.8900     0.0410  1443.1180     0.2430  1764.7061   -42.2790     7.0850     7.2870     9.1630
 2368.0000     2.5770   133.6540     8.8920     0.0490  1443.6530     0.2450  1764.7061   -42.5620     6.9630     7.1380     8.6870
 2368.5000     2.5700   137.7500     8.8940     0.0490  1444.1890     0.2560  1764.7061   -42.8490     6.8400     6.9900     7.8880
 2369.0000     2.5560   138.5140     8.8970     0.0380  1444.7240     0.2670  1764.7061   -43.1320     6.7170     6.8410     6.9570
 2369.5000     2.5420   137.1170     8.8990     0.0270  1445.2600     0.2780  1764.7061   -43.3490     6.5940     6.6920     7.2280
 2370.0000     2.5290   133.0340     8.9010     0.0160  1445.7950     0.2790  1764.7061   -43.2220     6.4710     6.5440     7.6540
 2370.5000     2.5280   129.1060     8.9040     0.0100  1446.3311     0.2580  1764.7061   -43.1000     6.3480     6.3950     8.0790
 2371.0000     2.5310   128.1870     8.9080     0.0100  1446.8660     0.2450  1764.7061   -42.9800     6.2250     6.2680     8.1320
 2371.5000     2.5290   134.0220     8.8870     0.0120  1447.4020     0.2490  1764.7061   -42.8600     6.1030     6.1970     7.5200
 2372.0000     2.5270   140.7260     8.8890     0.0150  1447.9370     0.2570  1764.7061   -42.7430     5.9800     6.1260     7.0150
 2372.5000     2.5240   147.5850     8.8970     0.0180  1448.4730     0.2620  1764.7061   -42.6200     5.8970     6.0550     6.9650
 2373.0000     2.5360   150.8850     8.9050     0.0210  1449.0081     0.2590  1764.7061   -42.7800     5.8970     5.9830     6.9160
 2373.5000     2.5480   152.1000     8.9130     0.0250  1449.5439     0.2620  1764.7061   -42.7460     5.9080     5.9510     6.7210
 2374.0000     2.5540   145.3850     8.9210     0.0320  1450.0800     0.2700  1764.7061   -42.7270     5.9820     6.0550     6.5240
 2374.5000     2.5490   137.5210     8.9130     0.0320  1450.6150     0.2750  1764.7061   -42.7130     6.0560     6.2400     7.6430
 2375.0000     2.5460   132.0670     8.8780     0.0250  1451.1510     0.2640  1764.7061   -42.6970     6.1300     6.4240     8.7940
 2375.5000     2.5520   129.8690     8.8440     0.0180  1451.6860     0.2460  1764.7061   -42.6810     6.2640     6.6080     9.2480
 2376.0000     2.5550   131.3190     8.8090     0.0100  1452.2220     0.2320  1764.7061   -42.6660     6.4860     6.7930     8.7760
 2376.5000     2.5510   130.8910     8.7750     0.0050  1452.7570     0.2430  1764.7061   -42.6500     6.7080     6.9770     8.1990
 2377.0000     2.5370   128.5280     8.7510     0.0020  1453.2930     0.2540  1764.7061   -42.6340     6.8520     7.1510     7.7670
 2377.5000     2.5220   126.3700     8.7320     0.0010  1453.8280     0.2540  1764.7061   -42.6180     6.9020     7.2230     8.1350
 2378.0000     2.5120   126.3960     8.7420     0.0070  1454.3640     0.2430  1764.5780   -42.6030     6.9510     7.2900     8.3930
 2378.5000     2.5210   128.7260     8.7510     0.0160  1454.8990     0.2330  1764.1200   -42.5880     7.1940     7.3580     8.4650
 2379.0000     2.5420   128.4880     8.7610     0.0280  1455.4351     0.2320  1763.6630   -42.5630     7.4620     7.4770     8.5760
 2379.5000     2.5630   125.7290     8.7690     0.0400  1455.9700     0.2430  1763.2050   -42.4050     7.7180     8.0030     8.8040
 2380.0000     2.5800   119.5310     8.7580     0.0450  1456.5060     0.2430  1762.7480   -42.3630     7.8900     8.5290     9.5300
 2380.5000     2.5760   111.7800     8.7190     0.0320  1457.0410     0.2220  1762.2910   -42.3660     8.0630     9.0790    12.1840
 2381.0000     2.5710   105.1570     8.6810     0.0210  1457.5770     0.2030  1761.8330   -42.3690     8.2070     9.5580    14.8380
 2381.5000     2.5720   100.9620     8.6430     0.0180  1458.1130     0.1900  1761.3760   -42.4420     8.2070     9.7720    17.2930
 2382.0000     2.5810   105.2930     8.6090     0.0250  1458.5730     0.1930  1760.9180   -42.8810     8.1320     9.1720    17.7490
 2382.5000     2.5930   112.1000     8.6300     0.0350  1458.9810     0.2040  1760.4611   -43.1480     7.9030     8.6640    14.0540
 2383.0000     2.6000   119.0610     8.6820     0.0450  1459.3890     0.2200  1760.0031   -43.1130     7.7090     8.1560    10.9580
 2383.5000     2.5890   125.7780     8.7310     0.0520  1459.7970     0.2360  1759.5460   -42.9380     7.5150     7.6850     9.3560
 2384.0000     2.5720   129.6590     8.7810     0.0490  1460.2050     0.2530  1759.0880   -42.7610     7.3220     7.3350     8.0680
 2384.5000     2.5550   130.6160     8.8080     0.0410  1460.6130     0.2610  1758.6310   -42.5870     7.1510     7.2170     7.6260
 2385.0000     2.5470   126.2720     8.8010     0.0390  1461.0210     0.2610  1758.1730   -42.5640     7.0860     7.3190     7.8170
 2385.5000     2.5450   122.5940     8.7940     0.0390  1461.4290     0.2550  1757.7159   -42.5800     7.1460     7.4710     8.2540
 2386.0000     2.5410   122.2620     8.7860     0.0330  1461.8361     0.2480  1757.2590   -42.6450     7.2700     7.6240     8.6900
 2386.5000     2.5350   124.8210     8.7780     0.0240  1462.2440     0.2400  1756.8010   -42.7070     7.3940     7.7760     9.1270
 2387.0000     2.5290   127.4470     8.7700     0.0150  1462.6520     0.2370  1756.3440   -42.7700     7.5170     7.9280     9.5060
 2387.5000     2.5360   127.2740     8.7630     0.0130  1463.0601     0.2350  1755.8860   -42.8330     7.6410     8.0580     9.4610
 2388.0000     2.5530   125.1990     8.7550     0.0210  1463.4680     0.2360  1755.4290   -42.8960     7.6960     8.0580     9.4120
 2388.5000     2.5690   122.1770     8.7470     0.0310  1463.8760     0.2320  1754.9709   -42.9590     7.6780     7.8930     9.3640
 2389.0000     2.5710   119.8840     8.7390     0.0350  1464.2841     0.2290  1754.5140   -43.0210     7.5760     7.7230     9.3150
 2389.5000     2.5390   123.2160     8.7310     0.0260  1464.6920     0.2260  1754.0560   -43.0840     7.4730     7.5520     9.2670
 2390.0000     2.5220   128.5480     8.7350     0.0160  1465.1000     0.2290  1753.5990   -43.1470     7.3710     7.3970     8.9930
 2390.5000     2.5080   133.5570     8.7490     0.0090  1465.5081     0.2360  1753.1410   -43.2100     7.2680     7.2960     8.5760
 2391.0000     2.4990   133.3820     8.7620     0.0080  1465.9160     0.2460  1752.6840   -43.2730     7.1660     7.1960     8.1590
 2391.5000     2.5000   132.1280     8.7750     0.0070  1466.3240     0.2510  1752.2271   -43.3350     7.0630     7.0960     7.7670
 2392.0000     2.5120   131.8100     8.7880     0.0080  1466.7321     0.2540  1751.7690   -43.3980     6.9610     6.9950     7.7670
 2392.5000     2.5420   131.4800     8.8020     0.0210  1467.1400     0.2580  1751.3120   -43.4610     6.8580     6.8950     8.0610
