~VERSION INFORMATION
 VERS.                2.0:   CWLS LOG ASCII STANDARD - VERSION 2.0
 WRAP.                 NO:   ONE LINE PER DEPTH STEP
~WELL INFORMATION
#MNEM.UNIT      DATA TYPE    INFORMATION
#----------   ------------   ------------------------------
 STRT.F           15.0000:   START DEPTH
 STOP.F         2952.5000:   STOP DEPTH
 STEP.F            0.5000:   STEP LENGTH
 NULL.          -999.2500:   NO VALUE
 COMP.    FENIX & SCISSON:   COMPANY
 WELL.  FENIX "AX" #64-29:   WELL
 FLD .  TEAPOT DOME NPR-3:   FIELD
 LOC .      S29 T39N R78W:   LOCATION
 CNTY.            NATRONA:   COUNTY
 STAT.            WYOMING:   STATE
 CTRY. UNITED STATES OF AMERICA:   COUNTRY
 SRVC.           BIRDWELL:   SERVICE COMPANY
 DATE.        02-MAY-1978:   LOGDATE
 API .     49025106460000:   API NUMBER
~CURVE INFORMATION
#MNEM.UNIT       API CODE    CURVE DESCRIPTION
#----------   ------------   ------------------------------
 DEPT.F                  :   
 SPR .MV     05 010 01 00:   SPONTANEOUS POTENTIAL
 IL  .OHMM   05 120 00 00:   INDUCTION RESISTIVITY
 SN  .OHMM   05 040 16 00:   SHORT NORMAL 16"
 CALD.IN     45 280 60 00:   CALIPER FROM DENSITY LOG
 GRD .GAPI   45 310 01 00:   GAMMA RAY FROM DENSITY LOG
 CORR.G/C3   45 356 01 00:   DENSITY CORRECTION
 RHOB.G/C3   45 350 01 00:   BULK DENSITY
~PARAMETER INFORMATION
#MNEM.UNIT          VALUE    DESCRIPTION
#----------   ------------   ------------------------------
 EKB .F         4993.0000:   Kelly bushing
 EGL .F         4983.0000:   Ground level
 EDF .F            0.0000:   Drilling floor
 TD  .F         2952.0000:   Total depth
 DATE.        02-MAY-1978:   Date logged
 CLNT.            A2DTECH:   Client Code
 SL  . 2150' FNL & 1560' FEL:   Surface Location
 PD  .                 GL:   Permanent Datum
 DD  .F              2950:   Depth driller
 DL  .F              2952:   Depth logger
 BLI .F              2947:   Bottom log interval
 CBL1.F               150:   Casing logger 1
 BS1 .IN            7.875:   Bit size
 DFT .                GEL:   Type fluid in hole
 DFD .                8.7:   Density
 DFV .                 30:   Viscosity
 DFPH.                 10:   pH
 DFL .                7.6:   Fluid loss
 MSS .            MUD PIT:   Source of sample
 RMS .OHMM            1.3:   Rm
 MST .F                62:   Rm Meas. temp.
 RMF .OHMM            .95:   Rmf
 MFST.F                64:   Rmf Meas. temp.
 RMC .OHMM              1:   Rmc
 MCST.F                64:   Rmc Meas. temp.
 MFSS.               MEAS:   Source Rmf.
 RMB .OHMM            .73:   Rm. at BHT
 BHT .F               110:   BHT.
 TCS .HRS               3:   Time Circ. stopped
 MRT .F               110:   Maximum recorded temp.
 LUN .               2958:   Logging unit number
 LUL .               CASP:   Logging unit location
 ENGI.             MILLER:   Recorded By
 WITN.           MCGINLEY:   Witnessed by
 ORIG.         2.5" PRINT:   Origin of data
 UWI .     49025106460000:   Unique Well ID
 DICO. A2D TECHNOLOGIES, INC.:   Digitizing Company
 DAPD.                 10:   Feet Above Permanent Datum
 BSD1.F              2950:   Depth drilled with bit1
 EPD .F              4983:   Elevation Permanent Datum
 LMF .                 KB:   Log Measured From
 DMF .                 KB:   Drilling Measured From
 TLI .F               150:   Top log interval
~OTHER INFORMATION
~A   DEPT      SPR         IL         SN       CALD        GRD       CORR       RHOB   
# ...
 1243.5000   -69.2150     7.4540     7.8310    10.8340    69.0440     0.1150     2.5940
 1244.0000   -69.2010     7.4840     7.8310    10.9150    69.8000     0.1170     2.6000
 1244.5000   -69.1860     7.5140     7.8550    10.9790    79.9810     0.1180     2.6070
 1245.0000   -69.1700     7.5490     7.9160    11.0340    91.0330     0.1210     2.6040
 1245.5000   -69.1660     7.4110     7.9760    11.0260    92.8670     0.1250     2.6010
 1246.0000   -69.1550     7.4590     8.0370    11.0200    91.1760     0.1280     2.5970
 1246.5000   -69.1190     7.5040     8.0970    11.0080    82.2290     0.1320     2.5940
 1247.0000   -68.7590     7.5500     8.1580    11.0040    78.2660     0.1390     2.5880
 1247.5000   -68.3940     7.5940     8.2180    11.0160    75.7980     0.1520     2.5820
 1248.0000   -67.8290     7.6380     8.2760    11.2560    69.9950     0.1640     2.5880
 1248.5000   -66.9680     7.6870     8.2570    11.3150    67.1910     0.1780     2.6120
 1249.0000   -63.0190     7.6880     8.2410    11.0790    65.9740     0.1800     2.6030
 1249.5000   -56.7920     7.6880     8.2250    11.0660    66.3480     0.1820     2.5920
 1250.0000   -44.6090     7.6890     8.2090    11.0480    66.5010     0.1830     2.5980
 1250.5000   -36.2340     7.6890     8.1930    11.0350    67.9320     0.1850     2.6080
 1251.0000   -28.9410     7.6890     8.1770    11.0190    69.8110     0.1860     2.6080
 1251.5000   -27.8340     7.6890     8.1610    11.0200    71.7170     0.1880     2.5990
 1252.0000   -24.8520     7.6890     8.1450    10.9990    73.4260     0.1890     2.5930
 1252.5000   -10.0260     7.6890     8.1260    11.5120    74.9930     0.1900     2.5880
 1253.0000    -7.4350     7.6890     8.1250    11.2210    73.6070     0.1730     2.6170
 1253.5000     0.5680     7.6890     8.1250    10.9560    71.1870     0.1510     2.6110
 1254.0000    -0.4120     7.6880     8.1250    10.9640    68.5790     0.1290     2.6050
 1254.5000    -0.3570     7.6870     8.1250    10.9780    66.2320     0.1240     2.5980
 1255.0000    -0.9560     7.6510     8.1250    10.9820    63.5280     0.1270     2.5930
 1255.5000    -1.2220     7.6140     8.1250    10.9920    64.0260     0.1280     2.6090
 1256.0000    -1.5810     7.5750     8.1260    11.0000    64.7080     0.1300     2.6230
 1256.5000    -2.0340     7.5370     8.1310    11.0080    65.7770     0.1140     2.6230
 1257.0000    -2.4230     7.4990     8.1360    11.0170    67.6530     0.0950     2.6240
 1257.5000    -2.8290     7.4600     8.1410    11.0260    69.3920     0.0770     2.6120
 1258.0000    -3.1990     7.4220     8.1460    11.0340    71.1710     0.0600     2.6000
 1258.5000    -3.8090     7.3840     8.1510    11.1000    72.5570     0.0620     2.5990
 1259.0000    -4.6140     7.3460     8.1560    11.1950    73.7000     0.0640     2.6050
 1259.5000    -5.4230     7.3070     8.1600    11.2910    74.8760     0.0670     2.6120
 1260.0000    -5.7960     7.2690     8.1650    11.3000    74.2520     0.0700     2.6020
 1260.5000    -5.7740     7.2310     8.1700    11.0890    73.1550     0.0720     2.6030
 1261.0000    -5.7610     7.1920     8.1750    11.0440    72.1030     0.0750     2.6040
 1261.5000    -5.7420     7.1440     8.1800    11.0580    71.0740     0.0780     2.5980
 1262.0000    -6.3010     7.3260     8.1850    11.0720    69.9990     0.0850     2.5830
 1262.5000    -8.3750     7.5700     8.1900    11.0860    69.3810     0.0930     2.5840
 1263.0000   -10.4250     7.6070     8.1950    11.0930    69.8070     0.1020     2.5850
 1263.5000   -12.4860     7.6430     8.2000    11.1160    70.1570     0.1110     2.5880
 1264.0000   -14.8180     7.6800     8.2050    11.1570    70.3990     0.1300     2.5810
 1264.5000   -17.2900     7.7170     8.2090    11.1750    69.2980     0.1520     2.5740
 1265.0000   -19.2310     7.7540     8.2140    10.8930    67.8120     0.1750     2.5700
 1265.5000   -20.5510     7.7900     8.2190    10.9970    68.6590     0.1910     2.5740
 1266.0000   -21.6980     7.8330     8.2240    11.0780    69.6850     0.1830     2.6370
 1266.5000   -22.8710     7.8290     8.2290    10.9360    70.6450     0.1690     2.6270
 1267.0000   -24.2590     7.8290     8.2340    10.4670    72.8330     0.1390     2.6180
 1267.5000   -24.9320     7.8340     8.2390    10.5420    76.6400     0.1270     2.6170
 1268.0000   -25.9250     7.6880     8.2440    10.5260    77.9110     0.1150     2.6210
 1268.5000   -26.8520     7.6860     8.2490    10.5260    77.2040     0.1070     2.6140
 1269.0000   -27.8290     7.6830     8.2530    10.5390    77.0900     0.0990     2.6070
 1269.5000   -28.7700     7.6790     8.2580    10.5380    77.9510     0.0980     2.6050
 1270.0000   -29.6090     7.6750     8.2630    10.5420    78.8300     0.0960     2.6130
 1270.5000   -30.0510     7.6700     8.2680    10.5470    79.6090     0.0950     2.6130
 1271.0000   -30.7600     7.6670     8.2730    10.5510    80.2650     0.0940     2.6010
 1271.5000   -31.4120     7.6630     8.2760    10.5540    78.6610     0.0930     2.5910
 1272.0000   -31.7440     7.6590     8.2760    10.5580    74.9080     0.0920     2.5930
 1272.5000   -31.8300     7.6550     8.2760    10.5010    68.6770     0.0910     2.6000
 1273.0000   -31.9240     7.6510     8.2760    10.4220    66.0650     0.0910     2.6090
 1273.5000   -32.0220     7.6480     8.2760    10.3420    65.9930     0.0910     2.6040
 1274.0000   -32.1220     7.6440     8.2750    10.2650    65.7960     0.0910     2.5940
 1274.5000   -32.2100     7.6400     8.2760    10.2020    68.9750     0.0990     2.5890
 1275.0000   -32.3050     7.6360     8.2760    10.2140    72.4870     0.1070     2.5840
 1275.5000   -32.4370     7.6320     8.2750    10.2250    76.1450     0.1140     2.5790
 1276.0000   -32.4380     7.6280     8.2830    10.2380    80.1150     0.1220     2.5880
 1276.5000   -33.7710     7.6240     8.2970    10.2510    82.9220     0.1170     2.6060
 1277.0000   -35.1560     7.6200     8.3110    10.2630    83.4080     0.1110     2.6240
 1277.5000   -37.0860     7.6170     8.3240    10.2770    84.2570     0.1050     2.6250
 1278.0000   -38.7580     7.6130     8.3370    10.2880    85.8290     0.0990     2.6140
 1278.5000   -40.9640     7.6090     8.3500    10.3000    88.6050     0.1040     2.6040
 1279.0000   -43.0210     7.6050     8.3640    10.3180    87.5860     0.1090     2.5960
 1279.5000   -44.8670     7.6010     8.3770    10.2720    86.1780     0.1210     2.5910
 1280.0000   -46.5070     7.5970     8.3900    10.1760    82.4430     0.1360     2.5850
 1280.5000   -47.8800     7.5930     8.4040    10.0810    78.9850     0.1500     2.5780
 1281.0000   -49.0870     7.5890     8.4170    10.0370    71.4360     0.1650     2.5790
 1281.5000   -50.3750     7.5860     8.4300    10.0400    73.0220     0.1790     2.5830
 1282.0000   -51.9200     7.5820     8.4430    10.0400    76.9280     0.1940     2.5840
 1282.5000   -52.0340     7.5780     8.4570    10.0390    79.2480     0.1940     2.5860
 1283.0000   -52.1140     7.5740     8.4700    10.0400    79.5360     0.1950     2.5860
 1283.5000   -52.1350     7.5700     8.4830    10.0400    80.0800     0.1950     2.5860
 1284.0000   -52.1880     7.5660     8.4960    10.0400    81.1160     0.1950     2.5860
 1284.5000   -52.2310     7.5620     8.5100    10.0400    82.8220     0.1950     2.5860
 1285.0000   -52.2780     7.5580     8.5230    10.0390    84.4050     0.1950     2.5790
 1285.5000   -52.3280     7.5550     8.5360    10.0400    84.1810     0.1950     2.5720
 1286.0000   -52.3370     7.5490     8.5490    10.0410    84.5410     0.1950     2.5700
 1286.5000   -52.7080     7.5530     8.5630    10.0360    85.5030     0.1940     2.5760
 1287.0000   -53.3300     7.5650     8.5760    10.0750    84.2710     0.1830     2.5920
 1287.5000   -53.9660     7.5750     8.5890    10.1430    82.9850     0.1620     2.6210
 1288.0000   -54.7050     7.5850     8.6020    10.2020    79.9960     0.1420     2.6100
 1288.5000   -55.5970     7.5960     8.6160    10.2640    73.9470     0.1200     2.5730
