~VERSION INFORMATION
 VERS.                2.0:   CWLS LOG ASCII STANDARD - VERSION 2.0
 WRAP.                 NO:   ONE LINE PER DEPTH STEP
~WELL INFORMATION
#MNEM.UNIT      DATA TYPE    INFORMATION
#----------   ------------   ------------------------------
 STRT.F           32.0000:   START DEPTH
 STOP.F         2998.0000:   STOP DEPTH
 STEP.F            0.5000:   STEP LENGTH
 NULL.          -999.2500:   NO VALUE
 COMP.   TESORO PETROLEUM:   COMPANY
 WELL. TESORO N.P.R. #3-34:   WELL
 FLD .        TEAPOT DOME:   FIELD
 LOC .      S34 T39N R78W:   LOCATION
 CNTY.            NATRONA:   COUNTY
 STAT.            WYOMING:   STATE
 CTRY. UNITED STATES OF AMERICA:   COUNTRY
 SRVC.       SCHLUMBERGER:   SERVICE COMPANY
 DATE.        08-AUG-1969:   LOGDATE
 API .     49025100250000:   API NUMBER
~CURVE INFORMATION
#MNEM.UNIT       API CODE    CURVE DESCRIPTION
#----------   ------------   ------------------------------
 DEPT.F                  :   
 SPR .MV     05 010 01 00:   SPONTANEOUS POTENTIAL FROM RES.
 ASN .OHMM   05 040 16 00:   AMPLIFIED SHORT NORMAL 16"
 ILD .OHMM   05 120 46 00:   INDUCTION LOG DEEP
 CORR.G/C3   45 356 01 00:   DENSITY CORRECTION
 GRD .GAPI   45 310 01 00:   GAMMA RAY FROM DENSITY LOG
 CALD.IN     45 280 60 00:   CALIPER FROM DENSITY LOG
 RHOB.G/C3   45 350 01 00:   BULK DENSITY
~PARAMETER INFORMATION
#MNEM.UNIT          VALUE    DESCRIPTION
#----------   ------------   ------------------------------
 EKB .F         5185.0000:   Kelly bushing
 EGL .F         5172.0000:   Ground level
 TD  .F         2999.0000:   Total depth
 CLNT.            A2DTECH:   Client Code
 SL  . 465' FWL & 1075' FSL':   Surface Location
 DATE.        08-AUG-1969:   Date Logged [DD-MMM-YYYY]
 DD  .F              2998:   Depth driller
 DL  .F              2999:   Depth logger
 BLI .F              2998:   Bottom log interval
 TLI .F               615:   Top log interval
 CS1 .              10.75:   Casing size
 CBD1.      10.75" @ 615':   Casing driller 1
 CBL1.IN              615:   Casing logger 1
 BS1 .IN                9:   Bit size
 BSD1.F              2998:   Depth drilled with bit1
 DFT .      FRESH GEL MUD:   Type fluid in hole
 DFD .                9.6:   Density
 DFV .                 55:   Viscosity
 DFPH.                9.5:   pH
 DFL .                7.0:   Fluid loss
 MSS .           FLOWLINE:   Source of sample
 RMS .OHMM           0.75:   Rm
 MST .F                87:   Rm Meas. temp.
 RMF .OHMM           1.09:   Rmf
 MFST.F                87:   Rmf Meas. temp.
 MFSS.               MEAS:   Source Rmf.
 RMB .OHMM           0.59:   Rm. at BHT
 BHT .F               111:   BHT.
 TCS .HRS               3:   Time Circ. stopped
 MRT .F               111:   Maximum recorded temp.
 LUN .               4507:   Logging unit number
 LUL .               CSPR:   Logging unit location
 ENGI.            ED MIXA:   Recorded By
 WITN.                MAY:   Witnessed by
 ORIG.   1" 2.5" 5" PRINT:   Origin of data
 UWI .     49025100250000:   Unique Well ID
 DICO. A2D TECHNOLOGIES, INC.:   Digitizing Company
~OTHER INFORMATION
~A   DEPT      SPR        ASN        ILD       CORR        GRD       CALD       RHOB   
# ...
 2671.0000   -24.9869     7.7991     6.6159     0.0154   110.5463     9.1458     2.5546
 2671.5000   -24.8405     7.7991     6.4675     0.0248   109.7371     9.1454     2.5622
 2672.0000   -24.8378     7.8287     6.3189     0.0268   104.4325     9.1449     2.5737
 2672.5000   -24.8345     7.8444     6.2444     0.0231   103.0264     9.1139     2.5649
 2673.0000   -24.8321     7.8287     6.0960     0.0198   104.4834     9.1134     2.5693
 2673.5000   -24.8293     7.7105     6.0214     0.0184   105.3413     9.1130     2.5796
 2674.0000   -24.8264     7.5332     5.8729     0.0206   108.2894     9.1125     2.5649
 2674.5000   -24.8235     7.3525     5.7983     0.0239   112.1097     9.1121     2.5640
 2675.0000   -24.8201     7.1492     5.7976     0.0225   114.3220     9.1116     2.5590
 2675.5000   -24.8176     7.0901     5.7969     0.0150   116.1702     9.1111     2.5479
 2676.0000   -24.6715     7.0162     5.9438     0.0123   117.3335     9.1107     2.5294
 2676.5000   -24.6683     6.9424     6.2385     0.0123   111.9516     9.1102     2.5265
 2677.0000   -24.6656     7.1787     6.6071     0.0080   102.2327     9.1098     2.5280
 2677.5000   -24.6623     7.4151     6.9104     0.0036    97.9358     9.1093     2.5379
 2678.0000   -24.6596     7.6662     7.1963     0.0025    94.8461     9.1395     2.5611
 2678.5000   -24.6569     7.9548     7.3434     0.0062    96.3707     9.1696     2.5501
 2679.0000   -24.6542     8.2866     7.4904     0.0098    99.1378     9.1997     2.5619
 2679.5000   -24.7948     8.5229     7.5003     0.0099   100.6931     9.1992     2.5643
 2680.0000   -24.7916     8.6854     7.5628     0.0069   101.8960     9.1988     2.5560
 2680.5000   -24.9331     8.8201     7.5620     0.0032   100.6237     9.1983     2.5605
 2681.0000   -25.0732     8.7740     7.5613     0.0033    98.7810     9.1979     2.5678
 2681.5000   -25.0698     8.7149     7.5604     0.0069    95.1029     9.1974     2.5767
 2682.0000   -25.0671     8.6706     7.4859     0.0125    96.6106     9.1625     2.5870
 2682.5000   -25.0642     8.6706     7.3375     0.0278    99.8418     9.1048     2.6003
 2683.0000   -25.0617     8.6706     7.2629     0.0504   100.7107     9.0689     2.6268
 2683.5000   -25.0584     8.7001     7.1882     0.0700   100.7168     9.0427     2.6445
 2684.0000   -25.0559     8.7149     7.1136     0.0655    99.4985     9.0422     2.6193
 2684.5000   -25.0527     8.7127     7.1129     0.0514   100.1173     9.0112     2.5855
 2685.0000   -25.0502     8.6411     7.1123     0.0385   102.5699     9.0107     2.5973
 2685.5000   -25.0474     8.5524     7.2593     0.0337   101.3527     9.0103     2.5895
 2686.0000   -25.0444     8.4638     7.4800     0.0388    99.5229     9.0173     2.5928
 2686.5000   -25.0411     8.4343     7.6270     0.0472   101.9765     9.0400     2.6409
 2687.0000   -25.0382     8.5672     7.8479     0.0462    98.3129     9.0394     2.6593
 2687.5000   -25.0359     8.7888     7.9949     0.0411    94.6492     9.0390     2.6406
 2688.0000   -25.0328     8.9808     8.1419     0.0380    91.5972     9.0385     2.6084
 2688.5000   -25.0301     9.1581     8.2151     0.0425    94.0497     9.0380     2.6062
 2689.0000   -25.0267     9.2467     8.2126     0.0533    95.8907     9.0070     2.6026
 2689.5000   -25.0240     9.3058     8.0656     0.0588    93.4503     9.0066     2.5885
 2690.0000   -24.7839     9.2762     7.8433     0.0633    94.6796     9.0061     2.5977
 2690.5000   -24.7806     9.1728     7.6949     0.0602    92.2392     9.0056     2.6138
 2691.0000   -24.7772     9.0842     7.5465     0.0484    92.2453     9.0052     2.6091
 2691.5000   -25.0612     8.9660     7.3241     0.0381    92.2514     9.0047     2.5944
 2692.0000   -25.2015     8.7740     7.1757     0.0335    93.4807     9.0043     2.5855
 2692.5000   -25.1973     8.4490     7.0273     0.0277    94.7100     9.0038     2.5664
 2693.0000   -25.1940     8.2570     6.9473     0.0266    97.1626     9.0034     2.5546
 2693.5000   -25.1898     8.1093     6.8042     0.0318    99.6151     9.0029     2.5560
 2694.0000   -25.3301     7.9764     6.6558     0.0380   104.5142     9.0025     2.5841
 2694.5000   -25.3268     7.9173     6.6551     0.0465   105.2879     8.9714     2.5619
 2695.0000   -25.4671     7.9468     6.6544     0.0432   103.3031     8.9709     2.5708
 2695.5000   -25.4629     8.0059     6.6535     0.0315   103.3092     8.9705     2.5841
 2696.0000   -25.4595     7.9025     6.6528     0.0198   100.2572     8.9700     2.5487
 2696.5000   -25.5999     7.7105     6.6521     0.0201    97.2051     8.9696     2.5592
 2697.0000   -25.5957     7.6809     6.6514     0.0336    95.9880     8.9691     2.5664
 2697.5000   -25.5923     7.6662     6.6506     0.0423    94.7708     8.9687     2.5586
 2698.0000   -25.5890     7.6809     6.6499     0.0523    92.3304     8.9681     2.5560
 2698.5000   -25.5848     7.7843     6.6492     0.0615    92.9481     8.9677     2.5750
 2699.0000   -25.5814     7.8287     6.5744     0.0638    94.7891     8.9366     2.5796
 2699.5000   -25.5781     7.7843     6.4999     0.0562    95.4068     8.9056     2.5682
 2700.0000   -25.5747     7.7253     6.3515     0.0511    93.5780     8.8745     2.5575
 2700.5000   -25.5705     7.5480     6.0554     0.0450    92.3608     8.8435     2.5678
 2701.0000   -25.5672     7.3560     5.8329     0.0389    93.6334     8.8431     2.5501
 2701.5000   -25.4201     7.1492     5.6845     0.0325    97.9641     8.8732     2.5427
 2702.0000   -25.4167     7.0162     5.6100     0.0228   101.5534     8.8727     2.5531
 2702.5000   -25.4129     7.0015     5.6093     0.0249    98.9719     8.9029     2.5590
 2703.0000   -25.2658     7.0015     5.6084     0.0320    94.2639     8.9330     2.5457
 2703.5000   -25.2616     7.0210     5.5339     0.0418    89.9292     8.9325     2.5560
 2704.0000   -25.2583     7.0322     5.4593     0.0508    93.7086     8.9321     2.5782
 2704.5000   -25.2549     7.0028     5.4586     0.0562    96.8401     8.9316     2.5826
 2705.0000   -25.3953     6.9143     5.3839     0.0517    97.2783     8.9312     2.5678
 2705.5000   -25.3911     6.7372     5.3832     0.0386    95.7175     8.9307     2.5590
 2706.0000   -25.3877     6.5897     5.3825     0.0278    94.8375     8.9395     2.5501
 2706.5000   -25.2407     6.4716     5.3080     0.0258    97.7805     8.9490     2.5369
 2707.0000   -25.2365     6.4127     5.3071     0.0288    99.7370     8.9586     2.5251
 2707.5000   -25.0894     6.3981     5.3064     0.0299    98.3588     8.9681     2.5383
 2708.0000   -25.0861     6.4278     5.3057     0.0321    97.2962     8.9777     2.5605
 2708.5000   -25.0819     6.5313     5.3789     0.0242    99.1346     8.9872     2.5615
 2709.0000   -25.0785     6.6698     5.5257     0.0068    97.0050     8.9969     2.5413
 2709.5000   -25.2197     7.1225     5.8204    -0.0031    94.8590     8.9664     2.5251
 2710.0000   -25.2155     7.4328     6.2629     0.0042    98.9596     8.9969     2.5177
 2710.5000   -25.6424     8.0681     7.0746     0.0134   101.7326     9.0275     2.5103
 2711.0000   -26.3574     9.0952     8.3293     0.0213    99.8275     9.0275     2.5059
 2711.5000   -27.2161     9.8409     9.8057     0.0270    93.3261     9.0275     2.5015
 2712.0000   -27.9502    13.4452    12.3899     0.0320    81.9072     8.9664     2.4794
 2712.5000   -28.5025    15.2917    14.4572     0.0394    70.9983     8.9052     2.4100
 2713.0000   -28.9293    16.4736    17.2628     0.0380    65.1491     8.7829     2.4130
 2713.5000   -29.2133    17.2285    18.7392     0.0269    61.7348     8.6606     2.4292
 2714.0000   -29.3537    17.6556    19.6248     0.0139    61.2474     8.4771     2.3879
 2714.5000   -29.3495    17.7296    19.2494     0.0101    63.0856     8.3547     2.3850
 2715.0000   -29.3461    17.5820    17.5553     0.0044    64.4240     8.5382     2.3864
 2715.5000   -29.3427    17.3606    16.7422     0.0198    65.6474     8.7523     2.3938
 2716.0000   -29.3386    17.0653    16.0029     0.0323    66.8706     8.8135     2.4115
