~VERSION INFORMATION
 VERS.                2.0:   CWLS LOG ASCII STANDARD - VERSION 2.0
 WRAP.                 NO:   ONE LINE PER DEPTH STEP
~WELL INFORMATION
#MNEM.UNIT      DATA TYPE    INFORMATION
#----------   ------------   ------------------------------
 STRT.F            4.0000:   START DEPTH
 STOP.F         3266.0000:   STOP DEPTH
 STEP.F            0.5000:   STEP LENGTH
 NULL.          -999.2500:   NO VALUE
 COMP. LAWRENCE ALLISON & ASSOSCIATES:   COMPANY
 WELL. LAWRENCE "X" #27-11:   WELL
 FLD .          N.P.R. #3:   FIELD
 LOC .      S11 T38N R78W:   LOCATION
 CNTY.            NATRONA:   COUNTY
 STAT.            WYOMING:   STATE
 CTRY. UNITED STATES OF AMERICA:   COUNTRY
 SRVC.      DRESSER ATLAS:   SERVICE COMPANY
 DATE.        22-AUG-1986:   LOGDATE
 API .     49025111070000:   API NUMBER
~CURVE INFORMATION
#MNEM.UNIT       API CODE    CURVE DESCRIPTION
#----------   ------------   ------------------------------
 DEPT.F                  :   
 SPR .MV     07 010 01 00:   SPONTANEOUS POTENTIAL
 TENR.LBS    06 635 01 00:   TENSION FROM RESISTIVITY
 GRR .GAPI   07 310 01 00:   GAMMA RAY FROM RESISTIVITY
 RILD.OHMM   07 120 46 00:   DEEP INDUCTION RESISTIVITY
 RILM.OHMM   07 120 44 00:   INDUCTION LOG MEDIUM RESISTIVITY
 RFOC.OHMM   07 220 04 00:   RESISTIVITY FOCUSED LOG RES.
 NPHI.DEC    42 890 03 00:   NEUTRON POROSITY SANDSTONE
 CALD.IN     45 280 60 00:   CALIPER FROM DENSITY LOG
 RHOB.G/C3   45 350 01 00:   BULK DENSITY
 CORR.G/C3   45 356 01 00:   DENSITY CORRECTION
 TEND.LBS    45 635 01 00:   TENSION FORM DENSITY LOG
~PARAMETER INFORMATION
#MNEM.UNIT          VALUE    DESCRIPTION
#----------   ------------   ------------------------------
 EKB .F         5206.0000:   Kelly bushing
 EGL .F         5194.0000:   Ground level
 EDF .F         5205.0000:   Drilling floor
 EPD .F         5194.0000:   Permanent datum
 TD  .F         3250.0000:   Total depth
 CLNT.            A2DTECH:   Client Code
 SL  . 1197' FSL & 1088' FWL:   Surface Location
 PD  .                 GL:   Permanent Datum
 DAPD.F                12:   Feet Above Permanent Datum
 DATE.        22-AUG-1986:   Date Logged [DD-MMM-YYYY]
 DD  .F              3250:   Depth driller
 DL  .F              3246:   Depth logger
 BLI .F              3243:   Bottom log interval
 TLI .F               683:   Top log interval
 CS1 .IN            8.625:   Casing size
 CBD1.      8.625" @ 672':   Casing driller 1
 CBL1.F               673:   Casing logger 1
 BS1 .IN            7.875:   Bit size
 BSD1.F              3250:   Depth drilled with bit1
 DFT .            KCL-GEL:   Type fluid in hole
 DFD .                8.9:   Density
 DFV .                 35:   Viscosity
 MSS .               TANK:   Source of sample
 RMS .OHMM           0.31:   Rm
 MST .F                70:   Rm Meas. temp.
 RMF .OHMM           0.29:   Rmf
 MFST.F                67:   Rmf Meas. temp.
 MFSS.               CALC:   Source Rmf.
 RMC .OHMM           0.46:   Rmc
 MCST.F                70:   Rmc Meas. temp.
 MCSS.               CALC:   Source Rmc.
 RMB .OHMM           0.16:   Rm. at BHT
 BHT .F               136:   BHT.
 TCS .HRS               4:   Time Circ. stopped
 MRT .F               136:   Maximum recorded temp.
 LUN .            HL-6426:   Logging unit number
 LUL .          RK. SPGS.:   Logging unit location
 ENGI.               RALL:   Recorded By
 WITN.             STRONG:   Witnessed by
 ORIG.           5" PRINT:   Origin of data
 UWI .     49025111070000:   Unique Well ID
 DICO. A2D TECHNOLOGIES, INC.:   Digitizing Company
~OTHER INFORMATION
~A    DEPT     SPR       TENR         GRR      RILD       RILM       RFOC       NPHI       CALD       RHOB       CORR       TEND   
# ...
 2535.5000   -56.1492   -77.8254   128.9751     6.1888     6.8586     7.6644     0.2620     8.8528     2.5497     0.0166   -48.2608
 2536.0000   -56.1490   -97.5025   125.4984     6.1886     6.8134     7.7708     0.2641     8.8376     2.5558     0.0196   -48.1873
 2536.5000   -56.1478   -77.8254   121.4003     6.2317     6.6749     7.6110     0.2565     8.8376     2.5626     0.0159   -55.6682
 2537.0000   -56.1371   -77.8254   121.0129     6.2391     6.6303     7.6657     0.2435     8.8376     2.5565     0.0049   -55.5773
 2537.5000   -56.6254   -77.8254   123.3021     6.3190     6.5867     7.2502     0.2353     8.8225     2.5520     0.0000   -63.0756
 2538.0000   -57.2275   -77.8254   125.2240     6.3632     6.5902     6.8037     0.2304     8.8073     2.5552     0.0174   -70.5557
 2538.5000   -57.8308   -77.8254   125.5397     6.3629     6.5960     6.5761     0.2325     8.8073     2.5580     0.0181   -67.4195
 2539.0000   -58.4352   -77.8254   124.3992     6.3627     6.7371     6.6708     0.2410     8.8073     2.5527     0.0159   -62.8392
 2539.5000   -58.7862   -77.8254   122.0682     6.4071     6.8835     7.0570     0.2498     8.8073     2.5482     0.0091   -55.2115
 2540.0000   -59.2010   -77.8254   121.0659     6.4518     6.9350     7.5179     0.2568     8.8073     2.5429     0.0121   -55.1226
 2540.5000   -59.1804   -77.8254   119.5019     6.4515     6.9380     7.8976     0.2622     8.8073     2.5375     0.0175   -47.4970
 2541.0000   -59.1729   -77.8254   116.9352     6.4966     6.8441     8.1239     0.2686     8.8073     2.5445     0.0189   -47.4243
 2541.5000   -59.1755   -77.8254   115.1196     6.4963     6.6573     8.1258     0.2736     8.8073     2.5496     0.0128   -54.9226
 2542.0000   -59.1724   -77.8254   115.9941     6.4509     6.5141     7.7152     0.2837     8.8073     2.5504     0.0060   -62.3845
 2542.5000   -58.9086   -77.8254   116.5341     6.3611     6.3887     7.0181     0.2898     8.8073     2.5504     0.0038   -69.8647
 2543.0000   -57.9896   -77.8254   118.0415     6.3166     6.3015     6.7782     0.2895     8.8073     2.5504     0.0098   -69.7737
 2543.5000   -57.7473   -77.8254   121.4285     6.1853     6.1734     6.7321     0.2831     8.8225     2.5496     0.0128   -69.7010
 2544.0000   -57.3957   -77.8469   127.7330     6.1420     6.1322     6.8291     0.2704     8.8225     2.5481     0.0151   -69.6283
 2544.5000   -57.2772   -77.6840   133.9389     6.0566     6.0498     6.9270     0.2710     8.8225     2.5443     0.0159   -54.4498
 2545.0000   -56.5439   -68.0183   135.6465     5.9723     6.0101     7.0264     0.2703     8.8225     2.5390     0.0159   -46.8242
 2545.5000   -56.3340   -77.8254   132.0421     5.8892     6.0133     6.9741     0.2631     8.8225     2.5435     0.0159   -46.7514
 2546.0000   -56.2746   -77.8254   128.1785     5.8480     6.0159     6.6007     0.2576     8.8376     2.5533     0.0144   -46.6767
 2546.5000   -56.2105   -77.8254   127.0249     5.8478     6.0609     6.5100     0.2555     8.8376     2.5632     0.0219   -54.1406
 2547.0000   -56.1502   -77.8254   128.4057     5.8476     6.0635     6.5577     0.2573     8.8376     2.5593     0.0211   -54.0679
 2547.5000   -56.1516   -77.8254   128.7379     5.8474     6.1088     6.6986     0.2600     8.8376     2.5533     0.0196   -53.9952
 2548.0000   -56.3185   -77.8254   127.3229     5.8472     6.1546     6.8905     0.2625     8.8528     2.5510     0.0159   -69.0282
 2548.5000   -56.7023   -77.4438   125.0645     5.8063     6.1578     6.9894     0.2640     8.8376     2.5526     0.0121   -68.9554
 2549.0000   -57.0850   -75.9811   123.5252     5.7646     5.9891     7.0402     0.2649     8.8376     2.5525     0.0068   -68.8822
 2549.5000   -57.4944   -74.5184   124.5730     5.6854     5.8256     7.0423     0.2655     8.8528     2.5510     0.0038   -68.7917
 2550.0000   -58.0454   -73.0557   126.6342     5.5672     5.6666     6.8493     0.2624     8.8528     2.5480     0.0068   -64.6921
 2550.5000   -58.5810   -71.5930   130.9896     5.4898     5.5126     6.3875     0.2567     8.8376     2.5441     0.0107   -53.4554
 2551.0000   -59.1152   -70.1303   133.2612     5.3757     5.4737     6.1261     0.2715     8.8376     2.5442     0.0128   -38.2039
 2551.5000   -59.6231   -68.6675   134.6492     5.1939     5.3231     6.0001     0.2837     8.8376     2.5465     0.0113   -30.5054
 2552.0000   -59.8684   -68.2803   134.2803     5.0186     5.2502     6.0016     0.2845     8.8376     2.5465     0.0106   -37.9154
 2552.5000   -59.9758   -69.1520   131.4491     4.8433     5.2513     6.0030     0.2839     8.8376     2.5434     0.0091   -52.8725
 2553.0000   -59.8219   -70.0236   126.0193     4.6681     5.2153     6.0045     0.2866     8.8376     2.5368     0.0067   -60.2797
 2553.5000   -59.3766   -70.8953   121.1195     4.4928     5.0721     6.0484     0.2894     8.8225     2.5171     0.0066   -67.6868
 2554.0000   -58.9356   -71.7670   119.8697     4.3175     4.9325     6.0498     0.2915     8.8412     2.5088     0.0089   -59.9518
 2554.5000   -58.4942   -72.6386   122.7662     4.1423     4.6968     5.9671     0.2866     8.8528     2.5133     0.0119   -59.8061
 2555.0000   -58.0530   -73.5103   127.4745     3.9670     4.4321     5.7631     0.2845     8.8680     2.5277     0.0141   -59.6604
 2555.5000   -57.6116   -74.3819   132.2988     3.7848     4.1699     5.3370     0.2860     8.8680     2.5322     0.0149   -59.5147
 2556.0000   -57.1704   -75.2536   135.6139     3.7318     4.0268     4.8059     0.2833     8.8528     2.5353     0.0133   -59.3656
 2556.5000   -56.7508   -76.1253   138.9569     3.6539     3.9434     4.5771     0.2845     8.8516     2.5360     0.0118   -66.7396
 2557.0000   -56.5052   -76.9969   140.4916     3.5776     3.9444     4.5462     0.2917     8.8376     2.5345     0.0125   -66.5940
 2557.5000   -56.2665   -77.8254   139.4724     3.5029     3.9731     4.7760     0.2935     8.8376     2.5254     0.0148   -66.4483
 2558.0000   -56.0062   -67.9869   135.7825     3.5800     4.0028     4.9474     0.2781     8.8073     2.5141     0.0155   -73.8554
 2558.5000   -55.7370   -77.8254   131.2111     3.7292     4.1460     5.0892     0.2754     8.8073     2.5239     0.0140   -73.7097
 2559.0000   -55.7449   -77.4875   128.3949     3.8612     4.2951     5.1259     0.2766     8.8073     2.5315     0.0117   -73.5640
 2559.5000   -55.7445   -77.0007   127.2109     3.9980     4.4184     4.9858     0.2784     8.8073     2.5392     0.0117   -73.4139
 2560.0000   -55.9881   -76.4839   126.3746     4.0821     4.5453     4.9521     0.2872     8.8073     2.5436     0.0131   -65.6832
 2560.5000   -56.4437   -75.9819   131.0733     4.1682     4.6430     5.3130     0.2968     8.8073     2.5444     0.0124   -65.5376
 2561.0000   -57.0661   -75.4801   132.3953     4.2558     4.6767     5.6998     0.3099     8.8073     2.5414     0.0071   -50.2861
 2561.5000   -57.7434   -74.9782   130.8176     4.2870     4.6777     5.8219     0.3005     8.8073     2.5368     0.0017   -42.5875
 2562.0000   -58.3383   -74.4763   129.1012     4.3448     4.6789     5.6627     0.2871     8.8073     2.5308     0.0078   -42.4418
 2562.5000   -58.7837   -73.9745   130.7587     4.3747     4.6798     5.5463     0.2677     8.8225     2.5331     0.0153   -42.2961
 2563.0000   -59.2306   -73.4726   134.9560     4.4047     4.7138     5.5476     0.2668     8.8225     2.5377     0.0258   -49.7032
 2563.5000   -59.5788   -72.9707   137.7988     4.4660     4.8151     5.5102     0.2707     8.8073     2.5422     0.0243   -57.1104
 2564.0000   -59.3898   -72.4689   136.5214     4.5284     4.8843     5.5115     0.2701     8.8225     2.5399     0.0213   -64.5175
 2564.5000   -59.2103   -71.9670   133.6793     4.6560     4.9893     5.5519     0.2671     8.8073     2.5369     0.0182   -71.8883
 2565.0000   -58.8146   -71.4652   131.2423     4.7873     5.1725     5.6711     0.2625     8.8073     2.5346     0.0144   -71.7426
 2565.5000   -58.3918   -70.9633   128.8311     4.9223     5.3926     5.8746     0.2592     8.8073     2.5369     0.0099   -79.1541
