~VERSION INFORMATION
 VERS.                2.0:   CWLS LOG ASCII STANDARD - VERSION 2.0
 WRAP.                 NO:   ONE LINE PER DEPTH STEP
~WELL INFORMATION
#MNEM.UNIT      DATA TYPE    INFORMATION
#----------   ------------   ------------------------------
 STRT.F         2185.0000:   START DEPTH
 STOP.F         5688.0000:   STOP DEPTH
 STEP.F            0.5000:   STEP LENGTH
 NULL.          -999.2500:   NO VALUE
 COMP.       FLUOR DANIEL:   COMPANY
 WELL.   FLUOR "X" #53-10:   WELL
 FLD .           N.P.R #3:   FIELD
 LOC .      S10 T38N R78W:   LOCATION
 CNTY.            NATRONA:   COUNTY
 STAT.            WYOMING:   STATE
 CTRY. UNITED STATES OF AMERICA:   COUNTRY
 SRVC.      WESTERN ATLAS:   SERVICE COMPANY
 DATE.        23-MAR-1997:   LOGDATE
 API .     49025228470000:   API NUMBER
~CURVE INFORMATION
#MNEM.UNIT       API CODE    CURVE DESCRIPTION
#----------   ------------   ------------------------------
 DEPT.F                  :   
 CNC .DEC    42 890 03 00:   NEUTRON POROSITY SANDSTONE
 TEND.LBS    45 635 01 00:   TENSION FORM DENSITY LOG
 GRD .GAPI   45 310 01 00:   GAMMA RAY FROM DENSITY LOG
 CALD.IN     45 280 60 00:   CALIPER FROM DENSITY LOG
 ZDEN.G/C3   45 350 01 00:   BULK DENSITY
 ZCOR.G/C3   45 356 01 00:   DENSITY CORRECTION
 PE  .B/E    45 358 01 00:   PHOTOELECTRIC FACTOR
 R4SL.OHMM   07 000 00 00:   RESISTIVITY DEL 4
 R2SL.OHMM   07 000 00 00:   RESISTIVITY DEL 2
~PARAMETER INFORMATION
#MNEM.UNIT          VALUE    DESCRIPTION
#----------   ------------   ------------------------------
 EKB .F         5182.0000:   Kelly bushing
 EGL .F         5172.0000:   Ground level
 EDF .F         5181.0000:   Drilling floor
 EPD .F         5172.0000:   Permanent datum
 TD  .F         5690.0000:   Total depth
 CLNT.            A2DTECH:   Client Code
 SL  . 1183' FNL & 2118' FEL:   Surface Location
 PD  .                 GL:   Permanent Datum
 LMF .                 KB:   Log Measured From
 DMF .                 KB:   Drilling Measured From
 DAPD.F                10:   Feet Above Permanent Datum
 DATE.        23-MAR-1997:   Date Logged [DD-MMM-YYYY]
 DD  .F              5690:   Depth driller
 DL  .F              5688:   Depth logger
 BLI .F              5648:   Bottom log interval
 TLI .F              2200:   Top log interval
 CS1 .IN            9.625:   Casing size
 CBD1.      9.625" @ 446':   Casing driller 1
 CBL1.F               452:   Casing logger 1
 BS1 .IN             8.75:   Bit size
 BSD1.F              5690:   Depth drilled with bit1
 DFT .           GEL CHEM:   Type fluid in hole
 DFD .                9.8:   Density
 DFV .                 66:   Viscosity
 DFPH.                8.5:   pH
 DFL .                8.4:   Fluid loss
 MSS .              CIRC.:   Source of sample
 RMS .OHMM            1.1:   Rm
 MST .F                73:   Rm Meas. temp.
 RMF .OHMM           0.87:   Rmf
 MFST.F                73:   Rmf Meas. temp.
 MFSS.               CALC:   Source Rmf.
 RMC .OHMM           1.35:   Rmc
 MCST.F                73:   Rmc Meas. temp.
 MCSS.               CALC:   Source Rmc.
 RMB .OHMM           0.46:   Rm. at BHT
 BHT .F               174:   BHT.
 TCS .HRS               5:   Time Circ. stopped
 MRT .F               174:   Maximum recorded temp.
 LUN .            HL 6530:   Logging unit number
 LUL .          CASPER WY:   Logging unit location
 ENGI.           BROWNLOW:   Recorded By
 WITN.              HARDY:   Witnessed by
 ORIG.     2.5", 5" PRINT:   Origin of data
 UWI .     49025228470000:   Unique Well ID
 DICO. A2D TECHNOLOGIES, INC.:   Digitizing Company
~OTHER INFORMATION
~A  DEPTH      CNC       TEND        GRD       CALD       ZDEN       ZCOR         PE       R4SL       R2SL
# ...
 5616.0000     0.0717   269.1795    37.8732     8.8512     2.5276     0.0530     2.5503    60.3160    17.5656
 5616.5000     0.0711   254.5907    37.2849     8.8664     2.5333     0.0517     2.5051    88.8522    18.8321
 5617.0000     0.0723   255.0953    38.8107     8.8817     2.5416     0.0473     2.4599   195.4646    18.6341
 5617.5000     0.0789   270.4910    40.6329     8.8969     2.5573     0.0458     2.4895   197.5872    18.4093
 5618.0000     0.0867   285.8872    41.8536     8.8819     2.6164     0.0413     2.6102   797.0853    18.0782
 5618.5000     0.0985   301.2833    41.5705     8.8670     2.6762     0.0368     2.7937  1107.8362    19.6541
 5619.0000     0.1045   301.6869    34.9716     8.8220     2.7122     0.0353     3.0425   586.0703    20.2124
 5619.5000     0.1054   286.9970    27.0837     8.8071     2.7271     0.0324     3.2218   218.0100    20.7865
 5620.0000     0.0947   287.5013    18.8640     8.7621     2.7331     0.0309     3.3562   114.0723    21.0834
 5620.5000     0.0810   287.9049    13.0741     8.7471     2.7114     0.0339     3.4158   125.6896    21.6823
 5621.0000     0.0741   295.8048    11.8888     8.7473     2.6799     0.0369     3.3856   134.7061    22.9254
 5621.5000     0.0693   318.7032    13.4102     8.7474     2.6492     0.0430     3.1907   136.6001    24.9228
 5622.0000     0.0675   335.1873    16.7361     8.7476     2.6215     0.0523     2.8461   136.6183    25.9887
 5622.5000     0.0747   349.5901    21.5658     8.7478     2.6043     0.0773     2.5314   134.7568    26.7269
 5623.0000     0.0798   342.3964    26.6963     8.7328     2.6173     0.1013     2.4114   132.9296    27.4860
 5623.5000     0.0819   335.3038    30.3230     8.7179     2.6390     0.1133     2.4883   132.9473    29.8794
 5624.0000     0.0819   328.3118    27.9346     8.7331     2.6859     0.0714     2.7574   129.3378    30.7295
 5624.5000     0.0819   328.7155    23.7417     8.7333     2.7180     0.0550     3.3386   127.5756    29.0787
 5625.0000     0.0828   329.1191    18.3459     8.7636     2.7360     0.0565     3.5329   124.1118    24.2872
 5625.5000     0.0877   352.0114    15.3311     8.7637     2.7397     0.0655     3.6673   117.4535    18.9268
 5626.0000     0.0955   382.4001    14.7722     8.7488     2.7300     0.0715     3.8916   100.8923    16.4798
 5626.5000     0.1078   405.2921    15.9973     8.7339     2.7195     0.0655     4.1158    77.5892    13.5747
 5627.0000     0.1145   413.1936    15.4134     8.7341     2.7127     0.0535     4.2204    66.6504    12.6680
 5627.5000     0.1169   390.3702    13.3258     8.7342     2.7038     0.0458     4.2200    61.3514    11.9874
 5628.0000     0.1184   369.0217    11.8397     8.7494     2.6828     0.0401     4.0251    58.8647    11.1882
 5628.5000     0.1199   369.5259    11.2514     8.7797     2.6723     0.0416     3.7254    56.4812     9.8773
 5629.0000     0.1217   369.9296    12.1758     8.7949     2.6633     0.0431     3.3898    49.8789     9.8804
 5629.5000     0.1248   370.3332    13.3965     8.8101     2.6513     0.0491     3.1534    42.5294    10.7408
 5630.0000     0.1286   385.7293    15.8201     8.7640     2.6476     0.0611     3.0508    34.5479    12.3287
 5630.5000     0.1334   401.1255    18.2438     8.7174     2.6528     0.0731     3.0056    32.9534    14.1259
 5631.0000     0.1380   379.0399    20.3790     8.7051     2.6670     0.0641     2.9754    34.8339    14.9955
 5631.5000     0.1386   379.4436    22.3045     8.7354     2.6820     0.0492     2.9462    36.8200     9.4907
 5632.0000     0.1380   402.3359    24.6170     8.7054     2.6887     0.0417     2.9614    40.3372     6.4381
 5632.5000     0.1446   403.0047    23.1309     8.7056     2.6902     0.0358     3.0085    41.7103     5.5285
 5633.0000     0.1586   395.6470    19.8403     8.6756     2.6689     0.0343     3.0823    29.9348     5.2750
 5633.5000     0.1734   403.5606    18.0534     8.6758     2.6295     0.0358     3.0824    26.8032     5.3801
 5634.0000     0.1880   411.4692    17.1644     8.6608     2.5621     0.0508     3.0825    25.0152     6.5353
 5634.5000     0.1928   419.4472    16.8858     8.6279     2.5494     0.0597     3.0827    26.0789     8.1615
 5635.0000     0.1943   427.3467    17.2042     8.6282     2.5509     0.0628     3.0979    38.1156    10.9540
 5635.5000     0.1886   435.2466    17.2218     8.6286     2.5674     0.0762     3.0980    54.1634    14.8264
 5636.0000     0.1699   443.1465    17.2395     8.6290     2.6040     0.0972     3.1283    70.2112    12.9101
 5636.5000     0.1627   443.5501    16.6557     8.6294     2.6377     0.0882     3.1911    86.2591    11.0861
 5637.0000     0.1538   443.9537    16.0718     8.6146     2.6594     0.0703     3.2792   105.4883    10.0630
 5637.5000     0.1500   451.8532    16.4413     8.5547     2.6669     0.0583     3.3698    93.1554     9.3908
 5638.0000     0.1581   467.2494    18.2168     8.4947     2.6586     0.0552     3.4452    64.1362     9.5253
 5638.5000     0.1651   482.7060    18.8360     8.4499     2.6369     0.0719     3.5055    54.5720    10.0715
 5639.0000     0.1657   505.5471    19.1544     8.4502     2.6152     0.0886     3.3250    47.7500    10.5022
 5639.5000     0.1654   513.4377    19.4728     8.4657     2.5897     0.1003     3.0992    42.3737    10.6517
 5640.0000     0.1666   506.3447    18.5882     8.4661     2.5650     0.1018     2.8715    51.4337    10.8039
 5640.5000     0.1675   529.3381    17.4029     8.4966     2.5377     0.1033     2.6327    54.3663    14.2619
 5641.0000     0.1678   544.7343    17.4205     8.5121     2.5188     0.1003     2.4220    56.0672    16.8493
 5641.5000     0.1678   545.1379    18.0397     8.5125     2.5058     0.0899     2.3017    58.3335    17.8145
 5642.0000     0.1675   560.4330    17.4556     8.5279     2.5253     0.0854     2.2115    66.0080    11.2754
 5642.5000     0.1705   530.8512    16.5713     8.5440     2.5380     0.0859     2.1212    71.7283    10.5227
 5643.0000     0.1717   546.3483    16.6254     8.4985     2.5305     0.0934     2.0310    55.9294    10.2371
 5643.5000     0.1702   561.7445    17.8140     8.3931     2.4811     0.1279     2.0312    44.2177    12.2638
 5644.0000     0.1657   592.1331    18.7340     8.3182     2.4294     0.1772     2.0012    47.3907    14.8970
 5644.5000     0.1623   570.0476    18.4464     8.3835     2.4264     0.1878     2.1068    59.8933    16.8822
 5645.0000     0.1602   593.9691    17.5663     8.4586     2.4579     0.1699     2.2124    73.0710    17.6043
 5645.5000     0.1572   623.4297    17.2832     8.5038     2.5110     0.1460     2.2878    86.2487    17.1272
 5646.0000     0.1551   631.3291    17.3008     8.5489     2.5686     0.1146     2.3331    89.5758    15.1218
 5646.5000     0.1554   624.2365    17.6193     8.5940     2.5903     0.0996     2.3333    48.7532    14.3554
 5647.0000     0.1566   624.6401    17.6369     8.6541     2.6053     0.0861     2.3485    42.6371    13.7293
 5647.5000     0.1566   617.4465    17.9553     8.6692     2.6158     0.0728     2.3791    39.0853    20.2515
 5648.0000     0.1566   613.7792    18.5744     8.6692     2.6322     0.0593     2.6954    48.7136    27.1080
 5648.5000     0.1566   610.7575  -999.2500     8.6541     2.6773     0.0504     2.9966    59.9595    33.3868
 5649.0000     0.1560   611.2617  -999.2500     8.6541     2.7125     0.0459     3.1774    71.2053    33.6360
 5649.5000     0.1560   626.6579  -999.2500     8.6541     2.7422     0.0520     3.2228    65.2372    27.9916
 5650.0000     0.1560   657.0465  -999.2500     8.6391     2.7674     0.0684     3.2078    46.1746    22.3472
 5650.5000     0.1569   702.4736  -999.2500     8.5940     2.7730     0.0774     3.1628    37.5293    17.9235
 5651.0000  -999.2500   695.4163  -999.2500     8.5789     2.7527     0.0670     3.0425    33.3706    13.4999
 5651.5000  -999.2500   697.0029  -999.2500     8.5639     2.7139     0.0566     3.0426    30.3658    10.2772
 5652.0000  -999.2500   718.9045  -999.2500     8.5639     2.6644     0.0506     3.0578    29.2547    11.8063
