~VERSION INFORMATION
 VERS.                2.0:   CWLS LOG ASCII STANDARD - VERSION 2.0
 WRAP.                 NO:   ONE LINE PER DEPTH STEP
~WELL INFORMATION
#MNEM.UNIT      DATA TYPE    INFORMATION
#----------   ------------   ------------------------------
 STRT.F           40.0000:   START DEPTH
 STOP.F         3326.0000:   STOP DEPTH
 STEP.F            0.5000:   STEP LENGTH
 NULL.          -999.2500:   NO VALUE
 COMP.    FENIX & SCISSON:   COMPANY
 WELL.  FENIX "AX" #53-15:   WELL
 FLD .              NPR-3:   FIELD
 LOC .      S15 T38N R78W:   LOCATION
 CNTY.            NATRONA:   COUNTY
 STAT.            WYOMING:   STATE
 CTRY. UNITED STATES OF AMERICA:   COUNTRY
 SRVC.              WELEX:   SERVICE COMPANY
 DATE.        02-MAR-1977:   LOGDATE
 API .     49025102640000:   API NUMBER
~CURVE INFORMATION
#MNEM.UNIT       API CODE    CURVE DESCRIPTION
#----------   ------------   ------------------------------
 DEPT.F                  :   
 CALD.IN     42 280 60 00:   CALIPER
 TEND.LBS    42 635 01 00:   TENSION FROM NEUTRON POROSITY LOG
 GRD .GAPI   42 310 30 00:   GAMMA RAY
 NPHI.DEC    42 890 03 00:   NEUTRON POROSITY SANDSTONE
 DPHI.DEC    45 890 12 00:   DENSITY POROSITY SANDSTONE
 SPR .MV     07 010 01 00:   SPONTANEOUS POTENTIAL
 ILD .OHMM   07 120 46 00:   DEEP INDUCTION RESISTIVITY
 ILM .OHMM   07 120 44 00:   INDUCTION LOG MEDIUM RESISTIVITY
 SGRD.OHMM   07 220 05 00:   SHALLOW SHORT GUARD RESISTIVITY
~PARAMETER INFORMATION
#MNEM.UNIT          VALUE    DESCRIPTION
#----------   ------------   ------------------------------
 EKB .F            0.0000:   Kelly bushing
 EGL .F         5251.0000:   Ground level
 EDF .F            0.0000:   Drilling floor
 TD  .F          750.0000:   Total depth
 DATE.        02-MAR-1977:   Date logged
 CLNT.            A2DTECH:   Client Code
 SL  . 1650' FNL & 2360' FEL:   Surface Location
 PD  .                 GL:   Permanent Datum
 EPD .F              5253:   Elevation Permanent Datum
 LMF .                 GL:   Log Measured From
 DMF .                 GL:   Drilling Measured From
 DD  .F               750:   Depth driller
 DL  .F               747:   Depth logger
 BLI .F               745:   Bottom log interval
 CS1 .IN            8.625:   Casing size
 CBD1.       8.625" @ 40':   Casing driller 1
 CBL1.F                44:   Casing logger 1
 BS1 .IN            7.875:   Bit size
 BSD1.F               750:   Depth drilled with bit1
 DFT .           CHEM-GEL:   Type fluid in hole
 MSS .           FLOWLINE:   Source of sample
 RMS .OHMM          0.425:   Rm
 MST .F                56:   Rm Meas. temp.
 RMF .OHMM          0.466:   Rmf
 MFST.F                56:   Rmf Meas. temp.
 RMC .OHMM          0.712:   Rmc
 MCST.F                56:   Rmc Meas. temp.
 MFSS.               MEAS:   Source Rmf.
 MCSS.               MEAS:   Source Rmc.
 RMB .OHMM          0.350:   Rm. at BHT
 BHT .F                68:   BHT.
 TCS .HRS               2:   Time Circ. stopped
 MRT .F                68:   Maximum recorded temp.
 LUN .               8611:   Logging unit number
 LUL .            GILLETH:   Logging unit location
 ENGI.          D. LAWSON:   Recorded By
 WITN.           S. BURKL:   Witnessed by
 ORIG.           5" PRINT:   Origin of data
 UWI .     49025102640000:   Unique Well ID
 DICO. A2D TECHNOLOGIES, INC.:   Digitizing Company
~OTHER INFORMATION
~A   DEPT     CALD       TEND         GRD        NPHI     DPHI        SPR        ILD        ILM       SGRD   
# ...
 1755.5000     8.0320   268.0340   111.6120     0.3110     0.0710  -999.2500  -999.2500  -999.2500  -999.2500
 1756.0000     8.0280   267.0680   118.0790     0.3130     0.0780  -999.2500  -999.2500  -999.2500  -999.2500
 1756.5000     8.0240   266.1010   115.5650     0.2970     0.0820  -999.2500  -999.2500  -999.2500  -999.2500
 1757.0000     8.0200   265.1350   113.2340     0.2920     0.0780  -999.2500  -999.2500  -999.2500  -999.2500
 1757.5000     8.0160   264.7350   104.1670     0.2940     0.0710  -999.2500  -999.2500  -999.2500  -999.2500
 1758.0000     8.0110   264.7350   110.1810     0.2970     0.0720  -999.2500  -999.2500  -999.2500  -999.2500
 1758.5000     8.0110   264.7350   111.0120     0.2930     0.0700  -999.2500  -999.2500  -999.2500  -999.2500
 1759.0000     8.0120   264.7350   113.4980     0.2910     0.0760  -999.2500  -999.2500  -999.2500  -999.2500
 1759.5000     8.0130   264.7350   113.9590     0.2940     0.0740  -999.2500  -999.2500  -999.2500  -999.2500
 1760.0000     8.0140   264.7350   122.0880     0.2980     0.0710  -999.2500  -999.2500  -999.2500  -999.2500
 1760.5000     8.0150   264.7350   117.2120     0.3070     0.0870  -999.2500  -999.2500  -999.2500  -999.2500
 1761.0000     8.0160   264.7350   114.2970     0.3070     0.0840  -999.2500  -999.2500  -999.2500  -999.2500
 1761.5000     8.0170   264.7350   115.8310     0.2960     0.0800  -999.2500  -999.2500  -999.2500  -999.2500
 1762.0000     8.0180   264.7350   117.3040     0.2880     0.0760  -999.2500  -999.2500  -999.2500  -999.2500
 1762.5000     8.0190   264.7350   112.3290     0.2830     0.0750  -999.2500  -999.2500  -999.2500  -999.2500
 1763.0000     8.0200   264.7350   110.5880     0.2870     0.0720  -999.2500  -999.2500  -999.2500  -999.2500
 1763.5000     8.0210   264.7350   111.9230     0.2900     0.0750  -999.2500  -999.2500  -999.2500  -999.2500
 1764.0000     8.0220   264.7350   110.6150     0.2890     0.0730  -999.2500  -999.2500  -999.2500  -999.2500
 1764.5000     8.0230   264.8660   112.7890     0.2850     0.0680  -999.2500  -999.2500  -999.2500  -999.2500
 1765.0000     8.0240   265.3440   117.4990     0.2870     0.0640  -999.2500  -999.2500  -999.2500  -999.2500
 1765.5000     8.0260   265.8230   116.7930     0.2920     0.0590  -999.2500  -999.2500  -999.2500  -999.2500
 1766.0000     8.0270   266.3010   112.9070     0.2950     0.0540  -999.2500  -999.2500  -999.2500  -999.2500
 1766.5000     8.0280   266.7800   114.6780     0.2910     0.0520  -999.2500  -999.2500  -999.2500  -999.2500
 1767.0000     8.0290   267.2580   112.4610     0.2910     0.0530  -999.2500  -999.2500  -999.2500  -999.2500
 1767.5000     8.0300   267.7370   104.6350     0.2920     0.0550  -999.2500  -999.2500  -999.2500  -999.2500
 1768.0000     8.0270   268.2160   107.0400     0.2930     0.0560  -999.2500  -999.2500  -999.2500  -999.2500
 1768.5000     8.0240   268.6940   111.8730     0.2920     0.0480  -999.2500  -999.2500  -999.2500  -999.2500
 1769.0000     8.0210   269.1730   112.6390     0.2870     0.0560  -999.2500  -999.2500  -999.2500  -999.2500
 1769.5000     8.0180   269.6510   111.5650     0.2820     0.0720  -999.2500  -999.2500  -999.2500  -999.2500
 1770.0000     8.0140   270.1300   108.3640     0.2870     0.0720  -999.2500  -999.2500  -999.2500  -999.2500
 1770.5000     8.0110   270.6080   104.9570     0.2940     0.0600  -999.2500  -999.2500  -999.2500  -999.2500
 1771.0000     8.0080   271.0870   103.3530     0.2920     0.0610  -999.2500  -999.2500  -999.2500  -999.2500
 1771.5000     8.0050   271.5660   110.3790     0.2880     0.0660  -999.2500  -999.2500  -999.2500  -999.2500
 1772.0000     8.0010   272.0440   108.8360     0.2870     0.0720  -999.2500  -999.2500  -999.2500  -999.2500
 1772.5000     7.9980   272.5230   111.5660     0.2940     0.0740  -999.2500  -999.2500  -999.2500  -999.2500
 1773.0000     7.9950   273.0010   112.9880     0.2940     0.0720  -999.2500  -999.2500  -999.2500  -999.2500
 1773.5000     7.9920   273.4800   115.9550     0.2920     0.0800  -999.2500  -999.2500  -999.2500  -999.2500
 1774.0000     7.9940   273.9580   115.8970     0.2890     0.0810  -999.2500  -999.2500  -999.2500  -999.2500
 1774.5000     8.0010   274.4370   113.4690     0.2920     0.0750  -999.2500  -999.2500  -999.2500  -999.2500
 1775.0000     8.0080   274.7250   111.0420     0.2920     0.0760  -999.2500  -999.2500  -999.2500  -999.2500
 1775.5000     8.0160   274.7250   111.9460     0.2950     0.0700  -999.2500  -999.2500  -999.2500  -999.2500
 1776.0000     8.0230   274.2070   111.1310     0.3000     0.0600  -999.2500  -999.2500  -999.2500  -999.2500
 1776.5000     8.0300   273.3550   115.3770     0.3080     0.0620  -999.2500  -999.2500  -999.2500  -999.2500
 1777.0000     8.0380   272.5040   113.4980     0.3130     0.0680  -999.2500  -999.2500  -999.2500  -999.2500
 1777.5000     8.0450   271.6520   114.6500     0.3040     0.0710  -999.2500  -999.2500  -999.2500  -999.2500
 1778.0000     8.0530   270.8000   112.6990     0.2950     0.0720  -999.2500  -999.2500  -999.2500  -999.2500
 1778.5000     8.0600   269.9490   115.2150     0.2940     0.0760  -999.2500  -999.2500  -999.2500  -999.2500
 1779.0000     8.0670   269.0970   117.7830     0.2940     0.0690  -999.2500  -999.2500  -999.2500  -999.2500
 1779.5000     8.0750   268.2450   118.4000     0.2900     0.0650  -999.2500  -999.2500  -999.2500  -999.2500
 1780.0000     8.0820   267.3940   119.7260     0.2920     0.0640  -999.2500  -999.2500  -999.2500  -999.2500
 1780.5000     8.0890   266.5420   120.5080     0.3020     0.0700  -999.2500  -999.2500  -999.2500  -999.2500
 1781.0000     8.0970   265.6900   117.5580     0.3110     0.0730  -999.2500  -999.2500  -999.2500  -999.2500
 1781.5000     8.1040   264.8390   123.3580     0.3100     0.0750  -999.2500  -999.2500  -999.2500  -999.2500
 1782.0000     8.1100   265.3560   116.0780     0.3080     0.0780  -999.2500  -999.2500  -999.2500  -999.2500
 1782.5000     8.1090   266.2700   111.6370     0.3060     0.0800  -999.2500  -999.2500  -999.2500  -999.2500
 1783.0000     8.1070   267.1840   112.3050     0.3100     0.0780  -999.2500  -999.2500  -999.2500  -999.2500
 1783.5000     8.1060   268.0970   111.6890     0.3100     0.0760  -999.2500  -999.2500  -999.2500  -999.2500
 1784.0000     8.1050   269.0110   109.5120     0.3130     0.0720  -999.2500  -999.2500  -999.2500  -999.2500
 1784.5000     8.1040   269.9250   108.4000     0.3240     0.0810  -999.2500  -999.2500  -999.2500  -999.2500
 1785.0000     8.1030   270.8380   114.0790     0.3260     0.0770  -999.2500  -999.2500  -999.2500  -999.2500
 1785.5000     8.1010   271.7520   110.8470     0.3280     0.0710  -999.2500  -999.2500  -999.2500  -999.2500
 1786.0000     8.1000   272.6660   110.0620     0.3250     0.0600  -999.2500  -999.2500  -999.2500  -999.2500
 1786.5000     8.0990   273.5790   111.1230     0.3170     0.0530  -999.2500  -999.2500  -999.2500  -999.2500
 1787.0000     8.0980   274.4930   111.2340     0.3110     0.0520  -999.2500  -999.2500  -999.2500  -999.2500
 1787.5000     8.0960   274.1760   112.8010     0.3100     0.0440  -999.2500  -999.2500  -999.2500  -999.2500
 1788.0000     8.0950   273.1710   110.8560     0.2990     0.0370  -999.2500  -999.2500  -999.2500  -999.2500
 1788.5000     8.0940   272.1660   114.3170     0.2980     0.0420  -999.2500  -999.2500  -999.2500  -999.2500
 1789.0000     8.0930   271.1610   110.9970     0.2970     0.0490  -999.2500  -999.2500  -999.2500  -999.2500
 1789.5000     8.0910   270.1560   111.6340     0.2970     0.0580  -999.2500  -999.2500  -999.2500  -999.2500
 1790.0000     8.0900   269.1510   112.4560     0.2950     0.0620  -999.2500  -999.2500  -999.2500  -999.2500
 1790.5000     8.0880   268.1460   113.5670     0.2960     0.0640  -999.2500  -999.2500  -999.2500  -999.2500
 1791.0000     8.0850   267.1410   115.3630     0.2950     0.0590  -999.2500  -999.2500  -999.2500  -999.2500
 1791.5000     8.0830   266.1360   117.8900     0.2900     0.0620  -999.2500  -999.2500  -999.2500  -999.2500
