~VERSION INFORMATION
 VERS.                2.0:   CWLS LOG ASCII STANDARD - VERSION 2.0
 WRAP.                 NO:   ONE LINE PER DEPTH STEP
~WELL INFORMATION
#MNEM.UNIT      DATA TYPE    INFORMATION
#----------   ------------   ------------------------------
 STRT.F            0.0000:   START DEPTH
 STOP.F         3982.0000:   STOP DEPTH
 STEP.F            0.5000:   STEP LENGTH
 NULL.          -999.2500:   NO VALUE
 COMP.   LAWRENCE ALLISON:   COMPANY
 WELL. LAWRENCE NPR 3 "LX" #61-10:   WELL
 FLD .                NPR:   FIELD
 LOC .      S10 T38N R78W:   LOCATION
 CNTY.            NATRONA:   COUNTY
 STAT.            WYOMING:   STATE
 CTRY. UNITED STATES OF AMERICA:   COUNTRY
 SRVC.      DRESSER ATLAS:   SERVICE COMPANY
 DATE.        14-APR-1983:   LOGDATE
 API .     49025109180000:   API NUMBER
~CURVE INFORMATION
#MNEM.UNIT       API CODE    CURVE DESCRIPTION
#----------   ------------   ------------------------------
 DEPT.F                  :   
 CALD.IN     45 280 60 00:   CALIPER FROM DENSITY LOG
 RHOB.G/C3   45 350 01 00:   BULK DENSITY
 DRHO.G/C3   45 356 01 00:   DENSITY CORRECTION
 TEND.LBS    45 635 01 00:   TENSION FROM DENSITY LOG
 CNC .DEC    42 890 03 00:   NEUTRON PORISITY SANDSTONE
 GRR .GAPI   07 310 01 00:   GAMMA RAY FROM RESISTIVITY
 SPR .MV     07 010 01 00:   SPONTANEOUS POTENTIAL
 ILD .OHMM   07 120 46 00:   DEEP INDUCTION RESISTIVITY
 ILM .OHMM   07 120 44 00:   INDUCTION LOG MEDIUM RESISTIVITY
 SFL .OHMM   07 220 01 00:   SHALLOW FOCUSED LOG RESISTIVITY
 TENS.LBS    60 635 01 00:   TENSION FROM SONIC LOG
 DT  .US/F   60 520 00 00:   DELTA TIME
 TENR.LBS    07 635 01 00:   TENSION FROM RESISTIVITY
~PARAMETER INFORMATION
#MNEM.UNIT          VALUE    DESCRIPTION
#----------   ------------   ------------------------------
 EKB .F         5164.0000:   Kelly bushing
 EGL .F         5154.0000:   Ground level
 EDF .F            0.0000:   Drilling floor
 TD  .F         3985.0000:   Total depth
 DATE.        14-APR-1983:   Date logged
 CLNT.            A2DTECH:   Client Code
 SL  . 138' FNL & 1331' FEL:   Surface Location
 PD  .                 GL:   Permanent Datum
 EPD .F              5154:   Elevation Permanent Datum
 LMF .                 KB:   Log Measured From
 DMF .                 KB:   Drilling Measured From
 DD  .F              3985:   Depth driller
 DL  .F              3948:   Depth logger
 BLI .F              3945:   Bottom log interval
 CS1 .IN            8.625:   Casing size
 CBD1.      8.625" @ 442':   Casing driller 1
 CBL1.F               453:   Casing logger 1
 BS1 .IN            7.875:   Bit size
 DFT .                KCI:   Type fluid in hole
 DFD .                8.9:   Density
 DFV .                 40:   Viscosity
 DFPH.                8.5:   pH
 DFL .                 10:   Fluid loss
 MSS .           FLOWLINE:   Source of sample
 RMS .OHMM           0.38:   Rm
 MST .F                68:   Rm Meas. temp.
 RMF .OHMM           0.30:   Rmf
 MFST.F                68:   Rmf Meas. temp.
 RMC .OHMM           0.49:   Rmc
 MCST.F                68:   Rmc Meas. temp.
 MFSS.               MEAS:   Source Rmf.
 RMB .OHMM           0.22:   Rm. at BHT
 BHT .F               122:   BHT.
 TCS .HRS               4:   Time Circ. stopped
 MRT .F               122:   Maximum recorded temp.
 LUN .               6764:   Logging unit number
 LUL .              WLSTN:   Logging unit location
 ENGI.            QUICKEL:   Recorded By
 WITN.           JENNINGS:   Witnessed by
 ORIG.           5" PRINT:   Origin of data
 UWI .     49025109180000:   Unique Well ID
 DICO. A2D TECHNOLOGIES, INC.:   Digitizing Company
 DAPD.                 10:   Feet Above Permanent Datum
 BSD1.               3985:   Depth drilled with bit1
 MCSS.               CALC:   Source Rmc.
~OTHER INFORMATION
~A    DEPT    CALD       RHOB       DRHO       TEND        CNC         GRR       SPR        ILD        ILM        SFL       TENS         DT       TENR   
# ...
 2522.0000     8.2660     2.4030     0.0460   -72.4060     0.2030    81.1510   -13.4300    37.7730    32.4320    22.5240   -44.5890    75.1020   -36.9180
 2522.5000     8.2680     2.4160     0.0410   -75.8220     0.1920    83.3700   -13.7540    37.9350    32.7630    23.0870   -44.5890    75.1200   -36.9180
 2523.0000     8.2700     2.4300     0.0360   -79.2380     0.1830    86.1360   -14.1740    38.1300    32.8030    23.7320   -44.5890    74.4260   -36.9180
 2523.5000     8.2710     2.4460     0.0310   -82.6530     0.1780    85.8230   -14.4780    38.3250    32.4820    23.7320   -44.5890    73.3840   -36.9180
 2524.0000     8.2730     2.4620     0.0310   -86.0690     0.1820    83.3860   -14.2880    38.4670    32.0580    23.5160   -44.5890    72.8160   -36.9180
 2524.5000     8.2750     2.4640     0.0540   -89.4850     0.1850    81.5940   -13.9400    37.4400    31.5390    22.4950   -44.5890    73.4930   -36.9180
 2525.0000     8.2760     2.4490     0.0780   -92.9010     0.1910    81.1150   -13.7330    36.6330    30.7750    21.5450   -44.5890    74.1810   -36.9180
 2525.5000     8.2780     2.4270     0.0790   -94.7120     0.1990    81.5090   -13.7520    35.8250    30.0110    20.7000   -45.0480    74.9840   -36.3090
 2526.0000     8.2800     2.4050     0.0760   -90.2920     0.2010    81.8690   -14.1920    35.1170    29.2470    20.6410   -45.8200    75.3210   -35.7550
 2526.5000     8.2810     2.4000     0.0700   -85.8710     0.2030    82.4860   -14.9400    33.9280    28.5540    20.5880   -46.5920    75.2610   -35.2010
 2527.0000     8.2830     2.3980     0.0640   -81.4510     0.2040    84.6050   -15.5870    32.8680    28.0010    20.5350   -47.3630    75.0960   -34.6460
 2527.5000     8.2850     2.3930     0.0600   -77.0300     0.2010    87.2620   -16.1030    31.7670    27.4480    20.5360   -48.1350    74.9200   -34.0920
 2528.0000     8.2860     2.3860     0.0590   -72.6100     0.1940    87.4390   -16.8140    32.2470    27.3500    20.5790   -48.9070    74.8820   -33.5380
 2528.5000     8.2880     2.3860     0.0480   -68.1890     0.1880    84.1170   -17.4600    32.7470    28.5250    20.6220   -49.6790    74.8400   -32.9840
 2529.0000     8.2890     2.3930     0.0340   -65.7370     0.1780    80.3080   -17.6410    33.2480    30.3750    20.6650   -50.4510    74.5050   -32.4300
 2529.5000     8.2910     2.3990     0.0260   -68.9940     0.1700    79.3470   -17.7520    34.1430    32.9470    20.7000   -51.2230    73.9180   -31.8760
 2530.0000     8.2930     2.4190     0.0240   -74.0040     0.1710    80.7800   -18.0870    35.0420    33.0370    21.6650   -51.9950    71.9220   -31.3220
 2530.5000     8.2940     2.4530     0.0270   -79.0140     0.1710    82.9780   -18.5870    36.0900    33.2480    29.5340   -52.7660    69.7480   -30.7680
 2531.0000     8.2960     2.4660     0.0320   -84.0240     0.1700    85.4480   -19.1590    36.5420    31.4790    30.9100   -53.5380    68.7070   -30.2130
 2531.5000     8.2980     2.4620     0.0280   -85.6570     0.1700    86.5410   -19.4170    37.2510    31.0140    28.2790   -54.3100    69.2080   -29.6590
 2532.0000     8.2990     2.4440     0.0250   -85.6570     0.1760    85.2110   -19.3850    37.7730    30.2970    21.6650   -54.3390    71.2200   -29.1050
 2532.5000     8.3010     2.4260     0.0460   -85.6570     0.1880    83.6940   -19.2580    37.0900    29.5790    20.7000   -53.8980    73.3090   -28.5510
 2533.0000     8.3030     2.4150     0.0530   -85.6570     0.1880    84.6500   -18.8360    35.5500    28.8620    20.7580   -53.4570    75.5610   -27.9970
 2533.5000     8.3040     2.4140     0.0540   -85.6570     0.1890    87.4950   -18.4910    33.8030    28.2180    20.8890   -53.0160    76.9240   -27.4430
 2534.0000     8.3060     2.4240     0.0530   -85.6570     0.1900    89.2070   -18.6520    32.3490    27.0750    20.3990   -52.5750    76.9280   -26.8890
 2534.5000     8.3070     2.4360     0.0530   -87.9330     0.1910    88.7770   -18.8870    31.1770    25.7600    19.8570   -52.1340    76.9570   -26.3350
 2535.0000     8.3090     2.4380     0.0600   -90.4380     0.1960    87.5260   -18.8920    30.2070    25.3700    19.3160   -51.6930    76.9860   -25.7800
 2535.5000     8.3110     2.4340     0.0680   -92.9430     0.2030    86.8130   -18.8520    29.5340    24.8370    18.9600   -51.2520    77.0150   -25.2260
 2536.0000     8.3120     2.4290     0.0690   -95.6180     0.2040    87.1650   -18.8220    29.1940    24.3900    18.7600   -50.8110    77.1160   -24.6720
 2536.5000     8.3140     2.4280     0.0570   -88.4310     0.2010    87.1020   -18.6160    29.3670    24.6410    18.5550   -50.3690    77.3020   -24.1180
 2537.0000     8.3160     2.4340     0.0470   -80.7230     0.1980    85.5690   -18.0070    30.0110    25.3190    18.7960   -49.9280    77.3250   -23.5640
 2537.5000     8.3170     2.4440     0.0440   -80.0550     0.1960    82.8000   -16.8980    30.6560    25.9960    19.5190   -49.4870    76.9240   -23.0100
 2538.0000     8.3190     2.4530     0.0470   -92.5800     0.1950    79.4780   -15.4750    31.2320    25.9960    21.4440   -49.0460    75.8860   -22.4560
 2538.5000     8.3210     2.4720     0.0490   -95.6180     0.1940    78.1110   -13.8960    32.0220    26.1190    23.5160   -48.6050    75.0090   -21.9020
 2539.0000     8.3220     2.4720     0.0500   -95.6180     0.1930    78.6290   -12.2990    32.8120    26.2340    22.8530   -48.1640    74.9200   -21.3470
 2539.5000     8.3240     2.4650     0.0510   -93.9240     0.1970    79.3350   -10.9020    33.6020    26.9750    20.5120   -47.7230    75.6670   -20.7930
 2540.0000     8.3260     2.4580     0.0600   -89.3700     0.2000    80.7040    -9.4540    34.3920    27.5600    19.7780   -47.2820    76.4080   -20.2390
 2540.5000     8.3270     2.4540     0.0690   -85.6570     0.1990    79.9670    -8.0780    35.4380    28.2180    20.2190   -46.8410    76.8240   -19.6850
 2541.0000     8.3290     2.4540     0.0730   -87.7630     0.1920    74.6960    -7.1120    35.7740    29.2100    21.2730   -46.4000    76.2980   -19.1310
 2541.5000     8.3300     2.4540     0.0720   -91.3420     0.1870    68.7260    -6.0140    36.4200    30.3450    22.0630   -45.9590    75.3600   -18.5770
 2542.0000     8.3320     2.4510     0.0790   -94.9200     0.1850    66.3300    -5.2110    37.9310    32.5530    21.8630   -45.5180    74.4140   -18.0230
 2542.5000     8.3340     2.4340     0.0880   -95.6180     0.1830    67.7890    -5.4290    40.2610    35.7630    22.2650   -45.0770    73.4610   -17.4680
 2543.0000     8.3350     2.4190     0.0910   -95.6180     0.1780    70.7400    -5.8190    40.2610    35.7630    25.0390   -44.6360    72.5080   -17.0960
 2543.5000     8.3370     2.4190     0.0770   -95.6180     0.1730    74.4310    -6.2350    38.5090    33.8320    28.2180   -45.3490    71.8730   -20.7450
 2544.0000     8.3390     2.4220     0.0630   -95.6180     0.1710    79.1030    -7.0350    37.1900    31.2050    27.2080   -46.1990    71.8140   -23.4930
 2544.5000     8.3400     2.4210     0.0490   -95.6180     0.1820    82.7910    -7.6190    36.0900    28.3500    24.3900   -47.0480    72.8110   -26.2410
 2545.0000     8.3420     2.4110     0.0370  -102.0920     0.1910    83.9900    -7.8370    33.6170    26.3790    19.7780   -47.8980    73.9980   -28.9890
 2545.5000     8.3440     2.4020     0.0290  -108.3540     0.2000    84.0140    -8.0110    31.4790    25.3630    19.1820   -48.7470    75.5210   -31.7370
 2546.0000     8.3450     2.4020     0.0330  -114.6170     0.2150    85.8390    -8.2680    29.9800    24.3470    18.7540   -49.5970    76.7230   -34.4840
 2546.5000     8.3470     2.4090     0.0380  -120.8790     0.2210    89.0350    -8.3710    28.4760    23.9490    18.8260   -50.4470    76.8180   -37.2320
 2547.0000     8.3480     2.4100     0.0390  -124.1140     0.2230    89.9400    -8.0070    28.2180    24.3520    18.8970   -51.2960    76.9740   -39.9800
 2547.5000     8.3500     2.4110     0.0390  -118.8400     0.2160    87.7750    -7.6700    27.9620    24.6850    19.0700   -52.1460    77.1300   -42.7280
