~VERSION INFORMATION
 VERS.                2.0:   CWLS LOG ASCII STANDARD - VERSION 2.0
 WRAP.                 NO:   ONE LINE PER DEPTH STEP
~WELL INFORMATION
#MNEM.UNIT      DATA TYPE    INFORMATION
#----------   ------------   ------------------------------
 STRT.F          190.0000:   START DEPTH
 STOP.F         3050.0000:   STOP DEPTH
 STEP.F            0.5000:   STEP LENGTH
 NULL.          -999.2500:   NO VALUE
 COMP.    FENIX & SCISSON:   COMPANY
 WELL. FENIX NPR 3 "AX" #86-29:   WELL
 FLD .      NPR - WILDCAT:   FIELD
 LOC .      S29 T39N R78W:   LOCATION
 CNTY.            NATRONA:   COUNTY
 STAT.            WYOMING:   STATE
 CTRY. UNITED STATES OF AMERICA:   COUNTRY
 SRVC.              WELEX:   SERVICE COMPANY
 DATE.        24-JUN-1977:   LOGDATE
 API .     49025103830000:   API NUMBER
~CURVE INFORMATION
#MNEM.UNIT       API CODE    CURVE DESCRIPTION
#----------   ------------   ------------------------------
 DEPT.F                  :   
 SPR .MV     07 010 01 00:   SPONTANEOUS POTENTIAL
 ILD .OHMM   07 120 46 00:   DEEP INDUCTION RESISTIVITY
 ILM .OHMM   07 120 44 00:   INDUCTION LOG MEDIUM RESISTIVITY
 SGRD.OHMM   07 220 05 00:   SHALLOW SHORT GUARD RESISTIVITY
 GRD .GAPI   45 310 01 00:   GAMMA RAY FROM DENSITY LOG
 CALD.IN     45 280 60 00:   CALIPER FROM DENSITY LOG
 RHOB.G/C3   45 350 01 00:   BULK DENSITY
 CORR.G/C3   45 356 01 00:   DENSITY CORRECTION
~PARAMETER INFORMATION
#MNEM.UNIT          VALUE    DESCRIPTION
#----------   ------------   ------------------------------
 EKB .F         5056.0000:   Kelly bushing
 EGL .F         5046.0000:   Ground level
 EDF .F            0.0000:   Drilling floor
 TD  .F         3051.0000:   Total depth
 DATE.        24-JUN-1977:   Date logged
 CLNT.            A2DTECH:   Client Code
 SL  . 1746' FSL & 534' FEL:   Surface Location
 PD  .                 GL:   Permanent Datum
 EPD .F              5046:   Elevation Permanent Datum
 LMF .                 KB:   Log Measured From
 DMF .                 KB:   Drilling Measured From
 DAPD.F                10:   Feet Above Permanent Datum
 DD  .F              3038:   Depth driller
 DL  .F              3051:   Depth logger
 BLI .F              3049:   Bottom log interval
 TLI .F               200:   Top log interval
 CS1 .IN            8.625:   Casing size
 CBD1.      8.625" @ 217':   Casing driller 1
 CBL1.F               213:   Casing logger 1
 BS1 .IN            7.875:   Bit size
 BSD1.F              3038:   Depth drilled with bit1
 DFT .            KCL/MUD:   Type fluid in hole
 DFD .                8.7:   Density
 DFV .                134:   Viscosity
 DFPH.                7.5:   pH
 DFL .                7.2:   Fluid loss
 MSS .           FLOWLINE:   Source of sample
 RMS .OHMM            .62:   Rm
 MST .F                82:   Rm Meas. temp.
 RMF .OHMM            .28:   Rmf
 MFST.F                82:   Rmf Meas. temp.
 RMC .OHMM            .78:   Rmc
 MCST.F                82:   Rmc Meas. temp.
 MFSS.               MEAS:   Source Rmf.
 MCSS.               MEAS:   Source Rmc.
 RMB .OHMM            .45:   Rm. at BHT
 BHT .F               111:   BHT.
 TCS .HRS               2:   Time Circ. stopped
 MRT .F               111:   Maximum recorded temp.
 LUN .               8766:   Logging unit number
 LUL .             CASPER:   Logging unit location
 ENGI.          D. LAWSON:   Recorded By
 WITN.      B. HARRINGTON:   Witnessed by
 ORIG.           5" PRINT:   Origin of data
 UWI .     49025103830000:   Unique Well ID
 DICO. A2D TECHNOLOGIES, INC.:   Digitizing Company
~OTHER INFORMATION
~A   DEPT      SPR        ILD        ILM       SGRD        GRD       CALD         RHOB      CORR  
# ...
 3025.0000   -55.7620     4.7370     5.6120     6.7830    74.0930     7.7640     2.5130     0.0300
 3025.5000   -55.7880     4.6770     5.5130     7.0360    74.2100     7.7840     2.5040     0.0300
 3026.0000   -55.8140     4.6170     5.4130     6.5390    73.8170     7.7840     2.4940     0.0250
 3026.5000   -55.8400     4.5580     5.3140     5.6980    73.3690     7.7850     2.4830     0.0160
 3027.0000   -55.8660     4.4980     5.2140     5.8930    73.0360     7.7870     2.4660     0.0080
 3027.5000   -55.8920     4.4380     5.1150     6.0760    73.4150     7.7890     2.4500     0.0000
 3028.0000   -55.9180     4.3790     5.0510     5.4430    73.7770     7.7900     2.4390    -0.0080
 3028.5000   -55.9440     4.3190     5.0180     5.4930    74.1080     7.7920     2.4440    -0.0130
 3029.0000   -55.9700     4.2590     4.9850     5.1520    74.3870     7.7940     2.4560    -0.0070
 3029.5000   -55.9960     4.2200     4.9530     5.4110    73.8520     7.7950     2.4690     0.0040
 3030.0000   -56.0210     4.1850     4.9200     6.0210    73.3330     7.7970     2.4810     0.0140
 3030.5000   -56.0440     4.1500     4.8870     5.9600    72.8090     7.7980     2.4880     0.0210
 3031.0000   -56.0670     4.1150     4.8230     5.8700    72.2950     7.8000     2.4870     0.0220
 3031.5000   -56.0890     4.0810     4.7440     5.7390    71.8030     7.8010     2.4780     0.0180
 3032.0000   -56.1110     4.0460     4.6640     5.5050    70.4200     7.8010     2.4690     0.0130
 3032.5000   -56.1330     4.0110     4.5850     5.2710    68.9070     7.8010     2.4600     0.0080
 3033.0000   -56.1550     3.9800     4.5050     5.1520    65.5270     7.8010     2.4610     0.0030
 3033.5000   -56.1770     3.9580     4.4490     5.1520    59.5180     7.8010     2.4690     0.0020
 3034.0000   -56.1990     3.9360     4.4430     5.2080    49.9720     7.8010     2.4770     0.0060
 3034.5000   -56.2210     3.9140     4.4360     5.2960    36.8550     7.8010     2.4800     0.0120
 3035.0000   -56.2430     3.8920     4.4300     5.5270    20.3450     7.8010     2.4700     0.0120
 3035.5000   -56.2650     3.8700     4.4240     5.6980    11.8530     7.8010     2.4600     0.0090
 3036.0000   -56.2870     3.8480     4.4180     5.2670    11.1960     7.8010     2.4530     0.0070
 3036.5000   -56.3090     3.8260     4.4120     4.9210    10.5920     7.8010     2.4620     0.0060
 3037.0000   -56.3310     3.7960     4.3940     4.9210    10.4190     7.8010     2.4720     0.0050
 3037.5000   -56.3530     3.7170     4.3510     6.0210    10.3020     7.7990     2.4800     0.0050
 3038.0000   -56.3750     3.6370     4.3080     4.9210    10.1790     7.7930     2.4720     0.0060
 3038.5000   -56.3970     3.5570     4.2410     4.9210    10.0580     7.7880     2.4690     0.0080
 3039.0000   -56.4190     3.4670     4.1560     4.9530     9.6550     7.7820     2.4790     0.0130
 3039.5000   -56.3990     3.3780     4.0710     5.0580     9.1980     7.7770     2.4830     0.0200
 3040.0000   -56.3430     3.2890     3.9500     4.6520     8.4790     7.7710     2.4800     0.0270
 3040.5000   -56.2890     3.1990     3.9590     4.3290     6.7370     7.7660     2.4770     0.0290
 3041.0000   -56.2340     3.1700     3.9740     4.5330     6.1160     7.7620     2.4780     0.0300
 3041.5000   -55.9940     3.2070     3.9890     4.7010     6.6220     7.7620     2.4890     0.0320
 3042.0000   -55.7140     3.2540     4.0040     4.7670     7.9010     7.7620     2.4940     0.0340
 3042.5000   -55.4710     3.3000     4.0200     4.8320     9.1720     7.7690     2.4930     0.0360
 3043.0000   -54.8560     3.4590     4.0740     4.8540    10.4510     7.7880     2.4840     0.0290
 3043.5000   -53.0840     3.6900     4.1370     4.8760    11.7390     7.8060     2.4740     0.0230
 3044.0000   -34.3560     3.9140     4.2000     5.3050    12.4800     7.8250     2.4650     0.0170
 3044.5000   -34.8580     6.4190     4.6690     6.6480    10.9160     7.8380     2.4540     0.0140
 3045.0000   -33.8200     5.7750     5.1990     9.2060     9.6290     7.8180     2.4440     0.0130
 3045.5000   -33.8680     4.2890     5.0630    11.6470     9.7840     7.7980     2.4390     0.0120
 3046.0000   -33.8940     4.3250     4.8350   167.8090    10.0250     7.7730     2.4350     0.0110
 3046.5000  -999.2500     4.3690     4.8560   789.9210    10.2660     7.7160     2.4310     0.0080
 3047.0000  -999.2500     3.7730     4.8840  1412.0330    10.5110     7.7870     2.4250     0.0030
 3047.5000  -999.2500     4.0380     4.9120  1990.8560    10.7620     7.9490     2.4270    -0.0010
 3048.0000  -999.2500     4.2870     4.9410  1990.8560    10.8250     7.9990     2.0690     0.0010
 3048.5000  -999.2500     4.5370     4.9670  1990.8560  -999.2500  -999.2500     1.9990     0.0020
 3049.0000  -999.2500     4.6740     4.9670  1884.3400  -999.2500  -999.2500     2.0000     0.0020
 3049.5000  -999.2500     4.7010     4.9670     0.2000  -999.2500  -999.2500     2.0000     0.0020
 3050.0000  -999.2500     4.7010     4.9670  -999.2500  -999.2500  -999.2500     2.0000     0.0020
