~VERSION INFORMATION
 VERS.                2.0:   CWLS LOG ASCII STANDARD - VERSION 2.0
 WRAP.                 NO:   ONE LINE PER DEPTH STEP
~WELL INFORMATION
#MNEM.UNIT      DATA TYPE    INFORMATION
#----------   ------------   ------------------------------
 STRT.F            0.0000:   START DEPTH
 STOP.F         1064.0000:   STOP DEPTH
 STEP.F            0.5000:   STEP LENGTH
 NULL.          -999.2500:   NO VALUE
 COMP.  JOHN BROWN E. & C:   COMPANY
 WELL. JOHN BROWN NPR 3-1 "X" #68-2:   WELL
 FLD .                NPR:   FIELD
 LOC .       S2 T38N R78W:   LOCATION
 CNTY.            NATRONA:   COUNTY
 STAT.            WYOMING:   STATE
 CTRY. UNITED STATES OF AMERICA:   COUNTRY
 SRVC.     ATLAS WIRELINE:   SERVICE COMPANY
 DATE.        25-JAN-1992:   LOGDATE
 API .     49025224850000:   API NUMBER
~CURVE INFORMATION
#MNEM.UNIT       API CODE    CURVE DESCRIPTION
#----------   ------------   ------------------------------
 DEPT.F                  :   
 GRR .GAPI   07 310 01 00:   GAMMA RAY FROM RESISTIVITY
 TENR.LBS    07 635 01 00:   TENSION
 RILD.OHMM   07 120 46 00:   INDUCTION LOG DEEP RESISTIVITY
 RILM.OHMM   07 120 44 00:   INDUCTION LOG MEDIUM RESISTIVITY
~PARAMETER INFORMATION
#MNEM.UNIT          VALUE    DESCRIPTION
#----------   ------------   ------------------------------
 EKB .F         5197.0000:   Kelly bushing
 EGL .F         5187.0000:   Ground level
 TD  .F         1060.0000:   Total depth
 DATE.        25-JAN-1992:   Date logged
 CLNT.            A2DTECH:   Client Code
 PD  .                 GL:   Permanent Datum
 EPD .F               518:   Elevation Permanent Datum
 LMF .                 KB:   Log Measured From
 DMF .                 KB:   Drilling Measured From
 DAPD.F                10:   Feet Above Permanent Datum
 DD  .F              1060:   Depth driller
 DL  .F              1057:   Depth logger
 BLI .F              1055:   Bottom log interval
 CS1 .IN            10.75:   Casing size
 CBD1.       10.75" @ 50':   Casing driller 1
 CBL1.F                50:   Casing logger 1
 BS1 .IN             8.75:   Bit size
 BSD1.F              1060:   Depth drilled with bit1
 DFT .                AIR:   Type fluid in hole
 LUN .            HL-6307:   Logging unit number
 LUL .             CASPER:   Logging unit location
 ENGI.             ZIEGER:   Recorded By
 WITN.             STRONG:   Witnessed by
 ORIG.           5" PRINT:   Origin of data
 UWI .     49025224850000:   Unique Well ID
 DICO. A2D TECHNOLOGIES, INC.:   Digitizing Company
~OTHER INFORMATION
~A    DEPT      GRR      TENR       RILD       RILM   
# ...
  219.0000   116.9530   -44.3830     5.4870     5.5040
  219.5000   116.1950   -44.3830     5.5450     5.5550
  220.0000   114.0760   -44.3830     5.5970     5.6050
  220.5000   112.0250   -44.3830     5.6540     5.6560
  221.0000   111.9040   -44.3830     5.7430     5.7070
  221.5000   113.0680   -44.3830     5.8320     5.7570
  222.0000   114.5520   -44.3830     5.8540     5.8000
  222.5000   115.4240   -44.3830     5.8540     5.8000
  223.0000   116.3090   -44.3830     5.8540     5.8000
  223.5000   118.1420   -44.3830     5.8540     5.8000
  224.0000   120.3880   -44.3830     5.8540     5.8000
  224.5000   121.2810   -44.3830     5.7990     5.7380
  225.0000   120.6300   -44.3830     5.7080     5.6590
  225.5000   117.5680   -44.3830     5.6160     5.5810
  226.0000   114.0660   -44.3830     5.5240     5.5020
  226.5000   111.1220   -44.3830     5.4320     5.4230
  227.0000   109.1540   -44.3830     5.3410     5.3450
  227.5000   108.3980   -44.3830     5.2860     5.2660
  228.0000   108.7780   -44.3830     5.2740     5.1440
  228.5000   111.0020   -44.3830     5.2630     5.1500
  229.0000   113.2290   -44.3830     5.2520     5.1640
  229.5000   113.4300   -44.3830     5.2410     5.1780
  230.0000   110.2040   -44.3830     5.2920     5.1910
  230.5000   106.3060   -44.3830     5.3530     5.2770
  231.0000   103.0680   -44.3830     5.4140     5.3590
  231.5000   101.8220   -44.3830     5.4760     5.4400
  232.0000   101.0430   -44.3830     5.5370     5.5210
  232.5000   102.6870   -44.3830     5.5980     5.6020
  233.0000   104.5560   -44.3830     5.6610     5.6840
  233.5000   106.2690   -44.3830     5.7280     5.7650
  234.0000   107.9180   -44.3830     5.7940     5.8540
  234.5000   111.6680   -44.3830     5.8540     5.8210
  235.0000   115.4330   -44.3830     5.8660     5.7860
  235.5000   117.9880   -44.3830     5.8790     5.7500
  236.0000   117.6370   -44.3830     5.8920     5.7150
  236.5000   118.9200   -44.3830     5.9080     5.6790
  237.0000   120.4140   -44.3830     5.8760     5.6430
  237.5000   119.9400   -44.3830     5.8340     5.6080
  238.0000   118.3370   -44.3830     5.7910     5.5720
  238.5000   115.5360   -44.3830     5.7470     5.5370
  239.0000   112.7610   -44.3830     5.7300     5.5010
  239.5000   112.7480   -44.3830     5.6840     5.4650
  240.0000   112.7170   -44.3830     5.6390     5.4300
  240.5000   113.3170   -44.3830     5.5930     5.3870
  241.0000   117.5300   -44.3830     5.5380     5.4110
  241.5000   122.3190   -44.3830     5.5520     5.4420
  242.0000   122.8490   -44.3830     5.5710     5.4730
  242.5000   122.0370   -44.3830     5.5890     5.5040
  243.0000   121.0200   -44.3830     5.6070     5.5350
  243.5000   118.6730   -44.3830     5.6250     5.5660
  244.0000   114.4310   -44.3830     5.6440     5.5890
  244.5000   111.0870   -44.3830     5.6620     5.6010
  245.0000   111.3920   -44.3830     5.6800     5.6110
  245.5000   111.8330   -44.3830     5.7140     5.6220
  246.0000   113.4200   -44.3830     5.7970     5.6330
  246.5000   116.3720   -44.3830     5.8800     5.6940
  247.0000   116.5440   -44.3830     6.0290     5.7470
  247.5000   115.6320   -44.3830     6.2130     6.0270
  248.0000   114.9020   -44.3830     6.3970     6.2920
  248.5000   117.3900   -44.3830     6.5810     6.5560
  249.0000   119.1140   -44.3830     6.7650     6.8200
  249.5000   116.4980   -44.3830     7.0420     6.8810
  250.0000   111.7670   -44.3830     7.0090     6.9270
  250.5000   106.9140   -44.3830     6.9130     6.9770
  251.0000   106.6790   -44.3830     6.8030     6.8260
  251.5000   110.4790   -44.3830     6.6820     6.6590
  252.0000   116.3430   -44.3830     6.5600     6.4920
  252.5000   122.4210   -44.3830     6.4390     6.3250
  253.0000   122.1410   -44.3830     6.3170     6.2220
  253.5000   118.3200   -44.3830     6.1870     6.1800
  254.0000   116.0010   -44.3830     6.1870     6.1370
  254.5000   116.4440   -44.3830     6.2230     6.0940
  255.0000   120.2900   -44.3830     6.2720     6.0740
  255.5000   121.6780   -44.3830     6.3200     6.1000
  256.0000   122.2820   -44.3830     6.3690     6.1560
  256.5000   124.3100   -44.3830     6.4200     6.3030
  257.0000   126.7330   -44.3830     6.5800     6.4250
  257.5000   129.1830   -44.3830     6.7480     6.6050
  258.0000   131.0060   -44.3830     6.9150     6.7850
  258.5000   132.0860   -44.3830     7.0830     6.9650
  259.0000   129.9290   -44.3830     7.2510     7.1450
  259.5000   127.5870   -44.3830     7.4180     7.3250
  260.0000   125.9870   -44.3830     7.5860     7.5040
  260.5000   125.7070   -44.3830     7.7230     7.7230
  261.0000   125.4150   -44.3830     7.7580     7.6770
  261.5000   124.0780   -44.3830     7.7950     7.6180
  262.0000   122.0610   -44.3830     7.7950     7.5080
  262.5000   120.0520   -44.3830     7.6020     7.3220
  263.0000   118.6310   -44.3830     7.4090     7.1270
  263.5000   117.5210   -44.3830     7.2150     6.9020
  264.0000   117.4580   -44.3830     7.0220     6.6770
  264.5000   120.1080   -44.3830     6.8290     6.4530
  265.0000   123.4410   -44.3830     6.6350     6.1870
  265.5000   126.0930   -44.3830     6.5770     6.2380
  266.0000   126.8640   -44.3830     6.5400     6.2990
  266.5000   126.0910   -44.3830     6.5400     6.3610
  267.0000   123.3200   -44.3830     6.5400     6.4200
  267.5000   119.5730   -44.3830     6.5400     6.3830
  268.0000   116.1330   -44.3830     6.5400     6.3240
  268.5000   118.0980   -44.3830     6.5400     6.2650
  269.0000   123.3240   -44.3830     6.5420     6.2450
  269.5000   127.2640   -44.3830     6.4770     6.1070
  270.0000   131.0400   -44.3830     6.3390     6.0140
  270.5000   134.6090   -44.3830     6.2010     5.9200
  271.0000   135.5850   -44.3830     6.0640     5.8260
  271.5000   133.8270   -44.3830     5.9260     5.7320
  272.0000   131.1460   -44.3830     5.9080     5.6380
  272.5000   127.9330   -44.3830     5.9080     5.5380
  273.0000   127.4460   -44.3830     5.9080     5.5380
  273.5000   126.8110   -44.3830     5.9080     5.6310
  274.0000   123.9060   -44.3830     5.9080     5.7370
  274.5000   122.1490   -44.3830     5.9080     5.8540
  275.0000   124.8290   -44.3830     5.9030     5.7780
  275.5000   127.9850   -44.3830     5.8840     5.7340
  276.0000   127.8230   -44.3830     5.8660     5.6900
  276.5000   127.3420   -44.3830     5.8410     5.6470
  277.0000   129.6400   -44.3830     5.7990     5.6030
  277.5000   132.4070   -44.3830     5.7580     5.5590
  278.0000   132.3510   -44.3830     5.7160     5.5380
  278.5000   132.7030   -44.3830     5.6750     5.5650
  279.0000   134.5820   -44.3830     5.6340     5.6020
  279.5000   135.4710   -44.3830     5.5890     5.6410
  280.0000   135.4600   -44.3830     5.6630     5.6940
  280.5000   134.1930   -44.3830     5.7470     5.6620
  281.0000   132.9770   -44.3830     5.6810     5.6250
  281.5000   131.7560   -44.3830     5.5890     5.5120
  282.0000   130.3390   -44.3830     5.4720     5.3990
  282.5000   126.7840   -44.3830     5.3480     5.2860
  283.0000   124.1930   -44.3830     5.2250     5.1730
  283.5000   123.6960   -44.3830     5.1010     5.0600
  284.0000   124.8560   -44.3830     4.9770     4.9470
  284.5000   129.8110   -44.3830     4.8540     4.8340
  285.0000   134.4210   -44.3830     4.7310     4.7210
  285.5000   133.7930   -44.3830     4.7160     4.5610
  286.0000   131.5580   -44.3830     4.7010     4.6040
  286.5000   129.3280   -44.3830     4.6900     4.6470
  287.0000   126.0520   -44.3830     4.7340     4.6830
  287.5000   122.6570   -44.3830     4.7890     4.7290
  288.0000   123.0270   -44.3830     4.8440     4.7750
  288.5000   128.4030   -44.3830     4.8800     4.8200
  289.0000   132.9580   -44.3830     4.9030     4.8660
  289.5000   135.8870   -44.3830     4.9260     4.9120
  290.0000   135.7690   -44.3830     4.9480     4.9570
  290.5000   133.8550   -44.3830     4.9710     4.9570
  291.0000   131.0530   -44.3830     4.9940     5.0140
  291.5000   129.8630   -44.3830     5.0170     5.0270
