~VERSION INFORMATION
 VERS.                2.0:   CWLS LOG ASCII STANDARD - VERSION 2.0
 WRAP.                 NO:   ONE LINE PER DEPTH STEP
~WELL INFORMATION
#MNEM.UNIT      DATA TYPE    INFORMATION
#----------   ------------   ------------------------------
 STRT.F           10.0000:   START DEPTH
 STOP.F         4008.0000:   STOP DEPTH
 STEP.F            0.5000:   STEP LENGTH
 NULL.          -999.2500:   NO VALUE
 COMP. LAWRENCE ALLISON & ASSOC.:   COMPANY
 WELL. LAWRENCE NPR 3 "AX" #75-28:   WELL
 FLD .                NPR:   FIELD
 LOC .      S28 T39N R78W:   LOCATION
 CNTY.            NATRONA:   COUNTY
 STAT.            WYOMING:   STATE
 CTRY. UNITED STATES OF AMERICA:   COUNTRY
 SRVC.      DRESSER ATLAS:   SERVICE COMPANY
 DATE.        28-APR-1983:   LOGDATE
 API .     49025109060000:   API NUMBER
~CURVE INFORMATION
#MNEM.UNIT       API CODE    CURVE DESCRIPTION
#----------   ------------   ------------------------------
 DEPT.F                  :   
 RHOB.G/C3   45 350 01 00:   BULK DENSITY
 CORR.G/C3   45 356 01 00:   DENSITY CORRECTION
 TEND.LBS    45 635 01 00:   TENSION FROM DENSITY LOG
 NPHI.DEC    42 890 03 00:   NEUTRON POROSITY SANDSTONE
 GRR .GAPI   07 310 01 00:   GAMMA RAY FROM RESISTIVITY
 CALR.IN     07 280 01 00:   CALIPER FROM RESISTIVITY
 RFOC.OHMM   07 220 01 00:   RESISTIVITY FOCUSED LOG RES.
 RILD.OHMM   07 120 46 00:   DEEP INDUCTION RESISTIVITY
 TENR.LBS    01 635 01 00:   TENSION FROM RES.
 RILM.OHMM   07 120 44 00:   INDUCTION LOG MEDIUM RESISTIVITY
 TENS.LBS    60 635 01 00:   TENSION FROM SONIC LOG
 DT  .US/F   60 520 00 00:   DELTA TIME
 SPR .MV     07 010 01 00:   SPONTANEOUS POTENTIAL
~PARAMETER INFORMATION
#MNEM.UNIT          VALUE    DESCRIPTION
#----------   ------------   ------------------------------
 EKB .F         5068.0000:   Kelly bushing
 EGL .F         5058.0000:   Ground level
 EDF .F            0.0000:   Drilling floor
 TD  .F         4003.0000:   Total depth
 DATE.        28-APR-1983:   Date logged
 CLNT.            A2DTECH:   Client Code
 SL  . 2100' FSL & 1050' FEL:   Surface Location
 PD  .                 GL:   Permanent Datum
 EPD .F              5058:   Elevation Permanent Datum
 LMF .                 KB:   Log Measured From
 DMF .                 KB:   Drilling Measured From
 DAPD.F                10:   Feet Above Permanent Datum
 DD  .F              4000:   Depth driller
 DL  .F              4003:   Depth logger
 BLI .F              4000:   Bottom log interval
 CS1 .IN            8.625:   Casing size
 CBD1.      8.625" @ 498':   Casing driller 1
 CBL1.F               497:   Casing logger 1
 BS1 .IN            7.875:   Bit size
 BSD1.F              4000:   Depth drilled with bit1
 DFT .            KCL/GEL:   Type fluid in hole
 DFD .                  9:   Density
 DFV .                 43:   Viscosity
 DFPH.                8.5:   pH
 DFL .               12.4:   Fluid loss
 MSS .           MUD/TANK:   Source of sample
 RMS .OHMM            .45:   Rm
 MST .F                43:   Rm Meas. temp.
 RMF .OHMM            .27:   Rmf
 MFST.F                51:   Rmf Meas. temp.
 RMC .OHMM            .56:   Rmc
 MCST.F                43:   Rmc Meas. temp.
 MFSS.               MEAS:   Source Rmf.
 MCSS.               CALC:   Source Rmc.
 RMB .OHMM            .16:   Rm. at BHT
 BHT .F               121:   BHT.
 TCS .HRS               7:   Time Circ. stopped
 MRT .F               121:   Maximum recorded temp.
 LUN .               6274:   Logging unit number
 LUL .               GLTE:   Logging unit location
 ENGI.            WACDELL:   Recorded By
 WITN.             STRONG:   Witnessed by
 ORIG.           5" PRINT:   Origin of data
 UWI .     49025109060000:   Unique Well ID
 DICO. A2D TECHNOLOGIES, INC.:   Digitizing Company
~OTHER INFORMATION
~A   DEPT     RHOB       CORR       TEND       NPHI         GRR      CALR       RFOC       RILD       TENR       RILM       TENS         DT        SPR   
# ...
 1674.0000  -999.2500  -999.2500  -999.2500  -999.2500    96.7270     9.6800     6.0250     5.0760   -60.7010     4.5970  -999.2500  -999.2500   -33.4780
 1674.5000  -999.2500  -999.2500  -999.2500  -999.2500    97.4770     9.6690     6.0250     4.7800   -60.4300     4.0150  -999.2500  -999.2500   -33.2950
 1675.0000  -999.2500  -999.2500  -999.2500  -999.2500    98.4680     9.6580     4.5980     4.4850   -60.1590     4.0150  -999.2500  -999.2500   -33.0510
 1675.5000  -999.2500  -999.2500  -999.2500  -999.2500    99.0770     9.6470     3.5280     4.5690   -59.8880     4.2570  -999.2500  -999.2500   -32.8090
 1676.0000  -999.2500  -999.2500  -999.2500  -999.2500    98.9220     9.6370     3.5280     4.6530   -59.6190     4.4310  -999.2500  -999.2500   -32.6910
 1676.5000  -999.2500  -999.2500  -999.2500  -999.2500    97.9460     9.6260     3.5940     4.9690   -59.6190     4.5680  -999.2500  -999.2500   -32.7990
 1677.0000  -999.2500  -999.2500  -999.2500  -999.2500    96.2730     9.6150     5.0100     5.2820   -59.6190     4.9400  -999.2500  -999.2500   -33.1430
 1677.5000  -999.2500  -999.2500  -999.2500  -999.2500    94.2650     9.6040     5.0100     5.5950   -59.6190     5.2480  -999.2500  -999.2500   -33.6190
 1678.0000  -999.2500  -999.2500  -999.2500  -999.2500    92.8520     9.5930     5.0100     6.0250   -59.6190     5.5550  -999.2500  -999.2500   -34.0530
 1678.5000  -999.2500  -999.2500  -999.2500  -999.2500    93.4420     9.5830     6.1380     6.0250   -59.6190     5.9150  -999.2500  -999.2500   -34.2940
 1679.0000  -999.2500  -999.2500  -999.2500  -999.2500    96.8000     9.5720     6.1380     6.1820   -59.6190     5.9940  -999.2500  -999.2500   -34.2830
 1679.5000  -999.2500  -999.2500  -999.2500  -999.2500   101.6680     9.5620     6.1380     6.2790   -59.6190     6.0890  -999.2500  -999.2500   -34.0770
 1680.0000  -999.2500  -999.2500  -999.2500  -999.2500   104.9490     9.5510     6.1380     6.3760   -59.6190     6.1830  -999.2500  -999.2500   -33.7960
 1680.5000  -999.2500  -999.2500  -999.2500  -999.2500   103.9600     9.5390     6.1380     6.4870   -59.6190     6.2780  -999.2500  -999.2500   -33.5300
 1681.0000  -999.2500  -999.2500  -999.2500  -999.2500    98.9150     9.5270     5.8460     6.2390   -59.6190     6.3680  -999.2500  -999.2500   -33.2870
 1681.5000  -999.2500  -999.2500  -999.2500  -999.2500    93.0080     9.5180     5.6110     5.9450   -59.6190     6.0660  -999.2500  -999.2500   -33.0250
 1682.0000  -999.2500  -999.2500  -999.2500  -999.2500    89.7710     9.5120     5.2950     5.6510   -59.6190     5.7770  -999.2500  -999.2500   -32.7390
 1682.5000  -999.2500  -999.2500  -999.2500  -999.2500    90.2770     9.5090     4.4850     5.1980   -59.6190     5.4890  -999.2500  -999.2500   -32.5070
 1683.0000  -999.2500  -999.2500  -999.2500  -999.2500    92.8750     9.5070     4.4850     5.1980   -59.6190     5.1030  -999.2500  -999.2500   -32.4390
 1683.5000  -999.2500  -999.2500  -999.2500  -999.2500    95.3650     9.5050     4.4850     5.3120   -59.6190     5.1030  -999.2500  -999.2500   -32.5870
 1684.0000  -999.2500  -999.2500  -999.2500  -999.2500    96.9840     9.5020     4.9900     5.4820   -59.6190     5.2480  -999.2500  -999.2500   -32.9050
 1684.5000  -999.2500  -999.2500  -999.2500  -999.2500    98.1930     9.5000     5.5970     5.6520   -59.6190     5.4160  -999.2500  -999.2500   -33.3000
 1685.0000  -999.2500  -999.2500  -999.2500  -999.2500    99.0850     9.4970     5.5970     5.8220   -59.6190     5.5830  -999.2500  -999.2500   -33.7020
 1685.5000  -999.2500  -999.2500  -999.2500  -999.2500    98.7250     9.4950     5.9010     5.9930   -59.6190     5.7500  -999.2500  -999.2500   -34.0780
 1686.0000  -999.2500  -999.2500  -999.2500  -999.2500    96.3940     9.4920     6.1060     6.1630   -59.6190     5.9170  -999.2500  -999.2500   -34.4040
 1686.5000  -999.2500  -999.2500  -999.2500  -999.2500    93.0810     9.4890     6.2520     6.3330   -59.6190     6.0840  -999.2500  -999.2500   -34.6410
 1687.0000  -999.2500  -999.2500  -999.2500  -999.2500    91.2450     9.4870     6.2250     6.4870   -59.6190     6.2510  -999.2500  -999.2500   -34.7610
 1687.5000  -999.2500  -999.2500  -999.2500  -999.2500    92.7860     9.4860     6.2050     6.4550   -59.6190     6.3680  -999.2500  -999.2500   -34.7790
 1688.0000  -999.2500  -999.2500  -999.2500  -999.2500    97.1700     9.4830     6.1840     6.4260   -59.6190     6.3320  -999.2500  -999.2500   -34.7490
 1688.5000  -999.2500  -999.2500  -999.2500  -999.2500   101.6200     9.4790     6.1640     6.3970   -59.6190     6.3030  -999.2500  -999.2500   -34.7170
 1689.0000  -999.2500  -999.2500  -999.2500  -999.2500   103.2390     9.4740     6.1430     6.3680   -59.6190     6.2750  -999.2500  -999.2500   -34.6920
 1689.5000  -999.2500  -999.2500  -999.2500  -999.2500   101.3140     9.4740     6.1220     6.3390   -59.6190     6.2460  -999.2500  -999.2500   -34.6620
 1690.0000  -999.2500  -999.2500  -999.2500  -999.2500    97.9050     9.4820     6.1020     6.3110   -59.6190     6.2180  -999.2500  -999.2500   -34.6200
 1690.5000  -999.2500  -999.2500  -999.2500  -999.2500    96.2440     9.4990     6.0810     6.2820   -59.6190     6.1890  -999.2500  -999.2500   -34.5750
 1691.0000  -999.2500  -999.2500  -999.2500  -999.2500    98.2180     9.5230     6.0600     6.2530   -59.6190     6.1610  -999.2500  -999.2500   -34.5340
 1691.5000  -999.2500  -999.2500  -999.2500  -999.2500   102.9290     9.5490     6.0400     6.2240   -59.6190     6.1320  -999.2500  -999.2500   -34.4920
 1692.0000  -999.2500  -999.2500  -999.2500  -999.2500   107.4430     9.5720     6.0190     6.1950   -59.6190     6.1040  -999.2500  -999.2500   -34.4420
 1692.5000  -999.2500  -999.2500  -999.2500  -999.2500   109.0590     9.5870     5.9990     6.1660   -59.6190     6.0760  -999.2500  -999.2500   -34.3880
 1693.0000  -999.2500  -999.2500  -999.2500  -999.2500   107.1530     9.5950     5.9780     6.1370   -59.6190     6.0470  -999.2500  -999.2500   -34.3530
 1693.5000  -999.2500  -999.2500  -999.2500  -999.2500   103.2490     9.5960     5.9570     6.1080   -59.6190     6.0190  -999.2500  -999.2500   -34.3580
 1694.0000  -999.2500  -999.2500  -999.2500  -999.2500    99.6690     9.5950     5.9370     6.0790   -59.6190     5.9900  -999.2500  -999.2500   -34.4050
 1694.5000  -999.2500  -999.2500  -999.2500  -999.2500    98.0870     9.5940     5.9150     6.0500   -59.6190     5.9620  -999.2500  -999.2500   -34.4770
 1695.0000  -999.2500  -999.2500  -999.2500  -999.2500    98.9170     9.5940     5.9990     6.0250   -59.6190     5.9150  -999.2500  -999.2500   -34.5560
 1695.5000  -999.2500  -999.2500  -999.2500  -999.2500   101.4280     9.5950     6.0860     6.2540   -59.6190     5.9150  -999.2500  -999.2500   -34.6260
 1696.0000  -999.2500  -999.2500  -999.2500  -999.2500   104.1620     9.5950     6.1740     6.4520   -59.6190     6.1790  -999.2500  -999.2500   -34.6820
 1696.5000  -999.2500  -999.2500  -999.2500  -999.2500   105.5990     9.5950     6.2610     6.6490   -59.6190     6.3730  -999.2500  -999.2500   -34.7210
 1697.0000  -999.2500  -999.2500  -999.2500  -999.2500   104.9910     9.5940     6.3680     6.8460   -59.6190     6.5670  -999.2500  -999.2500   -34.7410
 1697.5000  -999.2500  -999.2500  -999.2500  -999.2500   102.8840     9.5940     6.5400     7.0440   -59.6190     6.7600  -999.2500  -999.2500   -34.7470
 1698.0000  -999.2500  -999.2500  -999.2500  -999.2500   100.7320     9.5940     6.7610     7.2410   -59.6190     6.9540  -999.2500  -999.2500   -34.7450
 1698.5000  -999.2500  -999.2500  -999.2500  -999.2500    99.9410     9.5940     6.9840     7.5190   -59.6190     7.1480  -999.2500  -999.2500   -34.7400
 1699.0000  -999.2500  -999.2500  -999.2500  -999.2500   101.1160     9.5940     6.8950     7.5190   -59.6190     7.3820  -999.2500  -999.2500   -34.7370
 1699.5000  -999.2500  -999.2500  -999.2500  -999.2500   103.9790     9.5940     6.8040     7.3430   -59.6190     7.2950  -999.2500  -999.2500   -34.7390
