~VERSION INFORMATION
 VERS.                2.0:   CWLS LOG ASCII STANDARD - VERSION 2.0
 WRAP.                 NO:   ONE LINE PER DEPTH STEP
~WELL INFORMATION
#MNEM.UNIT      DATA TYPE    INFORMATION
#----------   ------------   ------------------------------
 STRT.F          200.0000:   START DEPTH
 STOP.F         3196.5000:   STOP DEPTH
 STEP.F            0.5000:   STEP LENGTH
 NULL.          -999.2500:   NO VALUE
 COMP.    FENIX & SCISSON:   COMPANY
 WELL. FENIX & SCISSON #82-15:   WELL
 FLD .                NPR:   FIELD
 LOC .      S15 T38N R78W:   LOCATION
 CNTY.            NATRONA:   COUNTY
 STAT.            WYOMING:   STATE
 CTRY. UNITED STATES OF AMERICA:   COUNTRY
 SRVC.              WELEX:   SERVICE COMPANY
 DATE.        14-AUG-1977:   LOGDATE
 API .     49025104100000:   API NUMBER
~CURVE INFORMATION
#MNEM.UNIT       API CODE    CURVE DESCRIPTION
#----------   ------------   ------------------------------
 DEPT.F                  :   
 CALD.IN     45 280 60 00:   CALIPER FROM DENSITY LOG
 GRD .GAPI   45 310 01 00:   GAMMA RAY FROM DENSITY LOG
 RHOB.G/C3   45 350 01 00:   BULK DENSITY
 CORR.G/C3   45 356 01 00:   DENSITY CORRECTION
 SPR .MV     07 010 01 00:   SPONTANEOUS POTENTIAL
 ILD .OHMM   07 120 46 00:   DEEP INDUCTION RESISTIVITY
 ILM .OHMM   07 120 44 00:   INDUCTION LOG MEDIUM RESISTIVITY
 GURD.OHMM   07 220 05 00:   GUARD LOG RESISTIVITY
~PARAMETER INFORMATION
#MNEM.UNIT          VALUE    DESCRIPTION
#----------   ------------   ------------------------------
 EKB .F         5259.0000:   Kelly bushing
 EGL .F         5249.0000:   Ground level
 EDF .F            0.0000:   Drilling floor
 EPD .F            0.0000:   Permanent datum
 TD  .F         3197.0000:   Total depth
 CLNT.            A2DTECH:   Client Code
 SL  . 990' FNL & 330' FEL:   Surface Location
 PD  .                 GL:   Permanent Datum
 DAPD.F                10:   Feet Above Permanent Datum
 DATE.        14-AUG-1977:   Date Logged [DD-MMM-YYYY]
 DD  .F              3197:   Depth driller
 DL  .F              3200:   Depth logger
 BLI .F              3198:   Bottom log interval
 TLI .F               200:   Top log interval
 CS1 .IN            8.625:   Casing size
 CBD1.      8.625" @ 236':   Casing driller 1
 CBL1.F               220:   Casing logger 1
 BS1 .IN            7.875:   Bit size
 BSD1.F              3197:   Depth drilled with bit1
 DFT .            KCL MUD:   Type fluid in hole
 DFD .                9.1:   Density
 DFV .                 42:   Viscosity
 DFPH.               10.5:   pH
 DFL .                7.2:   Fluid loss
 MSS .           FLOWLINE:   Source of sample
 RMS .OHMM          0.240:   Rm
 MST .F                92:   Rm Meas. temp.
 RMF .OHMM          0.160:   Rmf
 MFST.F                92:   Rmf Meas. temp.
 MFSS.               MEAS:   Source Rmf.
 RMC .OHMM          0.238:   Rmc
 MCST.F                92:   Rmc Meas. temp.
 MCSS.               MEAS:   Source Rmc.
 RMB .OHMM          0.194:   Rm. at BHT
 BHT .F               114:   BHT.
 TCS .HRS               3:   Time Circ. stopped
 MRT .F               114:   Maximum recorded temp.
 LUN .               9685:   Logging unit number
 LUL .             CASPER:   Logging unit location
 ENGI.            C. DOAK:   Recorded By
 WITN.      W. PETTINGILL:   Witnessed by
 ORIG.           5" PRINT:   Origin of data
 UWI .     49025104100000:   Unique Well ID
 DICO. A2D TECHNOLOGIES, INC.:   Digitizing Company
~OTHER INFORMATION
~A   DEPT       CALD       GRD        RHOB      CORR       SPR        ILD        ILM       GURD   
# ...
  605.0000    13.9680    95.1869     2.4191     0.0178   -53.9457     7.0087     6.7059     7.3638
  605.5000    13.8811    95.9528     2.4214     0.0180   -54.2317     6.9178     6.7113     7.2665
  606.0000    13.8220    96.8653     2.4169     0.0166   -54.6574     6.8755     6.7180     7.2732
  606.5000    13.7629    97.3281     2.4095     0.0167   -54.7950     6.7877     6.7233     7.1785
  607.0000    13.7038    97.6409     2.4050     0.0184   -55.2276     6.7449     6.6348     7.0850
  607.5000    13.6147    97.6539     2.4040     0.0170   -55.8097     6.6587     6.5501     6.9940
  608.0000    13.5254    98.4368     2.4028     0.0171   -56.3878     6.6641     6.4639     6.9029
  608.5000    13.4318   102.1799     2.4014     0.0158   -57.1193     6.6162     6.3813     6.9080
  609.0000    13.3625   103.5422     2.3992     0.0144   -58.1774     6.5829     6.2081     6.9130
  609.5000    13.3333   104.1549     2.3977     0.0145   -59.1764     6.4988     5.9652     6.8230
  610.0000    13.3344   104.3178     2.3963     0.0130   -59.6090     6.4145     5.6482     6.7354
  610.5000    13.3203   104.4813     2.3925     0.0088   -59.5931     6.2441     5.3852     6.6938
  611.0000    13.3212   105.0967     2.3881     0.0075   -59.5773     5.9532     5.2051     6.5611
  611.5000    13.3370   105.5595     2.3829     0.0046   -59.2625     5.5176     4.9637     6.4310
  612.0000    13.3531   105.5725     2.3762     0.0032   -59.0972     5.1562     4.6671     6.2168
  612.5000    13.3690   104.8359     2.3687     0.0034   -58.9312     4.9501     4.3995     5.8797
  613.0000    13.3698   104.0993     2.3613     0.0020   -58.7626     4.6869     3.9326     5.4599
  613.5000    13.4157   103.3553     2.3583     0.0037   -58.4478     4.3766     3.4267     4.7907
  614.0000    13.4765   101.7297     2.3643     0.0038   -58.2825     3.8132     3.0698     4.0048
  614.5000    13.5074   100.0127     2.3913     0.0060   -57.9677     3.6104     3.3617     3.3478
  615.0000    13.4782    99.0560     2.4116     0.0085   -57.8024     3.7757     3.7586     3.8476
  615.5000    13.4344    97.4198     2.4259     0.0114   -57.6238     4.3916     4.1496     5.2133
  616.0000    13.4052    96.9831     2.4319     0.0163   -57.3184     5.0485     4.3850     6.5208
  616.5000    13.3609    97.3393     2.4334     0.0194   -57.0036     5.6450     4.4497     6.9449
  617.0000    13.3020    98.0618     2.4342     0.0211   -56.6888     5.7683     4.6748     7.0957
  617.5000    13.3179    97.3252     2.4350     0.0212   -56.3740     5.7729     4.9450     7.1999
  618.0000    13.3637    96.8852     2.4374     0.0213   -56.2087     5.8177     5.3407     7.4074
  618.5000    13.3796    96.9014     2.4418     0.0230   -56.0424     5.9900     5.6494     7.4643
  619.0000    13.3807    97.5142     2.4410     0.0231   -55.7280     6.2899     5.7328     7.4711
  619.5000    13.3665    97.9802     2.4382     0.0234   -55.4098     6.6078     5.7374     7.4236
  620.0000    13.3674    98.2930     2.4352     0.0249   -55.3940     6.7990     5.9144     7.4304
  620.5000    13.3683    98.6059     2.4330     0.0235   -55.2287     6.8995     6.2458     7.5395
  621.0000    13.3692    98.7688     2.4346     0.0236   -55.3663     6.9050     6.2508     7.5974
  621.5000    13.3700    98.6319     2.4398     0.0238   -55.3465     6.9105     6.2558     7.6570
  622.0000    13.3709    98.1951     2.4414     0.0239   -55.1809     7.0187     6.3481     7.8778
  622.5000    13.3720    97.5962     2.4406     0.0240   -55.0119     7.2170     6.4418     7.9383
  623.0000    13.3878    97.1717     2.4384     0.0242   -54.9961     7.2730     6.6330     8.0548
  623.5000    13.4337    97.3378     2.4362     0.0243   -54.8308     7.3294     6.9162     8.1167
  624.0000    13.4495    97.5759     2.4348     0.0248   -54.6655     7.3353     6.9217     8.1227
  624.5000    13.4504    97.8136     2.4340     0.0276   -54.3507     7.3412     7.0239     8.2419
  625.0000    13.4513    98.1265     2.4356     0.0298   -54.1854     7.3471     7.0295     8.3631
  625.5000    13.4522    98.5893     2.4386     0.0338   -54.0194     7.3532     7.0840     8.6276
  626.0000    13.4832    98.9225     2.4431     0.0369   -53.8508     7.3604     7.1389     8.6329
  626.5000    13.5291    99.3681     2.4439     0.0371   -53.6855     7.3663     7.1448     8.5796
  627.0000    13.5899    99.6810     2.4350     0.0372   -53.6696     7.3722     7.2015     8.5847
  627.5000    13.6357    99.6940     2.4335     0.0374   -53.6538     7.3781     7.2574     8.5899
  628.0000    13.6816    99.7070     2.4351     0.0360   -53.3390     7.3840     7.2632     8.5950
  628.5000    13.7124    99.7200     2.4269     0.0346   -53.3229     7.3900     7.3704     8.6002
  629.0000    13.7435    99.4283     2.4246     0.0333   -53.3034     7.3962     7.4275     8.6055
  629.5000    13.7594    98.9997     2.4299     0.0364   -53.2875     7.4023     7.3822     8.6118
  630.0000    13.7752    99.1626     2.4367     0.0395   -53.2717     7.4093     7.3371     8.6170
  630.5000    13.7761    99.6254     2.4453     0.0427   -53.2559     7.4146     7.3955     8.5614
  631.0000    13.7920    99.9382     2.4563     0.0428   -53.2400     7.4724     7.4009     8.5074
  631.5000    13.8078   100.1022     2.4615     0.0414   -53.3737     7.4788     7.4068     8.5138
  632.0000    13.8237   100.1152     2.4548     0.0386   -53.5073     7.4848     7.4128     8.5189
  632.5000    13.8547   100.2782     2.4496     0.0357   -53.1886     7.4911     7.3166     8.5253
  633.0000    13.8856   100.8909     2.4444     0.0314   -53.4717     7.4973     7.2720     8.5304
  633.5000    13.9015   101.5188     2.4392     0.0285   -53.7588     7.5043     7.2276     8.4181
  634.0000    13.9473   102.4194     2.4355     0.0241   -53.7390     7.5098     7.3357     8.3073
  634.5000    13.9782   103.1820     2.4326     0.0212   -53.7231     7.5164     7.3416     8.2549
  635.0000    13.9790   103.7947     2.4318     0.0184   -53.8568     7.5224     7.3476     8.2028
  635.5000    13.9649   104.2575     2.4326     0.0170   -53.9865     7.5285     7.3548     8.0949
  636.0000    13.9360   104.5704     2.4342     0.0172   -53.9706     7.5360     7.2595     8.0438
  636.5000    13.8919   104.7333     2.4372     0.0203   -54.2537     7.5420     7.2653     8.0499
  637.0000    13.8178   104.5964     2.4432     0.0235   -54.3874     7.5481     7.1696     7.9979
  637.5000    13.7437   104.1629     2.4463     0.0281   -54.5217     7.5005     7.1273     7.9487
  638.0000    13.6846   103.4262     2.4478     0.0297   -54.6547     7.5080     7.0837     7.8984
  638.5000    13.6255   101.4902     2.4478     0.0298   -54.7883     7.5140     7.0894     7.9034
  639.0000    13.5348  -999.2500     2.4456     0.0300   -54.7685     7.5202     6.9975     7.9092
  639.5000    13.4625  -999.2500     2.4434     0.0301   -54.7527     7.5276     6.9562     7.9140
  640.0000    13.4034  -999.2500     2.4450     0.0303   -54.8863     7.5336     6.9123     7.9187
  640.5000    13.3591  -999.2500     2.4495     0.0334   -55.0199     7.5397     6.8227     7.9235
  641.0000    13.3450  -999.2500     2.4555     0.0350   -55.3031     7.5457     6.8295     7.9282
  641.5000    13.3611  -999.2500     2.4600     0.0366   -55.7444     7.5518     6.8351     7.9330
  642.0000    13.4069  -999.2500     2.4698     0.0398   -56.0188     7.5578     6.8418     7.9379
  642.5000    13.4098   100.7096     2.4796     0.0399   -56.1524     7.5641     6.8473     7.9437
  643.0000    13.4238   102.5122     2.4849     0.0371   -56.2861     7.5192     6.7586     7.8924
  643.5000    13.4247   103.4248     2.4677     0.0297   -56.2663     7.3704     6.5338     7.7897
  644.0000    13.4406   104.0375     2.4497     0.0223   -56.2504     7.1746     6.4491     7.6872
  644.5000    13.4414   104.0505     2.4453     0.0165   -56.3841     7.0327     6.3215     7.4816
  645.0000    13.4573   104.0635     2.4423     0.0121   -56.3677     6.8935     6.2396     7.3272
