~VERSION INFORMATION
 VERS.                2.0:   CWLS LOG ASCII STANDARD - VERSION 2.0
 WRAP.                 NO:   ONE LINE PER DEPTH STEP
~WELL INFORMATION
#MNEM.UNIT      DATA TYPE    INFORMATION
#----------   ------------   ------------------------------
 STRT.F            0.0000:   START DEPTH
 STOP.F         4152.0000:   STOP DEPTH
 STEP.F            0.5000:   STEP LENGTH
 NULL.          -999.2500:   NO VALUE
 COMP. LAWRENCE ALLISON & ASSOCIATES:   COMPANY
 WELL. LAWRENCE "X" #28-27:   WELL
 FLD .             NPR #3:   FIELD
 LOC .      S27 T39N R78W:   LOCATION
 CNTY.            NATRONA:   COUNTY
 STAT.            WYOMING:   STATE
 CTRY. UNITED STATES OF AMERICA:   COUNTRY
 SRVC.      DRESSER ATLAS:   SERVICE COMPANY
 DATE.        26-FEB-1984:   LOGDATE
 API .     49025109630000:   API NUMBER
~CURVE INFORMATION
#MNEM.UNIT       API CODE    CURVE DESCRIPTION
#----------   ------------   ------------------------------
 DEPT.F                  :   
 GRR .GAPI   07 310 01 00:   GAMMA RAY FROM RES.
 TENR.LBS    07 635 01 00:   TENSION FROM RES.
 SPR .MV     07 010 01 00:   SPONTANEOUS POTENTIAL
 RILD.OHMM   07 120 46 00:   RESISTIVITY INDUCTION LOG DEEP
 RILM.OHMM   07 120 44 00:   RESISTIIVTY INDUCTION LOG MEDIUM
 RFOC.OHMM   07 220 04 00:   RESISTIVITY FOCUSED LOG
 DT  .US/F   60 520 00 00:   DELTA TIME
 TENS.LBS    60 635 01 00:   TENSION FROM SONIC
 CALD.IN     45 280 60 00:   CALIPER FROM DENSITY LOG
 TEND.LBS    45 635 01 00:   TENSION FORM DENSITY LOG
 CNC .DEC    42 890 03 00:   NEUTRON POROSITY SANDSTONE
 CORR.G/C3   45 356 01 00:   DENSITY CORRECTION
 DENS.G/C3   45 350 01 00:   DENSITY
~PARAMETER INFORMATION
#MNEM.UNIT          VALUE    DESCRIPTION
#----------   ------------   ------------------------------
 EKB .F         5088.0000:   Kelly bushing
 EGL .F         5078.0000:   Ground level
 EDF .F            0.0000:   Drilling floor
 TD  .F         4154.0000:   Total depth
 CLNT.            A2DTECH:   Client Code
 SL  . 250' FSL & 810' FWL:   Surface Location
 PD  .                 GL:   Permanent Datum
 EPD .F              5078:   Elevation Permanent Datum
 LMF .                 KB:   Log Measured From
 DMF .                 KB:   Drilling Measured From
 DAPD.F                10:   Feet Above Permanent Datum
 DATE.        26-FEB-1984:   Date Logged [DD-MMM-YYYY]
 DD  .F              4154:   Depth driller
 DL  .F              4148:   Depth logger
 BLI .F              4146:   Bottom log interval
 TLI .F                 0:   Top log interval
 CS1 .IN            8.625:   Casing size
 CBD1.      8.625" @ 537':   Casing driller 1
 CBL1.F               540:   Casing logger 1
 BS1 .IN            7.875:   Bit size
 BSD1.F              4154:   Depth drilled with bit1
 DFT .            GEL KCL:   Type fluid in hole
 DFD .                  9:   Density
 DFV .                 45:   Viscosity
 DFPH.                  8:   pH
 DFL .                 14:   Fluid loss
 MSS .           FLOWLINE:   Source of sample
 RMS .OHMM          0.595:   Rm
 MST .F                60:   Rm Meas. temp.
 RMF .OHMM          0.446:   Rmf
 MFST.F                60:   Rmf Meas. temp.
 MFSS.               CALC:   Source Rmf.
 RMC .OHMM          0.744:   Rmc
 MCST.F                60:   Rmc Meas. temp.
 MCSS.               CALC:   Source Rmc.
 RMB .OHMM           0.26:   Rm. at BHT
 BHT .F               138:   BHT.
 TCS .HRS               4:   Time Circ. stopped
 MRT .F               138:   Maximum recorded temp.
 LUN .               6307:   Logging unit number
 LUL .               GLTE:   Logging unit location
 ENGI.           FAHLSING:   Recorded By
 WITN.           JENNINGS:   Witnessed by
 ORIG.      1" 2.5" PRINT:   Origin of data
 UWI .     49025109630000:   Unique Well ID
 DICO. A2D TECHNOLOGIES, INC.:   Digitizing Company
~OTHER INFORMATION
~A    DEPT       GRR     TENR        SPR       RILD       RILM       RFOC         DT       TENS       CALD       TEND        CNC       CORR       DENS   
# ...
 4108.0000  -999.2500   -32.8402   -15.0992    13.9201    15.2499     8.0242    67.7837   -43.9837     7.4314    20.0000     0.0550    -0.0131     2.6534
 4108.5000  -999.2500   -33.1362   -14.0564    15.5559    18.5405    26.0407    63.1156   -44.0699     7.4314    20.0000     0.0598    -0.0190     2.6451
 4109.0000  -999.2500   -33.4817   -12.8536    17.5262    22.8440    77.2261    58.1560   -44.1176     7.4314    20.0000     0.0637    -0.0152     2.6378
 4109.5000  -999.2500   -33.7526   -11.5984    19.7437    24.7916   110.4910    54.2168   -44.1176     7.4315    20.0000     0.0799     0.0118     2.6354
 4110.0000  -999.2500   -34.0238   -10.6644    21.8535    25.8292   122.6379    54.7956   -44.1176     7.4314    20.0000     0.0956     0.0534     2.6188
 4110.5000  -999.2500   -31.6069   -10.4330    22.7724    24.2493    71.7883    56.1775   -44.1176     7.4311    20.0000     0.1005     0.0542     2.5916
 4111.0000  -999.2500   -19.7729   -10.4174    22.7795    17.8357    37.1355    58.1408   -44.1176     7.4354    20.0000     0.1280     0.0475     2.5449
 4111.5000  -999.2500   -20.1184   -10.4051    17.5991    14.1412    21.8694    60.1783   -43.0760     7.4452    20.0000     0.1435     0.0379     2.5293
 4112.0000  -999.2500   -20.4143   -10.9881    14.1714    11.5846    13.5982    64.5481   -41.9065     7.4549    20.0000     0.1443     0.0266     2.5268
 4112.5000  -999.2500   -20.7101   -11.9170    11.2938    10.3919    10.6443    68.0920   -40.7370     7.4645    20.0000     0.1287     0.0279     2.5329
 4113.0000  -999.2500   -21.0060   -12.7492    10.0717     9.8433     8.8372    70.7613   -39.5675     7.4717    20.0000     0.0925     0.0345     2.5480
 4113.5000  -999.2500   -11.8079   -12.7336    10.3537    10.1709     8.0186    73.1378   -38.3979     7.4717    20.0000     0.0720     0.0389     2.5782
 4114.0000  -999.2500    -6.8047   -13.3137    10.9371    10.9996     7.6967    72.6962   -37.2284     7.4718    20.0000     0.0678     0.0329     2.6295
 4114.5000  -999.2500    -7.1481   -13.3014    11.4790    11.7730     8.2402    71.3809   -36.0589     7.4718    20.0000     0.0716     0.0057     2.6481
 4115.0000  -999.2500    -7.4190   -13.2690    12.5528    12.9323    10.8399    66.7128   -34.8894     7.4718    20.0000     0.0771    -0.0006     2.6521
 4115.5000  -999.2500    -7.6924   -12.6801    13.4425    13.8452    14.4439    62.5818   -33.7198     7.4718    20.2523     0.0853    -0.0029     2.6499
 4116.0000  -999.2500    -7.9881   -12.5394    14.7805    14.8610    24.1641    59.4166   -32.5503     7.4718    20.5088     0.0995     0.0018     2.6371
 4116.5000  -999.2500    -8.2841   -12.0556    15.1935    14.7171    31.2846    58.6115   -31.3808     7.4718    20.8675     0.1024     0.0183     2.6220
 4117.0000  -999.2500    -8.6385   -11.4481    13.7806    13.6019    30.8286    58.3886   -30.2112     7.4718    21.2754     0.1027     0.0364     2.6145
 4117.5000  -999.2500    -8.8757   -11.4358    12.4032    12.7707    20.5163  -999.2500   -29.0417     7.4718     1.6309     0.1033     0.0697     2.6047
 4118.0000  -999.2500    -9.1805   -10.8274    11.1422    11.7719    12.8733  -999.2500   -27.8722     7.4718     1.8457     0.1045     0.0422     2.5939
 4118.5000  -999.2500    -7.7328   -10.7167    10.1101    10.9998    11.6786  -999.2500   -26.7027     7.4718     1.8455     0.1094    -0.0115     2.5784
 4119.0000  -999.2500     5.0701   -10.2054     9.5768    10.3706    10.8634  -999.2500   -25.5331     7.4718    40.0000     0.1251    -0.0114     2.5558
 4119.5000  -999.2500   -10.0590   -10.1900     8.9490     9.7759    10.1373  -999.2500   -24.3636     7.4718    40.0000     0.1357     0.0007     2.5498
 4120.0000  -999.2500   -10.4003   -10.1778     8.5932     9.0258     9.3467  -999.2500   -23.1941     7.4718    40.0000     0.1432     0.0158     2.5498
 4120.5000  -999.2500   -10.6711   -10.7743     8.3649     8.2732     8.3868  -999.2500   -22.0246     7.4718    40.0000     0.1438     0.0489     2.5563
 4121.0000  -999.2500   -10.9467   -11.8417     8.0358     7.8365     7.8056  -999.2500   -20.8550     7.4718    40.0000     0.1381     0.0360     2.5644
 4121.5000  -999.2500   -11.2426   -13.3565     7.6099     7.5170     7.4605  -999.2500   -19.6855     7.4718    40.0000     0.1327     0.0271     2.5702
 4122.0000  -999.2500   -11.5385   -14.2891     7.3074     7.3239     7.1800  -999.2500   -18.5160     7.4718    40.0000     0.1321     0.0236     2.5830
 4122.5000  -999.2500   -11.8344   -14.5745     6.9172     7.1842     7.0390  -999.2500   -17.3465     7.4718    40.0000     0.1371     0.0342     2.5921
 4123.0000  -999.2500   -12.1302   -14.8598     6.5214     7.1304     7.0412  -999.2500   -16.1769     7.4718    40.0000     0.1457     0.0283     2.6057
 4123.5000  -999.2500   -19.4522   -15.5168     5.9216     6.9405     7.9857  -999.2500   -15.0074     7.4718    40.0000     0.1552     0.0193     2.6238
 4124.0000  -999.2500   -27.5149   -16.4128     5.2611     6.0588     9.3034  -999.2500   -14.7059     7.4719    40.0000     0.1934     0.0104     2.6138
 4124.5000  -999.2500   -27.8108   -17.0483     4.4822     5.2250     9.5027  -999.2500   -14.7059     7.4716    40.0000     0.2248     0.0627     2.5877
 4125.0000  -999.2500   -28.1066   -18.9712     4.1317     4.3387     8.6447  -999.2500   -14.7059     7.4716    40.0000     0.2248     0.1222     2.5741
 4125.5000  -999.2500   -28.4453   -20.7446     3.7893     3.6142     4.6291  -999.2500   -14.7059     7.4562    40.0000     0.2242     0.1490     2.5485
 4126.0000  -999.2500   -28.6983   -21.9391     3.3914     3.1561     3.8286  -999.2500   -14.7059     7.4372    40.0000     0.2266     0.1280     2.5364
 4126.5000  -999.2500   -28.9940   -23.5820     3.1970     2.9093     3.6769  -999.2500   -14.7059     7.4181    40.0000     0.2369     0.1040     2.5422
 4127.0000  -999.2500   -29.2900   -24.9869     2.9431     2.7557     3.7285  -999.2500   -14.7059     7.3971    40.0000     0.2497     0.0830     2.5576
 4127.5000  -999.2500   -29.5857   -25.4539     2.8649     2.7391     3.8053  -999.2500   -14.7059     7.4004    40.0000     0.2515     0.0937     2.5697
 4128.0000  -999.2500   -29.9360   -26.0342     2.7510     2.6318     3.8340  -999.2500   -14.7059     7.4210    40.0000     0.2507     0.1068     2.5833
 4128.5000  -999.2500   -30.2068   -26.0219     2.6779     2.6113     3.8352  -999.2500   -14.7059     7.4249    42.4522     0.2464     0.1223     2.5818
 4129.0000  -999.2500   -15.6851   -26.0089     2.7156     2.5766     3.8364  -999.2500     0.0000     7.3969    47.0261     0.2416     0.1134     2.5818
 4129.5000  -999.2500   -15.9764   -25.9955     2.7166     2.6124     3.8377  -999.2500     0.0000     7.4068    51.6000     0.2398     0.1074     2.5783
 4130.0000  -999.2500   -16.2722   -25.9821     2.7549     2.6899     3.8390  -999.2500     0.0000     7.4298    56.1739     0.2266     0.1110     2.5723
 4130.5000  -999.2500   -31.3609   -25.3713     2.7936     2.7835     3.8403  -999.2500     0.0000     7.4226    60.7478     0.2254     0.1241     2.5690
 4131.0000  -999.2500   -31.6568   -24.7638     2.9110     2.8946     3.8418  -999.2500     0.0000     7.4137    65.3217     0.2254     0.1317     2.5653
 4131.5000  -999.2500   -31.9526   -24.1563     3.0120     2.9957     3.8955  -999.2500     0.0000     7.4037    69.8957     0.2254     0.1048     2.5638
 4132.0000  -999.2500   -32.2485   -23.4919     3.1972     3.1638     3.9501  -999.2500     0.0000     7.3940    74.4696     0.2254     0.0687     2.5638
 4132.5000  -999.2500   -32.5445   -22.7207     3.3854     3.3445     4.0335  -999.2500     0.0000     7.3910    79.0435     0.2254     0.0568     2.5706
 4133.0000  -999.2500   -32.8402   -21.7351     3.5277     3.4914     4.2874  -999.2500     0.0000     7.3911    80.0000     0.2260     0.0508     2.5840
 4133.5000  -999.2500   -33.1362   -21.4224     3.7265     3.6664     4.3968  -999.2500     0.0000     7.3912    80.0000     0.2266     0.0516     2.5933
