~VERSION INFORMATION
 VERS.                2.0:   CWLS LOG ASCII STANDARD - VERSION 2.0
 WRAP.                 NO:   ONE LINE PER DEPTH STEP
~WELL INFORMATION
#MNEM.UNIT      DATA TYPE    INFORMATION
#----------   ------------   ------------------------------
 STRT.F            0.0000:   START DEPTH
 STOP.F         3440.0000:   STOP DEPTH
 STEP.F            0.5000:   STEP LENGTH
 NULL.          -999.2500:   NO VALUE
 COMP. FLOOR DANIEL (NPSOR):   COMPANY
 WELL. FLOOR DANIEL "SHX" #48-34:   WELL
 FLD .                NPR:   FIELD
 LOC .      S34 T39N R78W:   LOCATION
 CNTY.            NATRONA:   COUNTY
 STAT.            WYOMING:   STATE
 CTRY. UNITED STATES OF AMERICA:   COUNTRY
 SRVC.      WESTERN ATLAS:   SERVICE COMPANY
 DATE.        06-APR-1995:   LOGDATE
 API .     49025109220000:   API NUMBER
~CURVE INFORMATION
#MNEM.UNIT       API CODE    CURVE DESCRIPTION
#----------   ------------   ------------------------------
 DEPT.F                  :   
 TEND.LBS    45 635 01 00:   TENSION FROM DENSITY LOG
 ZCOR.G/C3   45 356 01 00:   DENSITY CORRECTION
 ZDEN.G/C3   45 350 01 00:   BULK DENSITY
 CALD.IN     45 280 60 00:   CALIPER FROM DENSITY LOG
 CNC .DEC    42 890 03 00:   NEUTRON POROSITY SANDSTONE
 GRR .GAPI   07 310 01 00:   GAMMA RAY FROM RESISTIVITY
 TENR.LBS    07 635 01 00:   TENSION FROM RESISTIVITY
 RFOC.OHMM   07 220 04 00:   RESISTIVITY FOCUSED LOG RES.
 RILD.OHMM   07 120 46 00:   DEEP INDUCTION RESISTIVITY
 RILM.OHMM   07 120 44 00:   INDUCTION LOG MEDIUM RESISTIVITY
~PARAMETER INFORMATION
#MNEM.UNIT          VALUE    DESCRIPTION
#----------   ------------   ------------------------------
 EKB .F         5182.0000:   Kelly bushing
 EGL .F         5172.0000:   Ground level
 EDF .F            0.0000:   Drilling floor
 EPD .F            0.0000:   Permanent datum
 TD  .F         3442.0000:   Total depth
 DATE.        06-APR-1995:   Date logged
 CLNT.            A2DTECH:   Client Code
 SL  . 97' FSL & 2256 FWL:   Surface Location
 PD  .                 GL:   Permanent Datum
 DD  .F              3442:   Depth driller
 DL  .F              3422:   Depth logger
 BLI .F              3420:   Bottom log interval
 CS1 .IN            8.625:   Casing size
 CBD1.      8.625" @ 667':   Casing driller 1
 BS1 .IN            7.875:   Bit size
 BSD1.F               AIR:   Depth drilled with bit1
 ENGI.      PAT RASMUSSEN:   Recorded By
 WITN.        GARY STRONG:   Witnessed by
 ORIG.           5" PRINT:   Origin of data
 UWI .     49025109220000:   Unique Well ID
 DICO. A2D TECHNOLOGIES, INC.:   Digitizing Company
 MRT .F               142:   Maximum recorded temp.
~OTHER INFORMATION
~A    DEPT    TEND       ZCOR       ZDEN       CALD        CNC         GRR      TENR       RFOC       RILD       RILM   
# ...
 2948.0000   -62.2530     0.0170     2.5360     8.8200     0.2310   124.2180   -62.6230     5.9460     5.2650     5.1210
 2948.5000   -62.2530     0.0160     2.5400     8.8200     0.2250   127.0520   -62.6230     6.0510     5.2380     5.1210
 2949.0000   -62.2530     0.0170     2.5450     8.8200     0.2260   129.5070   -62.6230     6.1410     5.2140     5.1210
 2949.5000   -62.2530     0.0190     2.5450     8.8270     0.2290   131.5660   -61.1990     5.9800     5.0120     4.7940
 2950.0000   -62.2530     0.0210     2.5400     8.8320     0.2350   133.6150   -59.9600     5.7440     4.7150     4.5090
 2950.5000   -62.2530     0.0230     2.5360     8.8430     0.2430   135.6390   -58.7200     5.4400     4.4280     4.1240
 2951.0000   -62.2530     0.0240     2.5340     8.8470     0.2520   137.1910   -57.4800     5.1780     3.8970     3.6460
 2951.5000   -62.2530     0.0260     2.5330     8.8470     0.2660   139.5030   -56.2400     5.0350     3.3820     3.1690
 2952.0000   -67.1650     0.0280     2.5240     8.9130     0.2870   142.7580   -55.0000     4.7340     2.8670     2.6910
 2952.5000   -74.3930     0.0390     2.4520     8.9760     0.3100   145.9360   -53.7600     4.1930     2.4310     2.2140
 2953.0000   -82.0160     0.0860     2.3240     9.4510     0.3270   149.1670   -52.5200     3.1550     2.3800     1.9550
 2953.5000   -53.3200     0.1900     2.1950    10.0400     0.3240   151.6300   -51.2800     2.1020     2.3530     2.1810
 2954.0000   -22.7270     0.2970     2.0980    10.5690     0.3060   150.7380   -50.0410     1.9910     2.3900     2.5550
 2954.5000   -33.8820     0.3380     2.2300     9.8300     0.2880   145.3490   -48.8010     2.7600     2.4310     2.9690
 2955.0000   -45.1250     0.1980     2.3860     9.0410     0.2640   137.4380   -47.5610     3.9130     2.5560     3.2720
 2955.5000   -56.3680     0.0460     2.4480     8.8940     0.2500   129.4080   -46.3210     5.1210     2.6960     3.4970
 2956.0000   -59.0380     0.0230     2.5090     8.8210     0.2430   124.1990   -45.0810     5.6350     2.8120     3.8290
 2956.5000   -52.2920     0.0170     2.5540     8.8250     0.2340   123.5260   -43.8410     5.5060     3.6520     4.1790
 2957.0000   -45.5470     0.0200     2.5570     8.8170     0.2290   124.0160   -43.3360     5.3300     4.3080     4.5280
 2957.5000   -38.8010     0.0170     2.5510     8.8220     0.2190   125.0490   -45.1540     5.4160     4.7890     5.1210
 2958.0000   -32.0550     0.0170     2.5450     8.8210     0.2090   123.6270   -46.9710     5.5010     5.0280     5.0510
 2958.5000   -25.3100     0.0180     2.5440     8.8200     0.1990   121.3360   -48.7880     5.5860     4.9640     4.8190
 2959.0000   -28.9720     0.0240     2.5430     8.8200     0.2030   122.9140   -50.6060     5.4980     4.8940     4.7280
 2959.5000   -39.0910     0.0290     2.5400     8.8200     0.2110   124.3440   -52.4230     5.3530     4.8230     4.6350
 2960.0000   -49.2090     0.0350     2.5340     8.8200     0.2210   126.0140   -54.2410     5.2070     4.7530     4.5420
 2960.5000   -59.3280     0.0390     2.5290     8.8200     0.2310   127.8550   -56.0580     5.0620     4.6820     4.5090
 2961.0000   -62.2530     0.0360     2.5320     8.8200     0.2360   129.7080   -57.8750     4.9160     4.6120     4.5090
 2961.5000   -62.2530     0.0330     2.5330     8.8200     0.2330   131.5440   -59.6930     4.7620     4.5610     4.5090
 2962.0000   -62.2530     0.0330     2.5350     8.8200     0.2280   132.9650   -61.5100     4.7620     4.5190     4.5090
 2962.5000   -62.2530     0.0370     2.5400     8.8200     0.2230   131.5720   -60.9800     4.9050     4.4860     4.5090
 2963.0000   -62.2530     0.0400     2.5520     8.8210     0.2180   130.9010   -56.7390     5.0900     4.4560     4.5090
 2963.5000   -62.2530     0.0440     2.5560     8.8370     0.2160   131.2420   -52.4980     5.2750     4.4280     4.5090
 2964.0000   -62.2530     0.0480     2.5610     8.8550     0.2170   131.6190   -48.2580     5.3760     4.3200     4.4280
 2964.5000   -62.2530     0.0440     2.5620     8.8730     0.2230   131.9820   -44.0170     5.2660     4.1140     4.1100
 2965.0000   -62.2530     0.0380     2.5610     8.8910     0.2330   133.5840   -42.8990     5.1550     3.8090     3.7560
 2965.5000   -62.2530     0.0320     2.5550     8.9080     0.2490   139.5410   -42.8990     5.0450     3.5040     3.4010
 2966.0000   -62.2530     0.0270     2.5420     8.9250     0.2690   146.6830   -42.8990     4.9380     3.1990     2.9790
 2966.5000   -65.8840     0.0200     2.5150     8.9730     0.2980   152.6380   -42.8990     4.3580     2.9160     2.3880
 2967.0000   -75.3710     0.0160     2.4080     9.1050     0.3210   158.6920   -42.8990     3.7910     2.8630     2.3450
 2967.5000   -84.8570     0.0150     2.3020     9.2390     0.3110   165.7980   -42.8990     3.2250     2.7830     2.3020
 2968.0000   -94.3430     0.0870     2.1920     9.2950     0.3040   177.8670   -42.8990     2.3020     2.6630     2.3020
 2968.5000  -103.8290     0.1210     2.2080     9.1560     0.3190   175.0330   -42.8990     2.6640     2.7230     3.1930
 2969.0000  -113.3150     0.1280     2.3350     9.0390     0.3110   162.6400   -42.8990     3.6350     2.9160     3.4510
 2969.5000  -121.5420     0.0970     2.4590     8.9080     0.2920   151.6140   -42.8990     4.6070     3.0710     3.5340
 2970.0000  -118.6270     0.0590     2.5330     8.8520     0.2650   136.0520   -42.8990     5.1790     3.4190     3.6260
 2970.5000  -116.0550     0.0430     2.5700     8.8500     0.2380   125.2930   -42.8990     5.5060     3.8500     3.8650
 2971.0000  -113.4820     0.0480     2.5700     8.8420     0.2260   127.1150   -42.8990     5.4130     4.1890     4.1360
 2971.5000  -110.9100     0.0500     2.5660     8.8360     0.2210   126.9360   -43.8620     5.2140     4.4930     4.4070
 2972.0000  -108.3370     0.0530     2.5660     8.8290     0.2160   129.1570   -45.5870     5.2460     4.7110     4.6760
 2972.5000  -105.7650     0.0560     2.5660     8.8220     0.2130   128.2300   -47.3120     5.3250     4.8000     4.9380
 2973.0000  -103.1920     0.0580     2.5610     8.8150     0.2110   126.2700   -49.0370     5.4040     4.9290     5.0410
 2973.5000  -100.6200     0.0550     2.5540     8.8080     0.2080   123.5260   -50.7620     5.4840     5.1210     5.1630
 2974.0000   -98.0470     0.0490     2.5480     8.8020     0.2060   124.0510   -52.4870     5.5630     5.1760     5.2860
 2974.5000   -95.4750     0.0430     2.5430     8.7950     0.2030   124.2740   -54.2120     5.6420     5.2380     5.4080
 2975.0000   -92.9020     0.0360     2.5390     8.7880     0.2020   124.6420   -55.9370     5.7220     5.3000     5.5060
 2975.5000   -90.3300     0.0330     2.5390     8.7810     0.2010   125.2080   -57.6620     5.8010     5.3920     5.4370
 2976.0000   -87.7570     0.0290     2.5400     8.7740     0.2030   124.0330   -59.3870     5.8800     5.3820     5.3780
 2976.5000   -85.1850     0.0250     2.5400     8.7680     0.2050   121.5690   -61.1120     5.9380     5.2810     5.3190
 2977.0000   -82.6120     0.0220     2.5350     8.7610     0.2060   121.0280   -62.8370     5.9730     5.1800     5.2610
 2977.5000   -80.0400     0.0200     2.5300     8.7540     0.2060   123.7910   -64.5620     6.0300     5.0790     5.2020
 2978.0000   -77.4670     0.0280     2.5260     8.7470     0.2070   124.1360   -66.2870     5.9540     4.9380     5.1440
 2978.5000   -74.8940     0.0340     2.5280     8.7400     0.2160   122.7850   -68.0120     5.7530     5.0440     5.0280
 2979.0000   -72.3220     0.0410     2.5350     8.7340     0.2230   125.0820   -69.7370     5.4520     5.2200     5.1240
 2979.5000   -69.7490     0.0480     2.5410     8.7270     0.2220   127.9920   -71.4620     5.4670     5.3950     5.2390
 2980.0000   -67.1770     0.0510     2.5470     8.7200     0.2210   130.5690   -73.1870     5.6810     5.5710     5.3540
 2980.5000   -64.6040     0.0470     2.5530     8.7130     0.2060   127.4330   -74.9120     5.8950     5.7470     5.4680
 2981.0000   -62.2530     0.0450     2.5570     8.7060     0.1920   124.6930   -76.6370     6.1080     5.9220     5.5830
