~VERSION INFORMATION
 VERS.                2.0:   CWLS LOG ASCII STANDARD - VERSION 2.0
 WRAP.                 NO:   ONE LINE PER DEPTH STEP
~WELL INFORMATION
#MNEM.UNIT      DATA TYPE    INFORMATION
#----------   ------------   ------------------------------
 STRT.F           16.0000:   START DEPTH
 STOP.F         4208.0000:   STOP DEPTH
 STEP.F            0.5000:   STEP LENGTH
 NULL.          -999.2500:   NO VALUE
 COMP.    FENIX & SCISSON:   COMPANY
 WELL. FENIX NPR 3 "MX" #41-10:   WELL
 FLD .                NPR:   FIELD
 LOC .      S10 T38N R78W:   LOCATION
 CNTY.            NATRONA:   COUNTY
 STAT.            WYOMING:   STATE
 CTRY. UNITED STATES OF AMERICA:   COUNTRY
 SRVC.       SCHLUMBERGER:   SERVICE COMPANY
 DATE.        04-NOV-1978:   LOGDATE
 API .     49025107260000:   API NUMBER
~CURVE INFORMATION
#MNEM.UNIT       API CODE    CURVE DESCRIPTION
#----------   ------------   ------------------------------
 DEPT.F                  :   
 TENR.LBS    07 635 01 00:   TENSION FROM RESISTIVITY
 SPR .MV     07 010 01 00:   SPONTANEOUS POTENTIAL
 SFL .OHMM   07 220 01 00:   SHALLOW FOCUSED LOG RESISTIVITY
 ILD .OHMM   07 120 46 00:   DEEP INDUCTION RESISTIVITY
 ILM .OHMM   07 120 44 00:   INDUCTION LOG MEDIUM RESISTIVITY
 CALD.IN     45 280 60 00:   CALIPER FROM DENSITY LOG
 GRD .GAPI   45 310 01 00:   GAMMA RAY FROM DENSITY LOG
 TEND.LBS    45 635 01 00:   TENSION FROM DENSITY LOG
 RHOB.G/C3   45 350 01 00:   BULK DENSITY
 CORR.G/C3   45 356 01 00:   DENSITY CORRECTION
 NPHI.DEC    42 890 03 00:   NEUTRON POROSITY SANDSTONE
~PARAMETER INFORMATION
#MNEM.UNIT          VALUE    DESCRIPTION
#----------   ------------   ------------------------------
 EKB .F         5237.0000:   Kelly bushing
 EGL .F         5227.0000:   Ground level
 EDF .F            0.0000:   Drilling floor
 TD  .F         4200.0000:   Total depth
 DATE.        04-NOV-1978:   Date logged
 CLNT.            A2DTECH:   Client Code
 SL  . 70' FNL & 2370' FWL:   Surface Location
 PD  .                 GL:   Permanent Datum
 EPD .F              5227:   Elevation Permanent Datum
 LMF .                 KB:   Log Measured From
 DMF .                 KB:   Drilling Measured From
 DAPD.F                10:   Feet Above Permanent Datum
 DD  .F              4200:   Depth driller
 DL  .F              4191:   Depth logger
 BLI .F              4185:   Bottom log interval
 TLI .F               506:   Top log interval
 CS1 .IN            9.625:   Casing size
 CBD1.      9.625" @ 500':   Casing driller 1
 CBL1.F               506:   Casing logger 1
 BS1 .IN             8.75:   Bit size
 BSD1.F              4200:   Depth drilled with bit1
 DFT .                FGM:   Type fluid in hole
 DFD .                9.3:   Density
 DFV .                 42:   Viscosity
 DFPH.               11.5:   pH
 DFL .                6.4:   Fluid loss
 MSS .               TANK:   Source of sample
 RMS .OHMM           1.08:   Rm
 MST .F                67:   Rm Meas. temp.
 RMF .OHMM           0.83:   Rmf
 MFST.F                67:   Rmf Meas. temp.
 MFSS.               MEAS:   Source Rmf.
 RMB .OHMM           0.58:   Rm. at BHT
 BHT .F               125:   BHT.
 TCS .HRS            0430:   Time Circ. stopped
 TLAB.HRS            0830:   Time logger at bottom
 MRT .F               125:   Maximum recorded temp.
 LUN .               8039:   Logging unit number
 LUL .               CSPR:   Logging unit location
 ENGI.          STADULLIS:   Recorded By
 WITN.              AMEND:   Witnessed by
 ORIG.           5" PRINT:   Origin of data
 UWI .     49025107260000:   Unique Well ID
 DICO. A2D TECHNOLOGIES, INC.:   Digitizing Company
~OTHER INFORMATION
~A   DEPT     TENR        SPR        SFL        ILD        ILM       CALD         GRD      TEND       RHOB       CORR       NPHI   
# ...
 2700.0000  1065.0450   -16.1370    17.4100    16.1680    15.2950    10.9650    90.9560  1416.1400     2.5040     0.0440     0.2100
 2700.5000  1065.2271   -16.1490    17.4100    16.3850    15.2950    10.9500    88.5350  1416.3110     2.4990     0.0470     0.2100
 2701.0000  1065.4080   -16.1640    17.2770    16.5660    15.2960    10.9340    86.6670  1416.4821     2.4940     0.0500     0.2150
 2701.5000  1065.5890   -15.9700    17.0910    16.7470    15.2960    10.9190    83.1770  1416.6530     2.4860     0.0530     0.2220
 2702.0000  1065.7700   -15.7350    17.2230    16.9290    15.2960    10.9040    77.9450  1416.8240     2.4700     0.0440     0.2300
 2702.5000  1065.9510   -15.4950    17.6380    17.1100    15.2960    10.8870    74.8750  1416.9950     2.4390     0.0350     0.2240
 2703.0000  1066.1320   -15.2680    17.8280    17.2910    15.4890    10.8770    74.7120  1417.1660     2.4180     0.0260     0.2110
 2703.5000  1066.3140   -15.0240    18.0740    17.4720    15.7420    10.8740    74.3050  1417.3370     2.4110     0.0230     0.2060
 2704.0000  1066.4950   -14.9690    18.3210    17.6540    15.9940    10.8680    74.3230  1417.5090     2.4090     0.0210     0.2070
 2704.5000  1066.6760   -14.7020    18.6620    17.8350    16.2470    10.8630    71.5090  1417.6801     2.4190     0.0230     0.2070
 2705.0000  1066.8571   -14.5510    19.5910    18.0160    16.4700    10.8580    66.6210  1417.8510     2.4310     0.0250     0.1980
 2705.5000  1067.0380   -14.7960    20.5630    18.2480    16.6350    10.8530    64.2820  1418.0220     2.4430     0.0270     0.1910
 2706.0000  1067.2190   -14.8780    20.3810    18.4990    17.1200    10.8470    66.2950  1418.1930     2.4470     0.0250     0.1810
 2706.5000  1067.4010   -14.8810    20.0600    18.7460    17.4100    10.8420    70.4890  1418.3640     2.4440     0.0180     0.1870
 2707.0000  1067.5820   -15.0380    19.4530    18.4830    17.3850    10.8380    68.2020  1418.5350     2.4410     0.0110     0.1970
 2707.5000  1067.7629   -15.1980    20.5100    18.0630    17.2820    10.8500    65.8800  1418.7070     2.4390     0.0070     0.2020
 2708.0000  1067.9440   -15.3400    22.9760    17.6440    17.1790    10.8660    62.7960  1418.8781     2.4400     0.0060     0.1850
 2708.5000  1068.1250   -15.4930    22.9760    17.2240    17.0910    10.8820    64.5400  1419.0490     2.4660     0.0190     0.1660
 2709.0000  1068.3070   -15.6430    22.1030    16.8050    15.9840    10.8970    69.7160  1419.2200     2.4860     0.0290     0.1560
 2709.5000  1068.4880   -15.7930    19.7070    16.4700    15.0130    10.9130    72.5860  1419.3910     2.5030     0.0390     0.1570
 2710.0000  1068.6689   -15.9430    17.3110    15.1440    14.0420    10.9290    82.3430  1419.5620     2.4990     0.0330     0.1600
 2710.5000  1068.8500   -16.0930    14.9150    13.7670    12.9500    10.9440    91.3410  1419.7330     2.4950     0.0280     0.1640
 2711.0000  1069.0310   -16.2440    13.6890    13.0920    12.4730    10.9590    96.3750  1419.9041     2.4900     0.0220     0.2060
 2711.5000  1069.2120   -16.3930    13.1060    12.4170    11.9290    10.9590    99.6560  1420.0760     2.4840     0.0180     0.2070
 2712.0000  1069.3940   -16.5430    12.5760    11.7420    11.3840    10.9600   102.9940  1420.2469     2.4940     0.0240     0.2090
 2712.5000  1069.5750   -16.6990    12.0270    11.3190    10.8400    10.9590   106.6140  1420.4180     2.5160     0.0300     0.2100
 2713.0000  1069.7560   -16.7730    11.8800    10.9700    10.2960    10.9600   108.3000  1420.5890     2.5210     0.0350     0.2110
 2713.5000  1069.9370   -16.7540    11.6410    10.6220     9.9960    10.9600   108.2590  1420.7600     2.5140     0.0390     0.2100
 2714.0000  1070.1180   -16.7380    11.3780    10.3730     9.9590    10.9600   108.3790  1420.9310     2.5070     0.0330     0.2090
 2714.5000  1070.2990   -16.7220    11.1690    10.3430     9.9040    10.9600   108.5010  1421.1021     2.5040     0.0250     0.2080
 2715.0000  1070.4810   -16.7050    11.0010    10.3110     9.8490    10.9600   108.5990  1421.2740     2.5060     0.0250     0.2100
 2715.5000  1070.6620   -16.6880    10.8520    10.2780     9.7940    10.9600   108.6860  1421.4449     2.5170     0.0340     0.2140
 2716.0000  1070.8430   -16.6720    10.7640    10.2450     9.7380    10.9600   108.8380  1421.6160     2.5320     0.0430     0.2140
 2716.5000  1071.0240   -16.6550    10.7430    10.2120     9.6830    10.9600   109.0130  1421.7870     2.5310     0.0460     0.2100
 2717.0000  1071.2050   -16.6390    10.6590    10.1830     9.6330    10.9600   110.4360  1421.9580     2.5310     0.0400     0.2080
 2717.5000  1071.3860   -16.6220    10.5750    10.1350     9.6330    10.9600   111.7430  1422.1290     2.5300     0.0350     0.2140
 2718.0000  1071.5680   -16.6060    10.4910    10.0660     9.6330    10.9600   113.0420  1422.3000     2.5330     0.0300     0.2190
 2718.5000  1071.7490   -16.5890    10.4070     9.9960     9.6330    10.9600   114.4270  1422.4709     2.5320     0.0250     0.2210
 2719.0000  1071.9301   -16.5730    10.1830    10.1020     9.7620    10.9600   112.4770  1422.6429     2.5260     0.0200     0.2190
 2719.5000  1072.1110   -16.5670    10.3990    10.2100    10.3800    10.9600   110.4840  1422.8140     2.5270     0.0200     0.2160
 2720.0000  1072.2920   -16.5670    11.1750    10.3180    10.9980    10.9600   103.8530  1422.9850     2.5510     0.0300     0.2140
 2720.5000  1072.4740   -16.5670    12.6910    10.8720    11.6160    10.9600    92.5530  1423.1560     2.5820     0.0440     0.1950
 2721.0000  1072.6550   -16.5670    14.2070    11.8780    12.2340    10.9600    83.2950  1423.3270     2.6040     0.0570     0.1750
 2721.5000  1072.8361   -16.5670    15.7230    12.7130    12.8520    10.9600    78.6530  1423.4980     2.6200     0.0540     0.1560
 2722.0000  1073.0170   -16.5670    17.2390    13.4640    13.4700    10.9600    78.2140  1423.6689     2.6130     0.0410     0.1360
 2722.5000  1073.1980   -16.5670    18.4030    14.2050    13.9450    10.9600    79.3620  1423.8400     2.5950     0.0280     0.1180
 2723.0000  1073.3790   -16.5670    17.6790    14.2050    13.7950    10.9600    80.1890  1424.0120     2.5780     0.0150     0.1160
 2723.5000  1073.5610   -16.5670    16.5380    14.0360    13.6190    10.9600    81.1140  1424.1830     2.5610     0.0100     0.1150
 2724.0000  1073.7419   -16.5670    15.2610    13.7890    13.4420    10.9600    84.2720  1424.3540     2.5580     0.0080     0.1250
 2724.5000  1073.9230   -16.5670    13.9450    13.5420    13.2660    10.9600    88.4840  1424.5250     2.5540     0.0080     0.1390
 2725.0000  1074.1040   -16.5670    14.0530    13.4380    12.7660    10.9600    91.1210  1424.6960     2.5610     0.0090     0.1530
 2725.5000  1074.2850   -16.5670    14.2050    12.4880    12.0320    10.9600    93.1110  1424.8669     2.5670     0.0110     0.1560
 2726.0000  1074.4659   -16.5670    13.5320    11.6910    11.2990    10.9600    96.0680  1425.0380     2.5730     0.0120     0.1530
 2726.5000  1074.6479   -16.5670    12.4850    10.8950    10.5660    10.9600   101.1130  1425.2100     2.5640     0.0170     0.1560
 2727.0000  1074.8290   -16.5670    11.4390    10.0990     9.8320    10.9600   107.8500  1425.3810     2.5460     0.0160     0.1710
 2727.5000  1075.0100   -16.5670    10.3930     9.3030     9.0990    10.9600   115.6220  1425.5520     2.5300     0.0110     0.1850
 2728.0000  1075.1910   -16.5670     9.3470     8.5060     8.3660    10.9600   124.2360  1425.7030     2.5310     0.0120     0.2000
 2728.5000  1075.3719   -16.5670     8.3000     7.5740     7.6320    10.9600   132.1470  1421.6150     2.5330     0.0270     0.2150
 2729.0000  1075.5540   -16.5670     7.2540     7.4360     6.6550    10.9590   141.3920  1417.9580     2.5310     0.0190     0.2290
 2729.5000  1075.7350   -16.5670     6.7790     7.0750     6.6770    10.9600   141.5930  1414.3000     2.5180     0.0150     0.2440
 2730.0000  1075.9160   -16.5670     7.0870     6.9050     6.7590    10.9600   136.7800  1410.6429     2.5320     0.0070     0.2510
