~VERSION INFORMATION
 VERS.                2.0:   CWLS LOG ASCII STANDARD - VERSION 2.0
 WRAP.                 NO:   ONE LINE PER DEPTH STEP
~WELL INFORMATION
#MNEM.UNIT      DATA TYPE    INFORMATION
#----------   ------------   ------------------------------
 STRT.F          494.0000:   START DEPTH
 STOP.F         4999.5000:   STOP DEPTH
 STEP.F            0.5000:   STEP LENGTH
 NULL.          -999.2500:   NO VALUE
 COMP.    FENIX & SCISSON:   COMPANY
 WELL.  FENIX "LX" #26-23:   WELL
 FLD . MPR #3 (TEAPOT DOME):   FIELD
 LOC .      S23 T38N R78W:   LOCATION
 CNTY.            NATRONA:   COUNTY
 STAT.            WYOMING:   STATE
 CTRY. UNITED STATES OF AMERICA:   COUNTRY
 SRVC.       SCHLUMBERGER:   SERVICE COMPANY
 DATE.        11-AUG-1978:   LOGDATE
 API .     49025107340000:   API NUMBER
~CURVE INFORMATION
#MNEM.UNIT       API CODE    CURVE DESCRIPTION
#----------   ------------   ------------------------------
 DEPT.F                  :   
 NPHI.DEC    42 890 03 00:   NEUTRON POROSITY SANDSTONE
 TEND.LBS    45 635 01 00:   TENSION FORM DENSITY LOG
 GRD .GAPI   45 310 01 00:   GAMMA RAY FROM DENSITY LOG
 CALD.IN     45 280 60 00:   CALIPER FROM DENSITY LOG
 DRHO.G/C3   45 356 01 00:   DENSITY CORRECTION
 RHOB.G/C3   45 350 01 00:   BULK DENSITY
 SPR .MV     07 010 01 00:   SPONTANEOUS POTENTIAL
 TENR.LBS    07 635 01 00:   TENSION FROM RESISTIVITY LOG
 ILD .OHMM   07 120 46 00:   INDUCTION LOG DEEP RESISTIVITY
 ILM .OHMM   07 120 44 00:   INDUCTION LOG MEDIUM RESISTIVITY
 SFL .OHMM   07 220 01 00:   SPHERICALLY FOCUSED LOG RESISITIVITY
~PARAMETER INFORMATION
#MNEM.UNIT          VALUE    DESCRIPTION
#----------   ------------   ------------------------------
 EKB .F         5335.0000:   Kelly bushing
 EGL .F         5325.0000:   Ground level
 EDF .F            0.0000:   Drilling floor
 EPD .F         5325.0000:   Permanent datum
 TD  .F         5000.0000:   Total depth
 CLNT.            A2DTECH:   Client Code
 SL  . 1600' FSL & 903' FWL:   Surface Location
 PD  .                 GL:   Permanent Datum
 LMF .                 KB:   Log Measured From
 DMF .                 KB:   Drilling Measured From
 DAPD.F                10:   Feet Above Permanent Datum
 DATE.        11-AUG-1978:   Date Logged [DD-MMM-YYYY]
 DD  .F              5000:   Depth driller
 DL  .F              4998:   Depth logger
 BLI .F              4992:   Bottom log interval
 TLI .F               525:   Top log interval
 CS1 .IN            9.625:   Casing size
 CBD1.      9.625" @ 521':   Casing driller 1
 CBL1.F               521:   Casing logger 1
 BS1 .IN             8.75:   Bit size
 BSD1.F              5000:   Depth drilled with bit1
 DFD .                9.1:   Density
 MSS .            MUD PIT:   Source of sample
 RMS .OHMM          0.897:   Rm
 MST .F                64:   Rm Meas. temp.
 RMF .OHMM          0.821:   Rmf
 MFST.F                64:   Rmf Meas. temp.
 MFSS.               MEAS:   Source Rmf.
 BHT .F               135:   BHT.
 TCS .HRS              03:   00:   Time Circ. stopped
 TLAB.HRS              09:   00:   Time logger at bottom
 MRT .F               135:   Maximum recorded temp.
 LUL .               CSPR:   Logging unit location
 ENGI.              CRAIG:   Recorded By
 ORIG.           5" PRINT:   Origin of data
 UWI .     49025107340000:   Unique Well ID
 DICO. A2D TECHNOLOGIES, INC.:   Digitizing Company
 DFV .                 40:   Viscosity
 DFPH.                 12:   pH
 DFL .                  4:   Fluid loss
~OTHER INFORMATION
~A  DEPTH     NPHI       TEND        GRD       CALD       DRHO       RHOB        SPR       TENR        ILD        ILM        SFL
# ...
 2903.5000     0.3524  1802.4037   162.6389     9.9263     0.0010     2.4781   -29.3413  1460.6683     8.7956     8.6687    11.0837
 2904.0000     0.3469  1802.1052   162.0189     9.8433     0.0040     2.4878   -29.8703  1461.1088     8.9181     8.7923    11.3217
 2904.5000     0.3530  1801.7642   160.4610     9.8058     0.0062     2.4908   -30.4867  1446.0453     9.0422     8.7911    11.5655
 2905.0000     0.3560  1801.4800   158.5987     9.7909     0.0092     2.4863   -30.3385  1462.1000     9.1681     8.9810    11.8981
 2905.5000     0.3478  1801.1958   156.7325     9.7761     0.0122     2.4863   -29.5611  1462.5406     9.3604     9.1177    11.9805
 2906.0000     0.3346  1800.9022   153.6202     9.7763     0.0130     2.4878   -28.7846  1462.9811     9.4907     9.3062    11.9668
 2906.5000     0.3198  1800.5564   149.2618     9.7766     0.0137     2.4893   -27.9997  1463.4215     9.5564     9.3718    11.7182
 2907.0000     0.3111  1800.3008   143.0342     9.7770     0.0091     2.4916   -27.7046  1463.8760     9.4900     9.3033    11.5481
 2907.5000     0.3038  1799.9999   143.3494     9.7773     0.0038     2.4945   -27.6998  1464.4128     9.3591     9.1696    11.3805
 2908.0000     0.3017  1799.6991   147.0907     9.7624    -0.0007     2.4960   -27.6673  1449.2393     9.2299     9.0378    10.9765
 2908.5000     0.3002  1799.3488   151.7665     9.7627    -0.0045     2.4848   -27.3669  1449.7898     8.9773     8.7809    10.5866
 2909.0000     0.3011  1799.0646   150.5105     9.7631    -0.0053     2.4780   -27.0632  1434.7266     8.7315     8.5316    10.1374
 2909.5000     0.3038  1798.7804   148.3464     9.7633    -0.0061     2.4825   -26.7603  1419.6631     8.4925     8.2893     9.5694
 2910.0000     0.3026  1798.4961   146.7909     9.7636    -0.0061     2.4878   -26.4575  1420.2137     8.3175     8.0539     9.2962
 2910.5000     0.2981  1798.1410   148.9753     9.7639    -0.0062     2.4863   -26.1548  1405.0403     8.2014     8.0528     9.3606
 2911.0000     0.2975  1797.8947   149.9128     9.7642    -0.0062     2.4750   -25.8520  1421.0948     8.0895     8.0515     9.8399
 2911.5000     0.3065  1797.5726   148.5426     9.7696    -0.0054     2.4629   -25.5488  1421.5503     8.2022     8.0504    10.1281
 2912.0000     0.3146  1797.2885   145.5574     9.7800    -0.0009     2.4619   -25.2506  1422.0859     8.2018     8.0493    10.2670
 2912.5000     0.3375  1796.9924   148.3648     9.7803     0.0006     2.4691   -24.9169  1422.5264     8.2016     8.0482    10.2634
 2913.0000     0.3432  1796.6490   153.0406     9.7806    -0.0047     2.4742   -25.3207  1422.9670     8.2013     8.0471     9.9704
 2913.5000     0.3435  1796.3649   151.7590     9.7809    -0.0025     2.4787   -25.4924  1423.4109     8.1443     8.0457     9.8257
 2914.0000     0.3399  1796.0902   145.5706     9.7812     0.0013     2.4877   -25.6999  1439.4620     8.0878     8.1027     9.6139
 2914.5000     0.3369  1795.7894   143.0807     9.7815     0.0027     2.4907   -25.7236  1439.9025     8.0875     8.1013     9.6804
 2915.0000     0.3342  1795.4886   144.3304     9.7970     0.0012     2.4855   -26.5555  1455.8470     8.1435     8.1002     9.8176
 2915.5000     0.3323  1795.1572   146.8256     9.7973     0.0012     2.4847   -27.0415  1456.2875     8.1432     8.0991    10.1006
 2916.0000     0.3311  1794.8730   147.1402     9.7976     0.0020     2.4877   -28.0339  1456.7443     8.1429     8.2147    10.3917
 2916.5000     0.3359  1794.5864   146.2092     9.7979     0.0019     2.4915   -28.5228  1457.2787     8.0864     8.2135    10.5390
 2917.0000     0.3374  1794.2335   145.2776     9.7982     0.0019     2.4937   -29.1243  1457.7192     8.1424     8.1538    10.3844
 2917.5000     0.3350  1778.9473   144.0344     9.8137     0.0011     2.4930   -29.3187  1458.1597     8.1421     8.0944     9.8733
 2918.0000     0.3301  1778.6276   141.8079     9.8139     0.0003     2.4892   -29.3136  1458.6046     8.0855     8.0355     9.5914
 2918.5000     0.3236  1793.3810   138.4336     9.7918    -0.0012     2.4862   -29.4371  1474.6548     8.0853     7.9770     9.4522
 2919.0000     0.3192  1793.0259   139.6826     9.7612    -0.0012     2.4838   -29.3054  1475.0955     8.0292     7.8622     9.4496
 2919.5000     0.3193  1792.7417   144.9815     9.7458    -0.0013     2.4846   -29.1424  1475.5359     7.9711     7.8049     9.5151
 2920.0000     0.3305  1792.4575   148.4113     9.7303     0.0017     2.4884   -28.9510  1460.4724     7.8091     7.8039     9.5124
 2920.5000     0.3498  1792.1733   146.8573     9.7300     0.0025     2.4929   -28.7468  1461.0231     7.8088     7.6917     9.5776
 2921.0000     0.3473  1791.8796   144.3681     9.7297     0.0062     2.4967   -28.3400  1461.4637     7.7546     7.6840     9.5750
 2921.5000     0.3392  1791.5338   142.1903     9.7294     0.0123     2.5034   -27.8760  1461.9042     7.7544     7.6345     9.5039
 2922.0000     0.3296  1791.2782   144.9970     9.7291     0.0160     2.5072   -27.3255  1462.3446     7.7541     7.5789     9.5013
 2922.5000     0.3181  1790.9774   148.1153     9.7288     0.0122     2.5079   -26.4977  1462.7908     7.7538     7.5779     9.3988
 2923.0000     0.3097  1790.6765   149.3650     9.7323     0.0061     2.4966   -25.5218  1463.3359     7.7536     7.5768     9.2854
 2923.5000     0.3103  1790.3262   150.6141     9.7433     0.0008     2.4859   -24.6562  1463.7764     7.7533     7.5758     9.0279
 2924.0000     0.3142  1790.0420   151.8631     9.7582    -0.0015     2.4786   -24.0956  1464.2168     7.8099     7.5745     8.9609
 2924.5000     0.3172  1789.7744   151.8661     9.7579    -0.0014     2.4898   -23.9169  1449.1472     7.9707     7.6279     9.2199
 2925.0000     0.3190  1789.4736   147.1969     9.7728     0.0023     2.4996   -24.0468  1449.7042     7.9153     7.8487     9.4850
 2925.5000     0.3205  1789.1184   143.7730     9.7775     0.0053     2.4980   -24.1114  1434.5308     7.8061     8.0183     9.9721
 2926.0000     0.3214  1788.8342   140.0377     9.7873     0.0030     2.4898   -24.2431  1435.0812     7.5400     7.7261    10.6327
 2926.5000     0.3213  1758.5223   134.7447     9.7869     0.0007     2.4883   -24.7750  1435.5219     7.0838     7.0455    10.0363
 2927.0000     0.3141  1773.2758   130.9907     9.8018    -0.0001     2.4898   -25.4074  1435.9689     6.7951     6.6520     8.6925
 2927.5000     0.3042  1772.9204   128.2093     9.8015    -0.0001     2.4966   -26.1573  1436.5131     6.5635     6.3711     7.2116
 2928.0000     0.2777  1772.6316   123.8508     9.8012     0.0135     2.5033   -26.9432  1436.9534     6.9857     6.6980     6.7054
 2928.5000     0.2695  1772.3308   121.9839     9.7857     0.0233     2.5011   -27.4868  1437.3940     7.2852     7.2497     7.7597
 2929.0000     0.2707  1771.9969   124.7913     9.7854     0.0263     2.4755   -27.7359  1437.8345     7.5908     7.7280     9.1952
 2929.5000     0.2946  1771.7128   128.2218     9.7852     0.0066     2.4536   -27.6667  1438.3853     7.8040     8.0089    10.3107
 2930.0000     0.3137  1771.4286   130.7170     9.7848    -0.0025     2.4529   -27.7862  1438.8257     8.1916     8.3597    10.6850
 2930.5000     0.3129  1771.0734   133.2121     9.7770     0.0081     2.4717   -27.4856  1439.2664     8.7185     8.7259    10.6813
 2931.0000     0.3029  1770.8270   136.0188     9.7842     0.0118     2.4912   -27.5435  1439.7068     9.2793     9.0430    10.8327
 2931.5000     0.2984  1770.5049   138.8692     9.7839     0.0133     2.5146   -27.7255  1440.1548     9.7402     9.5067    11.0861
 2932.0000     0.3032  1770.2255   139.4515     9.7988     0.0072     2.5168   -27.9458  1440.6979     9.9445     9.8522    11.7148
 2932.5000     0.3138  1769.9248   137.5860     9.7985     0.0019     2.4950   -27.8975  1441.1385    10.0133    10.0653    11.9663
 2933.0000     0.3177  1769.5814   136.9652     9.7982     0.0028     2.4905   -28.1167  1441.5790    10.1527    10.1638    12.2241
 2933.5000     0.3201  1769.2972   138.3147     9.7979     0.0094     2.4972   -28.2698  1442.0197    10.2941    10.3549    12.5756
