~VERSION INFORMATION
 VERS.                2.0:   CWLS LOG ASCII STANDARD - VERSION 2.0
 WRAP.                 NO:   ONE LINE PER DEPTH STEP
~WELL INFORMATION
#MNEM.UNIT      DATA TYPE    INFORMATION
#----------   ------------   ------------------------------
 STRT.F            0.0000:   START DEPTH
 STOP.F         3964.0000:   STOP DEPTH
 STEP.F            0.5000:   STEP LENGTH
 NULL.          -999.2500:   NO VALUE
 COMP. LAWRENCE ALLISON & ASSOCIATES:   COMPANY
 WELL. LAWRENCE NPR 3 "X" #43-10:   WELL
 FLD .              N P R:   FIELD
 LOC .      S10 T38N R78W:   LOCATION
 CNTY.            NATRONA:   COUNTY
 STAT.            WYOMING:   STATE
 CTRY. UNITED STATES OF AMERICA:   COUNTRY
 SRVC.      DRESSER ATLAS:   SERVICE COMPANY
 DATE.        07-AUG-1985:   LOGDATE
 API .     49025111390000:   API NUMBER
~CURVE INFORMATION
#MNEM.UNIT       API CODE    CURVE DESCRIPTION
#----------   ------------   ------------------------------
 DEPT.F                  :   
 CNC .DEC    42 890 03 00:   NEUTRON PORISITY SANDSTONE
 RHOB.G/C3   45 350 01 00:   BULK DENSITY
 CORR.G/C3   45 356 01 00:   DENSITY CORRECTION
 TEND.LBS    45 635 01 00:   TENSION FROM DENSITY LOG
 GRR .GAPI   07 310 01 00:   GAMMA RAY FROM RESISTIVITY
 CALR.IN     07 280 01 00:   CALIPER FROM RESISTIVITY
 SPR .MV     07 010 01 00:   SPONTANEOUS POTENTIAL
 TENR.LBS    07 635 01 00:   TENSION FROM RESISTIVITY
 RILD.OHMM   07 120 46 00:   DEEP INDUCTION RESISTIVITY
 RILM.OHMM   07 120 44 00:   INDUCTION LOG MEDIUM RESISTIVITY
 RFOC.OHMM   07 220 04 00:   RESISTIVITY FOCUSED LOG RES.
 DT  .US/F   60 520 00 00:   DELTA TIME
 TENS.LBS    60 635 01 00:   TENSION FROM SONIC
~PARAMETER INFORMATION
#MNEM.UNIT          VALUE    DESCRIPTION
#----------   ------------   ------------------------------
 EKB .F         5223.0000:   Kelly bushing
 EGL .F         5211.0000:   Ground level
 EDF .F            0.0000:   Drilling floor
 EPD .F         5211.0000:   Permanent datum
 TD  .F         3950.0000:   Total depth
 DATE.        07-AUG-1985:   Date logged
 CLNT.            A2DTECH:   Client Code
 SL  . 2016' FNL & 2230' FWL:   Surface Location
 PD  .                 GL:   Permanent Datum
 DD  .F              3950:   Depth driller
 DL  .F              3950:   Depth logger
 BLI .F              3948:   Bottom log interval
 CS1 .IN            8.625:   Casing size
 CBD1.      8.625" @ 518':   Casing driller 1
 CBL1.F               520:   Casing logger 1
 BS1 .IN            7.875:   Bit size
 DFT .            KCL-GEL:   Type fluid in hole
 DFD .                8.9:   Density
 DFV .                 40:   Viscosity
 DFPH.                  9:   pH
 DFL .                 12:   Fluid loss
 MSS .           FLOWLINE:   Source of sample
 RMS .OHMM           .318:   Rm
 MST .F                82:   Rm Meas. temp.
 RMF .OHMM            .24:   Rmf
 MFST.F                82:   Rmf Meas. temp.
 RMC .OHMM            .40:   Rmc
 MCST.F                82:   Rmc Meas. temp.
 MFSS.               CALC:   Source Rmf.
 RMB .OHMM            .19:   Rm. at BHT
 BHT .F               140:   BHT.
 TCS .HRS               4:   Time Circ. stopped
 MRT .F               140:   Maximum recorded temp.
 LUN .               6264:   Logging unit number
 LUL .               GLTE:   Logging unit location
 ENGI.           FAHLSING:   Recorded By
 WITN.             STRONG:   Witnessed by
 ORIG.           5" PRINT:   Origin of data
 UWI .     49025111390000:   Unique Well ID
 DICO. A2D TECHNOLOGIES, INC.:   Digitizing Company
 DAPD.                 12:   Feet Above Permanent Datum
 BSD1.               3950:   Depth drilled with bit1
 MCSS.               CALC:   Source Rmc.
~OTHER INFORMATION
~A    DEPT     CNC       RHOB       CORR       TEND         GRR      CALR        SPR       TENR       RILD       RILM       RFOC         DT       TENS   
# ...
  754.0000  -999.2500  -999.2500  -999.2500  -999.2500    93.7880    10.3410   -66.0960   -74.8490    10.0190     8.0430     7.8970  -999.2500  -999.2500
  754.5000  -999.2500  -999.2500  -999.2500  -999.2500    93.7310    10.3510   -65.9970   -74.4400     9.9980     8.3540     8.6270  -999.2500  -999.2500
  755.0000  -999.2500  -999.2500  -999.2500  -999.2500    92.8280    10.3450   -65.8980   -74.0310     9.9590     8.7320     9.3120  -999.2500  -999.2500
  755.5000  -999.2500  -999.2500  -999.2500  -999.2500    91.2540    10.3400   -65.7990   -73.6220     9.9210     9.3120     9.3970  -999.2500  -999.2500
  756.0000  -999.2500  -999.2500  -999.2500  -999.2500    89.6560    10.3340   -65.7000   -73.2130     9.8820     9.2940     8.9650  -999.2500  -999.2500
  756.5000  -999.2500  -999.2500  -999.2500  -999.2500    88.9230    10.3290   -65.6010   -72.8040     9.8430     9.2700     8.5860  -999.2500  -999.2500
  757.0000  -999.2500  -999.2500  -999.2500  -999.2500    92.3670    10.3230   -65.5380   -72.3950     9.8040     9.2470     8.1910  -999.2500  -999.2500
  757.5000  -999.2500  -999.2500  -999.2500  -999.2500    94.1230    10.3180   -65.6580   -71.9860     9.7650     9.2190     8.1170  -999.2500  -999.2500
  758.0000  -999.2500  -999.2500  -999.2500  -999.2500    91.7620    10.3130   -65.7740   -71.5770     9.7480     9.1710     8.4160  -999.2500  -999.2500
  758.5000  -999.2500  -999.2500  -999.2500  -999.2500    89.1030    10.3380   -65.8910   -71.1680     9.7480     9.1220     8.7340  -999.2500  -999.2500
  759.0000  -999.2500  -999.2500  -999.2500  -999.2500    89.9050    10.3640   -66.0070   -70.7590     9.7480     9.0740     8.7100  -999.2500  -999.2500
  759.5000  -999.2500  -999.2500  -999.2500  -999.2500    91.2600    10.3900   -66.1230   -70.3500     9.7480     9.0260     8.6790  -999.2500  -999.2500
  760.0000  -999.2500  -999.2500  -999.2500  -999.2500    90.4110    10.4120   -66.2410   -69.9410     9.7480     8.9770     8.6430  -999.2500  -999.2500
  760.5000  -999.2500  -999.2500  -999.2500  -999.2500    88.2940    10.4160   -66.4110   -69.5320     9.7480     8.9050     8.5810  -999.2500  -999.2500
  761.0000  -999.2500  -999.2500  -999.2500  -999.2500    86.2660    10.4200   -66.6600   -69.1230     9.7480     8.8140     8.5190  -999.2500  -999.2500
  761.5000  -999.2500  -999.2500  -999.2500  -999.2500    86.4090    10.4240   -66.7450   -68.7140     9.7480     8.7230     8.4570  -999.2500  -999.2500
  762.0000  -999.2500  -999.2500  -999.2500  -999.2500    90.8110    10.4280   -66.8000   -68.3050     9.7480     8.6310     8.3260  -999.2500  -999.2500
  762.5000  -999.2500  -999.2500  -999.2500  -999.2500    93.3490    10.4330   -66.8550   -67.8960     9.7480     8.5400     8.0900  -999.2500  -999.2500
  763.0000  -999.2500  -999.2500  -999.2500  -999.2500    92.1500    10.4370   -66.9100   -67.4870     9.6530     8.4480     8.0430  -999.2500  -999.2500
  763.5000  -999.2500  -999.2500  -999.2500  -999.2500    90.3200    10.4410   -66.9650   -67.0780     9.4960     8.3570     8.0430  -999.2500  -999.2500
  764.0000  -999.2500  -999.2500  -999.2500  -999.2500    92.7690    10.4450   -67.0200   -66.6690     9.3390     8.2670     8.0430  -999.2500  -999.2500
  764.5000  -999.2500  -999.2500  -999.2500  -999.2500    94.4160    10.4490   -67.0760   -66.2600     9.1820     8.2670     8.0430  -999.2500  -999.2500
  765.0000  -999.2500  -999.2500  -999.2500  -999.2500    94.9380    10.4500   -67.0400   -65.5720     9.0590     8.2670     8.0430  -999.2500  -999.2500
  765.5000  -999.2500  -999.2500  -999.2500  -999.2500    95.4600    10.4500   -66.9650   -64.7120     9.0590     8.2670     8.0260  -999.2500  -999.2500
  766.0000  -999.2500  -999.2500  -999.2500  -999.2500    96.3590    10.4500   -66.8890   -63.8510     9.0590     8.2670     7.9990  -999.2500  -999.2500
  766.5000  -999.2500  -999.2500  -999.2500  -999.2500    96.1440    10.4500   -66.8130   -62.9910     9.0590     8.2670     7.9720  -999.2500  -999.2500
  767.0000  -999.2500  -999.2500  -999.2500  -999.2500    94.5360    10.4500   -66.7370   -62.1310     9.0590     8.2670     7.9440  -999.2500  -999.2500
  767.5000  -999.2500  -999.2500  -999.2500  -999.2500    92.6930    10.4500   -66.7000   -61.2700     9.0590     8.2670     7.9170  -999.2500  -999.2500
  768.0000  -999.2500  -999.2500  -999.2500  -999.2500    90.6220    10.4500   -66.6990   -60.4100     9.0590     8.2670     7.8970  -999.2500  -999.2500
  768.5000  -999.2500  -999.2500  -999.2500  -999.2500    88.5490    10.4500   -66.6990   -59.5500     9.0590     8.2670     7.8970  -999.2500  -999.2500
  769.0000  -999.2500  -999.2500  -999.2500  -999.2500    86.4660    10.4500   -66.6990   -58.6890     9.0590     8.2610     7.8970  -999.2500  -999.2500
  769.5000  -999.2500  -999.2500  -999.2500  -999.2500    84.3770    10.4500   -66.7710   -57.8290     9.0590     8.2360     7.8970  -999.2500  -999.2500
  770.0000  -999.2500  -999.2500  -999.2500  -999.2500    84.2610    10.4500   -66.9060   -56.9690     9.0590     8.2120     7.8970  -999.2500  -999.2500
  770.5000  -999.2500  -999.2500  -999.2500  -999.2500    85.2220    10.4500   -67.0400   -56.1080     9.0590     8.1880     7.8970  -999.2500  -999.2500
  771.0000  -999.2500  -999.2500  -999.2500  -999.2500    86.9490    10.4500   -67.1750   -55.2480     9.0590     8.1630     7.9120  -999.2500  -999.2500
  771.5000  -999.2500  -999.2500  -999.2500  -999.2500    88.6770    10.4500   -67.3100   -54.3870     9.0590     8.1390     7.9350  -999.2500  -999.2500
  772.0000  -999.2500  -999.2500  -999.2500  -999.2500    90.7530    10.4500   -67.4450   -53.5270     9.0600     8.1160     7.9580  -999.2500  -999.2500
  772.5000  -999.2500  -999.2500  -999.2500  -999.2500    93.4760    10.4500   -67.5800   -52.6670     9.0580     8.1160     7.9690  -999.2500  -999.2500
  773.0000  -999.2500  -999.2500  -999.2500  -999.2500    96.3380    10.4500   -67.7150   -51.8060     9.0270     8.1920     7.8980  -999.2500  -999.2500
  773.5000  -999.2500  -999.2500  -999.2500  -999.2500    95.1600    10.4480   -67.8510   -50.9460     8.9960     8.2150     7.8500  -999.2500  -999.2500
  774.0000  -999.2500  -999.2500  -999.2500  -999.2500    93.8160    10.4380   -67.7590   -50.0860     8.9650     8.2380     7.8250  -999.2500  -999.2500
  774.5000  -999.2500  -999.2500  -999.2500  -999.2500    94.1410    10.4280   -67.4430   -49.2250     8.9350     8.2600     7.9210  -999.2500  -999.2500
  775.0000  -999.2500  -999.2500  -999.2500  -999.2500    94.4540    10.4180   -67.1280   -48.3650     8.8940     8.2860     7.9850  -999.2500  -999.2500
  775.5000  -999.2500  -999.2500  -999.2500  -999.2500    94.0210    10.4090   -66.8110   -47.5050     8.8980     8.3130     8.0430  -999.2500  -999.2500
  776.0000  -999.2500  -999.2500  -999.2500  -999.2500    93.4340    10.3990   -66.5130   -46.6440     8.9070     8.3410     8.0310  -999.2500  -999.2500
  776.5000  -999.2500  -999.2500  -999.2500  -999.2500    93.9680    10.3890   -66.5560   -46.4370     8.9170     8.3680     8.0210  -999.2500  -999.2500
  777.0000  -999.2500  -999.2500  -999.2500  -999.2500    95.5540    10.3790   -66.6130   -46.8560     8.9260     8.3950     8.0110  -999.2500  -999.2500
  777.5000  -999.2500  -999.2500  -999.2500  -999.2500    96.5700    10.3710   -66.6680   -47.2750     8.9360     8.4190     8.0010  -999.2500  -999.2500
  778.0000  -999.2500  -999.2500  -999.2500  -999.2500    96.7740    10.3710   -66.6710   -47.6950     8.9460     8.3910     7.9910  -999.2500  -999.2500
  778.5000  -999.2500  -999.2500  -999.2500  -999.2500    98.5110    10.3710   -66.6050   -48.1140     8.9550     8.3650     7.9800  -999.2500  -999.2500
  779.0000  -999.2500  -999.2500  -999.2500  -999.2500   100.4720    10.3710   -66.5410   -48.5330     8.9650     8.3400     7.9700  -999.2500  -999.2500
  779.5000  -999.2500  -999.2500  -999.2500  -999.2500   101.6130    10.3710   -66.5730   -48.9530     8.9760     8.3140     7.9690  -999.2500  -999.2500
