~VERSION INFORMATION
 VERS.                2.0:   CWLS LOG ASCII STANDARD - VERSION 2.0
 WRAP.                 NO:   ONE LINE PER DEPTH STEP
~WELL INFORMATION
#MNEM.UNIT      DATA TYPE    INFORMATION
#----------   ------------   ------------------------------
 STRT.F          250.5000:   START DEPTH
 STOP.F         2849.5000:   STOP DEPTH
 STEP.F            0.5000:   STEP LENGTH
 NULL.          -999.2500:   NO VALUE
 COMP. FENIX & SCISSON U.S. NAVY:   COMPANY
 WELL.   FENIX "A" #25-21:   WELL
 FLD .           N P R #3:   FIELD
 LOC .      S21 T39N R78W:   LOCATION
 CNTY.            NATRONA:   COUNTY
 STAT.            WYOMING:   STATE
 CTRY. UNITED STATES OF AMERICA:   COUNTRY
 SRVC.       SCHLUMBERGER:   SERVICE COMPANY
 DATE.        14-MAR-1977:   LOGDATE
 API .     49025103140000:   API NUMBER
~CURVE INFORMATION
#MNEM.UNIT       API CODE    CURVE DESCRIPTION
#----------   ------------   ------------------------------
 DEPT.F                  :   
 CALD.IN     45 280 60 00:   CALIPER FROM DENSITY LOG
 GRD .GAPI   45 310 01 00:   GAMMA RAY FROM DENSITY LOG
 RHOB.G/C3   45 350 01 00:   BULK DENSITY
 CORR.G/C3   45 356 01 00:   DENSITY CORRECTION
 SPR .MV     07 010 01 00:   SPONTANEOUS POTENTIAL
 LL8 .OHMM   07 220 08 00:   LATEROLOG-8 RES.
 ILM .OHMM   07 120 44 00:   INDUCTION LOG MEDIUM RESISTIVITY
 ILD .OHMM   07 120 46 00:   DEEP INDUCTION RESISTIVITY
~PARAMETER INFORMATION
#MNEM.UNIT          VALUE    DESCRIPTION
#----------   ------------   ------------------------------
 EKB .F         4963.0000:   Kelly bushing
 EGL .F         4953.0000:   Ground level
 EDF .F            0.0000:   Drilling floor
 TD  .F         2848.0000:   Total depth
 DATE.        14-MAR-1977:   Date logged
 CLNT.            A2DTECH:   Client Code
 SL  . 990' FWL & 2310' FSL:   Surface Location
 PD  .                 GL:   Permanent Datum
 DD  .F              2847:   Depth driller
 DL  .F              2848:   Depth logger
 BLI .F              2842:   Bottom log interval
 CS1 .IN            8.625:   Casing size
 CBD1.      8.625" @ 259':   Casing driller 1
 CBL1.F               261:   Casing logger 1
 BS1 .IN            7.875:   Bit size
 DFT .                KCL:   Type fluid in hole
 DFD .                9.2:   Density
 DFV .                 37:   Viscosity
 DFPH.                8.5:   pH
 DFL .                8.6:   Fluid loss
 MSS .           FLOWLINE:   Source of sample
 RMS .OHMM          0.226:   Rm
 MST .F                72:   Rm Meas. temp.
 RMF .OHMM          0.190:   Rmf
 MFST.F                72:   Rmf Meas. temp.
 MFSS.               MEAS:   Source Rmf.
 RMB .OHMM           .139:   Rm. at BHT
 BHT .F               117:   BHT.
 TCS .HRS            1800:   Time Circ. stopped
 MRT .F               117:   Maximum recorded temp.
 LUN .               5642:   Logging unit number
 LUL .               CSPR:   Logging unit location
 ENGI.         JIM MARTIN:   Recorded By
 WITN.               JAPP:   Witnessed by
 ORIG.           5" PRINT:   Origin of data
 UWI .     49025103140000:   Unique Well ID
 DICO. A2D TECHNOLOGIES, INC.:   Digitizing Company
 DAPD.                 10:   Feet Above Permanent Datum
 BSD1.               2847:   Depth drilled with bit1
 EPD .               4953:   Elevation Permanent Datum
 LMF .                 KB:   Log Measured From
 DMF .                 KB:   Drilling Measured From
 TLI .                261:   Top log interval
 TLAB.               2400:   Time logger at bottom
~OTHER INFORMATION
~A   DEPT     CALD         GRD      RHOB       CORR        SPR        LL8        ILM        ILD   
# ...
 1263.0000     8.8880    94.0000     2.5340     0.0200   -62.2760     8.9770     9.3190     9.7060
 1263.5000     8.8960    89.5840     2.5420     0.0190   -62.2030     9.0650     9.2400     9.7580
 1264.0000     8.9030    90.5230     2.5160     0.0050   -62.0100     8.8160     9.0930     9.6290
 1264.5000     8.9110    91.9140     2.5130     0.0060   -61.8180     8.5780     8.9470     9.4050
 1265.0000     8.9190    93.3090     2.5220     0.0180   -61.6270     8.6750     8.8370     9.5360
 1265.5000     8.9210    94.1540     2.5350     0.0190   -61.4350     8.8080     9.2330     9.7240
 1266.0000     8.9210    94.5670     2.5490     0.0350   -61.2420     8.9000     9.1550     9.5560
 1266.5000     8.9210    95.9690     2.5580     0.0420   -61.0530     8.7540     9.0010     9.3980
 1267.0000     8.9220    98.3530     2.5420     0.0280   -60.9130     8.6220     8.8470     9.2400
 1267.5000     8.9230   104.3660     2.5500     0.0200   -61.0900     8.4220     8.7380     9.0650
 1268.0000     8.9230   101.1020     2.5380     0.0160   -61.2630     8.5110     8.8770     9.2370
 1268.5000     8.9240    96.4170     2.5270     0.0000   -61.4330     8.6940     9.0040     9.4880
 1269.0000     8.9240    91.7110     2.5280     0.0040   -61.6050     8.8780     9.1320     9.7380
 1269.5000     8.9250    87.4200     2.5320     0.0020   -61.6480     9.0610     9.2590     9.9890
 1270.0000     8.9250    86.5970     2.5470     0.0040   -61.5870     9.2330     9.3890    10.1230
 1270.5000     8.9260    89.1870     2.5430     0.0190   -61.5290     9.0530     9.2800     9.9090
 1271.0000     8.9260    92.0540     2.5550     0.0390   -61.5430     8.8420     9.1350     9.7390
 1271.5000     8.9270    94.9200     2.5460     0.0310   -61.7460     8.6320     8.9900     9.5690
 1272.0000     8.9270    95.8770     2.5240     0.0260   -61.8520     8.4220     8.8450     9.3980
 1272.5000     8.9280    95.0630     2.5350     0.0420   -61.7360     8.3450     8.7000     9.2330
 1273.0000     8.9280   100.0660     2.5360     0.0490   -61.6260     8.2680     8.5180     9.0650
 1273.5000     8.9290   104.2390     2.5310     0.0190   -61.5170     8.3080     8.6020     9.1720
 1274.0000     8.9290    99.2170     2.5290     0.0230   -61.4070     8.4900     8.7680     9.2790
 1274.5000     8.9300    96.2450     2.5380     0.0160   -61.2910     8.6730     8.9330     9.3850
 1275.0000     8.9310    99.3470     2.5460     0.0100   -61.1800     8.8180     9.0650     9.4920
 1275.5000     8.9310   103.8680     2.5590     0.0220   -61.0620     8.5850     8.8970     9.3580
 1276.0000     8.9320   107.9690     2.5420     0.0170   -60.9440     8.3900     8.7290     9.1910
 1276.5000     8.9320   106.9720     2.5270     0.0130   -60.8240     8.1930     8.5600     9.0230
 1277.0000     8.9330   103.9730     2.5370     0.0230   -60.7090     8.2160     8.4220     8.8180
 1277.5000     8.9330   101.0220     2.5500     0.0360   -60.9100     8.2400     8.4600     8.8330
 1278.0000     8.9340    97.8140     2.5630     0.0320   -61.1570     8.2630     8.5090     8.8720
 1278.5000     8.9340    97.0100     2.5600     0.0230   -61.4120     8.2870     8.5590     8.9110
 1279.0000     8.9350    96.6540     2.5510     0.0140   -61.5500     8.3110     8.6080     8.9500
 1279.5000     8.9350    96.4980     2.5440     0.0080   -61.6500     8.3350     8.6570     8.9890
 1280.0000     8.9360    95.5600     2.5310     0.0110   -61.7490     8.3580     8.7060     9.0280
 1280.5000     8.9360    95.0530     2.5170     0.0080   -61.8470     8.3820     8.7560     9.0680
 1281.0000     8.9370    94.5550     2.5190     0.0120   -61.9450     8.4060     8.8050     9.1070
 1281.5000     8.9370    94.0170     2.5280     0.0200   -62.0470     8.4550     8.9470     9.1490
 1282.0000     8.9380    95.8650     2.5350     0.0280   -61.9500     8.5590     9.0350     9.2740
 1282.5000     8.9390    98.9670     2.5650     0.0340   -61.7540     8.6620     9.1240     9.4010
 1283.0000     8.9390   102.1840     2.5700     0.0420   -61.5570     8.7660     9.2130     9.5280
 1283.5000     8.9400   102.3740     2.5650     0.0400   -61.3580     8.8690     9.3020     9.6560
 1284.0000     8.9400   102.1660     2.5540     0.0280   -61.1680     8.9730     9.3910     9.7830
 1284.5000     8.9410    98.5620     2.5430     0.0200   -61.0050     9.0760     9.4800     9.9470
 1285.0000     8.9420    95.8810     2.5460     0.0220   -60.5600     9.1790     9.5760     9.9760
 1285.5000     8.9420    94.9940     2.5420     0.0230   -60.7240     9.2670     9.5530    10.0040
 1286.0000     8.9430    94.0110     2.5370     0.0140   -60.8730     9.3190     9.5230    10.0330
 1286.5000     8.9440    93.1800     2.5320     0.0080   -61.0270     9.2970     9.4930    10.0620
 1287.0000     8.9450    92.5140     2.5330     0.0130   -61.1840     9.2500     9.4640    10.0900
 1287.5000     8.9460    92.9570     2.5400     0.0090   -61.3390     9.2030     9.4340    10.1230
 1288.0000     8.9470    97.2210     2.5500     0.0190   -61.4950     9.1560     9.4050    10.0210
 1288.5000     8.9470   101.2630     2.5570     0.0240   -61.6510     8.9330     9.1550     9.7940
 1289.0000     8.9480   104.5910     2.5530     0.0180   -61.8060     8.5960     8.9150     9.5700
 1289.5000     8.9490   105.4550     2.5440     0.0260   -61.9620     8.2680     8.6760     9.3450
 1290.0000     8.9500   104.4040     2.5330     0.0180   -62.1190     8.0430     8.4360     9.1210
 1290.5000     8.9510    99.8620     2.5360     0.0110   -62.2710     8.1000     8.3450     8.8180
 1291.0000     8.9520   100.5180     2.5370     0.0160   -62.2300     8.1560     8.3700     8.8310
 1291.5000     8.9520   101.3640     2.5260     0.0100   -62.1800     8.2120     8.4000     8.8620
 1292.0000     8.9530    97.9760     2.5190     0.0050   -62.1310     8.2680     8.4310     8.8930
 1292.5000     8.9540    97.5820     2.5330     0.0110   -62.0770     8.2790     8.4610     8.9880
 1293.0000     8.9550    99.4600     2.5370     0.0200   -61.9050     8.2930     8.4920     9.0030
 1293.5000     8.9560   101.5880     2.5600     0.0310   -61.7230     8.3060     8.5220     9.0170
 1294.0000     8.9570   102.4230     2.5850     0.0420   -61.5420     8.3200     8.5530     9.0320
 1294.5000     8.9570    98.3010     2.5840     0.0580   -61.3600     8.3330     8.5960     9.0470
 1295.0000     8.9580    94.3060     2.5820     0.0510   -61.1780     8.3450     8.7050     9.0620
 1295.5000     8.9590    90.3080     2.5850     0.0550   -60.9960     8.4630     8.8130     9.1160
 1296.0000     8.9600    86.1960     2.5630     0.0610   -60.8180     8.5870     8.9210     9.2580
 1296.5000     8.9540    86.0800     2.5390     0.0240   -60.7560     8.7100     9.0290     9.4000
 1297.0000     8.9410    89.9230     2.5260     0.0140   -60.9900     8.8340     9.1380     9.5420
 1297.5000     8.9270    95.9450     2.5270     0.0080   -61.2120     8.9570     9.2460     9.7580
 1298.0000     8.9140   101.9310     2.5440     0.0240   -61.4340     9.1490     9.3190     9.7580
 1298.5000     8.9010   106.2730     2.5620     0.0330   -61.6570     8.8850     9.1780     9.5960
 1299.0000     8.8880   105.5560     2.5570     0.0290   -61.8800     8.6000     9.0260     9.4510
 1299.5000     8.8800   104.8580     2.5470     0.0190   -62.0880     8.3390     8.8740     9.3070
 1300.0000     8.8770   104.1660     2.5370     0.0270   -62.1800     8.2850     8.7380     9.1490
 1300.5000     8.8750   103.8170     2.5410     0.0330   -62.2710     8.2310     8.5720     8.9820
 1301.0000     8.8720   103.8240     2.5460     0.0290   -62.0910     8.1930     8.4210     8.8730
 1301.5000     8.8690   103.7700     2.5490     0.0240   -61.8820     7.8240     8.1930     8.7380
 1302.0000     8.8670   103.4200     2.5410     0.0150   -61.6730     7.9170     8.2770     8.8310
 1302.5000     8.8640   100.8520     2.5320     0.0110   -61.4910     8.0520     8.4500     9.0240
 1303.0000     8.8610    98.3290     2.5290     0.0210   -61.5820     8.1880     8.6230     9.2170
