~VERSION INFORMATION
 VERS.                2.0:   CWLS LOG ASCII STANDARD - VERSION 2.0
 WRAP.                 NO:   ONE LINE PER DEPTH STEP
~WELL INFORMATION
#MNEM.UNIT      DATA TYPE    INFORMATION
#----------   ------------   ------------------------------
 STRT.F           42.0000:   START DEPTH
 STOP.F         2778.0000:   STOP DEPTH
 STEP.F            0.5000:   STEP LENGTH
 NULL.          -999.2500:   NO VALUE
 COMP.    FENIX & SCISSON:   COMPANY
 WELL. FENIX & SCISSON SHX #56-23:   WELL
 FLD .        TEAPOT DOME:   FIELD
 LOC .      S23 T38N R78W:   LOCATION
 CNTY.            NATRONA:   COUNTY
 STAT.            WYOMING:   STATE
 CTRY. UNITED STATES OF AMERICA:   COUNTRY
 SRVC.           BIRDWELL:   SERVICE COMPANY
 DATE.        29-AUG-1979:   LOGDATE
 API .     49025107920000:   API NUMBER
~CURVE INFORMATION
#MNEM.UNIT       API CODE    CURVE DESCRIPTION
#----------   ------------   ------------------------------
 DEPT.F                  :   
 GRD .GAPI   45 310 01 00:   GAMMA RAY FROM DENSITY LOG
 CALD.IN     45 280 60 00:   CALIPER FROM DENSITY LOG
 RHOB.G/C3   45 350 01 00:   BULK DENSITY
 CORR.G/C3   45 356 01 00:   DENSITY CORRECTION
 ILD .OHMM   07 120 46 00:   DEEP INDUCTION RESISTIVITY
 SFL .OHMM   07 220 01 00:   SHALLOW FOCUSED LOG RESISTIVITY
 SPR .MV     07 010 01 00:   SPONTANEOUS POTENTIAL
~PARAMETER INFORMATION
#MNEM.UNIT          VALUE    DESCRIPTION
#----------   ------------   ------------------------------
 EKB .F         5361.0000:   Kelly bushing
 EGL .F         5351.0000:   Ground level
 EDF .F         5360.0000:   Drilling floor
 TD  .F         1465.0000:   Total depth
 DATE.        29-AUG-1979:   Date logged
 CLNT.            A2DTECH:   Client Code
 PD  .                 GL:   Permanent Datum
 EPD .F              5351:   Elevation Permanent Datum
 LMF .                 KB:   Log Measured From
 DMF .                 KB:   Drilling Measured From
 DAPD.F                 9:   Feet Above Permanent Datum
 DD  .F              1465:   Depth driller
 DL  .F              1462:   Depth logger
 BLI .F              1457:   Bottom log interval
 TLI .F                40:   Top log interval
 CBD1.F                40:   Casing driller 1
 CBL1.F                40:   Casing logger 1
 BS1 .IN            12.25:   Bit size
 BSD1.F              1465:   Depth drilled with bit1
 DFT .            GEL/MUD:   Type fluid in hole
 DFD .                9.5:   Density
 DFV .                 40:   Viscosity
 DFPH.                9.0:   pH
 DFL .                 40:   Fluid loss
 MSS .            MUD PIT:   Source of sample
 RMS .OHMM            2.6:   Rm
 MST .F                68:   Rm Meas. temp.
 RMF .OHMM            1.8:   Rmf
 MFST.F                78:   Rmf Meas. temp.
 RMC .OHMM            2.8:   Rmc
 MCST.F                76:   Rmc Meas. temp.
 MFSS.               MEAS:   Source Rmf.
 MCSS.               MEAS:   Source Rmc.
 RMB .OHMM           1.96:   Rm. at BHT
 BHT .F                90:   BHT.
 TCS .HRS               5:   Time Circ. stopped
 MRT .F                90:   Maximum recorded temp.
 LUN .               2959:   Logging unit number
 LUL .             CASPER:   Logging unit location
 ENGI.         B. ROLLINS:   Recorded By
 WITN.              AMEND:   Witnessed by
 ORIG.           5" PRINT:   Origin of data
 UWI .     49025107920000:   Unique Well ID
 DICO. A2D TECHNOLOGIES, INC.:   Digitizing Company
~OTHER INFORMATION
~A   DEPT       GRD      CALD       RHOB         CORR      ILD        SFL         SPR  
# ...
 1225.0000    99.1370    14.3120     2.5020     0.2240     7.0610     6.1710   -50.5980
 1225.5000    96.7050    14.2840     2.4980     0.2180     7.2160     6.3960   -50.4160
 1226.0000    92.7320    14.2560     2.4900     0.2060     7.4100     6.6740   -50.1900
 1226.5000    91.5970    14.2270     2.4790     0.1950     7.6130     6.5500   -50.4580
 1227.0000    92.4750    14.1990     2.4730     0.1930     7.6130     6.3080   -50.9830
 1227.5000    93.3800    14.1710     2.4660     0.1910     6.8550     5.9620   -51.4660
 1228.0000    93.2920    14.1420     2.4220     0.1890     6.1890     5.5620   -51.9800
 1228.5000    93.2660    14.1140     2.3720     0.1900     5.5230     4.9980   -52.2110
 1229.0000    93.8340    14.0850     2.3230     0.1940     4.8560     4.4340   -52.0480
 1229.5000    95.1890    14.0740     2.2740     0.2110     4.0930     3.9420   -51.9480
 1230.0000    97.4620    14.0840     2.2320     0.2500     4.0930     3.9420   -51.7940
 1230.5000    96.5390    14.1270     2.2660     0.3230     4.0930     3.9420   -51.9430
 1231.0000    94.4730    14.1650     2.3610     0.3040     4.1700     4.0160   -52.2890
 1231.5000    92.4710    14.1850     2.4020     0.2630     4.4130     4.0930   -52.5780
 1232.0000    91.5610    14.2080     2.4390     0.2210     4.9360     4.5340   -52.5840
 1232.5000    90.9290    14.2290     2.4810     0.1950     5.6350     5.2800   -52.2450
 1233.0000    88.1890    14.2510     2.4940     0.1990     6.3340     6.0250   -51.7930
 1233.5000    86.5920    14.2720     2.4970     0.2010     7.0340     6.6740   -51.3550
 1234.0000    89.6060    14.2940     2.4910     0.2000     7.7330     6.9300   -51.0150
 1234.5000    91.8580    14.3160     2.4860     0.1970     8.3640     7.1950   -51.1740
 1235.0000    94.7970    14.3370     2.4790     0.1940     8.2850     7.2060   -51.3900
 1235.5000    93.7490    14.3590     2.4750     0.1920     8.1700     7.2200   -51.6140
 1236.0000    91.0020    14.3810     2.4770     0.1940     8.0550     7.2350   -51.8300
 1236.5000    90.2280    14.4020     2.4840     0.1970     7.9400     7.2490   -52.0510
 1237.0000    92.4450    14.4240     2.4910     0.2000     7.8260     7.2640   -52.2660
 1237.5000    91.3570    14.4460     2.4980     0.2040     7.7580     7.2790   -52.4950
 1238.0000    89.0450    14.4680     2.5050     0.2070     7.7580     7.2930   -52.6150
 1238.5000    98.9490    14.4890     2.5120     0.2100     7.7580     7.3080   -52.5450
 1239.0000    97.8870    14.5110     2.5160     0.2130     7.7580     7.3220   -52.4470
 1239.5000    94.6140    14.5320     2.5140     0.2170     7.9050     7.3320   -52.3710
 1240.0000    91.4970    14.5510     2.5110     0.2180     8.0550     7.4710   -52.2600
 1240.5000    88.6360    14.5520     2.5070     0.2160     8.2080     7.6130   -52.2140
 1241.0000    85.5490    14.5690     2.5010     0.2150     8.3640     7.7580   -52.2820
 1241.5000    82.6420    14.5870     2.4950     0.2140     8.6840     8.0440   -53.4500
 1242.0000    78.5750    14.6060     2.4880     0.2130     9.0520     8.5470   -54.6370
 1242.5000    73.0960    14.6250     2.4660     0.2110     9.4890     9.0500   -55.8840
 1243.0000    67.7760    14.6440     2.4580     0.2150     9.9260     9.5410   -57.0650
 1243.5000    63.0160    14.6620     2.4570     0.2200    10.3630     9.5940   -58.2860
 1244.0000    62.4650    14.6810     2.4560     0.2260    10.8010     9.6790   -58.6160
 1244.5000    62.8990    14.7000     2.4500     0.2300    11.2380     9.7650   -58.5950
 1245.0000    63.6030    14.7180     2.4360     0.2320    11.7340     9.8510   -58.5910
 1245.5000    63.8660    14.7390     2.4230     0.2320    11.9560     9.9360   -58.6020
 1246.0000    62.8060    14.7540     2.4120     0.2310    12.0370    10.0220   -58.6120
 1246.5000    61.9460    14.7980     2.4080     0.2310    12.1080    10.1080   -58.9300
 1247.0000    62.5270    14.8500     2.4070     0.2290    12.1780    10.1940   -59.2980
 1247.5000    63.6920    14.9020     2.4160     0.2260    12.2480    10.2790   -59.6810
 1248.0000    63.2820    14.9550     2.4310     0.2220    12.3190    10.3650   -59.6490
 1248.5000    61.0830    15.0050     2.4450     0.2180    12.4150    10.4510   -59.0020
 1249.0000    58.5640    15.0620     2.4400     0.2140    12.3760    10.4810   -59.2540
 1249.5000    58.7030    15.0660     2.4350     0.2100    12.2110    10.4150   -59.7230
 1250.0000    58.8140    15.0570     2.4290     0.2080    12.0470    10.2590   -60.1500
 1250.5000    59.4670    15.0450     2.4230     0.2090    11.8820    10.1020   -60.5880
 1251.0000    59.9480    15.0340     2.4170     0.2090    11.7170     9.9450   -60.4190
 1251.5000    60.5300    15.0270     2.4130     0.2080    11.5530     9.7890   -60.0670
 1252.0000    60.7110    15.0270     2.4150     0.2110    11.3880     9.6320   -59.8070
 1252.5000    59.6010    15.0440     2.4330     0.2160    11.2230     9.4760   -59.9340
 1253.0000    61.0250    15.0920     2.4470     0.2210    11.0590     9.3190   -60.0890
 1253.5000    65.1010    15.1430     2.4470     0.2190    10.8940     9.1620   -60.2680
 1254.0000    67.6460    15.1870     2.4420     0.2140    10.7300     9.0060   -60.4250
 1254.5000    66.2220    15.2570     2.4290     0.2080    10.5650     8.8490   -60.5700
 1255.0000    64.0120    15.2650     2.4190     0.2030    10.4000     8.8490   -60.2790
 1255.5000    62.9630    15.2710     2.4080     0.1990    10.2360     8.7960   -59.9620
 1256.0000    64.1140    15.2890     2.4060     0.1990    10.0710     8.7300   -59.5770
 1256.5000    66.5410    15.3100     2.4120     0.1990     9.9060     8.6640   -59.5390
 1257.0000    67.4640    15.3290     2.4170     0.1990     9.9060     8.5980   -60.0340
 1257.5000    68.5560    15.3480     2.4170     0.1990     9.9060     8.5320   -60.4730
 1258.0000    68.9990    15.3680     2.4130     0.2040     9.9060     8.4650   -60.9440
 1258.5000    68.7820    15.3840     2.4100     0.2080     9.9060     8.3990   -61.3950
 1259.0000    69.2190    15.3850     2.4140     0.2120     9.9060     8.3330   -61.7770
 1259.5000    70.6650    15.3850     2.4200     0.2160     9.9060     8.2670   -61.2560
 1260.0000    72.5690    15.3850     2.4170     0.2140     9.9060     8.2010   -60.6350
 1260.5000    74.8350    15.3850     2.4120     0.2130     9.9060     8.1340   -60.6860
 1261.0000    74.2900    15.3850     2.4130     0.2120     9.9060     8.0550   -60.7850
 1261.5000    73.9080    15.3850     2.4100     0.2100     9.9060     8.0890   -61.0420
 1262.0000    73.3450    15.3850     2.4040     0.2090     9.9060     8.1310   -60.1020
 1262.5000    75.3370    15.3850     2.4030     0.2080     9.9060     8.1740   -58.8690
 1263.0000    76.3390    15.3850     2.4040     0.2060     9.9060     8.2080   -59.1260
 1263.5000    75.4580    15.3850     2.4030     0.2050     9.9070     8.1860   -59.2590
 1264.0000    75.6640    15.3850     2.4100     0.2040     9.9060     8.1690   -59.4340
 1264.5000    79.0510    15.3850     2.4250     0.2060     9.9070     8.1510   -59.6220
 1265.0000    80.7500    15.3850     2.4360     0.2080     9.9070     8.1330   -59.7870
 1265.5000    79.8880    15.3850     2.4380     0.2110     9.9040     8.1150   -59.9680
 1266.0000    77.7620    15.3850     2.4390     0.2140     9.9150     8.0970   -60.1390
 1266.5000    75.9560    15.3800     2.4310     0.2100     9.8870     8.0790   -60.1940
 1267.0000    76.2510    15.3700     2.4250     0.2050    10.1140     8.0610   -59.9690
 1267.5000    76.3540    15.3610     2.4160     0.1990    10.0770     8.0430   -59.7030
 1268.0000    74.7550    15.3520     2.4160     0.2010    10.0810     8.0250   -59.4410
 1268.5000    76.1190    15.3430     2.4150     0.2030    10.0590     8.0070   -59.1680
 1269.0000    77.2450    15.3340     2.4120     0.2060    10.0450     7.9890   -58.9160
 1269.5000    76.2910    15.3260     2.4070     0.2040    10.0320     7.9710   -58.6310
 1270.0000    73.9230    15.3170     2.4010     0.2020    10.0170     7.9540   -58.7690
