~VERSION INFORMATION
 VERS.                2.0:   CWLS LOG ASCII STANDARD - VERSION 2.0
 WRAP.                 NO:   ONE LINE PER DEPTH STEP
~WELL INFORMATION
#MNEM.UNIT      DATA TYPE    INFORMATION
#----------   ------------   ------------------------------
 STRT.F          198.0000:   START DEPTH
 STOP.F         3140.0000:   STOP DEPTH
 STEP.F            0.5000:   STEP LENGTH
 NULL.          -999.2500:   NO VALUE
 COMP.    FENIX & SCISSON:   COMPANY
 WELL. FENIX NPR 3 "AX" #43-34:   WELL
 FLD .                NPR:   FIELD
 LOC .      S34 T39N R78W:   LOCATION
 CNTY.            NATRONA:   COUNTY
 STAT.            WYOMING:   STATE
 CTRY. UNITED STATES OF AMERICA:   COUNTRY
 SRVC.              WELEX:   SERVICE COMPANY
 DATE.        02-JUL-1977:   LOGDATE
 API .     49025103890000:   API NUMBER
~CURVE INFORMATION
#MNEM.UNIT       API CODE    CURVE DESCRIPTION
#----------   ------------   ------------------------------
 DEPT.F                  :   
 CALD.IN     45 280 60 00:   CALIPER FROM DENSITY LOG
 GRD .GAPI   45 310 01 00:   GAMMA RAY FROM DENSITY LOG
 RHOB.G/C3   45 350 01 00:   BULK DENSITY
 CORR.G/C3   45 356 01 00:   DENSITY CORRECTION
 SPR .MV     07 010 01 00:   SPONTANEOUS POTENTIAL
 SFLU.OHMM   07 220 01 00:   SPHERICALLY FOCUSED LOG UNAVERAGED RESISTIVITY
 ILD .OHMM   07 120 46 00:   DEEP INDUCTION RESISTIVITY
 ILM .OHMM   07 120 44 00:   INDUCTION LOG MEDIUM RESISTIVITY
~PARAMETER INFORMATION
#MNEM.UNIT          VALUE    DESCRIPTION
#----------   ------------   ------------------------------
 EKB .F         5118.0000:   Kelly bushing
 EGL .F         5108.0000:   Ground level
 TD  .F         3145.0000:   Total depth
 DATE.        02-JUL-1977:   Date logged
 CLNT.            A2DTECH:   Client Code
 SL  . 1650' FNL & 2310' FWL:   Surface Location
 PD  .                 GL:   Permanent Datum
 EPD .F              5108:   Elevation Permanent Datum
 LMF .                 KB:   Log Measured From
 DMF .                 KB:   Drilling Measured From
 DAPD.F                10:   Feet Above Permanent Datum
 DD  .F              3145:   Depth driller
 DL  .F              3143:   Depth logger
 BLI .F              3141:   Bottom log interval
 TLI .F               200:   Top log interval
 CS1 .IN            8.625:   Casing size
 CBD1.      8.625" @ 203':   Casing driller 1
 CBL1.F               224:   Casing logger 1
 BS1 .IN            7.875:   Bit size
 BSD1.F              3145:   Depth drilled with bit1
 DFT .            KCL/MUD:   Type fluid in hole
 DFD .                  9:   Density
 DFV .                 34:   Viscosity
 DFPH.                7.5:   pH
 DFL .                9.2:   Fluid loss
 MSS .           FLOWLINE:   Source of sample
 RMS .OHMM            .18:   Rm
 MST .F                75:   Rm Meas. temp.
 RMF .OHMM            .16:   Rmf
 MFST.F                75:   Rmf Meas. temp.
 RMC .OHMM            .30:   Rmc
 MCST.F                75:   Rmc Meas. temp.
 MFSS.               FANN:   Source Rmf.
 MCSS.                KIT:   Source Rmc.
 RMB .OHMM            .11:   Rm. at BHT
 BHT .F               118:   BHT.
 TCS .HRS            3.75:   Time Circ. stopped
 MRT .F               118:   Maximum recorded temp.
 LUN .               8766:   Logging unit number
 LUL .             CASPER:   Logging unit location
 ENGI.          T. JOYNER:   Recorded By
 WITN.     W. PETTNG/GILL:   Witnessed by
 ORIG.           5" PRINT:   Origin of data
 UWI .     49025103890000:   Unique Well ID
 DICO. A2D TECHNOLOGIES, INC.:   Digitizing Company
~OTHER INFORMATION
~A   DEPT     CALD         GRD        RHOB     CORR        SPR       SFLU        ILD        ILM   
# ...
 1170.0000    10.2780   127.5650     2.1635     0.2199   -42.3386     8.3202     5.2641     5.1686
 1170.5000    10.1786   127.5579     2.1735     0.2198   -42.3358     7.8738     5.4593     5.1675
 1171.0000    10.3962   127.9470     2.1376     0.2198   -42.3340     7.7298     5.8733     5.3594
 1171.5000    10.6931   126.7511     2.1076     0.2198   -42.7304     7.5884     6.5544     6.4350
 1172.0000    10.9305   124.7628     2.0886     0.1998   -43.1277     7.7270    37.3152     6.7974
 1172.5000    10.7122   122.7746     2.0332     0.1918   -43.1250    19.0587    32.8213     7.4475
 1173.0000    10.5732   121.9751     1.9816     0.1479   -43.1232    24.4824    17.9159     8.0123
 1173.5000    10.7908   121.1755     1.9750     0.1399   -43.5196    21.9303     8.1580     8.4629
 1174.0000    10.9885   119.1860     1.9998     0.1399   -43.5178    19.6457     8.3081     9.4242
 1174.5000    10.2947   118.7827     2.3111     0.1478   -43.5152    16.0582     9.4423    10.6792
 1175.0000     9.8586   118.3794     2.3290     0.2037   -43.5134    14.1243     9.7930    10.1576
 1175.5000     9.7393   119.5610     2.3330     0.1717   -43.5107    12.1970    78.9468    11.1299
 1176.0000     9.7391   117.5729     2.3479     0.1478   -43.1097    16.6475    83.4050    12.6501
 1176.5000     9.6793   114.7925     2.3569     0.1477   -43.1071    19.9898    53.3838    17.9100
 1177.0000     9.6393   113.2008     2.3589     0.1397   -42.7051    22.7186    34.1685    20.7310
 1177.5000     9.5201   115.9628     2.3609     0.1198   -42.3040    31.5836    21.8697    19.9840
 1178.0000     9.3217   115.9614     2.3708     0.1158   -42.3012    35.2411    13.6005    11.3240
 1178.5000     9.2619   116.3491     2.4048     0.1117   -42.2994    35.8898    11.9626    11.1177
 1179.0000     9.2022   116.3435     2.4047     0.1397   -42.2967    23.7929    10.5212    10.9144
 1179.5000     9.2811   114.3542     2.3748     0.1596   -42.2949    15.7734    10.3295     7.5795
 1180.0000     9.4590   114.3472     2.3488     0.1715   -42.2921     8.9187     9.5979     5.2636
 1180.5000     9.6964   115.9262     2.2959     0.1795   -42.6897     8.2882     9.5958     3.8411
 1181.0000     9.7952   117.5038     2.2081     0.1715   -43.0864     7.4243     7.8435     2.9721
 1181.5000    10.0127   118.6838     2.1599     0.1675   -43.4840     6.6508     7.4232     2.6140
 1182.0000    10.2105   120.2613     2.1116     0.1714   -43.8808     5.6391     7.2869     2.8642
 1182.5000    10.5270   118.6697     2.0273     0.1714   -44.2784     5.5360     7.2858     3.4390
 1183.0000    10.8436   117.8703     1.9714     0.1674   -45.0746     6.0654     7.4189     5.2393
 1183.5000    11.1602   117.8633     1.9070     0.1674   -45.4724     6.7688     8.2792    19.2706
 1184.0000    11.7343   117.8562     1.7750     0.1514   -46.2688     7.6928    10.8938   109.4420
 1184.5000    12.3678   121.4143     1.7359     0.1514   -46.6666     9.4073    11.5082   144.0149
 1185.0000    12.1892   121.4072     1.8816     0.1514   -47.0636    10.6923    13.3218    67.7165
 1185.5000    10.5250   120.2104     2.0034     0.1034   -47.4615    11.5031    18.4567    31.8407
 1186.0000     9.7324   119.4125     2.2084     0.0994   -47.8585    18.8555    25.5710    16.8936
 1186.5000     9.4547   117.8195     2.4894     0.0675   -47.8569    18.1748    33.8703    12.6015
 1187.0000     9.4347   117.8125     2.5303     0.0834   -47.8544    15.9848    67.9073     9.2293
 1187.5000     9.4343   118.9937     2.5303     0.0994   -48.6520    15.4078    61.9571     9.3978
 1188.0000     9.4340   119.3856     2.5203     0.0993   -47.8503    14.5810    48.2461    10.6806
 1188.5000     9.4139   123.7303     2.5063     0.0993   -47.8478    14.5789    37.5693    11.9192
 1189.0000     9.4134   119.7647     2.5063     0.0993   -47.8462    14.5768    29.2553    13.0601
 1189.5000     9.3735   120.1537     2.5102     0.0993   -47.8437    14.5736    19.8942    14.8418
 1190.0000     9.3534   119.7506     2.5092     0.1033   -47.8421    15.1150    17.1808    15.6777
 1190.5000     9.2738   120.9317     2.4972     0.0992   -47.8396    15.1117    14.0434    14.0434
 1191.0000     9.1943   120.1325     2.4892     0.0992   -47.8379    15.3887    13.2908    13.2899
 1191.5000     9.0751   120.5215     2.4813     0.0992   -47.8355    15.3843    12.3495    11.0645
 1192.0000     9.0154   122.4948     2.4732     0.1072   -47.8338    15.3832    12.1236    11.2674
 1192.5000     8.9557   119.3138     2.4523     0.1191   -48.2311    15.0996    11.2649    12.5740
 1193.0000     8.9553   120.5002     2.4323     0.1271   -49.0290    14.2905    10.6612    11.4710
 1193.5000     8.9550   120.8892     2.3949     0.1390   -49.0266    12.5695     9.9061    53.3942
 1194.0000     9.0141   120.8821     2.3574     0.1390   -49.0250    10.4640     9.9047   154.3971
 1194.5000     9.0336   119.2909     2.3199     0.1390   -49.0226     9.5464     9.5464   214.6599
 1195.0000     9.0924   116.9036     2.2786     0.1150   -49.0210    10.0841     9.5450    34.7445
 1195.5000     9.0924   120.0688     2.2686     0.0990   -49.4184    13.7636     9.5430    15.6458
 1196.0000     9.0523   120.8538     2.2925     0.0631   -49.4168    14.2749     9.8975    14.2749
 1196.5000     8.9134   120.8467     2.4322     0.0391   -49.4144    14.0139    10.2644    12.1034
 1197.0000     8.7547   119.2555     2.5620     0.0550   -49.4128    13.7576    11.0429    11.0429
 1197.5000     8.6553   116.4681     2.5639     0.0870   -49.4104    13.5050    11.0405     9.1924
 1198.0000     8.5560   118.8454     2.5619     0.0949   -49.4088    13.5021    11.2428     8.3876
 1198.5000     8.5755   119.2343     2.5599     0.0949   -49.4065    15.3452    11.4489     9.0243
 1199.0000     8.4958   118.8312     2.5539     0.0949   -49.4049    15.6265    11.6563     9.5312
 1199.5000     8.5352   117.6361     2.5499     0.0948   -49.4025    14.2562    11.6554    10.2540
 1200.0000     8.5548   118.0265     2.5439     0.1148   -49.4001    12.3118    11.2347    11.0308
 1200.5000     8.5935   119.3137     2.5340     0.1148   -49.3981    11.4330    10.2867    16.1406
 1201.0000     8.6135   120.3876     2.5299     0.1187   -48.9969    12.0913    10.2542    19.1121
 1201.5000     8.6328   121.5690     2.5239     0.1187   -48.9945    13.4983    10.4468    17.1261
 1202.0000     8.6324   124.3291     2.5139     0.1226   -48.9929    13.7498    11.0375    15.0680
 1202.5000     8.6321   121.1595     2.4939     0.1226   -48.1907    13.7528    11.8788    12.7815
 1203.0000     8.6515   119.9647     2.4919     0.1265   -47.7892    13.7538    11.8806    11.8806
 1203.5000     8.6513   122.3342     2.4839     0.1265   -47.7869    13.5082    11.8832    10.6468
 1204.0000     8.6706   125.4931     2.4719     0.1305   -47.3855    11.6710    11.2496    10.0792
 1204.5000     8.6704   122.3208     2.4520     0.1344   -47.3832    12.5588    11.0480     9.3694
 1205.0000     8.7293   121.5220     2.4360     0.1424   -46.9819    12.7936    10.6586     8.7090
 1205.5000     8.7884   117.9455     2.4193     0.1383   -46.9796    13.2737    10.4613     6.9931
 1206.0000     8.7880   120.7164     2.4027     0.1343   -46.9781    13.0348    10.0866     6.0406
 1206.5000     8.7875   121.8979     2.3860     0.1463   -47.3757    12.3399     9.0391     4.9397
 1207.0000     8.7080   121.0991     2.3694     0.1542   -47.3741    10.8578     8.4019     6.1554
 1207.5000     8.6680   122.2805     2.3501     0.1821   -47.7716     9.9093     8.1010    10.3113
 1208.0000     8.6676   125.4345     2.2712     0.1940   -47.7700    10.4719     8.1028    16.2486
 1208.5000     8.7663   123.0593     2.2423     0.1940   -48.1675    10.4732     7.9575    63.0136
 1209.0000     8.8253   122.6565     2.2144     0.1421   -48.3652    10.4750     7.9587    81.4322
 1209.5000     8.9637   125.4224     2.2153     0.1301   -48.7633    10.4765     7.9604    60.7610
 1210.0000     9.0424   126.9975     2.2991     0.1260   -48.7618    10.4788     8.1087    25.5193
