~VERSION INFORMATION
 VERS.                2.0:   CWLS LOG ASCII STANDARD - VERSION 2.0
 WRAP.                 NO:   ONE LINE PER DEPTH STEP
~WELL INFORMATION
#MNEM.UNIT      DATA TYPE    INFORMATION
#----------   ------------   ------------------------------
 STRT.F          480.0000:   START DEPTH
 STOP.F         4609.5000:   STOP DEPTH
 STEP.F            0.5000:   STEP LENGTH
 NULL.          -999.2500:   NO VALUE
 COMP.   FENNIX & SCISSON:   COMPANY
 WELL. FENNIX NPR-3 "LX" #58-14:   WELL
 FLD .              NPR-3:   FIELD
 LOC .      S14 T38N R78W:   LOCATION
 CNTY.            NATRONA:   COUNTY
 STAT.            WYOMING:   STATE
 CTRY. UNITED STATES OF AMERICA:   COUNTRY
 SRVC.       SCHLUMBERGER:   SERVICE COMPANY
 DATE.        08-MAR-1978:   LOGDATE
 API .     49025105920000:   API NUMBER
~CURVE INFORMATION
#MNEM.UNIT       API CODE    CURVE DESCRIPTION
#----------   ------------   ------------------------------
 DEPT.F                  :   
 SPR .MV     07 010 01 00:   SPONTANEOUS POTENTIAL
 SFL .OHMM   07 220 01 00:   SHALLOW FOCUSED LOG RESISTIVITY
 ILD .OHMM   07 120 46 00:   DEEP INDUCTION RESISTIVITY
 ILM .OHMM   07 120 44 00:   INDUCTION LOG MEDIUM RESISTIVITY
 CALD.IN     45 280 60 00:   CALIPER FROM DENSITY LOG
 GRD .GAPI   45 310 01 00:   GAMMA RAY FROM DENSITY LOG
 CORR.G/C3   45 356 01 00:   DENSITY CORRECTION
 RHOB.G/C3   45 350 01 00:   BULK DENSITY
 NPHI.DEC    42 890 03 00:   NEUTRON POROSITY SANDSTONE
~PARAMETER INFORMATION
#MNEM.UNIT          VALUE    DESCRIPTION
#----------   ------------   ------------------------------
 EKB .F         5320.0000:   Kelly bushing
 EGL .F         5310.0000:   Ground level
 EDF .F            0.0000:   Drilling floor
 TD  .F         4635.0000:   Total depth
 DATE.        08-MAR-1978:   Date logged
 CLNT.            A2DTECH:   Client Code
 SL  . 810' FSL & 1830' FEL:   Surface Location
 PD  .                 GL:   Permanent Datum
 DD  .F              4635:   Depth driller
 DL  .F              4608:   Depth logger
 BLI .F              4607:   Bottom log interval
 DFT .                FGM:   Type fluid in hole
 DFD .                9.1:   Density
 DFV .                 38:   Viscosity
 DFPH.                 11:   pH
 MSS .           FLOWLINE:   Source of sample
 RMS .OHMM           1.53:   Rm
 MST .F                58:   Rm Meas. temp.
 RMF .OHMM           1.06:   Rmf
 MFST.F                58:   Rmf Meas. temp.
 MFSS.               MEAS:   Source Rmf.
 RMB .OHMM           0.68:   Rm. at BHT
 BHT .F               131:   BHT.
 TCS .HRS            0630:   Time Circ. stopped
 MRT .F               131:   Maximum recorded temp.
 LUN .               8039:   Logging unit number
 LUL .               CSPP:   Logging unit location
 ENGI.           PETERSON:   Recorded By
 ORIG.           5" PRINT:   Origin of data
 UWI .     49025105920000:   Unique Well ID
 DICO. A2D TECHNOLOGIES, INC.:   Digitizing Company
 DAPD.                 20:   Feet Above Permanent Datum
 BSD1.               4635:   Depth drilled with bit1
 EPD .               5310:   Elevation Permanent Datum
 LMF .                 KB:   Log Measured From
 DMF .                 KB:   Drilling Measured From
 TLI .                508:   Top log interval
 CS1 .              8.625:   Casing size
 CBL1.                508:   Casing logger 1
 BS1 .              7.875:   Bit size
~OTHER INFORMATION
~A   DEPT      SPR        SFL        ILD        ILM       CALD         GRD      CORR       RHOB         NPHI 
# ...
 3473.0000   -55.5630     6.8410     6.9300     6.2530    10.7400   107.5770    -0.0030     2.4830     0.2670
 3473.5000   -57.2590     7.1990     7.2120     6.4910    10.7480   105.9160    -0.0020     2.5040     0.2640
 3474.0000   -58.3100     8.6980     7.4770     6.9310    10.7560   103.3860    -0.0020     2.5290     0.2610
 3474.5000   -59.4100    10.0610     7.7430     7.4560    10.7640   100.5680     0.0010     2.5510     0.2330
 3475.0000   -59.8920    11.3320     8.0080     7.9180    10.7730    99.8650     0.0040     2.5570     0.2210
 3475.5000   -60.0750    11.9710     8.2850     8.2340    10.7990   102.3580     0.0090     2.5600     0.2080
 3476.0000   -59.9550    11.4950     8.5910     8.5810    10.8240   107.5220     0.0130     2.5580     0.2060
 3476.5000   -59.6500    10.6410     8.8960     8.5590    10.8490   111.2440     0.0190     2.5550     0.2190
 3477.0000   -59.1220     9.8850     9.0170     8.5350    10.8710   112.0770     0.0340     2.5610     0.2290
 3477.5000   -58.1210     9.3260     9.0590     8.5020    10.8660   109.6710     0.0480     2.5660     0.2400
 3478.0000   -56.9690     9.4130     9.0710     8.6560    10.8610   105.4500     0.0600     2.5640     0.2480
 3478.5000   -55.5090    10.3700     8.6290     8.8740    10.8560    99.0960     0.0630     2.5530     0.2430
 3479.0000   -53.9450    11.4330     8.2880     9.0710    10.8520    95.5560     0.0510     2.5390     0.2370
 3479.5000   -52.3720    11.7520     8.0560     8.9050    10.8710    97.0500     0.0480     2.5350     0.2300
 3480.0000   -51.0220     9.9950     7.8590     8.3530    10.8930   101.5540     0.0430     2.5340     0.2290
 3480.5000   -49.8560     7.7510     7.4900     7.7410    10.9150   114.3100     0.0290     2.5270     0.2600
 3481.0000   -49.1590     7.0670     7.1220     7.0670    10.9370   119.6300     0.0150     2.5230     0.2720
 3481.5000   -48.1260     6.8730     6.7620     6.8420    10.9600   119.5040     0.0010     2.5230     0.2820
 3482.0000   -47.1300     7.2060     6.4110     6.5920    10.9820   116.8720     0.0040     2.5320     0.2790
 3482.5000   -46.2620     7.5390     6.0950     6.3410    10.9900   115.9280     0.0080     2.5410     0.2670
 3483.0000   -45.6680     7.1590     6.0040     6.1350    10.9900   117.6970     0.0060     2.5390     0.2690
 3483.5000   -45.4820     6.8140     5.9220     5.9280    10.9900   121.2430     0.0000     2.5280     0.2790
 3484.0000   -45.3120     6.5020     5.8400     5.8560    10.9900   126.6820    -0.0060     2.5190     0.2930
 3484.5000   -45.1390     6.3650     5.7660     5.7770    10.9900   131.1900    -0.0070     2.5130     0.3010
 3485.0000   -45.2230     6.2390     5.6820     5.6970    11.0060   132.0950    -0.0060     2.5140     0.3010
 3485.5000   -45.5650     6.1520     5.6060     5.6180    11.0300   129.8930    -0.0040     2.5290     0.2900
 3486.0000   -45.9060     6.1980     5.5300     5.5380    11.0410   128.4520     0.0080     2.5520     0.2800
 3486.5000   -46.2490     6.2090     5.4530     5.4580    11.0500   129.5770     0.0200     2.5660     0.2760
 3487.0000   -46.5910     6.1130     5.3770     5.3790    11.0500   130.6790     0.0210     2.5610     0.2850
 3487.5000   -46.8770     5.9350     5.3010     5.3010    11.0500   129.2930     0.0120     2.5420     0.2960
 3488.0000   -47.0230     5.5570     5.2250     5.2250    11.0500   128.3740     0.0020     2.5230     0.3080
 3488.5000   -47.0310     5.4990     5.1490     5.1490    11.0500   129.2530    -0.0060     2.5090     0.3170
 3489.0000   -47.0300     5.4280     5.0720     5.0730    11.0500   131.6480    -0.0050     2.5070     0.3190
 3489.5000   -47.0300     5.3400     5.0190     4.9960    11.0500   133.5870    -0.0040     2.5120     0.3170
 3490.0000   -47.0290     5.2520     5.0190     4.9600    11.0500   134.6640    -0.0020     2.5210     0.3140
 3490.5000   -47.0290     5.1600     5.0190     4.9410    11.0500   133.7910    -0.0030     2.5290     0.3050
 3491.0000   -47.0320     5.2970     5.0190     4.9220    11.0500   131.5300    -0.0040     2.5300     0.3050
 3491.5000   -47.0970     5.4020     5.0190     4.9030    11.0490   128.9150    -0.0040     2.5310     0.3050
 3492.0000   -47.3510     5.4840     5.0190     4.8820    11.0290   128.4540     0.0020     2.5370     0.3130
 3492.5000   -47.5940     5.5430     5.0780     4.9400    11.0080   131.4250     0.0130     2.5480     0.3210
 3493.0000   -47.8500     5.6080     5.1940     5.0550    10.9830   134.6300     0.0200     2.5520     0.3210
 3493.5000   -48.5150     5.7660     5.3110     5.1710    10.9430   135.4790     0.0130     2.5470     0.3190
 3494.0000   -49.1820     6.0160     5.4280     5.2860    10.9030   133.4000     0.0030     2.5380     0.3110
 3494.5000   -49.4010     6.2090     5.5570     5.4010    10.8620   130.1220    -0.0010     2.5310     0.2980
 3495.0000   -49.3100     6.4740     5.5460     5.5050    10.8220   126.9680     0.0030     2.5310     0.2940
 3495.5000   -49.1980     6.5630     5.5340     5.5050    10.7950   126.1170     0.0100     2.5370     0.2940
 3496.0000   -49.0830     6.5020     5.5230     5.5050    10.7730   126.7450     0.0150     2.5430     0.2980
 3496.5000   -48.8300     6.1520     5.5110     5.5050    10.7740   128.7420     0.0090     2.5360     0.3090
 3497.0000   -48.1450     6.0290     5.4860     5.4510    10.7770   130.2080     0.0020     2.5270     0.3110
 3497.5000   -47.4540     5.8920     5.4470     5.4020    10.7800   131.6740    -0.0030     2.5180     0.3110
 3498.0000   -47.2800     5.7560     5.4080     5.3530    10.7830   133.1520    -0.0030     2.5130     0.3090
 3498.5000   -47.1280     5.6600     5.3690     5.3030    10.7850   134.6550    -0.0030     2.5110     0.3070
 3499.0000   -46.9740     5.6600     5.3300     5.2540    10.7880   133.9840    -0.0020     2.5100     0.3070
 3499.5000   -46.8220     5.7210     5.2920     5.2050    10.7910   130.7160    -0.0010     2.5080     0.3080
 3500.0000   -46.5740     5.8440     5.2570     5.1600    10.7960   126.3470    -0.0020     2.5070     0.3090
 3500.5000   -46.3370     5.9660     5.2740     5.1790    10.8030   125.2470    -0.0030     2.5100     0.3080
 3501.0000   -46.1000     6.1520     5.2900     5.1960    10.8090   125.6100    -0.0030     2.5140     0.3060
 3501.5000   -45.8640     6.1300     5.3060     5.2130    10.8150   126.0420    -0.0020     2.5160     0.3040
 3502.0000   -45.6470     6.0860     5.3220     5.2300    10.8220   127.4820    -0.0010     2.5160     0.3040
 3502.5000   -45.6430     6.0430     5.3380     5.2470    10.8280   129.7870     0.0030     2.5160     0.3050
 3503.0000   -45.6430     5.9830     5.3540     5.2640    10.8310   130.3050     0.0060     2.5190     0.3080
 3503.5000   -45.6430     5.9980     5.3700     5.2800    10.8310   129.1140     0.0060     2.5220     0.3110
 3504.0000   -45.6440     6.0210     5.3860     5.2970    10.8310   127.9110     0.0040     2.5250     0.3140
 3504.5000   -45.6450     6.0440     5.4020     5.3140    10.8310   128.1680     0.0090     2.5360     0.3170
 3505.0000   -45.6450     6.0670     5.4190     5.3310    10.8310   129.0480     0.0150     2.5460     0.3180
 3505.5000   -45.8430     6.0910     5.4370     5.3480    10.8310   128.5690     0.0210     2.5500     0.3170
 3506.0000   -46.1660     6.1950     5.4550     5.3750    10.8310   127.8750     0.0160     2.5410     0.3130
 3506.5000   -46.4920     6.3180     5.4730     5.4080    10.8310   127.1780     0.0080     2.5280     0.3050
 3507.0000   -46.8180     6.4430     5.4910     5.4420    10.8310   125.2740    -0.0010     2.5180     0.3040
 3507.5000   -47.1450     6.4090     5.5090     5.4750    10.8310   122.8620    -0.0030     2.5170     0.3080
 3508.0000   -47.4720     6.3760     5.5270     5.5090    10.8310   120.4960     0.0030     2.5240     0.3110
 3508.5000   -47.6810     6.3420     5.5540     5.5570    10.8240   120.5830     0.0140     2.5330     0.3110
 3509.0000   -47.7910     6.3090     5.5420     5.5330    10.8130   125.4920     0.0180     2.5330     0.3110
