~VERSION INFORMATION
 VERS.                2.0:   CWLS LOG ASCII STANDARD - VERSION 2.0
 WRAP.                 NO:   ONE LINE PER DEPTH STEP
~WELL INFORMATION
#MNEM.UNIT      DATA TYPE    INFORMATION
#----------   ------------   ------------------------------
 STRT.F          199.0000:   START DEPTH
 STOP.F         2951.0000:   STOP DEPTH
 STEP.F            0.5000:   STEP LENGTH
 NULL.          -999.2500:   NO VALUE
 COMP.    FENIX & SCISSON:   COMPANY
 WELL. FENIX & SCISSON "A" #3-21:   WELL
 FLD .              XPR-3:   FIELD
 LOC .      S21 T39N R78W:   LOCATION
 CNTY.            NATRONA:   COUNTY
 STAT.            WYOMING:   STATE
 CTRY. UNITED STATES OF AMERICA:   COUNTRY
 SRVC.              WELEX:   SERVICE COMPANY
 DATE.        27-JUN-1977:   LOGDATE
 API .     49025103880000:   API NUMBER
~CURVE INFORMATION
#MNEM.UNIT       API CODE    CURVE DESCRIPTION
#----------   ------------   ------------------------------
 DEPT.F                  :   
 CALD.IN     45 280 60 00:   CALIPER FROM DENSITY LOG
 GRD .GAPI   45 310 01 00:   GAMMA RAY FROM DENSITY LOG
 CORR.G/C3   45 356 01 00:   DENSITY CORRECTION
 RHOB.G/C3   45 350 01 00:   BULK DENSITY
 SPR .MV     07 010 01 00:   SPONTANEOUS POTENTIAL
 ILD .OHMM   07 120 46 00:   DEEP INDUCTION RESISTIVITY
 ILM .OHMM   07 120 44 00:   INDUCTION LOG MEDIUM RESISTIVITY
 SGRD.OHMM   07 220 05 00:   SHALLOW SHORT GUARD RESISTIVITY
~PARAMETER INFORMATION
#MNEM.UNIT          VALUE    DESCRIPTION
#----------   ------------   ------------------------------
 EKB .F         4981.0000:   Kelly bushing
 EGL .F         4971.0000:   Ground level
 TD  .F         2953.0000:   Total depth
 CLNT.            A2DTECH:   Client Code
 SL  . 330' FSL & 1650' FWL:   Surface Location
 DATE.        27-JUN-1977:   Date Logged [DD-MMM-YYYY]
 DD  .F              2930:   Depth driller
 DL  .F              2953:   Depth logger
 BLI .F              2951:   Bottom log interval
 TLI .F               200:   Top log interval
 CS1 .              8.625:   Casing size
 CBD1.      8.625" @ 217':   Casing driller 1
 BS1 .IN            7.875:   Bit size
 BSD1.F              2930:   Depth drilled with bit1
 DFT .            KCL MUD:   Type fluid in hole
 DFD .                9.4:   Density
 DFV .                 37:   Viscosity
 DFPH.                9.0:   pH
 DFL .               16.0:   Fluid loss
 MSS .           FLOWLINE:   Source of sample
 RMS .OHMM           1.10:   Rm
 MST .F                92:   Rm Meas. temp.
 RMF .OHMM           0.85:   Rmf
 MFST.F                92:   Rmf Meas. temp.
 MFSS.           FANN KIT:   Source Rmf.
 RMC .OHMM           1.44:   Rmc
 MCST.F                92:   Rmc Meas. temp.
 MCSS.           FANN KIT:   Source Rmc.
 RMB .OHMM           0.93:   Rm. at BHT
 BHT .F               109:   BHT.
 TCS .HRS            0230:   Time Circ. stopped
 MRT .F               109:   Maximum recorded temp.
 LUN .               8611:   Logging unit number
 LUL .             CASPER:   Logging unit location
 ENGI.         G. BENTSEN:   Recorded By
 WITN.  MR. W. PETTINGILL:   Witnessed by
 ORIG.      2.5" 5" PRINT:   Origin of data
 UWI .     49025103880000:   Unique Well ID
 DICO. A2D TECHNOLOGIES, INC.:   Digitizing Company
 PD  .                 GL:   Permanent Datum
 EPD .               4971:   Elevation Permanent Datum
 LMF .                 KB:   Log Measured From
 DMF .                 KB:   Drilling Measured From
 DAPD.                 10:   Feet Above Permanent Datum
~OTHER INFORMATION
~A   DEPT       CALD       GRD       CORR        RHOB      SPR        ILD        ILM       SGRD   
# ...
  928.0000     9.6947    88.6378     0.0851     2.4852   -36.8758     5.8530     6.0775     6.7806
  928.5000     9.6331    86.1571     0.0628     2.4681   -36.8580     5.6581     5.9174     6.4585
  929.0000     9.7444    83.9861     0.0535     2.4711   -36.6637     5.5455     5.7606     6.9778
  929.5000    10.2989    81.8150     0.0519     2.4888   -36.8234     5.3240     5.6079     7.0299
  930.0000    10.8889    79.9536     0.0519     2.5080   -36.8012     5.1460     5.3476     6.7956
  930.5000    11.0832    78.0921     0.0518     2.5154   -36.7835     5.0443     5.1701     6.4792
  931.0000    11.4843    76.8498     0.0518     2.4833   -36.9181     5.0118     5.1372     5.9275
  931.5000    11.5150    75.9172     0.0518     2.4508   -37.0483     5.0499     5.1055     5.5742
  932.0000    11.1444    74.9845     0.0328     2.4276   -37.3264     5.0527     5.1808     5.3514
  932.5000    11.0076    76.5286     0.0173     2.4431   -37.3042     5.1609     5.2562     5.6189
  933.0000    11.7923    79.9303     0.0097     2.4663   -37.4388     5.3079     5.3328     5.9405
  933.5000    10.7090    83.0224     0.0069     2.4956   -37.5646     5.4968     5.4856     6.4117
  934.0000     9.8754    85.4954     0.0132     2.5172   -37.5469     5.6534     5.5655     7.0648
  934.5000     9.5972    87.6587     0.0163     2.5296   -37.5291     5.7746     5.6466     7.7844
  935.0000     9.4444    88.8932     0.0225     2.5420   -37.6638     5.8983     5.8084     8.0616
  935.5000     9.3841    90.1277     0.0306     2.5512   -37.6416     5.9833     5.9748     8.0713
  936.0000     9.3840    91.0526     0.0393     2.5651   -37.6238     6.1116     6.1038     8.0150
  936.5000     9.3529    91.3584     0.0423     2.5759   -37.6061     6.1572     6.1502     8.2435
  937.0000     9.3528    92.2833     0.0454     2.5790   -37.5884     6.1606     6.2398     8.3051
  937.5000     9.3526    94.7562     0.0485     2.5821   -37.5706     6.1639     6.2873     8.0838
  938.0000     9.3525    96.9195     0.0485     2.5836   -37.5529     6.0830     6.2916     7.9227
  938.5000     9.3475    98.7732     0.0454     2.5852   -37.8355     6.0023     6.2959     7.9272
  939.0000     9.3213   100.0077     0.0392     2.5852   -38.1136     6.0065     6.3003     7.9316
  939.5000     9.3212    98.4559     0.0360     2.5819   -38.2438     5.9677     6.2603     7.9359
  940.0000     9.3148    96.5944     0.0298     2.5735   -38.5219     5.9718     6.2657     7.9403
  940.5000     9.2900    95.0426     0.0236     2.5650   -38.6521     5.9333     6.2700     8.0583
  941.0000     9.2898    94.4195     0.0174     2.5566   -38.7823     5.8959     6.3177     8.0593
  941.5000     9.2588    93.1772     0.0142     2.5482   -39.4998     5.8586     6.3220     8.1756
  942.0000     9.2506    90.0774     0.0142     2.5449   -39.7823     5.8627     6.4585     8.4668
  942.5000     9.2276    92.5503     0.0142     2.5566   -39.7601     5.7857     6.3734     8.6484
  943.0000     9.2275    95.0232     0.0142     2.5683   -39.5945     5.7097     6.2905     8.4761
  943.5000     9.2273    95.6385     0.0142     2.5789   -39.5767     5.7129     6.2959     8.1937
  944.0000     9.2272    94.7059     0.0142     2.5683   -39.5590     5.7160     6.3438     8.4272
  944.5000     9.2270    94.0828     0.0141     2.5597   -39.3933     5.7192     6.3482     8.5488
  945.0000     9.2577    94.6981     0.0141     2.5550   -39.2277     5.7223     6.3526     8.3211
  945.5000     9.2576    96.8615     0.0141     2.5507   -39.2099     5.7255     6.3570     8.2685
  946.0000     9.2883    98.7152     0.0141     2.5476   -39.1922     5.7286     6.4053     8.4458
  946.5000     9.2881   102.7354     0.0141     2.5464   -39.0265     5.8112     6.4986     8.6866
  947.0000     9.2880   104.2795     0.0141     2.5554   -38.7129     5.8546     6.5031     8.9342
  947.5000     9.3009   105.5141     0.0141     2.5647   -38.5517     5.8578     6.5526     9.0631
  948.0000     9.3186   105.8204     0.0171     2.5709   -39.2692     5.8611     6.6024     9.0681
  948.5000     9.3184   106.4351     0.0171     2.5787   -39.6952     5.9048     6.6986     8.9489
  949.0000     9.3182   106.4312     0.0171     2.5876   -39.8254     5.9899     6.7496     8.9539
  949.5000     9.3031   106.4274     0.0202     2.5958   -40.3994     6.0346     6.8009     8.9588
  950.0000     9.2871   106.1139     0.0233     2.6066   -40.8299     6.0797     6.8087     8.9637
  950.5000     9.2710   104.5620     0.0233     2.6082   -41.1036     6.1855     6.8608     8.7285
  951.0000     9.2395    99.9142     0.0170     2.6019   -41.3861     6.3125     6.9083     8.6744
  951.5000     9.2248    98.3624     0.0139     2.5932   -41.6642     6.3897     6.8656     8.9883
  952.0000     9.2074    97.4297     0.0077     2.5821   -41.6421     6.4398     6.9668     9.1212
  952.5000     9.1759   100.8314     0.0139     2.5680   -41.6243     6.4855     7.0198     9.0023
  953.0000     9.1809   104.5427     0.0263     2.5759   -41.9025     6.5375     7.0732     9.1374
  953.5000     9.2242   104.5388     0.0356     2.5832   -41.8847     6.5826     7.1763     9.4660
  954.0000     9.2549   102.9870     0.0325     2.5880   -41.8670     6.6366     7.2308     9.6136
  954.5000     9.3165    97.7206     0.0294     2.5887   -41.7013     6.7274     7.2858     9.4827
  955.0000     9.3781    97.4071     0.0262     2.5896   -41.3877     6.7776     7.2908     9.4913
  955.5000     9.4088    97.0937     0.0262     2.5866   -41.0741     6.7813     7.4482     9.6981
  956.0000     9.4086    96.7802     0.0231     2.5790   -40.6126     6.7850     7.4533     9.5739
  956.5000     9.4085    96.7763     0.0231     2.5673   -40.1511     6.8439     7.4584     9.4514
  957.0000     9.3774    96.7724     0.0200     2.5580   -40.1836     6.9343     7.5152     9.4599
  957.5000     9.3464    97.0782     0.0168     2.5509   -40.3038     6.9868     7.6247     9.5337
  958.0000     9.3463    97.3839     0.0168     2.5509   -40.4240     7.0389     7.7357     9.7479
  958.5000     9.3461    97.9992     0.0168     2.5532   -40.4546     7.1404     7.8485    10.1872
  959.0000     9.3460    98.3050     0.0168     2.5578   -40.7227     7.1937     7.9628    10.7472
  959.5000     9.3767    96.4435     0.0168     2.5625   -41.0019     7.1976     7.9683    10.7563
  960.0000     9.4383    94.5820     0.0137     2.5664   -40.9741     7.2016     8.0289    10.5457
  960.5000     9.4690    94.5782     0.0136     2.5670   -40.5081     7.2553     8.0899    10.7039
  961.0000     9.4997    95.1935     0.0136     2.5632   -40.3380     7.3599     8.1515    10.9371
  961.5000     9.5304    95.8088     0.0136     2.5601   -39.8720     7.4148     8.1571    11.1754
  962.0000     9.5611    96.1146     0.0136     2.5576   -39.7018     7.5737     8.1627    11.4190
  962.5000     9.5918    96.4203     0.0136     2.5561   -39.9755     7.6302     8.2247    11.1953
  963.0000     9.5917    97.0356     0.0136     2.5545   -40.8409     7.6344     8.3446    11.1259
  963.5000     9.5606    96.4125     0.0136     2.5508   -41.1201     7.6913     8.4662    11.2153
  964.0000     9.5914    95.7895     0.0135     2.5508   -40.7964     7.7487     8.6489    11.3029
  964.5000     9.5912    95.1664     0.0135     2.5508   -39.8867     7.8065     8.7147    11.0815
  965.0000     9.5910    94.8529     0.0135     2.5508   -39.1248     7.8647     8.8416    11.1681
  965.5000     9.5909    94.2299     0.0135     2.5523   -38.8067     7.8691     8.7855    11.6497
  966.0000     9.5599    93.9164     0.0135     2.5569   -39.6721     7.8734     8.7930    11.7407
  966.5000     9.5597    91.7454     0.0166     2.5647   -39.7978     7.9321     8.8599    11.5877
  967.0000     9.5287    89.5743     0.0130     2.5693   -39.6277     8.0465     8.9273    11.3634
  967.5000     9.5278    87.4033     0.0099     2.5677   -39.4576     8.1065     9.1830    11.2153
  968.0000     9.4963    84.9226     0.0068     2.5569   -38.6957     8.1110     9.3168    11.8640
