~VERSION INFORMATION
 VERS.                2.0:   CWLS LOG ASCII STANDARD - VERSION 2.0
 WRAP.                 NO:   ONE LINE PER DEPTH STEP
~WELL INFORMATION
#MNEM.UNIT      DATA TYPE    INFORMATION
#----------   ------------   ------------------------------
 STRT.F          200.0000:   START DEPTH
 STOP.F         3196.5000:   STOP DEPTH
 STEP.F            0.5000:   STEP LENGTH
 NULL.          -999.2500:   NO VALUE
 COMP.    FENIX & SCISSON:   COMPANY
 WELL. FENIX & SCISSON #82-15:   WELL
 FLD .                NPR:   FIELD
 LOC .      S15 T38N R78W:   LOCATION
 CNTY.            NATRONA:   COUNTY
 STAT.            WYOMING:   STATE
 CTRY. UNITED STATES OF AMERICA:   COUNTRY
 SRVC.              WELEX:   SERVICE COMPANY
 DATE.        14-AUG-1977:   LOGDATE
 API .     49025104100000:   API NUMBER
~CURVE INFORMATION
#MNEM.UNIT       API CODE    CURVE DESCRIPTION
#----------   ------------   ------------------------------
 DEPT.F                  :   
 CALD.IN     45 280 60 00:   CALIPER FROM DENSITY LOG
 GRD .GAPI   45 310 01 00:   GAMMA RAY FROM DENSITY LOG
 RHOB.G/C3   45 350 01 00:   BULK DENSITY
 CORR.G/C3   45 356 01 00:   DENSITY CORRECTION
 SPR .MV     07 010 01 00:   SPONTANEOUS POTENTIAL
 ILD .OHMM   07 120 46 00:   DEEP INDUCTION RESISTIVITY
 ILM .OHMM   07 120 44 00:   INDUCTION LOG MEDIUM RESISTIVITY
 GURD.OHMM   07 220 05 00:   GUARD LOG RESISTIVITY
~PARAMETER INFORMATION
#MNEM.UNIT          VALUE    DESCRIPTION
#----------   ------------   ------------------------------
 EKB .F         5259.0000:   Kelly bushing
 EGL .F         5249.0000:   Ground level
 EDF .F            0.0000:   Drilling floor
 EPD .F            0.0000:   Permanent datum
 TD  .F         3197.0000:   Total depth
 CLNT.            A2DTECH:   Client Code
 SL  . 990' FNL & 330' FEL:   Surface Location
 PD  .                 GL:   Permanent Datum
 DAPD.F                10:   Feet Above Permanent Datum
 DATE.        14-AUG-1977:   Date Logged [DD-MMM-YYYY]
 DD  .F              3197:   Depth driller
 DL  .F              3200:   Depth logger
 BLI .F              3198:   Bottom log interval
 TLI .F               200:   Top log interval
 CS1 .IN            8.625:   Casing size
 CBD1.      8.625" @ 236':   Casing driller 1
 CBL1.F               220:   Casing logger 1
 BS1 .IN            7.875:   Bit size
 BSD1.F              3197:   Depth drilled with bit1
 DFT .            KCL MUD:   Type fluid in hole
 DFD .                9.1:   Density
 DFV .                 42:   Viscosity
 DFPH.               10.5:   pH
 DFL .                7.2:   Fluid loss
 MSS .           FLOWLINE:   Source of sample
 RMS .OHMM          0.240:   Rm
 MST .F                92:   Rm Meas. temp.
 RMF .OHMM          0.160:   Rmf
 MFST.F                92:   Rmf Meas. temp.
 MFSS.               MEAS:   Source Rmf.
 RMC .OHMM          0.238:   Rmc
 MCST.F                92:   Rmc Meas. temp.
 MCSS.               MEAS:   Source Rmc.
 RMB .OHMM          0.194:   Rm. at BHT
 BHT .F               114:   BHT.
 TCS .HRS               3:   Time Circ. stopped
 MRT .F               114:   Maximum recorded temp.
 LUN .               9685:   Logging unit number
 LUL .             CASPER:   Logging unit location
 ENGI.            C. DOAK:   Recorded By
 WITN.      W. PETTINGILL:   Witnessed by
 ORIG.           5" PRINT:   Origin of data
 UWI .     49025104100000:   Unique Well ID
 DICO. A2D TECHNOLOGIES, INC.:   Digitizing Company
~OTHER INFORMATION
~A   DEPT       CALD       GRD        RHOB      CORR       SPR        ILD        ILM       GURD   
# ...
  807.5000    14.3517   110.3745     2.4563     0.0348   -61.9126     5.8478     5.8979     6.1467
  808.0000    14.3375   110.2364     2.4497     0.0289   -63.0909     5.8526     5.8200     6.0678
  808.5000    14.3085   110.2511     2.4482     0.0290   -63.2229     5.7768     5.7852     5.9887
  809.0000    14.2946   110.8626     2.4505     0.0336   -63.3548     5.7032     5.7485     5.9519
  809.5000    14.2958   111.3212     2.4597     0.0352   -63.1835     5.7078     5.7140     5.8727
  810.0000    14.3119   109.9866     2.4649     0.0353   -63.1660     5.7125     5.7184     5.8382
  810.5000    14.3281   109.6956     2.4627     0.0310   -63.1485     5.6765     5.6832     5.8437
  811.0000    14.3453   109.8602     2.4538     0.0266   -63.1310     5.6031     5.6875     5.8480
  811.5000    14.3600   110.4717     2.4471     0.0252   -63.1135     5.5690     5.6524     5.8524
  812.0000    14.3612   110.7833     2.4434     0.0253   -62.9509     5.6133     5.6969     5.8568
  812.5000    14.3470   109.7456     2.4472     0.0270   -63.0792     5.6569     5.7012     5.8611
  813.0000    14.3483   108.4081     2.4532     0.0316   -63.0610     5.7404     5.7850     5.8655
  813.5000    14.3493   106.7707     2.4563     0.0317   -63.0433     5.7889     5.8295     5.9517
  814.0000    14.3653   107.3823     2.4556     0.0288   -63.0054     5.8310     5.8744     5.9562
  814.5000    14.3664   107.2064     2.4482     0.0274   -62.8546     5.8763     5.9196     6.0020
  815.0000    14.3374   106.8060     2.4475     0.0291   -62.8371     5.9630     5.9652     6.0483
  815.5000    14.3082   107.2705     2.4520     0.0367   -62.6702     6.0093     6.0111     6.1373
  816.0000    14.2945   108.3318     2.4603     0.0398   -62.3537     6.0142     6.0575     6.2285
  816.5000    14.2955   108.6434     2.4604     0.0339   -61.8878     6.1030     6.0630     6.2332
  817.0000    14.2966   108.5023     2.4573     0.0280   -61.7208     6.1503     6.0675     6.3688
  817.5000    14.3126   108.6669     2.4523     0.0252   -61.5538     6.1553     6.0721     6.4624
  818.0000    14.3288   108.9786     2.4479     0.0238   -61.6858     6.1603     6.1188     6.6030
  818.5000    14.3599   109.2902     2.4434     0.0254   -61.8226     6.1653     6.1659     6.6079
  819.0000    14.3759   109.9017     2.4420     0.0300   -62.2680     6.1704     6.2565     6.7051
  819.5000    14.3769   110.5132     2.4465     0.0331   -62.8247     6.2184     6.2612     6.7101
  820.0000    14.3779   113.1544     2.4496     0.0362   -63.1062     6.2245     6.2659     6.6686
  820.5000    14.3790   114.5046     2.4482     0.0379   -63.2425     6.2296     6.2705     6.6276
  821.0000    14.3800   114.5095     2.4437     0.0364   -63.2207     6.2347     6.2753     6.6327
  821.5000    14.3810   114.2154     2.4409     0.0366   -63.2032     6.2397     6.2800     6.5474
  822.0000    14.3820   113.9213     2.4371     0.0382   -62.8867     6.2448     6.2857     6.4610
  822.5000    14.3831   113.7768     2.4349     0.0385   -62.7197     6.2499     6.2904     6.3769
  823.0000    14.3841   114.0807     2.4365     0.0400   -62.5528     6.2549     6.2951     6.2939
  823.5000    14.3701   113.3102     2.4389     0.0401   -62.5351     6.2600     6.2997     6.2997
  824.0000    14.3386   112.4463     2.4456     0.0417   -62.5172     6.2219     6.2598     6.3044
  824.5000    14.2975   113.1998     2.4516     0.0403   -62.3464     6.2271     6.2656     6.3971
  825.0000    14.2533   114.1015     2.4607     0.0374   -62.3289     6.2322     6.2702     6.4019
  825.5000    14.2096   114.5549     2.4645     0.0346   -62.3114     6.2384     6.2749     6.4960
  826.0000    14.1656   113.9619     2.4616     0.0302   -62.4478     6.2434     6.2796     6.5915
  826.5000    14.1067   112.7710     2.4601     0.0273   -62.4259     6.2485     6.2844     6.6885
  827.0000    14.0775   111.5801     2.4617     0.0244   -62.4084     6.2092     6.2901     6.6946
  827.5000    14.0335   110.3892     2.4670     0.0230   -62.5411     6.2155     6.2948     6.6996
  828.0000    14.0498   109.1982     2.4685     0.0262   -62.6726     6.2205     6.2995     6.7046
  828.5000    14.0958   108.7535     2.4663     0.0248   -62.8043     6.2256     6.3041     6.7089
  829.0000    14.1268   109.0586     2.4604     0.0234   -62.9363     6.2307     6.3088     6.7146
  829.5000    14.1587   109.9604     2.4530     0.0190   -62.9144     6.2357     6.3135     6.7196
  830.0000    14.2039   110.7126     2.4447     0.0177   -62.7475     6.2409     6.3182     6.7246
  830.5000    14.2351   111.4649     2.4389     0.0193   -62.5805     6.2461     6.2792     6.6832
  831.0000    14.2362   112.2172     2.4434     0.0224   -62.4135     6.2522     6.2406     6.6419
  831.5000    14.2372   112.6815     2.4487     0.0225   -62.3960     6.2573     6.2021     6.6011
  832.0000    14.2382   112.9744     2.4533     0.0197   -62.5280     6.2624     6.2079     6.5604
  832.5000    14.2240   112.5321     2.4570     0.0198   -62.8094     6.2230     6.2125     6.4762
  833.0000    14.2403   111.3412     2.4594     0.0229   -62.9414     6.1851     6.1731     6.3466
  833.5000    14.2413   110.2998     2.4602     0.0290   -63.2277     6.1914     6.0518     6.3075
  834.0000    14.2573   109.4078     2.4595     0.0321   -63.5236     6.0272     5.9719     6.2254
  834.5000    14.2734   108.8148     2.4583     0.0352   -64.5288     6.0321     5.9362     6.1455
  835.0000    14.2894   109.1187     2.4571     0.0324   -64.6651     5.9540     5.7783     6.0643
  835.5000    14.3054   110.0205     2.4567     0.0309   -64.3443     5.8747     5.4332     6.0700
  836.0000    14.3064   110.9222     2.4590     0.0326   -64.1773     5.7553     5.3909     6.0745
  836.5000    14.3075   111.9735     2.4621     0.0357   -64.3137     5.7258     5.3623     5.9953
  837.0000    14.3235   113.1742     2.4675     0.0373   -64.1423     5.6517     5.2600     5.9174
  837.5000    14.2948   114.2254     2.4743     0.0329   -64.1248     5.5030     5.3754     5.8403
  838.0000    14.2658   115.2767     2.4727     0.0254   -64.1073     5.4307     5.4168     5.8447
  838.5000    14.2366   116.1785     2.4638     0.0182   -64.2393     5.3604     5.3824     5.7686
  839.0000    14.1779   116.7813     2.4571     0.0138   -64.3713     5.2910     5.3124     5.7740
  839.5000    14.1340   116.9357     2.4467     0.0110   -64.3494     5.2225     5.3173     5.7783
  840.0000    14.1050   116.9241     2.4385     0.0081   -64.3319     5.1918     5.1759     5.7030
  840.5000    14.0611   116.4715     2.4303     0.0082   -64.3144     5.1601     5.0382     5.6288
  841.0000    14.0471   115.7558     2.4259     0.0098   -64.4508     5.1272     4.8704     5.5172
  841.5000    14.0481   115.1628     2.4252     0.0114   -64.5827     5.0577     4.6434     5.3704
  842.0000    14.0492   114.7193     2.4328     0.0131   -64.5609     4.9634     4.7774     5.3005
  842.5000    14.0332   114.7242     2.4388     0.0087   -64.5434     4.8654     4.7488     5.1954
  843.0000    14.0062   114.8786     2.4359     0.0028   -64.3764     4.8014     4.6546     5.1634
  843.5000    13.9775   115.0330     2.4299     0.0000   -64.3587     4.7722     4.5308     5.1316
  844.0000    13.9336   115.0379     2.4231    -0.0029   -64.3408     4.7770     4.4103     5.1363
  844.5000    13.8894   114.7426     2.4106    -0.0028   -64.4690     4.7142     4.2047     5.1402
  845.0000    13.8457   114.5980     2.4069    -0.0027   -64.4515     4.6532     4.0088     5.1440
  845.5000    13.8167   115.0526     2.4025    -0.0026   -64.5835     4.5938     3.8485     5.1478
  846.0000    13.7875   115.8049     2.3988    -0.0010   -64.8649     4.5344     3.6691     5.0808
  846.5000    13.7588   116.2582     2.3973     0.0022   -65.1464     4.4758     3.5469     5.0495
  847.0000    13.7299   116.2631     2.3981     0.0038   -65.2827     4.4179     3.4505     4.9494
  847.5000    13.7159   115.8155     2.4012     0.0039   -65.2609     4.4223     3.3607     4.7845
