~VERSION INFORMATION
 VERS.                2.0:   CWLS LOG ASCII STANDARD - VERSION 2.0
 WRAP.                 NO:   ONE LINE PER DEPTH STEP
~WELL INFORMATION
#MNEM.UNIT      DATA TYPE    INFORMATION
#----------   ------------   ------------------------------
 STRT.F          199.5000:   START DEPTH
 STOP.F         2983.0000:   STOP DEPTH
 STEP.F            0.5000:   STEP LENGTH
 NULL.          -999.2500:   NO VALUE
 COMP.    FENIX & SCISSON:   COMPANY
 WELL. FENIX (UE-49) "AX" #52-29:   WELL
 FLD . U.S. NAVAL PETROLEUM RESERVE #3:   FIELD
 LOC .      S29 T39N R78W:   LOCATION
 CNTY.            NATRONA:   COUNTY
 STAT.            WYOMING:   STATE
 CTRY. UNITED STATES OF AMERICA:   COUNTRY
 SRVC.           BIRDWELL:   SERVICE COMPANY
 DATE.        07-AUG-1977:   LOGDATE
 API .     49025104090000:   API NUMBER
~CURVE INFORMATION
#MNEM.UNIT       API CODE    CURVE DESCRIPTION
#----------   ------------   ------------------------------
 DEPT.F                  :   
 GRD .GAPI   45 310 01 00:   GAMMA RAY FROM DENSITY LOG
 CALD.IN     45 280 60 00:   CALIPER FROM DENSITY LOG
 DEN .G/C3   45 350 01 00:   BULK DENSITY
 DCOR.G/C3   45 356 01 00:   DENSITY CORRECTION
 SN  .OHMM   05 040 16 00:   SHORT NORMAL 16"
 ILD .OHMM   05 120 46 00:   INDUCTION LOG DEEP RESISTIVITY
~PARAMETER INFORMATION
#MNEM.UNIT          VALUE    DESCRIPTION
#----------   ------------   ------------------------------
 EKB .F         4995.0000:   Kelly bushing
 EGL .F         4985.0000:   Ground level
 EDF .F            0.0000:   Drilling floor
 TD  .F         2973.0000:   Total depth
 DATE.         7-AUG-1977:   Date logged
 CLNT.            A2DTECH:   Client Code
 SL  . 1400' FNL & 2380' FEL:   Surface Location
 PD  .                 GL:   Permanent Datum
 EPD .F              4985:   Elevation Permanent Datum
 LMF .                 KB:   Log Measured From
 DMF .                 KB:   Drilling Measured From
 DAPD.F                10:   Feet Above Permanent Datum
 DD  .F              2972:   Depth driller
 DL  .F              2973:   Depth logger
 BLI .F              2968:   Bottom log interval
 TLI .F               216:   Top log interval
 CS1 .IN            8.625:   Casing size
 CBD1.      8.625" @ 216':   Casing driller 1
 CBL1.F               216:   Casing logger 1
 BS1 .IN            7.875:   Bit size
 BSD1.F              2972:   Depth drilled with bit1
 DFT .            GEL-KCL:   Type fluid in hole
 DFD .                8.9:   Density
 DFV .                 33:   Viscosity
 DFL .                  9:   Fluid loss
 MSS .            MUD PIT:   Source of sample
 RMS .OHMM           0.26:   Rm
 MST .F                73:   Rm Meas. temp.
 RMF .OHMM           0.26:   Rmf
 MFST.F                72:   Rmf Meas. temp.
 RMC .OHMM           0.96:   Rmc
 MCST.F                72:   Rmc Meas. temp.
 MFSS.              PRESS:   Source Rmf.
 RMB .OHMM           0.14:   Rm. at BHT
 BHT .F               130:   BHT.
 TCS .HRS               5:   Time Circ. stopped
 MRT .F               130:   Maximum recorded temp.
 LUN .               2958:   Logging unit number
 LUL .             CASPER:   Logging unit location
 ENGI.                LAW:   Recorded By
 WITN.             RHODES:   Witnessed by
 ORIG.           5" PRINT:   Origin of data
 UWI .     49025104090000:   Unique Well ID
 DICO. A2D TECHNOLOGIES, INC.:   Digitizing Company
~OTHER INFORMATION
~A   DEPT       GRD      CALD        DEN       DCOR         SN        ILD   
# ...
 2383.5000    55.0990     8.7830     2.5630     0.0140     7.1620     7.5120
 2384.0000    47.4030     8.7950     2.5810     0.0180     7.2840     7.6330
 2384.5000    59.6420     8.8850     2.5970     0.0170     7.3760     7.7540
 2385.0000    72.3220     8.9540     2.6040     0.0220     7.4330     7.8760
 2385.5000    76.6250     8.9990     2.5970     0.0230     7.3670     7.9990
 2386.0000    71.6700     9.0360     2.5880     0.0230     7.3180     7.9690
 2386.5000    64.2640     9.0440     2.5810     0.0230     7.2800     7.9260
 2387.0000    67.6900     9.0520     2.5800     0.0240     7.2500     7.9990
 2387.5000    67.8100     9.0380     2.5810     0.0240     7.2280     7.7820
 2388.0000    72.1670     9.0100     2.5830     0.0210     7.2170     8.0530
 2388.5000    73.7030     8.9950     2.5850     0.0120     7.2070     8.2220
 2389.0000    72.6060     9.0110     2.5740     0.0130     7.1970     8.2060
 2389.5000    75.3270     9.0280     2.5680     0.0130     7.1860     8.1900
 2390.0000    66.6100     9.0290     2.5700     0.0090     7.1760     8.1740
 2390.5000    68.0070     9.0190     2.5650     0.0050     7.1660     8.1590
 2391.0000    66.5580     9.0160     2.5590     0.0050     7.1850     8.1470
 2391.5000    73.1830     9.0190     2.5530     0.0080     7.2050     8.2290
 2392.0000    75.4920     9.0230     2.5570     0.0080     7.2240     8.2960
 2392.5000    71.3830     9.0260     2.5550     0.0070     7.2430     8.3630
 2393.0000    72.1260     9.0300     2.5530     0.0110     7.2630     8.3740
 2393.5000    73.8300     9.0330     2.5570     0.0140     7.2820     8.3740
 2394.0000    69.7080     9.0300     2.5610     0.0110     7.3010     8.3740
 2394.5000    69.3360     9.0210     2.5640     0.0070     7.3200     8.4300
 2395.0000    69.8130     9.0140     2.5600     0.0080     7.3400     8.5530
 2395.5000    67.5260     9.0280     2.5610     0.0120     7.3650     8.6760
 2396.0000    60.3990     9.0410     2.5660     0.0080     7.3570     8.7660
 2396.5000    60.1070     9.0540     2.5610     0.0200     7.3450     8.5560
 2397.0000    65.9020     9.0660     2.5710     0.0310     7.3320     8.3900
 2397.5000    71.4780     9.0610     2.5860     0.0330     7.3200     8.2240
 2398.0000    70.1420     9.0360     2.5970     0.0240     7.3070     8.0720
 2398.5000    69.2500     9.0380     2.5910     0.0240     7.2700     8.0720
 2399.0000    69.9070     9.0430     2.5870     0.0160     7.1720     8.1130
 2399.5000    73.3480     9.0480     2.5860     0.0170     7.0740     8.1470
 2400.0000    77.7190     9.0530     2.5720     0.0050     6.9760     7.8380
 2400.5000    77.7090     9.0590     2.5560     0.0000     6.8980     7.6400
 2401.0000    78.3680     9.0640     2.5450     0.0140     6.8670     7.6120
 2401.5000    79.7350     9.0690     2.5600     0.0230     6.8350     7.5710
 2402.0000    70.8580     9.0690     2.5760     0.0240     6.8040     7.5300
 2402.5000    71.8270     9.0400     2.5800     0.0150     6.7820     7.5020
 2403.0000    69.9560     9.0100     2.5700     0.0150     6.8650     7.5500
 2403.5000    74.5380     8.9800     2.5630     0.0160     6.9080     7.5860
 2404.0000    73.4090     8.9960     2.5690     0.0100     6.7460     7.6230
 2404.5000    75.4510     9.0140     2.5710     0.0100     6.6220     7.6400
 2405.0000    75.3740     9.0140     2.5580     0.0120     6.5380     7.2980
 2405.5000    73.8890     9.0140     2.5550     0.0130     6.5630     7.5020
 2406.0000    76.9140     9.0140     2.5640     0.0110     6.5820     7.3780
 2406.5000    70.1560     9.0140     2.5580     0.0130     6.5980     7.2680
 2407.0000    65.6030     9.0140     2.5530     0.0160     6.4590     7.1580
 2407.5000    67.2700     9.0140     2.5580     0.0190     6.3360     7.0470
 2408.0000    71.1700     9.0140     2.5650     0.0170     6.2670     6.9370
 2408.5000    77.5120     9.0140     2.5640     0.0210     6.2170     6.7190
 2409.0000    83.0940     9.0140     2.5610     0.0220     6.1680     6.5530
 2409.5000    76.3810     9.0140     2.5680     0.0290     6.1190     6.4680
 2410.0000    67.6060     9.0140     2.5780     0.0380     6.0730     6.3830
 2410.5000    73.6740     9.0140     2.5870     0.0380     6.0510     6.3610
 2411.0000    70.5740     9.0140     2.5880     0.0380     6.0280     6.4270
 2411.5000    65.1050     9.0140     2.5880     0.0360     6.0060     6.4790
 2412.0000    70.5600     9.0140     2.5860     0.0300     5.9830     6.4210
 2412.5000    71.5880     9.0140     2.5780     0.0280     5.9610     6.3610
 2413.0000    69.4840     9.0130     2.5790     0.0240     5.9390     6.3010
 2413.5000    71.3930     9.0090     2.5700     0.0240     5.9160     6.2400
 2414.0000    69.5190     9.0060     2.5680     0.0170     5.8940     6.1800
 2414.5000    71.3860     9.0030     2.5580     0.0180     5.8720     6.1200
 2415.0000    69.9060     9.0000     2.5570     0.0170     5.8490     6.0590
 2415.5000    79.1540     8.9960     2.5550     0.0130     5.8270     5.9660
 2416.0000    71.1480     8.9850     2.5390     0.0150     5.8040     5.9660
 2416.5000    64.4960     8.9440     2.5280     0.0310     5.8590     6.0110
 2417.0000    62.9000     8.9150     2.5380     0.0440     5.9160     6.0710
 2417.5000    63.2780     8.9150     2.5680     0.0500     5.9730     6.1320
 2418.0000    67.2280     8.9150     2.5820     0.0510     6.0330     6.2450
 2418.5000    71.4980     8.8940     2.5860     0.0450     6.1090     6.4000
 2419.0000    70.3450     8.8640     2.5820     0.0380     6.1840     6.5580
 2419.5000    70.1950     8.8350     2.5830     0.0300     6.2710     6.7200
 2420.0000    71.0300     8.8050     2.5700     0.0220     6.4180     6.9900
 2420.5000    71.7150     8.7760     2.5570     0.0190     6.5950     7.3480
 2421.0000    68.7100     8.7550     2.5420     0.0200     6.9060     7.7230
 2421.5000    63.1850     8.7490     2.5350     0.0210     7.3620     8.7540
 2422.0000    53.6740     8.7430     2.5200     0.0140     7.9190    10.7160
 2422.5000    43.0110     8.7250     2.5020     0.0140     8.4770    12.7960
 2423.0000    38.2050     8.6360     2.4850     0.0190     9.0350    15.3870
 2423.5000    33.1500     8.6670     2.4650     0.0210     9.5220    17.4760
 2424.0000    32.6940     8.7180     2.4520     0.0220    10.0360    18.7920
 2424.5000    32.7190     8.6840     2.4640     0.0230    10.8580    20.1080
 2425.0000    33.0450     8.6850     2.4990     0.0080    11.5110    21.4240
 2425.5000    34.5070     8.6930     2.5030    -0.0050    11.8000    22.7380
 2426.0000    35.9770     8.7480     2.4760     0.0000    11.8620    21.4350
 2426.5000    41.3580     8.7930     2.4470     0.0130    11.6470    20.2330
 2427.0000    46.3940     8.7870     2.4390     0.0220    11.7940    16.9590
 2427.5000    48.1800     8.7810     2.4410     0.0260    11.9780    17.0380
 2428.0000    49.9350     8.7780     2.4520     0.0210    12.1610    17.4460
 2428.5000    48.7500     8.7830     2.4830     0.0220    12.3050    18.2650
 2429.0000    48.4190     8.7870     2.4650     0.0240    12.2740    18.8790
 2429.5000    48.3850     8.7920     2.4800     0.0220    12.2490    19.6320
 2430.0000    46.7390     8.7960     2.4990     0.0180    12.2230    20.7470
 2430.5000    45.7460     8.7960     2.5160     0.0120    12.1970    20.4150
 2431.0000    45.5460     8.7970     2.5010     0.0100    12.0720    19.8050
 2431.5000    46.2260     8.7970     2.4900     0.0120    11.9260    18.9310
 2432.0000    47.6230     8.8500     2.4780     0.0240    11.7790    18.0820
 2432.5000    49.8030     8.8810     2.4730     0.0290    11.5590    15.6530
 2433.0000    53.4420     8.8720     2.4920     0.0280    11.3240    14.5490
 2433.5000    58.0980     8.8690     2.5020     0.0280    11.0880    14.1830
 2434.0000    61.3590     8.8650     2.5090     0.0270    10.8530    13.8160
 2434.5000    58.3650     8.8610     2.5150     0.0280    10.6270    13.3420
 2435.0000    55.1670     8.8590     2.5170     0.0270    10.4920    12.9360
