~VERSION INFORMATION
 VERS.                2.0:   CWLS LOG ASCII STANDARD - VERSION 2.0
 WRAP.                 NO:   ONE LINE PER DEPTH STEP
~WELL INFORMATION
#MNEM.UNIT      DATA TYPE    INFORMATION
#----------   ------------   ------------------------------
 STRT.F           10.0000:   START DEPTH
 STOP.F         3180.0000:   STOP DEPTH
 STEP.F            0.5000:   STEP LENGTH
 NULL.          -999.2500:   NO VALUE
 COMP. LAWRENCE - ALLISON WEST:   COMPANY
 WELL. LAWRENCE ALLISON NPR 3 "AX" #17-2:   WELL
 FLD .                NPR:   FIELD
 LOC .       S2 T38N R78W:   LOCATION
 CNTY.            NATRONA:   COUNTY
 STAT.            WYOMING:   STATE
 CTRY. UNITED STATES OF AMERICA:   COUNTRY
 SRVC.      DRESSER ATLAS:   SERVICE COMPANY
 DATE.        16-FEB-1987:   LOGDATE
 API .     49025111210000:   API NUMBER
~CURVE INFORMATION
#MNEM.UNIT       API CODE    CURVE DESCRIPTION
#----------   ------------   ------------------------------
 DEPT.F                  :   
 DEN .LBS    45 350 01 00:   BULK DENSITY
 CORR.G/C3   45 356 01 00:   DENSITY CORRECTION
 TEND.LBS    45 635 01 00:   TENSION FROM DENSITY LOG
 CNC .DEC    42 890 01 00:   NEUTRON PORISITY LIMESTONE
 CALR.IN     07 280 01 00:   CALIPER FROM RESISTIVITY
 SPR .MV     07 010 01 00:   SPONTANEOUS POTENTIAL
 GRR .GAPI   07 310 01 00:   GAMMA RAY FROM RESISTIVITY
 RFOC.OHMM   07 220 04 00:   RESISTIVITY FOCUSED LOG RES.
 ILD .OHMM   07 120 46 00:   DEEP INDUCTION RESISTIVITY
 ILM .OHMM   07 120 44 00:   INDUCTION LOG MEDIUM RESISTIVITY
 TENR.LBS    07 635 01 00:   TENSION FROM RESISTIVITY
~PARAMETER INFORMATION
#MNEM.UNIT          VALUE    DESCRIPTION
#----------   ------------   ------------------------------
 EKB .F         5141.0000:   Kelly bushing
 EGL .F         5129.0000:   Ground level
 EDF .F            0.0000:   Drilling floor
 EPD .F            0.0000:   Permanent datum
 TD  .F         3161.0000:   Total depth
 DATE.        16-FEB-1987:   Date logged
 CLNT.            A2DTECH:   Client Code
 SL  . 1125' FSL & 220' FWL:   Surface Location
 PD  .                 GL:   Permanent Datum
 DAPD.F                12:   Feet Above Permanent Datum
 DD  .F              3161:   Depth driller
 DL  .F              3158:   Depth logger
 BLI .F              3156:   Bottom log interval
 TLI .F                12:   Top log interval
 CS1 .IN            8.625:   Casing size
 CBD1.      8.625" @ 626':   Casing driller 1
 CBL1.F               626:   Casing logger 1
 BS1 .IN            7.875:   Bit size
 BSD1.F              3161:   Depth drilled with bit1
 DFT .        KCL/POLYMER:   Type fluid in hole
 DFD .                8.8:   Density
 DFV .                 39:   Viscosity
 DFPH.                 10:   pH
 DFL .                8.4:   Fluid loss
 MSS .           FLOWLINE:   Source of sample
 RMS .OHMM           .292:   Rm
 MST .F                82:   Rm Meas. temp.
 RMF .OHMM           .231:   Rmf
 MFST.F                82:   Rmf Meas. temp.
 RMC .OHMM           .365:   Rmc
 MCST.F                82:   Rmc Meas. temp.
 MFSS.               MEAS:   Source Rmf.
 MCSS.               CALC:   Source Rmc.
 RMB .OHMM           .203:   Rm. at BHT
 BHT .F               118:   BHT.
 TCS .HRS               3:   Time Circ. stopped
 MRT .F               118:   Maximum recorded temp.
 LUN .            HL-6274:   Logging unit number
 LUL .           GALLETTE:   Logging unit location
 ENGI.            PANASUK:   Recorded By
 WITN.             STRONG:   Witnessed by
 ORIG.           5" PRINT:   Origin of data
 UWI .     49025111210000:   Unique Well ID
 DICO. A2D TECHNOLOGIES, INC.:   Digitizing Company
~OTHER INFORMATION
~A   DEPT      DEN       CORR       TEND        CNC       CALR        SPR          GRR     RFOC        ILD        ILM       TENR   
# ...
 1291.0000  -999.2500  -999.2500  -999.2500  -999.2500     9.0983   -15.0902   100.2360     8.7890     7.7729     7.8938   -85.9042
 1291.5000  -999.2500  -999.2500  -999.2500  -999.2500     9.0982   -15.0912    99.4400     8.8698     7.7726     7.8935   -85.8546
 1292.0000  -999.2500  -999.2500  -999.2500  -999.2500     9.0981   -15.0922    96.6548     8.9514     7.4917     7.8930   -75.8050
 1292.5000  -999.2500  -999.2500  -999.2500  -999.2500     9.0980   -14.8944    93.0743     8.8690     7.7008     7.8927   -85.7553
 1293.0000  -999.2500  -999.2500  -999.2500  -999.2500     9.1179   -15.0942    93.4699     8.7874     7.7004     7.8923   -85.7056
 1293.5000  -999.2500  -999.2500  -999.2500  -999.2500     9.0978   -15.0952    93.8656     8.7870     7.7001     7.8919   -85.6560
 1294.0000  -999.2500  -999.2500  -999.2500  -999.2500     9.0977   -15.2950    94.6588     8.8678     7.6997     7.8917   -75.6063
 1294.5000  -999.2500  -999.2500  -999.2500  -999.2500     9.0976   -15.4944    95.0544     8.8674     7.7704     7.8914   -85.5567
 1295.0000  -999.2500  -999.2500  -999.2500  -999.2500     9.0975   -15.6745    95.4501     8.8670     7.7701     7.8909   -85.5070
 1295.5000  -999.2500  -999.2500  -999.2500  -999.2500     9.0974   -15.6955    97.8337     8.7854     7.6987     7.8905   -85.4574
 1296.0000  -999.2500  -999.2500  -999.2500  -999.2500     9.0774   -15.6965    98.2294     8.5458     7.6983     7.8901   -75.4077
 1296.5000  -999.2500  -999.2500  -999.2500  -999.2500     9.0972   -15.4987    97.0346     8.7846     7.7690     7.8899   -85.3580
 1297.0000  -999.2500  -999.2500  -999.2500  -999.2500     9.0972   -15.1021    94.6469     8.8654     7.7687     7.8894   -85.3084
 1297.5000  -999.2500  -999.2500  -999.2500  -999.2500     9.0970   -14.7055    97.0306     8.8650     7.7683     7.8891   -85.2587
 1298.0000  -999.2500  -999.2500  -999.2500  -999.2500     9.0969   -14.7065    98.2215     8.6232     7.7680     7.8888   -75.2091
 1298.5000  -999.2500  -999.2500  -999.2500  -999.2500     9.0968   -14.7074    94.6374     8.8642     7.9117     8.1090   -85.1594
 1299.0000  -999.2500  -999.2500  -999.2500  -999.2500     9.0967   -14.9065    90.6625     9.1118     8.0581     8.2591   -85.1098
 1299.5000  -999.2500  -999.2500  -999.2500  -999.2500     9.0966   -15.3058    88.6725     9.3664     7.9840     8.2587   -85.0502
 1300.0000  -999.2500  -999.2500  -999.2500  -999.2500     9.0966   -15.3068    90.6585     9.8975     7.9837     8.2584   -75.0006
 1300.5000  -999.2500  -999.2500  -999.2500  -999.2500     9.0964   -15.4937    88.9254     9.9842     7.9832     8.0405   -83.4177
 1301.0000  -999.2500  -999.2500  -999.2500  -999.2500     9.0962   -15.7083    88.2651     9.5382     7.9823     7.9587   -84.8027
 1301.5000  -999.2500  -999.2500  -999.2500  -999.2500     9.0363   -15.9090    88.6588     9.0251     8.0552     7.9581   -84.7034
 1302.0000  -999.2500  -999.2500  -999.2500  -999.2500     9.0361   -16.1098    89.4501     8.8598     8.0545     7.9574   -94.6042
 1302.5000  -999.2500  -999.2500  -999.2500  -999.2500     9.0475   -15.9129    97.7959     8.8590     8.0538     8.0300   -94.5050
 1303.0000  -999.2500  -999.2500  -999.2500  -999.2500     9.0589   -15.9141    97.3944     9.1061     7.9062     8.0296   -94.4058
 1303.5000  -999.2500  -999.2500  -999.2500  -999.2500     9.0703   -15.4157    93.4144     9.1894     7.9785     8.1774   -84.3066
 1304.0000  -999.2500  -999.2500  -999.2500  -999.2500     9.0817   -15.3228    91.8200     9.4459     7.9777     8.1767   -84.2074
 1304.5000  -999.2500  -999.2500  -999.2500  -999.2500     9.0947   -14.9272    89.0336     9.7989     7.9040     8.1761   -84.1082
 1305.0000  -999.2500  -999.2500  -999.2500  -999.2500     9.0945   -14.9291    94.5954     9.1026     7.8310     8.1007   -84.0090
 1305.5000  -999.2500  -999.2500  -999.2500  -999.2500     9.0944   -15.1299    97.3747     8.9358     7.7587     7.9520   -83.9098
 1306.0000  -999.2500  -999.2500  -999.2500  -999.2500     9.0941   -15.1319    95.3828     8.8531     7.5470     7.8066   -73.8106
 1306.5000  -999.2500  -999.2500  -999.2500  -999.2500     9.0940   -15.5314    94.5860     8.7713     7.6161     7.5933   -83.7114
 1307.0000  -999.2500  -999.2500  -999.2500  -999.2500     9.0739   -15.7318    89.0108     8.6901     7.3404     7.3184   -83.6121
 1307.5000  -999.2500  -999.2500  -999.2500  -999.2500     9.0140   -16.0022    89.3468     8.3754     7.0101     7.2509   -83.5129
 1308.0000  -999.2500  -999.2500  -999.2500  -999.2500     9.0138   -16.1338    90.1973     8.1466     7.0742     7.0530   -83.4137
 1308.5000  -999.2500  -999.2500  -999.2500  -999.2500     9.0136   -15.9369    92.9767     7.9974     7.0735     7.0522   -83.3145
 1309.0000  -999.2500  -999.2500  -999.2500  -999.2500     9.0134   -15.9389    96.9488     8.1451     7.0082     7.0516   -83.2153
 1309.5000  -999.2500  -999.2500  -999.2500  -999.2500     9.0132   -15.7420    98.1377     8.4499     7.0722     7.0509   -83.1161
 1310.0000  -999.2500  -999.2500  -999.2500  -999.2500     9.0528   -15.7440    97.7362     8.5275     7.0716     7.0503   -83.0169
 1310.5000  -999.2500  -999.2500  -999.2500  -999.2500     9.0327   -15.7460    90.9729     8.4482     7.0062     7.0498   -82.9177
 1311.0000  -999.2500  -999.2500  -999.2500  -999.2500     9.0126   -15.9467    85.0025     8.4474     7.0056     6.9845   -82.8185
 1311.5000  -999.2500  -999.2500  -999.2500  -999.2500     9.0124   -15.7483    85.4001     8.3693     7.0050     7.0483   -82.7193
 1312.0000  -999.2500  -999.2500  -999.2500  -999.2500     9.0321   -16.1499    88.5755     8.3685     7.0043     7.0477   -82.6002
 1312.5000  -999.2500  -999.2500  -999.2500  -999.2500     9.0319   -15.5554    96.9213     8.0651     7.0037     7.0473   -82.5407
 1313.0000  -999.2500  -999.2500  -999.2500  -999.2500     9.0118   -15.1598    98.5078     8.0646     6.8124     6.9819   -82.4220
 1313.5000  -999.2500  -999.2500  -999.2500  -999.2500     9.0315   -15.1617    97.3111     8.2896     6.8749     6.8541   -82.3032
 1314.0000  -999.2500  -999.2500  -999.2500  -999.2500     9.0313   -15.1637    94.9215     8.5209     6.8114     6.8534   -82.2034
 1314.5000  -999.2500  -999.2500  -999.2500  -999.2500     9.0112   -15.1657    94.5200     8.2881     6.8736     6.7900   -82.1024
 1315.0000  -999.2500  -999.2500  -999.2500  -999.2500     9.0110   -14.7700    94.9136     8.0617     6.8730     6.7896   -82.0015
 1315.5000  -999.2500  -999.2500  -999.2500  -999.2500     9.0307   -14.9696    97.2954     7.9136     6.9358     6.8517   -81.9005
 1316.0000  -999.2500  -999.2500  -999.2500  -999.2500     9.0305   -14.9728    98.8819     7.9134     6.9992     6.9142   -81.8065
 1316.5000  -999.2500  -999.2500  -999.2500  -999.2500     9.0105   -15.7699   100.4684     7.9125     6.9986     6.9137   -91.7668
 1317.0000  -999.2500  -999.2500  -999.2500  -999.2500     9.0103   -16.1695   102.0533     8.2083     7.0625     7.0414   -87.6501
 1317.5000  -999.2500  -999.2500  -999.2500  -999.2500     9.0299   -16.3703   102.0502     8.2835     7.0618     7.1055   -83.5334
 1318.0000  -999.2500  -999.2500  -999.2500  -999.2500     9.0297   -15.9746   101.2510     8.6727     7.1265     7.1050   -81.4097
 1318.5000  -999.2500  -999.2500  -999.2500  -999.2500     9.0096   -16.3742    95.6806     8.7519     7.1916     7.1045   -84.5551
 1319.0000  -999.2500  -999.2500  -999.2500  -999.2500     9.0293   -15.9786    95.6766     8.7511     7.1250     7.1036   -87.7005
 1319.5000  -999.2500  -999.2500  -999.2500  -999.2500     9.0291   -15.9801    95.2751     8.6701     7.1244     7.0379   -90.8459
 1320.0000  -999.2500  -999.2500  -999.2500  -999.2500     9.0488   -15.7841    94.8736     8.6694     7.1237     7.0373   -81.0129
 1320.5000  -999.2500  -999.2500  -999.2500  -999.2500     9.0486   -15.1896    90.4959     8.4326     7.1231     6.9725   -90.9533
 1321.0000  -999.2500  -999.2500  -999.2500  -999.2500     9.0683   -15.1916    90.8896     8.4318     7.1224     6.9716   -86.7381
