~VERSION INFORMATION
 VERS.                2.0:   CWLS LOG ASCII STANDARD - VERSION 2.0
 WRAP.                 NO:   ONE LINE PER DEPTH STEP
~WELL INFORMATION
#MNEM.UNIT      DATA TYPE    INFORMATION
#----------   ------------   ------------------------------
 STRT.F          198.0000:   START DEPTH
 STOP.F         3140.0000:   STOP DEPTH
 STEP.F            0.5000:   STEP LENGTH
 NULL.          -999.2500:   NO VALUE
 COMP.    FENIX & SCISSON:   COMPANY
 WELL. FENIX NPR 3 "AX" #43-34:   WELL
 FLD .                NPR:   FIELD
 LOC .      S34 T39N R78W:   LOCATION
 CNTY.            NATRONA:   COUNTY
 STAT.            WYOMING:   STATE
 CTRY. UNITED STATES OF AMERICA:   COUNTRY
 SRVC.              WELEX:   SERVICE COMPANY
 DATE.        02-JUL-1977:   LOGDATE
 API .     49025103890000:   API NUMBER
~CURVE INFORMATION
#MNEM.UNIT       API CODE    CURVE DESCRIPTION
#----------   ------------   ------------------------------
 DEPT.F                  :   
 CALD.IN     45 280 60 00:   CALIPER FROM DENSITY LOG
 GRD .GAPI   45 310 01 00:   GAMMA RAY FROM DENSITY LOG
 RHOB.G/C3   45 350 01 00:   BULK DENSITY
 CORR.G/C3   45 356 01 00:   DENSITY CORRECTION
 SPR .MV     07 010 01 00:   SPONTANEOUS POTENTIAL
 SFLU.OHMM   07 220 01 00:   SPHERICALLY FOCUSED LOG UNAVERAGED RESISTIVITY
 ILD .OHMM   07 120 46 00:   DEEP INDUCTION RESISTIVITY
 ILM .OHMM   07 120 44 00:   INDUCTION LOG MEDIUM RESISTIVITY
~PARAMETER INFORMATION
#MNEM.UNIT          VALUE    DESCRIPTION
#----------   ------------   ------------------------------
 EKB .F         5118.0000:   Kelly bushing
 EGL .F         5108.0000:   Ground level
 TD  .F         3145.0000:   Total depth
 DATE.        02-JUL-1977:   Date logged
 CLNT.            A2DTECH:   Client Code
 SL  . 1650' FNL & 2310' FWL:   Surface Location
 PD  .                 GL:   Permanent Datum
 EPD .F              5108:   Elevation Permanent Datum
 LMF .                 KB:   Log Measured From
 DMF .                 KB:   Drilling Measured From
 DAPD.F                10:   Feet Above Permanent Datum
 DD  .F              3145:   Depth driller
 DL  .F              3143:   Depth logger
 BLI .F              3141:   Bottom log interval
 TLI .F               200:   Top log interval
 CS1 .IN            8.625:   Casing size
 CBD1.      8.625" @ 203':   Casing driller 1
 CBL1.F               224:   Casing logger 1
 BS1 .IN            7.875:   Bit size
 BSD1.F              3145:   Depth drilled with bit1
 DFT .            KCL/MUD:   Type fluid in hole
 DFD .                  9:   Density
 DFV .                 34:   Viscosity
 DFPH.                7.5:   pH
 DFL .                9.2:   Fluid loss
 MSS .           FLOWLINE:   Source of sample
 RMS .OHMM            .18:   Rm
 MST .F                75:   Rm Meas. temp.
 RMF .OHMM            .16:   Rmf
 MFST.F                75:   Rmf Meas. temp.
 RMC .OHMM            .30:   Rmc
 MCST.F                75:   Rmc Meas. temp.
 MFSS.               FANN:   Source Rmf.
 MCSS.                KIT:   Source Rmc.
 RMB .OHMM            .11:   Rm. at BHT
 BHT .F               118:   BHT.
 TCS .HRS            3.75:   Time Circ. stopped
 MRT .F               118:   Maximum recorded temp.
 LUN .               8766:   Logging unit number
 LUL .             CASPER:   Logging unit location
 ENGI.          T. JOYNER:   Recorded By
 WITN.     W. PETTNG/GILL:   Witnessed by
 ORIG.           5" PRINT:   Origin of data
 UWI .     49025103890000:   Unique Well ID
 DICO. A2D TECHNOLOGIES, INC.:   Digitizing Company
~OTHER INFORMATION
~A   DEPT     CALD         GRD        RHOB     CORR        SPR       SFLU        ILD        ILM   
# ...
 1575.0000     8.3541   134.6928     2.5143     0.0348   -50.5960     9.0946     6.5765     6.5765
 1575.5000     8.3553   134.6895     2.5193     0.0308   -50.5992     8.9293     6.5765     6.5765
 1576.0000     8.3565   134.6862     2.5213     0.0307   -50.6040     8.7670     6.5765     6.5765
 1576.5000     8.3577   134.2859     2.5282     0.0387   -50.6072     8.7670     6.5765     6.6813
 1577.0000     8.3589   135.0772     2.5302     0.0466   -50.6120     8.7670     6.5765     6.6985
 1577.5000     8.3601   134.2792     2.5322     0.0426   -50.6152     8.7670     6.5765     6.9494
 1578.0000     8.3613   136.2615     2.5332     0.0426   -50.6200     8.7670     6.5765     7.0784
 1578.5000     8.3625   134.6702     2.5322     0.0426   -50.6232     8.7670     6.5765     7.0784
 1579.0000     8.3637   135.4609     2.5272     0.0426   -50.2296     8.6076     6.5765     7.2097
 1579.5000     8.3649   137.4380     2.5242     0.0426   -50.2328     8.6076     6.5765     7.2097
 1580.0000     8.3662   137.4360     2.5212     0.0386   -50.2376     8.9293     6.6985     7.2097
 1580.5000     8.3661   137.4340     2.5172     0.0386   -50.2408     9.0946     6.6985     7.2097
 1581.0000     8.3659   136.6354     2.5172     0.0385   -50.2456     9.0946     6.6985     7.2097
 1581.5000     8.3658   133.8564     2.5162     0.0385   -50.2488     9.0946     6.6985     7.2097
 1582.0000     8.3657   132.2646     2.5172     0.0345   -50.2536     9.0946     6.6985     7.2097
 1582.5000     8.3656   132.6582     2.5192     0.0345   -50.6552     9.0946     6.4567     7.0784
 1583.0000     8.3654   131.8610     2.5212     0.0424   -50.2616     9.0946     6.4567     7.0784
 1583.5000     8.3653   132.2547     2.5212     0.0384   -50.2648     9.0946     6.3391     6.9494
 1584.0000     8.3652   133.8398     2.5212     0.0345   -50.6680     9.0946     6.2236     6.5765
 1584.5000     8.3651   131.8512     2.5192     0.0344   -50.6712     8.9293     6.2236     6.5765
 1585.0000     8.3650   131.0540     2.5132     0.0344   -50.6760     8.6076     6.2236     6.5765
 1585.5000     8.3648   131.8446     2.5092     0.0344   -50.6792     8.6076     6.2236     6.5765
 1586.0000     8.3647   130.6505     2.5052     0.0384   -50.6840     8.4512     6.2236     6.5765
 1586.5000     8.3646   131.0441     2.5022     0.0344   -50.6872     8.4512     6.2236     6.5765
 1587.0000     8.3645   133.4230     2.5002     0.0304   -50.6920     8.4512     6.2236     6.6985
 1587.5000     8.3643   136.1967     2.4982     0.0303   -50.2968     8.7670     6.3391     6.6985
 1588.0000     8.3642   136.1954     2.4982     0.0303   -49.9032     8.4512     6.2236     6.6985
 1588.5000     8.3641   136.9852     2.4982     0.0303   -50.3048     8.2975     6.2236     6.6985
 1589.0000     8.3640   135.3943     2.5002     0.0303   -50.7080     8.2975     6.1103     6.6985
 1589.5000     8.3639   135.3909     2.5002     0.0303   -50.7112     8.2975     6.1103     6.6985
 1590.0000     8.3637   133.7963     2.5022     0.0302   -50.7160     8.2975     6.1103     6.6985
 1590.5000     8.3636   136.9694     2.5081     0.0302   -50.3208     8.6076     6.1103     6.6985
 1591.0000     8.3635   137.3653     2.5161     0.0342   -50.3256     8.6076     6.2236     6.6985
 1591.5000     8.3634   135.7745     2.5220     0.0382   -50.3288     8.6076     6.3391     6.8228
 1592.0000     8.3632   133.3899     2.5240     0.0382   -50.3336     8.6076     6.4567     6.8228
 1592.5000     8.3631   137.3553     2.5240     0.0341   -50.3368     8.6076     6.6985     6.9494
 1593.0000     8.3630   137.3520     2.5220     0.0262   -50.3416     9.0946     6.6985     7.0784
 1593.5000     8.3629   134.5706     2.5240     0.0262   -50.3448     9.0946     6.6985     7.2097
 1594.0000     8.3628   135.3610     2.5379     0.0341   -50.3496     8.7670     6.6985     7.2097
 1594.5000     8.3626   134.1671     2.5429     0.0460   -50.3528     8.6076     6.6985     7.0784
 1595.0000     8.3625   134.5606     2.5379     0.0420   -50.3576     8.6076     6.4567     6.9494
 1595.5000     8.3624   135.7478     2.5290     0.0420   -50.3608     8.6076     6.3391     6.8228
 1596.0000     8.3623   137.3319     2.5260     0.0380   -50.3656     8.4512     6.2236     6.6985
 1596.5000     8.3621   137.3285     2.5260     0.0380   -50.3688     9.0946     6.1103     6.5765
 1597.0000     8.3620   136.5315     2.5260     0.0380   -50.3736     8.1467     6.1103     6.4567
 1597.5000     8.3619   135.3377     2.5319     0.0419   -50.3768     8.2975     6.1103     6.3391
 1598.0000     8.3618   133.3502     2.5359     0.0419   -50.3816     8.2975     6.1103     6.3391
 1598.5000     8.3616   132.5532     2.5399     0.0459   -50.3848     8.2975     6.1103     6.3391
 1599.0000     8.3615   131.3595     2.5518     0.0499   -50.3896     8.2975     6.1103     6.3391
 1599.5000     8.3614   131.7530     2.5518     0.0538   -50.3928     8.2975     6.2236     6.3391
 1600.0000     8.3613   132.5433     2.5538     0.0538   -50.7944     8.2975     6.4567     6.4567
 1600.5000     8.3611   131.0101     2.5538     0.0505   -50.4704     8.5970     6.4567     6.7082
 1601.0000     8.3613   131.3524     2.5558     0.0498   -50.3976     8.6094     6.4580     6.8243
 1601.5000     8.3613   129.7651     2.5588     0.0538   -50.3976     8.6101     6.4584     6.9515
 1602.0000     8.3613   131.3524     2.5588     0.0538   -50.3976     8.6112     6.4596     6.9521
 1602.5000     8.3613   128.9714     2.5607     0.0538   -50.3976     8.6120     6.5373     7.0818
 1603.0000     8.3613   128.1778     2.5617     0.0538   -50.3976     8.9350     6.6160     7.0827
 1603.5000     8.3613   127.3841     2.5568     0.0498   -50.3976     9.2696     6.6956     7.0834
 1604.0000     8.3613   128.5746     2.5518     0.0498   -50.3976     9.2708     6.8289     7.0847
 1604.5000     8.3613   129.7651     2.5398     0.0418   -50.3976     9.4433     6.8296     7.0853
 1605.0000     8.3613   129.7651     2.5358     0.0378   -50.3976     9.4441     6.5840     7.0866
 1605.5000     8.3613   129.3683     2.5338     0.0378   -50.3976     9.4453     6.4647     7.0872
 1606.0000     8.3613   128.1778     2.5348     0.0378   -50.3976     9.4461     6.2322     7.0879
 1606.5000     8.3613   126.9873     2.5428     0.0418   -50.3976     9.4469     6.2328     7.0885
 1607.0000     8.3613   125.7968     2.5468     0.0418   -50.3976     8.6207     6.3493     7.0895
 1607.5000     8.3613   127.7810     2.5538     0.0498   -50.3976     8.6214     6.4676     6.9607
 1608.0000     8.3613   128.9714     2.5607     0.0538   -50.3976     8.6226     6.5885     6.8352
 1608.5000     8.3613   126.5905     2.5637     0.0538   -50.3976     8.6233     6.7113     6.5888
 1609.0000     8.3613   125.7968     2.5597     0.0577   -50.3976     8.6245     6.3525     6.3522
 1609.5000     8.3613   127.3841     2.5557     0.0538   -50.3976     8.6252     6.3774     6.2368
 1610.0000     8.3613   130.5587     2.5518     0.0538   -50.3976     8.4696     6.4024     6.2374
 1610.5000     8.3613   129.3683     2.5498     0.0538   -50.3976     8.4704     6.4274     6.2386
 1611.0000     8.3613   127.7810     2.5498     0.0458   -50.3976     8.6279     6.4526     6.2392
 1611.5000     8.3613   128.5746     2.5517     0.0458   -50.3976     8.6290     6.0149     6.3557
 1612.0000     8.3613   129.7651     2.5557     0.0458   -50.3976     8.6298     6.0154     6.4698
 1612.5000     8.3613   128.5746     2.5587     0.0537   -50.3976     8.3201     6.0163     6.4745
 1613.0000     8.3613   129.7651     2.5567     0.0498   -50.3976     8.4748     6.0168     6.5955
 1613.5000     8.3613   129.3683     2.5497     0.0458   -50.3976     8.6328     6.0174     6.7187
 1614.0000     8.3613   128.9714     2.5398     0.0458   -50.3976     8.9560     6.0179     6.7196
 1614.5000     8.3613   128.9714     2.5378     0.0458   -50.3976     8.6347     6.2444     6.5979
 1615.0000     8.3613   129.3683     2.5318     0.0418   -50.3976     8.4786     6.4784     6.7215
