~VERSION INFORMATION
 VERS.                2.0:   CWLS LOG ASCII STANDARD - VERSION 2.0
 WRAP.                 NO:   ONE LINE PER DEPTH STEP
~WELL INFORMATION
#MNEM.UNIT      DATA TYPE    INFORMATION
#----------   ------------   ------------------------------
 STRT.F          186.0000:   START DEPTH
 STOP.F         3060.0000:   STOP DEPTH
 STEP.F            0.5000:   STEP LENGTH
 NULL.          -999.2500:   NO VALUE
 COMP.    FENIX & SCISSON:   COMPANY
 WELL. FENIX NPR 3 "AX" #63-29:   WELL
 FLD .              N P R:   FIELD
 LOC .      S29 T39N R78W:   LOCATION
 CNTY.            NATRONA:   COUNTY
 STAT.            WYOMING:   STATE
 CTRY. UNITED STATES OF AMERICA:   COUNTRY
 SRVC.           BIRDWELL:   SERVICE COMPANY
 DATE.        28-FEB-1978:   LOGDATE
 API .     49025105960000:   API NUMBER
~CURVE INFORMATION
#MNEM.UNIT       API CODE    CURVE DESCRIPTION
#----------   ------------   ------------------------------
 DEPT.F                  :   
 CALD.IN     45 280 60 00:   CALIPER FROM DENSITY LOG
 GRD .GAPI   45 310 01 00:   GAMMA RAY FROM DENSITY LOG
 DEN .LBS    07 635 01 00:   
 CORR.G/C3   45 356 01 00:   DENSITY CORRECTION
 SPR .MV     05 010 01 00:   SPONTANEOUS POTENTIAL
 SN  .OHMM   05 040 00 00:   SHORT NORMAL
 ILD .OHMM   05 120 46 00:   DEEP INDUCTION RESISTIVITY
~PARAMETER INFORMATION
#MNEM.UNIT          VALUE    DESCRIPTION
#----------   ------------   ------------------------------
 EKB .F         4993.0000:   Kelly bushing
 EGL .F         4983.0000:   Ground level
 EDF .F            0.0000:   Drilling floor
 TD  .F         3060.0000:   Total depth
 DATE.        28-FEB-1978:   Date logged
 CLNT.            A2DTECH:   Client Code
 SL  . 1300' FNL & 1050' FEL:   Surface Location
 PD  .                 GL:   Permanent Datum
 DD  .F              3060:   Depth driller
 DL  .F              3056:   Depth logger
 BLI .F              5050:   Bottom log interval
 CS1 .IN            8.625:   Casing size
 CBD1.      8.625" @ 214':   Casing driller 1
 CBL1.F               218:   Casing logger 1
 BS1 .IN            7.875:   Bit size
 DFT .     LIGNOSULFONATE:   Type fluid in hole
 DFD .                  9:   Density
 DFV .                 34:   Viscosity
 DFPH.               10.5:   pH
 DFL .                  9:   Fluid loss
 MSS .           FLOWLINE:   Source of sample
 RMS .OHMM            1.8:   Rm
 MST .F                58:   Rm Meas. temp.
 RMF .OHMM             .9:   Rmf
 MFST.F                65:   Rmf Meas. temp.
 RMC .OHMM            2.5:   Rmc
 MCST.F                70:   Rmc Meas. temp.
 MFSS.               MEAS:   Source Rmf.
 RMB .OHMM             88:   Rm. at BHT
 BHT .F               118:   BHT.
 TCS .HRS               8:   Time Circ. stopped
 MRT .F               118:   Maximum recorded temp.
 LUN .               2959:   Logging unit number
 LUL .               CASP:   Logging unit location
 ENGI.             MILLER:   Recorded By
 WITN.         HARRINGTON:   Witnessed by
 ORIG.           5" PRINT:   Origin of data
 UWI .     49025105960000:   Unique Well ID
 DICO. A2D TECHNOLOGIES, INC.:   Digitizing Company
 BSD1.F              3060:   Depth drilled with bit1
 EPD .F              4983:   Elevation Permanent Datum
 LMF .                 KB:   Log Measured From
 DMF .                 KB:   Drilling Measured From
 TLI .F               800:   Top log interval
~OTHER INFORMATION
~A   DEPT     CALD         GRD       DEN       CORR        SPR         SN        ILD   
# ...
 1323.5000    10.0000    77.5060     2.5450     0.0250   -50.8030    10.2100     8.2090
 1324.0000    10.0000    76.0940     2.5480     0.0250   -50.8030    10.2100     8.2140
 1324.5000    10.0000    77.8010     2.5490     0.0250   -50.8030    10.2100     8.2190
 1325.0000    10.0000    79.5750     2.5410     0.0240   -50.8030    10.2100     8.2240
 1325.5000    10.0000    79.6790     2.5340     0.0240   -50.8030    10.2100     8.2300
 1326.0000    10.0000    78.5960     2.5250     0.0230   -50.8030    10.2100     8.2350
 1326.5000    10.0000    77.4310     2.5230     0.0230   -50.8030    10.2100     8.2400
 1327.0000    10.0000    77.1570     2.5290     0.0230   -50.8030    10.2100     8.2450
 1327.5000    10.0000    78.2340     2.5350     0.0220   -50.8030    10.2100     8.2500
 1328.0000    10.0000    79.2240     2.5330     0.0220   -50.8030    10.1880     8.2560
 1328.5000    10.0000    80.3380     2.5270     0.0220   -50.8030    10.1610     8.2610
 1329.0000    10.0000    80.3510     2.5200     0.0220   -50.8030    10.1330     8.2660
 1329.5000    10.0000    79.3590     2.5200     0.0220   -50.8030    10.1060     8.2710
 1330.0000    10.0000    78.4780     2.5240     0.0220   -50.8030    10.0780     8.2750
 1330.5000    10.0000    78.9250     2.5280     0.0220   -50.8030    10.0510     8.2760
 1331.0000    10.0000    79.6660     2.5310     0.0220   -50.8030    10.0230     8.2760
 1331.5000    10.0000    79.9950     2.5300     0.0220   -50.8030     9.9950     8.2750
 1332.0000    10.0000    79.5790     2.5270     0.0250   -50.8030     9.9680     8.2760
 1332.5000    10.0000    80.4480     2.5240     0.0300   -50.8030     9.9410     8.2750
 1333.0000     9.9980    82.3890     2.5210     0.0350   -50.8030     9.9140     8.2750
 1333.5000     9.9910    84.2750     2.5190     0.0400   -50.8030     9.8860     8.2750
 1334.0000     9.9840    86.1170     2.5160     0.0450   -50.8030     9.8410     8.2750
 1334.5000     9.9770    87.9110     2.5220     0.0500   -50.8030     9.9160     8.2780
 1335.0000     9.9710    87.9240     2.5270     0.0560   -50.8030    10.1330     8.2720
 1335.5000     9.9640    86.5900     2.5330     0.0600   -50.8030    10.3510     8.3660
 1336.0000     9.9570    85.2240     2.5320     0.0960   -50.8030    10.5930     8.4370
 1336.5000     9.9500    83.8820     2.5240     0.1330   -50.8030    10.5440     8.5070
 1337.0000     9.9430    82.0830     2.5180     0.1500   -50.8030    10.4470     8.5880
 1337.5000     9.9360    79.1330     2.5150     0.0760   -50.8030    10.3490     8.5820
 1338.0000     9.9300    75.7700     2.5220     0.0320   -50.8030    10.2510     8.5260
 1338.5000     9.9200    73.9880     2.5560     0.0350   -50.8030    10.1530     8.4790
 1339.0000     9.9390    76.2400     2.5970     0.0360   -50.8030    10.0550     8.4320
 1339.5000     9.9720    80.7680     2.5520     0.0360   -50.8030     9.9570     8.3850
 1340.0000    10.0030    85.1000     2.5360     0.0380   -50.8030     9.8410     8.3370
 1340.5000    10.0330    87.2680     2.5390     0.0380   -50.8030     9.8650     8.2890
 1341.0000    10.0640    87.2130     2.5420     0.0330   -50.8030     9.8950     8.2410
 1341.5000    10.0960    87.0980     2.5470     0.0230   -50.8030     9.9250     8.1930
 1342.0000    10.1260    87.0680     2.5470     0.0140   -50.8030     9.9550     8.1250
 1342.5000    10.1570    85.3340     2.5410     0.0190   -50.8030     9.9850     8.1710
 1343.0000    10.1560    80.0390     2.5350     0.0280   -50.8030    10.0150     8.2510
 1343.5000    10.1540    76.6360     2.5290     0.0340   -50.7950    10.0450     8.3310
 1344.0000    10.1510    77.3160     2.5220     0.0340   -50.7870    10.0750     8.4100
 1344.5000    10.1480    78.2110     2.5240     0.0340   -50.7790    10.1050     8.4900
 1345.0000    10.1450    77.1310     2.5340     0.0340   -50.7710    10.1350     8.5850
 1345.5000    10.1420    76.3560     2.5430     0.0340   -50.7630    10.1670     8.5340
 1346.0000    10.1400    76.8810     2.5400     0.0340   -50.7550    10.2080     8.4110
 1346.5000    10.1370    78.2610     2.5350     0.0340   -50.7470    10.1790     8.2880
 1347.0000    10.1340    79.5720     2.5370     0.0340   -50.7390    10.1080     8.1650
 1347.5000    10.1310    80.9330     2.5420     0.0340   -50.7310    10.0380     8.0430
 1348.0000    10.1280    82.3100     2.5470     0.0340   -50.7230     9.9700     7.9200
 1348.5000    10.1250    83.2040     2.5510     0.0360   -50.7150     9.9010     7.7970
 1349.0000    10.1220    83.0620     2.5480     0.0380   -50.7070     9.8410     7.6890
 1349.5000    10.1200    82.9970     2.5410     0.0360   -50.6990     9.8940     7.8310
 1350.0000    10.1140    82.8810     2.5310     0.0320   -50.6900     9.9670     7.9000
 1350.5000    10.1030    84.1390     2.5350     0.0300   -50.6820    10.0400     8.0190
 1351.0000    10.0930    85.9300     2.5400     0.0290   -50.6740    10.1130     8.1390
 1351.5000    10.0830    86.3720     2.5300     0.0280   -50.6660    10.1860     8.2580
 1352.0000    10.0720    84.0720     2.5200     0.0270   -50.6580    10.2590     8.3770
 1352.5000    10.0620    81.2150     2.5190     0.0260   -50.6500    10.3310     8.4960
 1353.0000    10.0520    79.1100     2.5210     0.0260   -50.6420    10.4000     8.6150
 1353.5000    10.0410    80.1040     2.5260     0.0270   -50.6340    10.4000     8.7450
 1354.0000    10.0390    82.6520     2.5310     0.0280   -50.6260    10.3510     8.7450
 1354.5000    10.0370    83.7110     2.5330     0.0280   -50.6180    10.2970     8.6570
 1355.0000    10.0360    83.5660     2.5270     0.0290   -50.6100    10.2430     8.5790
 1355.5000    10.0340    81.9480     2.5200     0.0300   -50.6020    10.1880     8.5020
 1356.0000    10.0330    77.9290     2.5170     0.0310   -50.5940    10.1340     8.4250
 1356.5000    10.0310    77.7370     2.5240     0.0320   -50.5860    10.0800     8.3480
 1357.0000    10.0290    77.3760     2.5290     0.0330   -50.5780    10.0260     8.2710
 1357.5000    10.0280    80.0050     2.5350     0.0340   -50.5700     9.9720     8.1940
 1358.0000    10.0260    85.2890     2.5400     0.0330   -50.5610     9.9180     8.1250
 1358.5000    10.0250    87.7030     2.5450     0.0330   -50.5530     9.8640     7.9770
 1359.0000    10.0230    87.5830     2.5450     0.0320   -50.5450     9.8360     7.9770
 1359.5000    10.0210    87.5850     2.5430     0.0310   -50.5370     9.8290     7.9770
 1360.0000    10.0200    88.0880     2.5390     0.0310   -50.5290     9.8220     7.9830
 1360.5000    10.0180    89.2160     2.5350     0.0300   -50.5210     9.8140     7.9910
 1361.0000    10.0170    89.6600     2.5330     0.0290   -50.5130     9.8060     8.0010
 1361.5000    10.0150    89.1580     2.5340     0.0290   -50.5050     9.7980     8.0100
 1362.0000    10.0130    86.8930     2.5390     0.0280   -50.4970     9.7910     8.0200
 1362.5000    10.0120    84.6240     2.5430     0.0270   -50.4890     9.7830     8.0290
 1363.0000    10.0100    83.5540     2.5490     0.0270   -50.4810     9.7750     8.0380
 1363.5000    10.0090    84.2090     2.5490     0.0260   -50.4730     9.7680     8.0470
 1364.0000    10.0070    84.7760     2.5460     0.0260   -50.4650     9.7600     8.0560
 1364.5000    10.0050    85.1540     2.5420     0.0270   -50.4570     9.7530     8.0660
 1365.0000    10.0040    84.0340     2.5370     0.0280   -50.4490     9.7450     8.0750
 1365.5000    10.0020    82.5360     2.5370     0.0290   -50.4410     9.7370     8.0840
 1366.0000    10.0010    82.4040     2.5370     0.0300   -50.4320     9.7300     8.0930
 1366.5000     9.9990    82.2110     2.5390     0.0300   -50.4240     9.7220     8.1020
 1367.0000     9.9970    81.3980     2.5410     0.0310   -50.4170     9.7140     8.1110
 1367.5000     9.9960    78.6360     2.5360     0.0320   -50.4080     9.7070     8.1210
 1368.0000     9.9940    74.3860     2.5290     0.0330   -50.4010     9.6990     8.1250
 1368.5000     9.9920    71.9720     2.5230     0.0330   -50.3850     9.6920     8.1250
