~VERSION INFORMATION
 VERS.                2.0:   CWLS LOG ASCII STANDARD - VERSION 2.0
 WRAP.                 NO:   ONE LINE PER DEPTH STEP
~WELL INFORMATION
#MNEM.UNIT      DATA TYPE    INFORMATION
#----------   ------------   ------------------------------
 STRT.F           10.5000:   START DEPTH
 STOP.F         5650.0000:   STOP DEPTH
 STEP.F            0.5000:   STEP LENGTH
 NULL.          -999.2500:   NO VALUE
 COMP.    FENIX & SCISSON:   COMPANY
 WELL. FENIX NPR 3 "LX" #56-3:   WELL
 FLD .              N P R:   FIELD
 LOC .       S3 T38N R78W:   LOCATION
 CNTY.            NATRONA:   COUNTY
 STAT.            WYOMING:   STATE
 CTRY. UNITED STATES OF AMERICA:   COUNTRY
 SRVC.              WELEX:   SERVICE COMPANY
 DATE.        13-JUN-1978:   LOGDATE
 API .     49025109250000:   API NUMBER
~CURVE INFORMATION
#MNEM.UNIT       API CODE    CURVE DESCRIPTION
#----------   ------------   ------------------------------
 DEPT.F                  :   
 NPHI.DEC    42 890 03 00:   NEUTRON POROSITY SANDSTONE
 SPR .MV     07 010 01 00:   SPONTANEOUS POTENTIAL
 ILD .OHMM   07 120 46 00:   DEEP INDUCTION RESISTIVITY
 ILM .OHMM   07 120 44 00:   INDUCTION LOG MEDIUM RESISTIVITY
 SFL .OHMM   07 220 01 00:   SHALLOW FOCUSED LOG RESISTIVITY
 GRD .GAPI   45 310 01 00:   GAMMA RAY FROM DENSITY LOG
 CALD.IN     45 280 60 00:   CALIPER FROM DENSITY LOG
 RHOB.G/C3   45 350 01 00:   BULK DENSITY
 CORR.G/C3   45 356 01 00:   DENSITY CORRECTION
~PARAMETER INFORMATION
#MNEM.UNIT          VALUE    DESCRIPTION
#----------   ------------   ------------------------------
 EKB .F         5181.0000:   Kelly bushing
 EGL .F         5171.0000:   Ground level
 EDF .F         5180.0000:   Drilling floor
 TD  .F         5644.0000:   Total depth
 DATE.        13-JUN-1978:   Date logged
 CLNT.            A2DTECH:   Client Code
 SL  . 1980' FSL & 2080' FEL:   Surface Location
 PD  .                 GL:   Permanent Datum
 EPD .F              5171:   Elevation Permanent Datum
 LMF .                 KB:   Log Measured From
 DMF .                 KB:   Drilling Measured From
 DD  .F              5640:   Depth driller
 DL  .F              5644:   Depth logger
 BLI .F              5638:   Bottom log interval
 TLI .F              3093:   Top log interval
 CS1 .IN            8.625:   Casing size
 CBD1.      8.625" @ 545':   Casing driller 1
 BS1 .IN            7.875:   Bit size
 DFT .                FGM:   Type fluid in hole
 DFD .                9.2:   Density
 DFV .                 52:   Viscosity
 DFPH.                 11:   pH
 DFL .                5.2:   Fluid loss
 MSS .           MUD/TANK:   Source of sample
 RMS .OHMM           0.59:   Rm
 MST .F                80:   Rm Meas. temp.
 RMF .OHMM           0.48:   Rmf
 MFST.F                80:   Rmf Meas. temp.
 MFSS.               MEAS:   Source Rmf.
 RMB .OHMM           0.29:   Rm. at BHT
 BHT .F               162:   BHT.
 TCS .HRS            1200:   Time Circ. stopped
 MRT .F               162:   Maximum recorded temp.
 LUN .               7675:   Logging unit number
 LUL .               CODY:   Logging unit location
 ENGI.               BOND:   Recorded By
 ORIG.           5" PRINT:   Origin of data
 UWI .     49025109250000:   Unique Well ID
 DICO. A2D TECHNOLOGIES, INC.:   Digitizing Company
 DAPD.F                10:   Feet Above Permanent Datum
 BSD1.F              5640:   Depth drilled with bit1
 TLAB.HRS            1630:   Time logger at bottom
~OTHER INFORMATION
~A  DEPTH     NPHI        SPR        ILD        ILM        SFL        GRD       CALD       RHOB       CORR
# ...
 4244.5000     0.1830   -70.5040     7.4140     7.8660     9.5230    62.0500     9.2200     2.5410     0.0780
 4245.0000     0.1760   -70.5750     7.7720     8.2950     9.8020    64.6780     9.1990     2.5660     0.0860
 4245.5000     0.1670   -70.6470     8.1300     8.7250    10.5240    63.3200     9.1780     2.5690     0.0810
 4246.0000     0.1500   -70.7190     8.8010     9.5880    13.3860    59.5710     9.1570     2.5650     0.0480
 4246.5000     0.1330   -70.7910     9.9780    10.7660    16.2480    55.1460     9.1260     2.5710     0.0420
 4247.0000     0.1170   -70.8630    11.1540    11.9440    19.1100    52.5890     9.0790     2.5700     0.0430
 4247.5000     0.0910   -70.9350    12.3310    13.1220    21.8870    53.5320     9.0320     2.5920     0.0580
 4248.0000     0.0930   -71.0070    13.5070    14.2990    18.7810    55.0190     9.0040     2.6090     0.0710
 4248.5000     0.1000   -71.0780    14.6160    15.8750    17.7220    55.0100     9.0040     2.6160     0.0740
 4249.0000     0.1000   -71.1370    14.1070    15.2990    23.6560    53.8770     9.0030     2.6050     0.0520
 4249.5000     0.0990   -71.1570    13.3000    14.4310    29.2690    55.8030     9.0330     2.6110     0.0380
 4250.0000     0.1020   -71.1780    12.4930    13.5630    24.0380    61.0660     9.0770     2.6260     0.0500
 4250.5000     0.1170   -71.1990    11.6860    12.6950    17.4320    66.3180     9.1220     2.6390     0.0700
 4251.0000     0.1310   -71.2200    10.8790    11.8270    14.8030    69.7890     9.1140     2.6040     0.0600
 4251.5000     0.1450   -71.2410    10.0720    10.9590    14.0260    72.7120     9.1070     2.5980     0.0620
 4252.0000     0.1600   -71.2620     9.2650    10.0910    13.8330    70.9750     9.1330     2.5860     0.0620
 4252.5000     0.1650   -71.2820     8.4580     9.2230    12.6890    69.2090     9.1400     2.5730     0.0280
 4253.0000     0.1710   -71.3030     7.9910     8.3510    11.5030    68.8350     9.1350     2.5820     0.0420
 4253.5000     0.1760   -71.3240     7.8380     8.1940    10.3130    66.4510     9.1300     2.6060     0.0590
 4254.0000     0.1780   -71.3450     7.6860     8.0360    10.7140    66.8520     9.1250     2.5970     0.0440
 4254.5000     0.1720   -71.3660     7.5340     7.8780    11.2050    64.9660     9.1190     2.5770     0.0310
 4255.0000     0.1660   -71.3870     7.4800     7.7600    11.6970    63.0050     9.1140     2.5760     0.0430
 4255.5000     0.1600   -71.4080     7.6400     8.1140    12.0540    63.7170     9.1090     2.5690     0.0230
 4256.0000     0.1540   -71.4280     7.9730     8.5240    11.7070    65.4270     9.1030     2.5690     0.0440
 4256.5000     0.1480   -71.4490     8.3060     8.9340    11.3040    61.8760     9.0980     2.5610     0.0580
 4257.0000     0.1490   -71.4700     8.6400     9.3440    11.9680    59.2690     9.0930     2.5480     0.0460
 4257.5000     0.1490   -71.4920     8.9730     9.7540    13.2540    55.0330     9.0870     2.5480     0.0470
 4258.0000     0.1440   -71.5100     9.3060    10.1640    14.1770    54.3460     9.0860     2.5450     0.0550
 4258.5000     0.1380   -71.4620     9.5830    10.5040    14.4270    54.9660     9.0930     2.5760     0.0660
 4259.0000     0.1360   -71.1530     9.6720    10.1620    16.3180    59.7660     9.1000     2.5830     0.0710
 4259.5000     0.1420   -70.8490     9.1320     9.7200    15.2280    63.4770     9.1060     2.5910     0.0720
 4260.0000     0.1490   -70.5470     8.6760     9.2790    12.8640    67.1680     9.1130     2.5980     0.0770
 4260.5000     0.1590   -70.3390     8.2190     8.8370    11.5140    67.2560     9.1200     2.5960     0.0810
 4261.0000     0.1560   -70.3640     7.7630     8.3960    13.0920    68.8380     9.1270     2.6010     0.0680
 4261.5000     0.1530   -70.3850     7.3060     7.9540    12.2650    71.2380     9.1340     2.6020     0.0730
 4262.0000     0.1580   -70.4050     6.8870     7.5490     9.5810    68.3390     9.1400     2.5930     0.0760
 4262.5000     0.1690   -70.4260     7.1810     8.3440     7.6890    62.6840     9.1470     2.5600     0.0600
 4263.0000     0.1800   -70.4460     7.9610     9.0780     9.9890    55.4050     9.1540     2.5480     0.0460
 4263.5000     0.1640   -70.4670     8.7410     9.8110    12.5400    50.5850     9.1610     2.5460     0.0460
 4264.0000     0.1400   -70.4870     9.5210    10.5450    15.5280    51.1310     9.1600     2.5370     0.0550
 4264.5000     0.1260   -70.5080    10.3010    11.2790    16.9280    52.4460     9.1540     2.5450     0.0710
 4265.0000     0.1190   -70.5280    11.0810    12.0130    16.7730    53.4010     9.1490     2.5580     0.0720
 4265.5000     0.1120   -70.5490    11.8610    12.7460    14.4830    52.4580     9.1430     2.5600     0.0660
 4266.0000     0.1140   -70.5690    12.6410    13.4800    16.0030    45.7560     9.1370     2.5540     0.0690
 4266.5000     0.1170   -70.5900    13.6460    14.4830    19.7520    40.4660     9.1310     2.5560     0.0730
 4267.0000     0.1110   -70.6100    13.4190    14.2760    23.3390    41.6660     9.1240     2.5640     0.0770
 4267.5000     0.1060   -70.6310    12.9660    13.8020    20.7720    43.4210     9.1310     2.5510     0.0750
 4268.0000     0.1130   -70.6510    12.2780    13.4580    16.5010    45.2070     9.1400     2.5490     0.0700
 4268.5000     0.1220   -70.6720    12.3960    13.5190    13.4580    46.0060     9.1490     2.5520     0.0780
 4269.0000     0.1360   -70.6920    12.6400    13.5820    14.3010    44.6470     9.1580     2.5430     0.0830
 4269.5000     0.1330   -70.7130    12.8540    13.2910    16.6720    43.1360     9.1670     2.5380     0.0710
 4270.0000     0.1270   -70.7330    12.6860    12.9690    20.3380    43.6970     9.1760     2.5320     0.0600
 4270.5000     0.1200   -70.7540    12.3700    12.6460    18.4180    48.3650     9.1850     2.5250     0.0490
 4271.0000     0.1160   -70.7740    12.0540    12.3280    14.7510    49.8340     9.1950     2.5200     0.0370
 4271.5000     0.1220   -70.7950    11.7380    12.0130    15.3010    51.3470     9.2030     2.5350     0.0330
 4272.0000     0.1260   -70.8160    11.4220    11.6970    16.1690    53.6180     9.1980     2.5400     0.0500
 4272.5000     0.1300   -70.8360    11.1050    11.3820    15.1700    55.9190     9.1920     2.5470     0.0420
 4273.0000     0.1350   -70.8570    10.7890    11.0670    14.1850    58.2190     9.1850     2.5500     0.0490
 4273.5000     0.1390   -70.8770    10.4730    10.7520    14.0390    60.5190     9.1790     2.5420     0.0430
 4274.0000     0.1430   -70.8980    10.1570    10.4370    13.5810    62.8060     9.1730     2.5430     0.0390
 4274.5000     0.1480   -70.9180     9.8410    10.1220    12.7560    64.7030     9.1670     2.5400     0.0380
 4275.0000     0.1520   -70.9230     9.5250     9.8070    11.9320    65.5020     9.1610     2.5450     0.0440
 4275.5000     0.1560   -70.8860     9.2090     9.4910    11.0840    64.1320     9.1550     2.5600     0.0670
 4276.0000     0.1620   -70.8500     8.8930     9.1760    10.7980    61.9840     9.1490     2.5860     0.0800
 4276.5000     0.1570   -70.8130     8.5760     8.8610    12.0540    59.7310     9.1440     2.6090     0.0850
 4277.0000     0.1500   -70.7770     8.2600     8.5460    11.7200    60.9200     9.1490     2.6200     0.0910
 4277.5000     0.1530   -70.7410     7.9440     8.2310    10.7880    63.0270     9.1540     2.6230     0.0970
 4278.0000     0.1590   -70.7050     7.6890     7.9770    10.2480    65.1560     9.1590     2.6220     0.0960
 4278.5000     0.1640   -70.6690     7.7500     8.0580    10.5040    66.3670     9.1640     2.5940     0.0790
 4279.0000     0.1690   -70.6330     7.8110     8.1260    10.2940    66.1410     9.1690     2.5680     0.0600
 4279.5000     0.1740   -70.5970     7.8720     8.1950    10.0330    65.9260     9.1740     2.5690     0.0460
 4280.0000     0.1730   -70.5610     7.9330     8.2630    11.3040    65.7000     9.1790     2.5750     0.0610
 4280.5000     0.1630   -70.5240     7.9950     8.3310    11.2740    65.4710     9.1840     2.5710     0.0540
