~VERSION INFORMATION
 VERS.                2.0:   CWLS LOG ASCII STANDARD - VERSION 2.0
 WRAP.                 NO:   ONE LINE PER DEPTH STEP
~WELL INFORMATION
#MNEM.UNIT      DATA TYPE    INFORMATION
#----------   ------------   ------------------------------
 STRT.F          417.0000:   START DEPTH
 STOP.F         4133.0000:   STOP DEPTH
 STEP.F            0.5000:   STEP LENGTH
 NULL.          -999.2500:   NO VALUE
 COMP.    FENIX & SCISSON:   COMPANY
 WELL. FENIX  "LX" #18-11:   WELL
 FLD .              NPR 3:   FIELD
 LOC .      S11 T38N R78W:   LOCATION
 CNTY.            NATRONA:   COUNTY
 STAT.            WYOMING:   STATE
 CTRY. UNITED STATES OF AMERICA:   COUNTRY
 SRVC.       SCHLUMBERGER:   SERVICE COMPANY
 DATE.        14-JAN-1978:   LOGDATE
 API .     49025105590000:   API NUMBER
~CURVE INFORMATION
#MNEM.UNIT       API CODE    CURVE DESCRIPTION
#----------   ------------   ------------------------------
 DEPT.F                  :   
 SPR .MV     07 010 01 00:   SPONTANEOUS POTENTIAL
 SFL .OHMM   07 220 01 00:   SHALLOW FOCUSED LOG RESISTIVITY
 ILD .OHMM   07 120 46 00:   DEEP INDUCTION RESISTIVITY
 ILM .OHMM   07 120 44 00:   INDUCTION LOG MEDIUM RESISTIVITY
 CALD.IN     45 280 60 00:   CALIPER FROM DENSITY LOG
 GRD .GAPI   45 310 01 00:   GAMMA RAY FROM DENSITY LOG
 RHOB.G/C3   45 350 01 00:   BULK DENSITY
 CORR.G/C3   45 356 01 00:   DENSITY CORRECTION
 NPHI.DEC    42 890 03 00:   NEUTRON POROSITY SANDSTONE
~PARAMETER INFORMATION
#MNEM.UNIT          VALUE    DESCRIPTION
#----------   ------------   ------------------------------
 EKB .F         5220.0000:   Kelly bushing
 EGL .F         5210.0000:   Ground level
 EDF .F            0.0000:   Drilling floor
 TD  .F         4125.0000:   Total depth
 DATE.        14-JAN-1978:   Date logged
 CLNT.            A2DTECH:   Client Code
 SL  . 330' FSL & 530' FWL:   Surface Location
 PD  .                 GL:   Permanent Datum
 EPD .F              5210:   Elevation Permanent Datum
 LMF .                 KB:   Log Measured From
 DMF .                 KB:   Drilling Measured From
 DAPD.F                10:   Feet Above Permanent Datum
 DD  .F              4125:   Depth driller
 DL  .F              4121:   Depth logger
 BLI .F              4116:   Bottom log interval
 TLI .F               427:   Top log interval
 CS1 .IN            8.625:   Casing size
 CBD1.      8.625" @ 513':   Casing driller 1
 CBL1.F               427:   Casing logger 1
 BS1 .IN            7.875:   Bit size
 BSD1.F              4125:   Depth drilled with bit1
 DFT .                KCL:   Type fluid in hole
 DFD .                8.8:   Density
 DFV .                 40:   Viscosity
 DFPH.                 12:   pH
 DFL .                7.4:   Fluid loss
 MSS .           MUD TANK:   Source of sample
 RMS .OHMM           .418:   Rm
 MST .F                60:   Rm Meas. temp.
 RMF .OHMM           .343:   Rmf
 MFST.F                60:   Rmf Meas. temp.
 MFSS.               MEAS:   Source Rmf.
 RMB .OHMM            .20:   Rm. at BHT
 BHT .F               123:   BHT.
 TCS .HRS            0600:   Time Circ. stopped
 TLAB.HRS            0845:   Time logger at bottom
 MRT .F               123:   Maximum recorded temp.
 LUN .               8035:   Logging unit number
 LUL .               CSPR:   Logging unit location
 ENGI.             MARTIN:   Recorded By
 WITN.         HARRINGTON:   Witnessed by
 ORIG.      2.5" 5" PRINT:   Origin of data
 UWI .     49025105590000:   Unique Well ID
 DICO. A2D TECHNOLOGIES, INC.:   Digitizing Company
~OTHER INFORMATION
~A   DEPT      SPR        SFL        ILD        ILM       CALD         GRD      RHOB       CORR       NPHI   
# ...
 3848.0000   -25.2870     2.9880     2.3040     2.4220     8.0980   130.1370     2.5230     0.0420     0.3780
 3848.5000   -25.0500     3.0160     2.1840     2.3360     8.0980   128.8380     2.5130     0.0370     0.3740
 3849.0000   -24.8120     3.0430     2.1640     2.2500     8.0980   125.5950     2.5100     0.0320     0.3690
 3849.5000   -24.5740     3.0700     2.2050     2.2240     8.0980   122.5190     2.5220     0.0340     0.3830
 3850.0000   -24.3360     3.0970     2.2640     2.2740     8.0980   119.5390     2.5460     0.0480     0.3940
 3850.5000   -24.0970     3.1250     2.3230     2.3520     8.0980   116.6780     2.5670     0.0630     0.4060
 3851.0000   -23.8620     3.3220     2.3810     2.4300     8.0980   117.7070     2.5560     0.0630     0.3960
 3851.5000   -23.9040     3.5800     2.4400     2.5080     8.0980   118.8230     2.5380     0.0530     0.3860
 3852.0000   -23.9620     3.8380     2.4990     2.5860     8.0980   117.6980     2.5230     0.0500     0.3740
 3852.5000   -24.0190     4.0580     2.5380     2.6640     8.0980   113.2590     2.5260     0.0580     0.3720
 3853.0000   -24.0750     3.9830     2.5540     2.7520     8.0980   110.9870     2.5330     0.0500     0.3790
 3853.5000   -24.1320     3.8700     2.5550     2.6790     8.0980   112.0090     2.5390     0.0340     0.3640
 3854.0000   -24.1880     3.6300     2.4840     2.5960     8.0980   114.8910     2.5470     0.0190     0.3370
 3854.5000   -24.2440     3.3390     2.4410     2.5140     8.0980   117.3110     2.5420     0.0180     0.3150
 3855.0000   -24.3010     3.1240     2.3980     2.4310     8.0980   120.0310     2.5340     0.0360     0.3270
 3855.5000   -24.3570     3.0280     2.3550     2.3510     8.0980   124.0390     2.5270     0.0570     0.3420
 3856.0000   -24.4130     2.9320     2.3110     2.3510     8.0980   131.2260     2.5230     0.0650     0.3560
 3856.5000   -24.4700     2.8820     2.2680     2.3510     8.0980   133.0740     2.5050     0.0540     0.3720
 3857.0000   -24.5260     3.0560     2.2250     2.3510     8.0980   132.4120     2.4980     0.0430     0.3720
 3857.5000   -24.5830     3.1750     2.1820     2.3510     8.0980   127.6990     2.5210     0.0320     0.3660
 3858.0000   -24.6470     3.3410     2.1390     2.3300     8.0980   122.2880     2.5670     0.0300     0.3600
 3858.5000   -24.4500     3.2350     2.0850     2.2670     8.0970   119.5660     2.6180     0.0490     0.3540
 3859.0000   -24.1070     3.0540     2.0850     2.2150     8.1080   121.4550     2.6600     0.0760     0.3470
 3859.5000   -23.4040     2.8740     2.0310     2.1640     8.1280   125.2580     2.6300     0.1020     0.3610
 3860.0000   -22.7240     2.6940     1.9960     2.1130     8.1460   129.4960     2.5750     0.0850     0.3770
 3860.5000   -22.6520     2.6600     1.9600     2.0610     8.1650   130.0890     2.5000     0.0670     0.3800
 3861.0000   -22.6540     2.6420     1.9250     2.0170     8.1810   130.5680     2.5070     0.0520     0.3810
 3861.5000   -22.6330     2.6240     1.8900     1.9840     8.1890   129.3370     2.5310     0.0750     0.3790
 3862.0000   -22.5970     2.6060     1.8550     1.9520     8.1990   127.9340     2.5520     0.1030     0.3840
 3862.5000   -22.5600     2.5420     1.8490     1.9190     8.2080   127.9620     2.5720     0.1320     0.3880
 3863.0000   -22.5220     2.4690     1.8490     1.8870     8.2180   129.0600     2.5940     0.1600     0.3830
 3863.5000   -22.4850     2.4250     1.8490     1.8830     8.2270   129.9760     2.6040     0.1880     0.3790
 3864.0000   -22.5290     2.5680     1.8600     1.9150     8.2370   131.3000     2.5780     0.1960     0.3750
 3864.5000   -23.1050     2.6840     1.8810     1.9430     8.2470   128.9650     2.5430     0.1380     0.3950
 3865.0000   -23.6800     2.7770     1.9020     1.9710     8.2550   124.9280     2.5590     0.1010     0.4230
 3865.5000   -24.2540     2.7610     1.9450     1.9990     8.2680   125.6980     2.6110     0.0960     0.4200
 3866.0000   -24.8280     2.7520     2.0620     2.0540     8.2780   130.1460     2.6050     0.0870     0.4140
 3866.5000   -25.4020     3.0790     2.1790     2.2320     8.2900   134.3410     2.5760     0.0630     0.4070
 3867.0000   -25.9760     3.3410     2.2960     2.4090     8.2950   133.3030     2.5440     0.0300     0.3960
 3867.5000   -26.5500     3.5700     2.4130     2.5870     8.2870   128.0590     2.5500     0.0150     0.3780
 3868.0000   -27.1340     3.6080     2.5320     2.7650     8.2680   124.9690     2.5660     0.0150     0.3590
 3868.5000   -27.3620     3.7380     2.7440     2.9420     8.2500   127.6070     2.5710     0.0230     0.3460
 3869.0000   -27.5120     4.2610     2.9610     3.1200     8.2320   129.0670     2.5560     0.0280     0.3480
 3869.5000   -27.6320     4.9410     3.1780     3.2980     8.2130   128.3940     2.5440     0.0330     0.3390
 3870.0000   -27.3650     5.6210     3.3940     3.4750     8.1950   124.8290     2.5390     0.0380     0.3150
 3870.5000   -27.0980     5.9830     3.4990     3.6530     8.1760   121.0620     2.5480     0.0310     0.2910
 3871.0000   -26.8340     5.8260     3.4990     3.8030     8.1590   118.1970     2.5430     0.0190     0.2800
 3871.5000   -26.5690     5.6160     3.4470     3.7120     8.1390   119.5540     2.5340     0.0130     0.2760
 3872.0000   -26.3050     5.0900     3.3370     3.6060     8.1370   120.7800     2.5310     0.0160     0.2740
 3872.5000   -26.0410     4.5640     3.2270     3.4610     8.1450   123.3030     2.5380     0.0270     0.2860
 3873.0000   -25.8320     4.0380     3.1170     3.3160     8.1590   127.8960     2.5440     0.0390     0.3000
 3873.5000   -25.7790     3.7680     3.0070     3.1710     8.1720   132.6340     2.5330     0.0350     0.3020
 3874.0000   -25.7250     3.8980     2.8970     3.0180     8.1850   133.5680     2.5210     0.0260     0.3080
 3874.5000   -25.6710     4.0400     2.7860     2.9500     8.1980   132.2550     2.5120     0.0180     0.3130
 3875.0000   -25.6170     4.2100     2.6760     2.8770     8.2110   131.0780     2.5230     0.0160     0.3150
 3875.5000   -25.5630     4.1650     2.5660     2.8030     8.2240   129.9650     2.5280     0.0180     0.3160
 3876.0000   -25.5080     3.9880     2.4630     2.7240     8.2370   130.7130     2.5260     0.0150     0.3160
 3876.5000   -25.4500     3.6640     2.4400     2.6160     8.2500   133.6240     2.5300     0.0720     0.3170
 3877.0000   -25.5960     3.3390     2.5160     2.5080     8.2630   138.7630     2.5480     0.1410     0.3180
 3877.5000   -25.7610     3.0140     2.6260     2.3950     8.2750   142.9510     2.5510     0.2450     0.3370
 3878.0000   -25.9270     2.9360     2.7580     2.3950     8.2910   143.0950     2.5180     0.2220     0.3630
 3878.5000   -26.0920     3.4920     2.8910     2.6470     8.2740   138.3650     2.3680     0.1460     0.3890
 3879.0000   -26.2570     4.8910     3.0180     2.8620     8.2310   129.7140     2.3730     0.0860     0.4110
 3879.5000   -26.4230     6.2890     3.3450     3.0760     8.1910   121.8660     2.4820    -0.0020     0.3630
 3880.0000   -26.5880     7.8210     3.6610     3.5500     8.1520   114.5220     2.5520     0.0140     0.3200
 3880.5000   -26.7530     7.8040     3.9760     4.0600     8.1110   114.5460     2.5860     0.0180     0.2790
 3881.0000   -26.9190     7.7820     4.2910     4.5210     8.0710   114.7440     2.5680     0.0230     0.2780
 3881.5000   -27.0860     7.7600     4.6060     4.7080     8.0580   115.2460     2.5560     0.0190     0.2740
 3882.0000   -27.2340     7.6580     4.7920     4.8950     8.0610   115.5700     2.5500     0.0130     0.2700
 3882.5000   -27.0060     7.3710     4.6510     4.9270     8.0630   118.0660     2.5440     0.0130     0.2590
 3883.0000   -26.7670     6.6770     4.3270     4.8370     8.0650   123.1580     2.5330     0.0140     0.2620
 3883.5000   -26.5290     5.9830     4.0030     4.5050     8.0680   128.4840     2.5270     0.0170     0.2770
 3884.0000   -26.2900     5.2900     3.6790     4.1720     8.0700   134.2290     2.5200     0.0150     0.2960
