~VERSION INFORMATION
 VERS.                2.0:   CWLS LOG ASCII STANDARD - VERSION 2.0
 WRAP.                 NO:   ONE LINE PER DEPTH STEP
~WELL INFORMATION
#MNEM.UNIT      DATA TYPE    INFORMATION
#----------   ------------   ------------------------------
 STRT.F           85.5000:   START DEPTH
 STOP.F         2750.0000:   STOP DEPTH
 STEP.F            0.5000:   STEP LENGTH
 NULL.          -999.2500:   NO VALUE
 COMP.          INTEX OIL:   COMPANY
 WELL. INTEX NPR 3 "AX" #74-20:   WELL
 FLD .             TEAPOT:   FIELD
 LOC .      S20 T39N R78W:   LOCATION
 CNTY.            NATRONA:   COUNTY
 STAT.            WYOMING:   STATE
 CTRY. UNITED STATES OF AMERICA:   COUNTRY
 SRVC.       SCHLUMBERGER:   SERVICE COMPANY
 DATE.        08-MAY-1966:   LOGDATE
 API .     49025095210000:   API NUMBER
~CURVE INFORMATION
#MNEM.UNIT       API CODE    CURVE DESCRIPTION
#----------   ------------   ------------------------------
 DEPT.F                  :   
 CALD.IN     45 280 60 00:   CALIPER FROM DENSITY LOG
 GRD .GAPI   45 310 01 00:   GAMMA RAY FROM DENSITY LOG
 RHOB.G/C3   45 350 01 00:   BULK DENSITY
 CORR.G/C3   45 356 01 00:   DENSITY CORRECTION
 SPR .MV     05 010 01 00:   SPONTANEOUS POTENTIAL FROM RES.
 ILD .OHMM   05 120 46 00:   INDUCTION LOG DEEP
 SN  .OHMM   05 040 00 00:   SHORT NORMAL
~PARAMETER INFORMATION
#MNEM.UNIT          VALUE    DESCRIPTION
#----------   ------------   ------------------------------
 EKB .F         5018.3000:   Kelly bushing
 EGL .F         5008.0000:   Ground level
 EDF .F            0.0000:   Drilling floor
 EPD .F         5008.0000:   Permanent datum
 TD  .F         2750.0000:   Total depth
 DATE.        08-MAY-1966:   Date logged
 CLNT.            A2DTECH:   Client Code
 DAPD.F              10.3:   Feet Above Permanent Datum
 DD  .F              2750:   Depth driller
 DL  .F              2749:   Depth logger
 BLI .F              2748:   Bottom log interval
 TLI .F                87:   Top log interval
 CS1 .IN            10.75:   Casing size
 CBD1.       10.75" @ 30':   Casing driller 1
 BS1 .IN            7.875:   Bit size
 BSD1.F              2750:   Depth drilled with bit1
 DFT .           OIL EMUL:   Type fluid in hole
 DFD .               10.1:   Density
 DFV .                 54:   Viscosity
 MSS .         CIRCULATED:   Source of sample
 RMS .OHMM           1.90:   Rm
 MST .F                72:   Rm Meas. temp.
 RMF .OHMM           1.15:   Rmf
 MFST.F                72:   Rmf Meas. temp.
 MFSS.                 FP:   Source Rmf.
 RMB .OHMM           1.23:   Rm. at BHT
 BHT .F               111:   BHT.
 TCS .HRS             1.5:   Time Circ. stopped
 MRT .F               111:   Maximum recorded temp.
 LUN .               4507:   Logging unit number
 LUL .               CSPR:   Logging unit location
 ENGI.               HAUG:   Recorded By
 WITN.             TUTTLE:   Witnessed by
 ORIG.        2" 5" PRINT:   Origin of data
 UWI .     49025095210000:   Unique Well ID
 DICO. A2D TECHNOLOGIES, INC.:   Digitizing Company
~OTHER INFORMATION
~A   DEPT     CALD        GRD       RHOB       CORR        SPR        ILD         SN   
# ...
 2542.5000     8.5310   104.5140     2.5680     0.0310   -37.8960     6.0220     8.7290
 2543.0000     8.5360   102.3950     2.5650     0.0300   -37.8210     5.9280     8.4350
 2543.5000     8.5410   105.3820     2.5590     0.0230   -37.7450     5.8300     8.1590
 2544.0000     8.5470   113.2470     2.5530     0.0170   -37.6700     5.7300     7.8360
 2544.5000     8.5520   120.3630     2.5500     0.0110   -37.5950     5.6320     7.8070
 2545.0000     8.5570   123.7340     2.5540     0.0130   -37.5200     5.5330     7.8030
 2545.5000     8.5620   126.7180     2.5570     0.0190   -37.4440     5.4350     7.8110
 2546.0000     8.5670   128.4650     2.5720     0.0300   -37.3690     5.3360     7.8010
 2546.5000     8.5720   123.5320     2.5850     0.0410   -37.2940     5.2370     7.8160
 2547.0000     8.5780   118.6840     2.5710     0.0220   -37.2180     5.1390     7.7120
 2547.5000     8.5670   113.6280     2.5530     0.0090   -37.1430     5.0400     7.5210
 2548.0000     8.5520   108.0570     2.5510     0.0190   -37.0680     4.9420     7.3500
 2548.5000     8.5360   106.7360     2.5640     0.0340   -36.9920     4.8490     7.1700
 2549.0000     8.5220   111.6430     2.5730     0.0470   -36.9190     4.8470     6.9980
 2549.5000     8.5050   115.4580     2.5820     0.0620   -36.8370     4.8900     6.8260
 2550.0000     8.5030   120.4890     2.5760     0.0570   -36.8400     4.9290     6.8730
 2550.5000     8.5100   118.5700     2.5690     0.0470   -36.9060     4.9690     6.9770
 2551.0000     8.5150   120.5870     2.5770     0.0490   -36.9610     5.0080     7.0760
 2551.5000     8.5210   121.1670     2.5860     0.0530   -37.0180     5.0470     7.1730
 2552.0000     8.5270   116.7940     2.5770     0.0330   -37.0770     5.0860     7.2720
 2552.5000     8.5320   112.7760     2.5690     0.0190   -37.1330     5.1250     7.3690
 2553.0000     8.5390   111.3710     2.5640     0.0120   -37.1900     5.1650     7.4700
 2553.5000     8.5370   113.9310     2.5690     0.0170   -37.1690     5.2040     7.5600
 2554.0000     8.5340   116.9470     2.5710     0.0270   -37.1200     5.2310     7.6730
 2554.5000     8.5300   115.2900     2.5580     0.0260   -37.0730     5.1810     7.7460
 2555.0000     8.5270   110.9790     2.5470     0.0120   -37.0270     5.1360     7.9490
 2555.5000     8.5240   112.4140     2.5360     0.0080   -36.9790     5.0890     7.8120
 2556.0000     8.5210   116.8870     2.5520     0.0280   -36.9320     5.0400     7.6530
 2556.5000     8.5180   120.3880     2.5820     0.0460   -36.8850     4.9980     7.4820
 2557.0000     8.5140   119.6410     2.5690     0.0390   -36.8380     4.9460     7.3230
 2557.5000     8.5110   117.9630     2.5580     0.0240   -36.7910     4.8980     7.1560
 2558.0000     8.5080   118.9420     2.5460     0.0150   -36.7440     4.8960     7.0320
 2558.5000     8.5050   121.3490     2.5530     0.0110   -36.6970     5.0650     7.1320
 2559.0000     8.5020   121.1840     2.5600     0.0110   -36.6500     5.0600     7.2240
 2559.5000     8.4970   119.4670     2.5500     0.0150   -36.6030     5.0950     7.3280
 2560.0000     8.4890   119.9970     2.5550     0.0230   -36.5550     5.1110     7.4090
 2560.5000     8.4810   116.6700     2.5820     0.0310   -36.5080     5.1340     7.4390
 2561.0000     8.4740   116.0360     2.5850     0.0390   -36.4610     5.1560     7.4650
 2561.5000     8.4660   117.6020     2.5730     0.0430   -36.4140     5.1780     7.4890
 2562.0000     8.4580   116.5440     2.5750     0.0370   -36.3670     5.2000     7.5150
 2562.5000     8.4510   114.0920     2.5680     0.0270   -36.3200     5.2220     7.5400
 2563.0000     8.4430   114.7970     2.5540     0.0130   -36.2730     5.2440     7.5650
 2563.5000     8.4360   116.6680     2.5490     0.0170   -36.2260     5.2660     7.5910
 2564.0000     8.4280   116.7040     2.5690     0.0300   -36.1780     5.2870     7.6160
 2564.5000     8.4220   121.0770     2.5510     0.0190   -36.1310     5.3090     7.6410
 2565.0000     8.4280   123.4360     2.5490     0.0180   -36.0840     5.3310     7.6660
 2565.5000     8.4340   121.0730     2.5550     0.0290   -36.0370     5.3530     7.6910
 2566.0000     8.4400   120.7850     2.5640     0.0400   -35.9900     5.3740     7.7170
 2566.5000     8.4470   123.2070     2.5710     0.0520   -35.9430     5.3960     7.7410
 2567.0000     8.4530   122.7070     2.5800     0.0540   -35.8960     5.4200     7.7670
 2567.5000     8.4580   119.1930     2.5770     0.0440   -35.8490     5.4110     7.7930
 2568.0000     8.4340   118.7250     2.5830     0.0530   -35.8010     5.3230     7.7980
 2568.5000     8.3960   117.6740     2.5720     0.0430   -35.7540     5.2390     7.6880
 2569.0000     8.3580   116.0240     2.5580     0.0360   -35.7070     5.1510     7.5820
 2569.5000     8.3470   116.2340     2.5410     0.0270   -35.6600     5.0640     7.4710
 2570.0000     8.4130   118.3840     2.5250     0.0180   -35.6130     4.9780     7.3630
 2570.5000     8.4580   118.3240     2.5210     0.0190   -35.5660     4.8910     7.2530
 2571.0000     8.4620   116.6730     2.5310     0.0160   -35.5190     4.8040     7.1440
 2571.5000     8.4630   116.6840     2.5230     0.0100   -35.4720     4.7180     7.0350
 2572.0000     8.4630   116.7570     2.5310     0.0180   -35.4240     4.6310     6.9260
 2572.5000     8.4650   119.7020     2.5370     0.0250   -35.3780     4.5440     6.8160
 2573.0000     8.4650   121.4480     2.5440     0.0200   -35.3300     4.4570     6.7080
 2573.5000     8.4670   117.0870     2.5420     0.0110   -35.2830     4.3720     6.5980
 2574.0000     8.4680   118.3080     2.5110     0.0030   -35.2390     4.2830     6.4880
 2574.5000     8.4690   119.7290     2.5020     0.0050   -35.2370     4.2480     6.3840
 2575.0000     8.4700   117.5320     2.5180     0.0150   -35.2360     4.2900     6.2620
 2575.5000     8.4700   118.4890     2.5190     0.0160   -35.2370     4.3380     6.2890
 2576.0000     8.4710   122.7290     2.5300     0.0200   -35.2360     4.3880     6.4260
 2576.5000     8.4720   126.9750     2.5380     0.0280   -35.2360     4.4370     6.5460
 2577.0000     8.4730   125.4490     2.5500     0.0350   -35.2360     4.4860     6.6670
 2577.5000     8.4740   125.3060     2.5450     0.0290   -35.2360     4.5350     6.7900
 2578.0000     8.4750   124.4270     2.5260     0.0220   -35.2360     4.5840     6.8510
 2578.5000     8.4760   120.1230     2.5080     0.0180   -35.2360     4.6330     6.8910
 2579.0000     8.4770   115.8970     2.5200     0.0260   -35.2360     4.6820     6.9320
 2579.5000     8.4780   119.3350     2.5420     0.0260   -35.2360     4.7310     6.9730
 2580.0000     8.4790   118.9200     2.5450     0.0200   -35.2360     4.7810     7.0140
 2580.5000     8.4800   117.4950     2.5500     0.0290   -35.2360     4.8300     7.0550
 2581.0000     8.4810   115.9950     2.5650     0.0450   -35.2360     4.8790     7.0970
 2581.5000     8.4820   114.2860     2.5790     0.0580   -35.2360     4.9280     7.1370
 2582.0000     8.4830   115.3370     2.5980     0.0700   -35.2360     4.9770     7.1800
 2582.5000     8.4840   115.4500     2.5920     0.0560   -35.2360     5.0260     7.2130
 2583.0000     8.4850   118.2050     2.5600     0.0420   -35.2360     5.0750     7.3140
 2583.5000     8.4860   116.9390     2.5500     0.0320   -35.2360     5.1250     7.4590
 2584.0000     8.4870   112.8480     2.5550     0.0260   -35.2350     5.1720     7.5960
 2584.5000     8.4880   108.5460     2.5620     0.0190   -35.2350     5.2260     7.7390
 2585.0000     8.4890   108.6110     2.5590     0.0210   -35.2360     5.1910     7.8760
 2585.5000     8.4900   111.0620     2.5520     0.0240   -35.2320     5.0430     7.9960
 2586.0000     8.4910   110.8230     2.5450     0.0260   -35.2440     4.9020     7.8300
 2586.5000     8.4920   108.1150     2.5390     0.0250   -35.1310     4.7560     7.5810
 2587.0000     8.4930   110.8170     2.5460     0.0260   -34.8900     4.6110     7.3330
 2587.5000     8.4940   116.1050     2.5550     0.0340   -34.6690     4.4710     7.0900
