~VERSION INFORMATION
 VERS.                2.0:   CWLS LOG ASCII STANDARD - VERSION 2.0
 WRAP.                 NO:   ONE LINE PER DEPTH STEP
~WELL INFORMATION
#MNEM.UNIT      DATA TYPE    INFORMATION
#----------   ------------   ------------------------------
 STRT.F          748.0000:   START DEPTH
 STOP.F         2734.0000:   STOP DEPTH
 STEP.F            0.5000:   STEP LENGTH
 NULL.          -999.2500:   NO VALUE
 COMP.    FENIX & SCISSON:   COMPANY
 WELL. FENIX NPR 3 "SHX" #84-4:   WELL
 FLD .             TEAPOT:   FIELD
 LOC .       S4 T38N R78W:   LOCATION
 CNTY.            NATRONA:   COUNTY
 STAT.            WYOMING:   STATE
 CTRY. UNITED STATES OF AMERICA:   COUNTRY
 SRVC.              WELEX:   SERVICE COMPANY
 DATE.        08-MAY-1980:   LOGDATE
 API .     49025108050000:   API NUMBER
~CURVE INFORMATION
#MNEM.UNIT       API CODE    CURVE DESCRIPTION
#----------   ------------   ------------------------------
 DEPT.F                  :   
 CALD.IN     45 280 60 00:   CALIPER FROM DENSITY LOG
 GRD .GAPI   45 310 01 00:   GAMMA RAY FROM DENSITY LOG
 RHOB.G/C3   45 350 01 00:   BULK DENSITY
 CORR.G/C3   45 356 01 00:   DENSITY CORRECTION
~PARAMETER INFORMATION
#MNEM.UNIT          VALUE    DESCRIPTION
#----------   ------------   ------------------------------
 EKB .F         5244.0000:   Kelly bushing
 EGL .F         5234.0000:   Ground level
 EDF .F            0.0000:   Drilling floor
 TD  .F         2733.0000:   Total depth
 DATE.        08-MAY-1980:   Date logged
 CLNT.            A2DTECH:   Client Code
 SL  . 7461' FNL & 383' FEL:   Surface Location
 PD  .                 GL:   Permanent Datum
 EPD .F              5234:   Elevation Permanent Datum
 LMF .                 KB:   Log Measured From
 DMF .                 KB:   Drilling Measured From
 DAPD.F                10:   Feet Above Permanent Datum
 DD  .F              2700:   Depth driller
 DL  .F              2733:   Depth logger
 BLI .F              2731:   Bottom log interval
 TLI .F               752:   Top log interval
 CS1 .IN            9.625:   Casing size
 CBD1.      9.625" @ 260':   Casing driller 1
 BS1 .IN              8.5:   Bit size
 BSD1.F              2700:   Depth drilled with bit1
 DFT .                AIR:   Type fluid in hole
 MRT .F               118:   Maximum recorded temp.
 LUN .                  2:   Logging unit number
 ENGI.           TORTILLE:   Recorded By
 WITN.              AMEND:   Witnessed by
 ORIG.           5" PRINT:   Origin of data
 UWI .     49025108050000:   Unique Well ID
 DICO. A2D TECHNOLOGIES, INC.:   Digitizing Company
~OTHER INFORMATION
~A   DEPT       CALD       GRD        RHOB       CORR 
# ...
 2646.0000     8.8540    95.9360     2.4800     0.0690
 2646.5000     8.8540    97.4850     2.5020     0.0820
 2647.0000     8.8530    97.4140     2.5180     0.1090
 2647.5000     8.8520    97.3190     2.4970     0.1030
 2648.0000     8.8520    97.1710     2.4960     0.0900
 2648.5000     8.8510    97.0510     2.5130     0.1050
 2649.0000     8.8500    96.9440     2.5260     0.1210
 2649.5000     8.8500    96.8420     2.5050     0.1190
 2650.0000     8.8490    97.6670     2.5110     0.1160
 2650.5000     8.8480    99.2730     2.5200     0.1130
 2651.0000     8.8480    98.6970     2.5310     0.1100
 2651.5000     8.8470    97.3960     2.5330     0.1070
 2652.0000     8.8460    96.7350     2.5200     0.1020
 2652.5000     8.8460    96.1740     2.5210     0.0950
 2653.0000     8.8450    95.9100     2.5100     0.0890
 2653.5000     8.8440    95.6520     2.5030     0.0810
 2654.0000     8.8440    94.5750     2.5180     0.0790
 2654.5000     8.8430    93.3430     2.5270     0.0990
 2655.0000     8.8420    92.1170     2.5070     0.0900
 2655.5000     8.8420    92.5360     2.5080     0.0810
 2656.0000     8.8410    93.3030     2.5120     0.0980
 2656.5000     8.8410    94.0540     2.5140     0.0840
 2657.0000     8.8400    94.7760     2.5040     0.0750
 2657.5000     8.8390    95.5230     2.4910     0.0620
 2658.0000     8.8390    96.2590     2.4820     0.0610
 2658.5000     8.8380    96.9880     2.4780     0.0610
 2659.0000     8.8370    97.7500     2.4830     0.0650
 2659.5000     8.8370    98.1630     2.5060     0.0740
 2660.0000     8.8360    97.7390     2.5190     0.0830
 2660.5000     8.8350    97.1200     2.5180     0.0920
 2661.0000     8.8350    96.5590     2.5180     0.1000
 2661.5000     8.8340    95.9780     2.5250     0.1000
 2662.0000     8.8330    95.4090     2.5090     0.0840
 2662.5000     8.8330    94.8500     2.5170     0.0770
 2663.0000     8.8320    94.1930     2.5340     0.0860
 2663.5000     8.8310    94.2640     2.5460     0.0930
 2664.0000     8.8310    95.4490     2.5440     0.0930
 2664.5000     8.8300    96.5210     2.5270     0.0870
 2665.0000     8.8290    97.6230     2.5210     0.0780
 2665.5000     8.8290    98.7880     2.5250     0.0810
 2666.0000     8.8280    99.3180     2.5380     0.0930
 2666.5000     8.8270    98.9220     2.5490     0.0950
 2667.0000     8.8270    98.6190     2.5540     0.0900
 2667.5000     8.8260    98.2870     2.5420     0.0840
 2668.0000     8.8250    97.9560     2.5270     0.0790
 2668.5000     8.8250    97.6300     2.5110     0.0730
 2669.0000     8.8240    97.3070     2.4960     0.0670
 2669.5000     8.8230    96.9730     2.4900     0.0610
 2670.0000     8.8230    96.9760     2.4960     0.0570
 2670.5000     8.8220    97.2130     2.5020     0.0670
 2671.0000     8.8210    97.4380     2.5080     0.0750
 2671.5000     8.8210    97.6640     2.5140     0.0830
 2672.0000     8.8200    97.8920     2.5190     0.0920
 2672.5000     8.8200    98.1180     2.5290     0.1000
 2673.0000     8.8200    98.3460     2.5390     0.1090
 2673.5000     8.8200    98.5700     2.5480     0.1170
 2674.0000     8.8200    98.8040     2.5400     0.1250
 2674.5000     8.8200    99.0190     2.5290     0.1250
 2675.0000     8.8200    99.2800     2.5170     0.1160
 2675.5000     8.8200    99.2960     2.5070     0.1040
 2676.0000     8.8200    99.3070     2.5080     0.1000
 2676.5000     8.8200    99.3020     2.5230     0.1120
 2677.0000     8.8200    99.2740     2.5280     0.1360
 2677.5000     8.8200    99.6780     2.5280     0.1570
 2678.0000     8.8200   100.8690     2.5330     0.1780
 2678.5000     8.8200   102.0550     2.5540     0.2000
 2679.0000     8.8200   103.2040     2.5420     0.1840
 2679.5000     8.8200   104.5580     2.5130     0.1240
 2680.0000     8.8200   104.5970     2.4980     0.0880
 2680.5000     8.8200   103.1590     2.4790     0.0580
 2681.0000     8.8200   101.6790     2.4960     0.0500
 2681.5000     8.8200   100.5200     2.5010     0.0580
 2682.0000     8.8200   100.5230     2.4910     0.0600
 2682.5000     8.8200   100.4940     2.4840     0.0560
 2683.0000     8.8200   100.8180     2.4880     0.0530
 2683.5000     8.8200   101.2420     2.5040     0.0530
 2684.0000     8.8200   101.6640     2.4980     0.0570
 2684.5000     8.8200   102.0830     2.4880     0.0640
 2685.0000     8.8200   102.5080     2.4990     0.0720
 2685.5000     8.8200   102.9220     2.5080     0.0720
 2686.0000     8.8200   103.3510     2.5120     0.0680
 2686.5000     8.8200   103.7770     2.4950     0.0520
 2687.0000     8.8200   104.0780     2.4720     0.0370
 2687.5000     8.8200   104.1390     2.4470     0.0230
 2688.0000     8.8200   103.6180     2.4380     0.0080
 2688.5000     8.8200   102.6360     2.4660     0.0310
 2689.0000     8.8200   101.7420     2.4990     0.0690
 2689.5000     8.8200   100.8490     2.5170     0.0880
 2690.0000     8.8200    99.8730     2.5290     0.0960
 2690.5000     8.8200    98.9620     2.5450     0.1060
 2691.0000     8.8200    98.1130     2.5600     0.1150
 2691.5000     8.8200    97.1520     2.5610     0.1240
 2692.0000     8.8200    96.2910     2.5550     0.1330
 2692.5000     8.8200    95.1440     2.5490     0.1330
 2693.0000     8.8200    95.4370     2.5360     0.1270
 2693.5000     8.8200    96.2330     2.5210     0.1180
 2694.0000     8.8200    97.0410     2.5050     0.1090
 2694.5000     8.8200    97.8220     2.5000     0.1020
 2695.0000     8.8200    98.6290     2.5000     0.1010
 2695.5000     8.8200    99.3140     2.5010     0.1020
 2696.0000     8.8200    99.7620     2.5020     0.0940
 2696.5000     8.8200   100.1490     2.4950     0.0810
 2697.0000     8.8200   100.5990     2.4840     0.0730
 2697.5000     8.8200   100.8960     2.4970     0.0760
 2698.0000     8.8200   101.5540     2.5000     0.0840
 2698.5000     8.8200   100.6970     2.4870     0.0750
 2699.0000     8.8200    99.4930     2.4800     0.0660
 2699.5000     8.8190    98.3430     2.4910     0.0650
 2700.0000     8.8180    97.0000     2.5020     0.0710
 2700.5000     8.8170    97.1940     2.5020     0.0810
 2701.0000     8.8170    97.9490     2.5050     0.0910
 2701.5000     8.8160    98.7250     2.5250     0.1010
 2702.0000     8.8150    99.4470     2.5380     0.1090
 2702.5000     8.8140   100.2360     2.5440     0.1080
 2703.0000     8.8130   100.5170     2.5460     0.1050
 2703.5000     8.8130   100.4650     2.5480     0.1010
 2704.0000     8.8120   100.0280     2.5410     0.0980
 2704.5000     8.8110    99.5860     2.5300     0.0950
 2705.0000     8.8100    99.1240     2.5220     0.0930
 2705.5000     8.8090    98.7210     2.5170     0.0920
 2706.0000     8.8090    98.9350     2.5300     0.1020
 2706.5000     8.8080    99.9320     2.5450     0.1210
 2707.0000     8.8070    99.2200     2.5580     0.1340
 2707.5000     8.8060    98.4420     2.5620     0.1330
 2708.0000     8.8050    97.7240     2.5430     0.1170
 2708.5000     8.8050    97.0930     2.5370     0.1210
 2709.0000     8.8040    96.3580     2.5450     0.1360
 2709.5000     8.8030    96.4850     2.5510     0.1460
 2710.0000     8.8020    96.6680     2.5510     0.1410
 2710.5000     8.8010    96.8960     2.5320     0.1300
 2711.0000     8.8010    97.0650     2.5280     0.1290
 2711.5000     8.8000    97.2980     2.5410     0.1350
 2712.0000     8.7990    97.5610     2.5630     0.1450
 2712.5000     8.7980    99.1340     2.5560     0.1440
 2713.0000     8.7980   100.9620     2.5450     0.1420
 2713.5000     8.7970   102.7450     2.5470     0.1410
 2714.0000     8.7960   104.5980     2.5530     0.1410
 2714.5000     8.7950   105.3870     2.5500     0.1330
 2715.0000     8.7940   106.1620     2.5260     0.1250
 2715.5000     8.7940   106.8900     2.5100     0.1170
 2716.0000     8.7930   107.2510     2.5180     0.1100
 2716.5000     8.7920   107.4270     2.5390     0.1090
 2717.0000     8.7910   107.6110     2.5410     0.1130
 2717.5000     8.7900   107.7900     2.5400     0.1170
 2718.0000     8.7900   107.9610     2.5340     0.1220
 2718.5000     8.7890   108.1260     2.5230     0.1250
