~VERSION INFORMATION
 VERS.                2.0:   CWLS LOG ASCII STANDARD - VERSION 2.0
 WRAP.                 NO:   ONE LINE PER DEPTH STEP
~WELL INFORMATION
#MNEM.UNIT      DATA TYPE    INFORMATION
#----------   ------------   ------------------------------
 STRT.F          742.0000:   START DEPTH
 STOP.F         3406.0000:   STOP DEPTH
 STEP.F            0.5000:   STEP LENGTH
 NULL.          -999.2500:   NO VALUE
 COMP. FENIX & SCISSON - US NAVY:   COMPANY
 WELL.   FENIX "AX" #85-4:   WELL
 FLD .      NPR - WILDCAT:   FIELD
 LOC .       S4 T38N R78W:   LOCATION
 CNTY.            NATRONA:   COUNTY
 STAT.            WYOMING:   STATE
 CTRY. UNITED STATES OF AMERICA:   COUNTRY
 SRVC.              WELEX:   SERVICE COMPANY
 DATE.        03-MAY-1977:   LOGDATE
 API .     49025103520000:   API NUMBER
~CURVE INFORMATION
#MNEM.UNIT       API CODE    CURVE DESCRIPTION
#----------   ------------   ------------------------------
 DEPT.F                  :   
 SNP .DEC    41 890 00 00:   SIDEWALL NEUTRON POROSITY
 GR  .GAPI   30 310 01 00:   GAMMA RAY
 SPR .MV     07 010 01 00:   SPONTANEOUS POTENTIAL
 RXO .OHMM   11 220 01 00:   FLUSHED ZONE RESISTIVITY
 GURD.OHMM   07 220 05 00:   GUARD LOG RESISTIVITY
 CALD.IN     45 280 60 00:   CALIPER FROM DENSITY LOG
 RHOB.G/C3   45 350 01 00:   BULK DENSITY
 GRD .GAPI   45 310 01 00:   GAMMA RAY FROM DENSITY LOG
 CORR.G/C3   45 356 01 00:   DENSITY CORRECTION
~PARAMETER INFORMATION
#MNEM.UNIT          VALUE    DESCRIPTION
#----------   ------------   ------------------------------
 EKB .F         5254.0000:   Kelly bushing
 EGL .F         5240.0000:   Ground level
 EDF .F            0.0000:   Drilling floor
 TD  .F         3467.0000:   Total depth
 DATE.        03-MAY-1977:   Date logged
 CLNT.            A2DTECH:   Client Code
 SL  . 2200' FSL & 100' FEL:   Surface Location
 PD  .                 GL:   Permanent Datum
 EPD .F              5240:   Elevation Permanent Datum
 LMF .                 KB:   Log Measured From
 DMF .                 KB:   Drilling Measured From
 DAPD.F                14:   Feet Above Permanent Datum
 DD  .F              3647:   Depth driller
 DL  .F              3404:   Depth logger
 BLI .F              3402:   Bottom log interval
 TLI .F               720:   Top log interval
 CS1 .IN            8.625:   Casing size
 CBD1.      8.625" @ 720':   Casing driller 1
 CBL1.F               760:   Casing logger 1
 BS1 .IN            7.875:   Bit size
 BSD1.F              3467:   Depth drilled with bit1
 DFT .            KCL/MUD:   Type fluid in hole
 DFD .                9.1:   Density
 DFV .                 36:   Viscosity
 DFPH.                  8:   pH
 DFL .                  5:   Fluid loss
 MSS .           FLOWLINE:   Source of sample
 RMS .OHMM            .30:   Rm
 MST .F                66:   Rm Meas. temp.
 RMF .OHMM            .21:   Rmf
 MFST.F                66:   Rmf Meas. temp.
 RMC .OHMM            .49:   Rmc
 MCST.F                66:   Rmc Meas. temp.
 MFSS.               FANN:   Source Rmf.
 MCSS.                KIT:   Source Rmc.
 RMB .OHMM            .18:   Rm. at BHT
 BHT .F               107:   BHT.
 TCS .HRS             2.5:   Time Circ. stopped
 MRT .F               107:   Maximum recorded temp.
 LUN .               8611:   Logging unit number
 LUL .             CASPER:   Logging unit location
 ENGI.            C. DOAK:   Recorded By
 WITN.      B. HARRINGTON:   Witnessed by
 ORIG.     2.5", 5" PRINT:   Origin of data
 UWI .     49025103520000:   Unique Well ID
 DICO. A2D TECHNOLOGIES, INC.:   Digitizing Company
~OTHER INFORMATION
~A   DEPT        SNP       GR        SPR        RXO       GURD         CALD       RHOB       GRD       CORR  
# ...
 2859.0000     0.1320    81.3970   -23.4770    12.4900    11.8100     8.4220     2.5110    88.0990     0.0150
 2859.5000     0.1320    81.5660   -23.3520    12.0150    10.8190     8.4210     2.5210    88.2420     0.0200
 2860.0000     0.1300    79.2020   -23.2480    11.5970    10.3990     8.4210     2.5310    86.5420     0.0240
 2860.5000     0.1250    80.7070   -23.2370    12.8120    12.2470     8.4210     2.5420    84.9990     0.0280
 2861.0000     0.1280    83.1080   -23.3170    19.2860    11.7520     8.4210     2.5460    83.4350     0.0320
 2861.5000     0.1330    82.0890   -23.4900    17.6500    10.7910     8.4210     2.5390    81.8490     0.0320
 2862.0000     0.1380    79.5530   -23.6500    12.3570     9.8290     8.4210     2.5350    80.2280     0.0300
 2862.5000     0.1450    77.9920   -23.8110    10.7840     8.9930     8.4210     2.5200    78.9160     0.0280
 2863.0000     0.1430    77.4480   -23.9750    10.7840     9.5040     8.4210     2.5170    79.0150     0.0250
 2863.5000     0.1400    76.5290   -24.1370    14.1620    10.0720     8.4210     2.5260    78.5780     0.0270
 2864.0000     0.1370    76.3740   -24.2940    12.6230    10.5900     8.4210     2.5350    78.9670     0.0290
 2864.5000     0.1440    76.6510   -24.4680    11.3880     8.9930     8.4210     2.5290    79.8070     0.0250
 2865.0000     0.1360    78.6120   -24.6120    11.5970     9.4310     8.4210     2.5190    80.6280     0.0210
 2865.5000     0.1270    81.5650   -24.7720    12.4670    10.3400     8.4210     2.5120    81.2740     0.0160
 2866.0000     0.1300    84.5270   -24.2980    13.6570    11.1830     8.4210     2.5060    82.9290     0.0110
 2866.5000     0.1350    87.5030   -23.7060    11.3880    10.5100     8.4210     2.4970    85.2890     0.0070
 2867.0000     0.1370    90.4800   -23.1360    11.5020     9.6700     8.4210     2.4860    87.5110     0.0020
 2867.5000     0.1350    93.2160   -22.5110    11.6330     9.8480     8.4210     2.4750    89.7460    -0.0020
 2868.0000     0.1430    93.6930   -22.4700    11.8100    10.3990     8.4210     2.4670    91.5510    -0.0020
 2868.5000     0.1470    95.2070   -22.4390    10.9380     9.2640     8.4230     2.4730    90.8300     0.0010
 2869.0000     0.1450    97.3130   -22.6210     9.6700     8.6720     8.4040     2.4780    88.9970     0.0040
 2869.5000     0.1430    98.5850   -22.9990     9.7530     8.8550     8.3540     2.4840    87.1970     0.0060
 2870.0000     0.1400    97.8040   -23.3660    10.2120     8.9930     8.2910     2.4870    85.4380     0.0090
 2870.5000     0.1420    96.0690   -23.7350    10.1720     8.6590     8.2290     2.4900    83.4980     0.0190
 2871.0000     0.1440    96.0840   -24.1060    10.0040     8.3620     8.2390     2.4900    83.4890     0.0290
 2871.5000     0.1460    95.0540   -24.4750     9.8350     8.6720     8.2520     2.4890    84.8460     0.0280
 2872.0000     0.1480    94.4100   -24.8450     9.6700     8.7750     8.2670     2.4790    86.1680     0.0240
 2872.5000     0.1450    96.5290   -25.2140     9.7280     8.9010     8.2800     2.4670    86.6590     0.0200
 2873.0000     0.1420    98.6150   -25.5840     9.9870     9.0260     8.2960     2.4580    85.7600     0.0150
 2873.5000     0.1370   100.5180   -25.9540    10.2460     9.1510     8.3040     2.4600    85.4220     0.0110
 2874.0000     0.1390   102.6940   -26.3230    10.3990     9.2760     8.3030     2.4630    84.5520     0.0100
 2874.5000     0.1400   105.0430   -26.6930    10.4280     9.4960     8.3050     2.4660    89.6740     0.0130
 2875.0000     0.1390   103.8930   -27.0620    10.4760     9.6700     8.3060     2.4700    88.4280     0.0160
 2875.5000     0.1440   104.0610   -27.4320    10.5230     9.6340     8.3070     2.4700    87.2690     0.0160
 2876.0000     0.1420   104.8750   -27.8020    10.5710     9.5980     8.3080     2.4610    86.1470     0.0120
 2876.5000     0.1370   102.5940   -28.1710    10.5900     9.5620     8.3090     2.4520    88.1400     0.0090
 2877.0000     0.1370    96.1530   -28.5420    10.5900     9.5260     8.3100     2.4410    89.7470     0.0050
 2877.5000     0.1400    94.1700   -28.9100    10.5900     9.4960     8.3110     2.4390    91.4450     0.0010
 2878.0000     0.1420    93.5900   -29.2780    10.2260     9.2380     8.3120     2.4480    93.1960     0.0010
 2878.5000     0.1350    94.2050   -29.6620     9.9180     8.6720     8.3130     2.4580    92.1050     0.0030
 2879.0000     0.1310    95.1360   -30.0590    10.4450     9.2170     8.3140     2.4670    91.1180     0.0050
 2879.5000     0.1370    96.7770   -30.4840    11.2200     9.8480     8.3160     2.4690    93.8830     0.0070
 2880.0000     0.1430    98.9470   -30.9250    12.0260     9.5530     8.3170     2.4760    96.7280     0.0090
 2880.5000     0.1360   101.8870   -31.3660    10.3990     9.2270     8.3180     2.4840    96.5640     0.0120
 2881.0000     0.1370   104.7970   -31.8050    10.5900     8.9010     8.3190     2.4920    95.9720     0.0140
 2881.5000     0.1370   106.3080   -32.2460    10.5900     8.5760     8.3200     2.5010    95.2920     0.0160
 2882.0000     0.1340   105.2090   -32.6850    10.9820     8.3620     8.3210     2.5050    94.7250     0.0180
 2882.5000     0.1340   102.6900   -33.1250    10.7080     8.2120     8.3220     2.5090    94.0910     0.0200
 2883.0000     0.1360    99.6870   -33.5650    10.3990     8.3210     8.3230     2.5140    93.4730     0.0230
 2883.5000     0.1370    97.4100   -34.0050    10.2120     8.6450     8.3240     2.5160    92.8780     0.0250
 2884.0000     0.1340    95.3990   -34.4450    10.2120     8.9930     8.3250     2.5210    92.2370     0.0290
 2884.5000     0.1300    96.2000   -34.8860    10.7550     8.9930     8.3260     2.5320    91.6300     0.0330
 2885.0000     0.1290    98.6360   -35.3240    11.3880     8.8670     8.3270     2.5420    91.2520     0.0370
 2885.5000     0.1310   100.9480   -35.7660    11.0850     8.6920     8.3280     2.5500    92.9220     0.0410
 2886.0000     0.1330   101.8360   -36.2080    10.2120     8.5180     8.3290     2.5450    95.6410     0.0450
 2886.5000     0.1310   100.4760   -36.6370    10.3990     8.3620     8.3310     2.5350    94.9190     0.0390
 2887.0000     0.1300    98.6940   -37.1060    11.1830     8.3620     8.3320     2.5250    93.9100     0.0320
 2887.5000     0.1310    96.9010   -37.3440    10.2120     8.3620     8.3330     2.5160    92.9290     0.0240
 2888.0000     0.1330    98.0430   -37.6160    10.3990     8.3620     8.3340     2.5180    95.4510     0.0170
 2888.5000     0.1290   100.3220   -37.8930    12.0260     8.3620     8.3350     2.5260    98.8040     0.0130
 2889.0000     0.1220    99.8660   -38.1840    10.9550     8.0760     8.3360     2.5320    97.9060     0.0190
 2889.5000     0.1160    97.4670   -38.4610     9.7180     7.4550     8.3370     2.5410    95.4490     0.0240
 2890.0000     0.1100    98.6950   -38.7450     9.3250     7.6600     8.3380     2.5480    93.2840     0.0290
 2890.5000     0.1040   101.0360   -39.0270     9.6730     8.7140     8.3390     2.5560    91.1310     0.0350
 2891.0000     0.0990   103.6990   -39.3100    10.3990     9.7680     8.3400     2.5630    88.8380     0.0360
 2891.5000     0.0940   105.8210   -39.5910    11.1830    10.8220     8.3410     2.5690    86.7830     0.0330
 2892.0000     0.0940   105.3470   -39.8750    13.0210    11.3880     8.3420     2.5720    84.2220     0.0300
 2892.5000     0.0990    99.1390   -40.1590    12.4620    10.6570     8.3410     2.5740    84.5240     0.0290
 2893.0000     0.0980   100.8800   -40.4330    11.5970    10.2120     8.3400     2.5710    85.6660     0.0290
 2893.5000     0.0970   104.3940   -40.7320    12.5450    11.2720     8.3380     2.5680    86.6790     0.0300
 2894.0000     0.0980   107.9980   -40.8190    15.7930    12.7000     8.3370     2.5660    87.7030     0.0230
 2894.5000     0.1090   110.4780   -40.8180    14.1930    11.4180     8.3360     2.5680    89.4460     0.0190
 2895.0000     0.1190   112.7750   -40.8960    10.0280     9.9050     8.3340     2.5740    91.0890     0.0230
