~VERSION INFORMATION
 VERS.                2.0:   CWLS LOG ASCII STANDARD - VERSION 2.0
 WRAP.                 NO:   ONE LINE PER DEPTH STEP
~WELL INFORMATION
#MNEM.UNIT      DATA TYPE    INFORMATION
#----------   ------------   ------------------------------
 STRT.F          200.0000:   START DEPTH
 STOP.F         3142.0000:   STOP DEPTH
 STEP.F            0.5000:   STEP LENGTH
 NULL.          -999.2500:   NO VALUE
 COMP.    FENIX & SCISSON:   COMPANY
 WELL.  FENIX "AX" #37-10:   WELL
 FLD .              NPR-3:   FIELD
 LOC .      S10 T38N R78W:   LOCATION
 CNTY.            NATRONA:   COUNTY
 STAT.            WYOMING:   STATE
 CTRY. UNITED STATES OF AMERICA:   COUNTRY
 SRVC.              WELEX:   SERVICE COMPANY
 DATE.        19-SEP-1977:   LOGDATE
 API .     49025104190000:   API NUMBER
~CURVE INFORMATION
#MNEM.UNIT       API CODE    CURVE DESCRIPTION
#----------   ------------   ------------------------------
 DEPT.F                  :   
 CALD.IN     45 280 60 00:   CALIPER FROM DENSITY LOG
 GRD .GAPI   45 310 01 00:   GAMMA RAY FROM DENSITY LOG
 RHOB.G/C3   45 350 01 00:   BULK DENSITY
 CORR.G/C3   45 356 01 00:   DENSITY CORRECTION
 NPHI.DEC    42 890 03 00:   NEUTRON POROSITY SANDSTONE
 SPR .MV     07 010 01 00:   SPONTANEOUS POTENTIAL
 SGRD.OHMM   07 220 05 00:   SHALLOW GUARD RESISTIVITY
 ILD .OHMM   07 120 46 00:   INDUCTION LOG DEEP RESISTIVITY
 ILM .OHMM   07 120 44 00:   INDUCTION LOG MEDIUM RESISTIVITY
 TENR.LBS    07 635 01 00:   TENSION FROM RESISTIVITY
~PARAMETER INFORMATION
#MNEM.UNIT          VALUE    DESCRIPTION
#----------   ------------   ------------------------------
 EKB .F         5221.0000:   Kelly bushing
 EGL .F         5211.0000:   Ground level
 EDF .F            0.0000:   Drilling floor
 TD  .F         3150.0000:   Total depth
 DATE.        19-SEP-1977:   Date logged
 CLNT.            A2DTECH:   Client Code
 SL  . 1190' FSL & 1750' FWL:   Surface Location
 PD  .                 GL:   Permanent Datum
 DD  .F              3150:   Depth driller
 DL  .F              3146:   Depth logger
 BLI .F              3144:   Bottom log interval
 CS1 .IN            8.625:   Casing size
 CBD1.      8.625" @ 215':   Casing driller 1
 BS1 .IN            7.875:   Bit size
 DFT .            KCL/MUD:   Type fluid in hole
 DFD .                8.9:   Density
 TCS .HRS               2:   Time Circ. stopped
 MRT .F               116:   Maximum recorded temp.
 ENGI.            C. DOAK:   Recorded By
 WITN.      B. HARRINGTON:   Witnessed by
 ORIG.           5" PRINT:   Origin of data
 UWI .     49025104190000:   Unique Well ID
 DICO. A2D TECHNOLOGIES, INC.:   Digitizing Company
 DAPD.F                10:   Feet Above Permanent Datum
 BSD1.F              3150:   Depth drilled with bit1
 EPD .F              5211:   Elevation Permanent Datum
 LMF .                 KB:   Log Measured From
 DMF .                 KB:   Drilling Measured From
 TLI .F               200:   Top log interval
 CBL1.                213:   Casing logger 1
 DFV .                 37:   Viscosity
 DFPH.                 11:   pH
 DFL .                5.8:   Fluid loss
 MSS .           MEASURED:   Source of sample
 RMS .               2.82:   Rm
 MST .                 94:   Rm Meas. temp.
 RMF .               1.61:   Rmf
 MFST.                 94:   Rmf Meas. temp.
 MFSS.               MEAS:   Source Rmf.
 RMC .               3.12:   Rmc
 MCST.                 94:   Rmc Meas. temp.
 MCSS.               MEAS:   Source Rmc.
 RMB .               2.28:   Rm. at BHT
 BHT .                116:   BHT.
 LUN .               8611:   Logging unit number
 LUL .             CASPER:   Logging unit location
~OTHER INFORMATION
~A   DEPT       CALD       GRD        RHOB      CORR      NPHI        SPR       SGRD        ILD        ILM       TENR   
# ...
 2545.0000     9.7103    54.6771     2.5252     0.0061     0.1483   -72.0883     9.6097     6.4740     9.3484  1895.3091
 2545.5000     9.7105    53.4938     2.5252     0.0081     0.1430   -72.2853    10.8291     6.4741    10.2483  1915.2506
 2546.0000     9.7105    56.6545     2.5252     0.0082     0.1398   -72.0863    12.7770     6.4152    10.3431  1915.2408
 2546.5000     9.7106    58.6304     2.5153     0.0082     0.1575   -72.0853    16.3746     6.4154    10.2488  1915.2312
 2547.0000     9.7108    62.3831     2.5113     0.0023     0.1732   -72.0843    18.6227     6.1844     9.4357  1895.2708
 2547.5000     9.7109    70.4776     2.5213    -0.0037     0.1804   -71.6873    10.4396     6.1282     9.0955  1895.2611
 2548.0000     9.7703    71.8605     2.5253    -0.0056     0.1832   -72.2803    10.0630     5.9075     8.5292  1895.2515
 2548.5000     9.8099    72.2566     2.5253    -0.0036     0.1776   -72.2793     9.7001     5.8538     8.4513  1895.2419
 2549.0000     9.8562    71.4681     2.5214     0.0044     0.1743   -72.2784     8.8489     5.6951     8.0721  1915.1827
 2549.5000     9.9024    67.9157     2.5174     0.0084     0.1727   -72.2774     7.9986     5.4900     7.5004  1895.2228
 2550.0000     9.9486    64.1682     2.5234     0.0104     0.1707   -72.4744     7.2299     5.3904     7.2299  1895.2133
 2550.5000     9.9949    57.8499     2.5333     0.0085     0.1598   -71.8793     7.6398     5.4402     7.3642  1895.2036
 2551.0000    10.0411    57.0610     2.5373     0.0045     0.1597   -71.8783     9.7015     5.5922     7.9992  1915.1440
 2551.5000    10.1072    55.6804     2.5413     0.0046     0.1609   -71.8773     9.7913     5.7484     8.2230  1895.1844
 2552.0000    10.1072    55.0895     2.5414     0.0066     0.1520   -71.8764     9.7915     5.8550     8.4529  1915.1246
 2552.5000    10.1469    55.8807     2.5414     0.0066     0.1524   -71.6773     9.1818     5.9635     8.8506  1915.1149
 2553.0000    10.1667    58.0564     2.5374     0.0027     0.1568   -71.4783    10.0657     5.9638     8.9325  1895.1556
 2553.5000    10.1669    59.2423     2.5255     0.0007     0.1584   -71.0813    10.6364     6.1303     9.1824  1895.1460
 2554.0000    10.1728    60.4280     2.5175    -0.0012     0.1620   -70.8823    10.7348     6.1869     9.1826  1855.2377
 2554.5000    10.1787    61.2190     2.5195    -0.0012     0.1608   -71.0793    10.7351     6.3017     9.1829  1895.1270
 2555.0000    10.1847    61.4178     2.5235    -0.0012     0.1600   -71.0783    10.2534     6.4185     9.1831  1935.0156
 2555.5000    10.1906    61.4192     2.5255     0.0009     0.1583   -71.0773     9.7037     6.5375     9.1834  1915.0568
 2556.0000    10.1965    61.6160     2.5275     0.0009     0.1579   -70.8783     9.9752     6.4189     9.0996  1915.0471
 2556.5000    10.2024    61.6168     2.5256     0.0009     0.1563   -70.8773    10.2542     6.5379     9.0998  1895.0885
 2557.0000    10.2084    61.4207     2.5236    -0.0010     0.1607   -70.8763    10.4446     6.5381     9.1001  1895.0789
 2557.5000    10.2143    60.6325     2.5176    -0.0010     0.1687   -70.6773    10.4448     6.6593     9.1003  1895.0693
 2558.0000    10.2202    60.2385     2.5157    -0.0049     0.1776   -70.6763    10.4450     6.4788     9.1006  1815.2655
 2558.5000    10.2262    59.4508     2.5117    -0.0049     0.1796   -70.6753    10.0686     6.6597     9.1008  1895.0500
 2559.0000    10.2321    58.8600     2.5117    -0.0048     0.1816   -70.6743     9.6168     6.6599     9.1011  1895.0406
 2559.5000    10.2380    57.6772     2.5157    -0.0028     0.1804   -70.4753     9.5291     6.6601     9.1014  1855.1344
 2560.0000    10.2439    57.2838     2.5197     0.0012     0.1755   -70.4743     9.7957     6.4204     9.1856  1855.1250
 2560.5000    10.2480    57.2852     2.5277     0.0012     0.1722   -70.2753     9.8861     6.6605     9.2705  1914.9600
 2561.0000    10.2482    57.4841     2.5317    -0.0027     0.1702   -70.2743    10.1627     6.7840     9.4427  1914.9502
 2561.5000    10.2484    57.4855     2.5317    -0.0047     0.1629   -70.0753    10.4469     6.7222     9.8869  1914.9406
 2562.0000    10.2485    56.6973     2.5277    -0.0046     0.1524   -69.8763    10.7393     6.8469    10.0704  1914.9308
 2562.5000    10.2486    56.1065     2.5198    -0.0046     0.1569   -69.8753    11.1416     6.8470    10.1637  1894.9734
 2563.0000    10.2488    55.9106     2.5138    -0.0066     0.1597   -69.8743    11.2447     6.8472    10.1639  1894.9639
 2563.5000    10.2489    56.3068     2.5039    -0.0145     0.1608   -69.6753    11.3487     6.8474    10.1641  1914.9017
 2564.0000    10.2492    57.0977     2.4979    -0.0165     0.1588   -69.6743    11.3490     6.8476    10.1644  1855.0499
 2564.5000    10.2294    59.0753     2.4920    -0.0164     0.1592   -69.4753    11.2455     6.7853    10.1647  1914.8824
 2565.0000    10.2184    60.4584     2.4880    -0.0184     0.1624   -69.4743    11.0411     6.7235    10.0721  1914.8727
 2565.5000    10.2074    61.0493     2.4820    -0.0183     0.1781   -69.2753    10.7413     6.7237     9.8890  1894.9159
 2566.0000    10.1964    61.6428     2.4801    -0.0223     0.1853   -69.0762    10.3541     6.4817     9.1886  1855.0143
 2566.5000    10.1854    61.6441     2.4761    -0.0222     0.1929   -69.0754    10.0728     6.2485     9.1888  1855.0049
 2567.0000    10.1744    61.4481     2.4841    -0.0182     0.1833   -68.8764     9.9810     6.1916     9.1050  1894.8892
 2567.5000    10.1634    60.8574     2.4921    -0.0102     0.1772   -68.6774    10.0734     6.1352     9.1052  1914.8262
 2568.0000    10.1524    59.6746     2.5020    -0.0042     0.1679   -68.4784     9.9816     6.0794     9.1055  1914.8165
 2568.5000    10.1414    58.8865     2.5100    -0.0042     0.1727   -67.6853    10.0739     6.0241     9.1898  1894.8604
 2569.0000    10.1304    58.6905     2.5080    -0.0042     0.1767   -67.4863     9.9820     5.9692     9.1900  1914.7971
 2569.5000    10.1194    58.6919     2.5090    -0.0041     0.1811   -67.0893     9.8911     6.0244     9.1902  1894.8411
 2570.0000    10.1084    58.6933     2.5091    -0.0041     0.1686   -66.4942     9.8009     5.9696     9.2753  1854.9392
 2570.5000    10.0974    58.6944     2.5091    -0.0041     0.1662   -66.2952     9.8011     5.9698     9.2756  1914.7681
 2571.0000    10.0864    58.6961     2.5021    -0.0040     0.1625   -65.8981     9.8013     5.9699     9.3615  1894.8124
 2571.5000    10.0754    58.5001     2.4991    -0.0040     0.1593   -65.3031     9.8920     5.9701     9.3617  1914.7487
 2572.0000    10.0644    58.3042     2.4932    -0.0020     0.1677   -64.7080    10.0758     5.9703     9.3619  1914.7390
 2572.5000    10.0545    57.9109     2.4942    -0.0019     0.1689   -64.3110    10.1689     5.9705     9.3622  1914.7292
 2573.0000    10.0349    57.7149     2.4962     0.0001     0.1649   -63.7159    10.2631     5.9706     9.3625  1914.7196
 2573.5000    10.0153    57.3216     2.4982     0.0021     0.1637   -63.3189    10.3581     5.9708     9.3626  1914.7100
 2574.0000     9.9562    57.3231     2.5042     0.0022     0.1717   -62.5258    10.3583     5.9710     9.3629  1914.7002
 2574.5000     9.9366    57.1271     2.5102     0.0042     0.1833   -61.9307    10.1700     5.9167     9.3631  1914.6906
 2575.0000     9.9066    56.5365     2.5142     0.0062     0.1918   -60.5436     9.8034     5.9168     9.2778  1894.7357
 2575.5000     9.8765    56.3406     2.5142     0.0063     0.1950   -60.1465     9.6253     5.8630     8.7004  1914.6711
 2576.0000     9.8464    56.7367     2.5102     0.0083     0.1950   -59.7497     9.4502     5.8632     8.4641  1914.6615
 2576.5000     9.8164    57.5274     2.5043     0.0083     0.1945   -58.7586     9.1937     5.8098     8.1589  1914.6519
 2577.0000     9.7863    57.7262     2.5023     0.0044     0.1917   -57.3714     8.9441     5.7569     8.0846  1914.6421
 2577.5000     9.7562    57.1356     2.5023     0.0084     0.1929   -55.9843     8.6217     5.7046     8.0848  1914.6324
 2578.0000     9.7262    56.1504     2.5083     0.0104     0.1941   -54.2011     8.5430     5.7573     8.0851  1914.6228
