~VERSION INFORMATION
 VERS.                2.0:   CWLS LOG ASCII STANDARD - VERSION 2.0
 WRAP.                 NO:   ONE LINE PER DEPTH STEP
~WELL INFORMATION
#MNEM.UNIT      DATA TYPE    INFORMATION
#----------   ------------   ------------------------------
 STRT.F          466.5000:   START DEPTH
 STOP.F         3184.0000:   STOP DEPTH
 STEP.F            0.5000:   STEP LENGTH
 NULL.          -999.2500:   NO VALUE
 COMP. LAWRENCE ALLISON AND ASSOCIATES:   COMPANY
 WELL. LAWRENCE 66 "X" #3-28:   WELL
 FLD .              N P R:   FIELD
 LOC .      S28 T39N R78W:   LOCATION
 CNTY.            NATRONA:   COUNTY
 STAT.            WYOMING:   STATE
 CTRY. UNITED STATES OF AMERICA:   COUNTRY
 SRVC.      DRESSER ATLAS:   SERVICE COMPANY
 DATE.        16-APR-1986:   LOGDATE
 API .     49025111340000:   API NUMBER
~CURVE INFORMATION
#MNEM.UNIT       API CODE    CURVE DESCRIPTION
#----------   ------------   ------------------------------
 DEPT.F                  :   
 RHOB.G/C3   45 350 01 00:   BULK DENSITY
 CORR.G/C3   45 356 01 00:   DENSITY CORRECTION
 TEND.LBS    45 635 01 00:   TENSION FROM DENSITY LOG
 NPHI.DEC    42 890 03 00:   NEUTRON POROSITY SANDSTONE
 DT  .US/F   60 520 00 00:   DELTA TIME
 TENS.LBS    51 635 01 00:   TENSION
 CALR.IN     07 280 01 00:   CALIPER FROM RESISTIVITY
 SPR .MV     07 010 01 00:   SPONTANEOUS POTENTIAL
 TENR.LBS    07 635 01 00:   TENSION FROM RESISTIVITY
 RFOC.OHMM   07 220 04 00:   RESISTIVITY FOCUSED LOG RES.
 GRR .GAPI   07 310 01 00:   GAMMA RAY FROM RESISTIVITY
 RILD.OHMM   07 120 46 00:   DEEP INDUCTION RESISTIVITY
 RILM.OHMM   07 120 44 00:   INDUCTION LOG MEDIUM RESISTIVITY
~PARAMETER INFORMATION
#MNEM.UNIT          VALUE    DESCRIPTION
#----------   ------------   ------------------------------
 EKB .F         5071.0000:   Kelly bushing
 EGL .F         5059.0000:   Ground level
 TD  .F         3176.0000:   Total depth
 DATE.        16-APR-1986:   Date logged
 CLNT.            A2DTECH:   Client Code
 SL  . 1685' FEL & 1915'FSL:   Surface Location
 PD  .                 GL:   Permanent Datum
 EPD .F              5059:   Elevation Permanent Datum
 LMF .                 KB:   Log Measured From
 DD  .F              3176:   Depth driller
 DL  .F              3176:   Depth logger
 BLI .F              3174:   Bottom log interval
 TLI .F               480:   Top log interval
 CS1 .IN            8.625:   Casing size
 BS1 .IN            7.875:   Bit size
 DFT .        POLYMER KCL:   Type fluid in hole
 DFD .                  9:   Density
 DFV .                 40:   Viscosity
 DFPH.                8.5:   pH
 DFL .               10.2:   Fluid loss
 MSS .           FLOWLINE:   Source of sample
 RMS .OHMM           .226:   Rm
 MST .F                65:   Rm Meas. temp.
 RMF .OHMM           .169:   Rmf
 MFST.F                65:   Rmf Meas. temp.
 RMC .OHMM           .283:   Rmc
 MCST.F                65:   Rmc Meas. temp.
 MFSS.               CALC:   Source Rmf.
 MCSS.               CALC:   Source Rmc.
 RMB .OHMM           .118:   Rm. at BHT
 BHT .F               125:   BHT.
 TCS .HRS               5:   Time Circ. stopped
 MRT .F               125:   Maximum recorded temp.
 LUN .               6264:   Logging unit number
 LUL .           GILLETTE:   Logging unit location
 ENGI.             MILLER:   Recorded By
 WITN.             STRONG:   Witnessed by
 ORIG.           5" PRINT:   Origin of data
 UWI .     49025111340000:   Unique Well ID
 DICO. A2D TECHNOLOGIES, INC.:   Digitizing Company
 DMF .                 KB:   Drilling Measured From
 DAPD.F                12:   Feet Above Permanent Datum
 CBD1.      8.625" @ 475':   Casing driller 1
 CBL1.F               480:   Casing logger 1
 BSD1.F              3176:   Depth drilled with bit1
~OTHER INFORMATION
~A   DEPT     RHOB       CORR       TEND       NPHI         DT       TENS       CALR        SPR       TENR       RFOC         GRR      RILD       RILM   
# ...
 1558.5000  -999.2500  -999.2500  -999.2500  -999.2500  -999.2500  -999.2500    10.5100   -77.8360  -100.6000     7.5600    86.6350     8.0940     7.9310
 1559.0000  -999.2500  -999.2500  -999.2500  -999.2500  -999.2500  -999.2500    10.5100   -77.6080   -97.7000     7.7100    85.4280     8.1730     8.0010
 1559.5000  -999.2500  -999.2500  -999.2500  -999.2500  -999.2500  -999.2500    10.5100   -77.4780   -58.2000     7.6900    85.0620     8.2510     8.0710
 1560.0000  -999.2500  -999.2500  -999.2500  -999.2500  -999.2500  -999.2500    10.5100   -77.3460   -22.0000     7.6680    87.0360     8.3290     8.1410
 1560.5000  -999.2500  -999.2500  -999.2500  -999.2500  -999.2500  -999.2500    10.5100   -77.2140   -62.6000     7.6390    89.1510     8.3850     8.2110
 1561.0000  -999.2500  -999.2500  -999.2500  -999.2500  -999.2500  -999.2500    10.5100   -77.1170   -76.6430     7.6890    90.7450     8.4060     8.2230
 1561.5000  -999.2500  -999.2500  -999.2500  -999.2500  -999.2500  -999.2500    10.5060   -77.4300   -58.0000     7.7670    87.8330     8.4270     8.2230
 1562.0000  -999.2500  -999.2500  -999.2500  -999.2500  -999.2500  -999.2500    10.5030   -78.3170   -39.3570     7.8460    84.7020     8.4480     8.2230
 1562.5000  -999.2500  -999.2500  -999.2500  -999.2500  -999.2500  -999.2500    10.4990   -79.2080   -80.5560     7.9240    81.8780     8.5130     8.2220
 1563.0000  -999.2500  -999.2500  -999.2500  -999.2500  -999.2500  -999.2500    10.4960   -79.8740  -121.1560     7.9990    81.2260     8.6170     8.2960
 1563.5000  -999.2500  -999.2500  -999.2500  -999.2500  -999.2500  -999.2500    10.4920   -80.4280  -137.8000     7.9750    82.6150     8.7210     8.3680
 1564.0000  -999.2500  -999.2500  -999.2500  -999.2500  -999.2500  -999.2500    10.4850   -80.9840   -96.8730     7.9530    85.5210     8.8250     8.5250
 1564.5000  -999.2500  -999.2500  -999.2500  -999.2500  -999.2500  -999.2500    10.4710   -81.3580   -54.1640     7.9260    87.7540     8.9880     8.6910
 1565.0000  -999.2500  -999.2500  -999.2500  -999.2500  -999.2500  -999.2500    10.4570   -81.4680   -28.6000     7.9690    87.1760     9.2340     8.8570
 1565.5000  -999.2500  -999.2500  -999.2500  -999.2500  -999.2500  -999.2500    10.4430   -81.5740   -79.0000     8.1430    86.5790     9.4800     9.0240
 1566.0000  -999.2500  -999.2500  -999.2500  -999.2500  -999.2500  -999.2500    10.4290   -81.6860  -118.8400     8.4690    83.4610     9.7960     9.1900
 1566.5000  -999.2500  -999.2500  -999.2500  -999.2500  -999.2500  -999.2500    10.4150   -81.4600   -94.9430     8.7940    81.8560     9.7600     9.3120
 1567.0000  -999.2500  -999.2500  -999.2500  -999.2500  -999.2500  -999.2500    10.4360   -81.1530   -65.0000     9.0380    85.1030     9.7110     9.3940
 1567.5000  -999.2500  -999.2500  -999.2500  -999.2500  -999.2500  -999.2500    10.4760   -80.8450   -65.0000     9.2210    88.4380     9.6620     9.4410
 1568.0000  -999.2500  -999.2500  -999.2500  -999.2500  -999.2500  -999.2500    10.5170   -80.4240   -65.0000     9.3550    88.9190     9.6170     9.1900
 1568.5000  -999.2500  -999.2500  -999.2500  -999.2500  -999.2500  -999.2500    10.5560   -79.8990   -77.1330     8.8300    89.2300     9.2520     9.0140
 1569.0000  -999.2500  -999.2500  -999.2500  -999.2500  -999.2500  -999.2500    10.5880   -79.3760   -94.5330     8.4170    89.9690     9.0470     8.8820
 1569.5000  -999.2500  -999.2500  -999.2500  -999.2500  -999.2500  -999.2500    10.6190   -78.8570  -111.9330     8.0050    91.2590     8.9510     8.7870
 1570.0000  -999.2500  -999.2500  -999.2500  -999.2500  -999.2500  -999.2500    10.6510   -78.3110   -96.8890     7.7700    89.9010     8.5990     8.4420
 1570.5000  -999.2500  -999.2500  -999.2500  -999.2500  -999.2500  -999.2500    10.6830   -77.7250   -33.0890     7.6380    88.1980     7.9990     7.8530
 1571.0000  -999.2500  -999.2500  -999.2500  -999.2500  -999.2500  -999.2500    10.7140   -77.1370     3.7000     7.4990    86.7360     8.0120     7.8660
 1571.5000  -999.2500  -999.2500  -999.2500  -999.2500  -999.2500  -999.2500    10.7460   -76.5530    15.0000     7.5860    89.3800     8.0380     7.8910
 1572.0000  -999.2500  -999.2500  -999.2500  -999.2500  -999.2500  -999.2500    10.7770   -75.9660     6.1500     7.6390    92.2110     8.0730     7.9260
 1572.5000  -999.2500  -999.2500  -999.2500  -999.2500  -999.2500  -999.2500    10.8100   -75.7810   -33.0000     7.4990    91.5590     7.9660     7.8210
 1573.0000  -999.2500  -999.2500  -999.2500  -999.2500  -999.2500  -999.2500    10.8570   -76.0050   -46.0080     7.6390    90.2650     7.8530     7.7100
 1573.5000  -999.2500  -999.2500  -999.2500  -999.2500  -999.2500  -999.2500    10.9050   -76.2160   -48.0150     7.4530    90.9010     7.8530     7.7100
 1574.0000  -999.2500  -999.2500  -999.2500  -999.2500  -999.2500  -999.2500    10.9270   -77.1220   -50.0230     7.2870    91.6010     7.9090     7.6480
 1574.5000  -999.2500  -999.2500  -999.2500  -999.2500  -999.2500  -999.2500    10.9190   -78.3070   -52.0310     7.1620    91.4330     8.0050     7.5690
 1575.0000  -999.2500  -999.2500  -999.2500  -999.2500  -999.2500  -999.2500    10.9120   -79.4790   -54.0380     7.3270    89.0100     7.9990     7.7730
 1575.5000  -999.2500  -999.2500  -999.2500  -999.2500  -999.2500  -999.2500    10.9050   -79.9820   -73.1330     7.4600    88.4450     8.2560     7.9660
 1576.0000  -999.2500  -999.2500  -999.2500  -999.2500  -999.2500  -999.2500    10.8970   -80.4510  -107.9330     7.5980    88.2490     8.4900     8.1590
 1576.5000  -999.2500  -999.2500  -999.2500  -999.2500  -999.2500  -999.2500    10.8910   -80.5020  -105.0000     7.7630    87.4390     8.7240     8.3520
 1577.0000  -999.2500  -999.2500  -999.2500  -999.2500  -999.2500  -999.2500    10.9260   -80.5010   -69.1330     7.9270    87.1600     8.8520     8.4530
 1577.5000  -999.2500  -999.2500  -999.2500  -999.2500  -999.2500  -999.2500    10.9650   -80.5010   -64.6000     8.0730    86.9270     8.8520     8.5320
 1578.0000  -999.2500  -999.2500  -999.2500  -999.2500  -999.2500  -999.2500    11.0030   -80.4990   -98.6500     8.0400    86.6330     8.8520     8.3960
 1578.5000  -999.2500  -999.2500  -999.2500  -999.2500  -999.2500  -999.2500    11.0420   -80.3830   -94.7330     8.0050    88.9170     8.7710     8.2740
 1579.0000  -999.2500  -999.2500  -999.2500  -999.2500  -999.2500  -999.2500    11.0810   -79.9790   -58.0500     7.8480    92.1890     8.6310     8.1530
 1579.5000  -999.2500  -999.2500  -999.2500  -999.2500  -999.2500  -999.2500    11.1200   -79.5810   -58.9200     7.6640    95.0700     8.5090     8.0310
 1580.0000  -999.2500  -999.2500  -999.2500  -999.2500  -999.2500  -999.2500    11.1590   -79.1820   -79.8000     7.4790    93.5210     8.4280     7.9260
 1580.5000  -999.2500  -999.2500  -999.2500  -999.2500  -999.2500  -999.2500    11.1970   -78.8100  -100.6800     7.2980    89.9680     8.3470     7.7690
 1581.0000  -999.2500  -999.2500  -999.2500  -999.2500  -999.2500  -999.2500    11.2360   -78.4600  -105.0000     7.1620    86.4490     8.2990     7.6390
 1581.5000  -999.2500  -999.2500  -999.2500  -999.2500  -999.2500  -999.2500    11.2750   -78.1200   -76.1200     7.2900    85.1820     8.2990     7.6890
 1582.0000  -999.2500  -999.2500  -999.2500  -999.2500  -999.2500  -999.2500    11.3040   -77.7810   -34.3600     7.3630    90.0540     8.1440     7.7300
 1582.5000  -999.2500  -999.2500  -999.2500  -999.2500  -999.2500  -999.2500    11.3280   -77.4410   -20.6000     7.3920    93.3210     7.9260     7.7710
 1583.0000  -999.2500  -999.2500  -999.2500  -999.2500  -999.2500  -999.2500    11.3510   -77.1000   -46.5710     7.4310    90.8160     7.9710     7.8260
 1583.5000  -999.2500  -999.2500  -999.2500  -999.2500  -999.2500  -999.2500    11.3740   -76.7620   -79.9600     7.3520    91.0960     8.0300     7.8840
 1584.0000  -999.2500  -999.2500  -999.2500  -999.2500  -999.2500  -999.2500    11.3930   -76.4090   -87.7000     7.2550    93.4590     8.0730     7.9260
