~VERSION INFORMATION
 VERS.                2.0:   CWLS LOG ASCII STANDARD - VERSION 2.0
 WRAP.                 NO:   ONE LINE PER DEPTH STEP
~WELL INFORMATION
#MNEM.UNIT      DATA TYPE    INFORMATION
#----------   ------------   ------------------------------
 STRT.F          200.0000:   START DEPTH
 STOP.F         2968.0000:   STOP DEPTH
 STEP.F            0.5000:   STEP LENGTH
 NULL.          -999.2500:   NO VALUE
 COMP. FENIX & SCISSON U.S. NAVY:   COMPANY
 WELL.   FENIX "A" #23-28:   WELL
 FLD .              NPR 3:   FIELD
 LOC .      S28 T39N R78W:   LOCATION
 CNTY.            NATRONA:   COUNTY
 STAT.            WYOMING:   STATE
 CTRY. UNITED STATES OF AMERICA:   COUNTRY
 SRVC.       SCHLUMBERGER:   SERVICE COMPANY
 DATE.        10-JUN-1977:   LOGDATE
 API .     49025103860000:   API NUMBER
~CURVE INFORMATION
#MNEM.UNIT       API CODE    CURVE DESCRIPTION
#----------   ------------   ------------------------------
 DEPT.F                  :   
 SPR .MV     07 010 01 00:   SPONTANEOUS POTENTIAL
 RILM.OHMM   07 120 44 00:   INDUCTION LOG MEDIUM RESISTIVITY
 RILD.OHMM   07 120 46 00:   DEEP INDUCTION RESISTIVITY
 LL8 .None   99 022 08 00:   LATEROLOG
 GRD .GAPI   45 310 01 00:   GAMMA RAY FROM DENSITY LOG
 CALD.IN     45 280 60 00:   CALIPER FROM DENSITY LOG
 RHOB.G/C3   45 350 01 00:   BULK DENSITY
 DRHO.G/C3   45 356 01 00:   DENSITY CORRECTION
~PARAMETER INFORMATION
#MNEM.UNIT          VALUE    DESCRIPTION
#----------   ------------   ------------------------------
 EKB .F         5019.0000:   Kelly bushing
 EGL .F         5009.0000:   Ground level
 EDF .F            0.0000:   Drilling floor
 EPD .F         5009.0000:   Permanent datum
 TD  .F         2971.0000:   Total depth
 DATE.        10-JUN-1977:   Date logged
 CLNT.            A2DTECH:   Client Code
 SL  . 1650' FNL & 990' FWL:   Surface Location
 DAPD.F                10:   Feet Above Permanent Datum
 DD  .F              2970:   Depth driller
 DL  .F              2971:   Depth logger
 BLI .F              2905:   Bottom log interval
 TLI .F               216:   Top log interval
 CS1 .IN            8.625:   Casing size
 CBD1.      9.625" @ 216':   Casing driller 1
 CBL1.F               216:   Casing logger 1
 BS1 .IN            7.875:   Bit size
 BSD1.F              2970:   Depth drilled with bit1
 DFT .            KCL MUD:   Type fluid in hole
 DFD .                8.8:   Density
 DFV .                 32:   Viscosity
 DFPH.                8.5:   pH
 DFL .                7.4:   Fluid loss
 MSS .               CIRC:   Source of sample
 RMS .OHMM           1.87:   Rm
 MST .F                85:   Rm Meas. temp.
 RMF .OHMM           1.69:   Rmf
 MFST.F                85:   Rmf Meas. temp.
 RMC .OHMM           2.80:   Rmc
 MCST.F                85:   Rmc Meas. temp.
 MFSS.               MEAS:   Source Rmf.
 MCSS.               CALC:   Source Rmc.
 RMB .OHMM           1.43:   Rm. at BHT
 BHT .F               111:   BHT.
 TCS .HRS            1600:   Time Circ. stopped
 TLAB.HRS            0945:   Time logger at bottom
 MRT .F               111:   Maximum recorded temp.
 LUN .               7711:   Logging unit number
 LUL .               CSPR:   Logging unit location
 ENGI.             SAYLER:   Recorded By
 WITN.         HARRINGTON:   Witnessed by
 ORIG.           5" PRINT:   Origin of data
 UWI .     49025103860000:   Unique Well ID
 DICO. A2D TECHNOLOGIES, INC.:   Digitizing Company
~OTHER INFORMATION
~A  DEPTH      SPR       RILM       RILD        LL8        GRD       CALD       RHOB       DRHO
# ...
  726.5000   -98.6590    10.0960     9.4410    10.2060    96.9980     9.2290     2.5140     0.0140
  727.0000   -98.6940     9.8860     9.5060    10.0700    95.9040     9.2300     2.5250     0.0160
  727.5000   -98.7280     9.9190     9.5840    10.1000    94.7530     9.2310     2.5230     0.0150
  728.0000   -98.7630    10.0010     9.6620    10.1480    95.0730     9.2320     2.5350     0.0220
  728.5000   -98.7980    10.0830     9.7400    10.1960    95.6710     9.2330     2.5340     0.0160
  729.0000   -98.8330    10.1640     9.8180    10.2440    95.4720     9.2340     2.5290     0.0140
  729.5000   -98.8680    10.2460     9.8860    10.4150    95.2790     9.2350     2.5380     0.0130
  730.0000   -98.9020    10.3520     9.7870    10.5450    95.9170     9.2340     2.5330     0.0070
  730.5000   -98.9370    10.2470     9.6790    10.4050    96.9800     9.2330     2.5390     0.0330
  731.0000   -98.9720    10.0970     9.5710    10.2500    97.9910     9.2320     2.5520     0.0300
  731.5000   -99.0070     9.9460     9.4630    10.0700    97.4140     9.2310     2.5540     0.0390
  732.0000   -99.0420     9.7950     9.3550    10.1370    96.8730     9.2300     2.5610     0.0440
  732.5000   -99.0760     9.7060     9.2690    10.2440    98.5030     9.2290     2.5430     0.0270
  733.0000   -99.1110     9.8850     9.4200    10.3520   100.2540     9.2280     2.5410     0.0240
  733.5000   -99.1460     9.9750     9.5020    10.3220   102.0020     9.2270     2.5370     0.0270
  734.0000   -99.1810    10.0700     9.5840    10.2840   103.5740     9.2260     2.5350     0.0170
  734.5000   -99.2150    10.0400     9.7060    10.2450   102.7520     9.2250     2.5260     0.0110
  735.0000   -99.2500     9.9840     9.6170    10.2060   101.8940     9.2240     2.5210     0.0150
  735.5000   -99.2850     9.9280     9.4080    10.1680   103.1650     9.2230     2.5260     0.0010
  736.0000   -99.3200     9.8860     9.2690    10.2860   104.4830     9.2220     2.5320     0.0160
  736.5000   -99.3550     9.9430     9.3880    10.3280   105.7280     9.2210     2.5380     0.0120
  737.0000   -99.3890     9.9780     9.4410    10.3520   105.0630     9.2200     2.5350     0.0210
  737.5000   -99.4240     9.7770     9.3140    10.1370   104.5780     9.2190     2.5310     0.0150
  738.0000   -99.4590     9.6120     9.2100     9.9610   105.9350     9.2180     2.5310     0.0210
  738.5000   -99.4950     9.4410     9.1060     9.7850   105.9330     9.2170     2.5350     0.0170
  739.0000   -99.4990     9.4620     9.0240     9.7060   104.7390     9.2150     2.5300     0.0190
  739.5000   -99.4890     9.4830     9.0750     9.7390   104.7620     9.2180     2.5260     0.0110
  740.0000   -99.4790     9.5050     9.1260     9.7630   103.0170     9.2230     2.5400     0.0070
  740.5000   -99.4680     9.5260     9.1780     9.7880   102.4750     9.2270     2.5530     0.0210
  741.0000   -99.4580     9.4460     9.0760     9.7960   102.5640     9.2310     2.5470     0.0270
  741.5000   -99.4480     9.3520     8.9520     9.6170   103.5590     9.2360     2.5580     0.0250
  742.0000   -99.4380     9.2580     8.8290     9.4690   104.7500     9.2400     2.5500     0.0300
  742.5000   -99.4280     9.1640     8.7050     9.3990   104.8170     9.2440     2.5460     0.0240
  743.0000   -99.4180     9.0700     8.5820     9.3280   104.4110     9.2490     2.5550     0.0290
  743.5000   -99.4080     8.9340     8.4530     9.2690   104.1600     9.2530     2.5590     0.0300
  744.0000   -99.3970     9.0780     8.6220     9.3830   101.3340     9.2540     2.5440     0.0190
  744.5000   -99.3870     9.2560     8.7860     9.5890   102.4090     9.2520     2.5310     0.0140
  745.0000   -99.3770     9.4340     8.9510     9.7960   104.2410     9.2500     2.5350     0.0210
  745.5000   -99.3670     9.6110     9.1150    10.0700   106.1130     9.2480     2.5300     0.0200
  746.0000   -99.3570     9.7060     9.2690     9.9900   106.7070     9.2460     2.5240     0.0140
  746.5000   -99.3470     9.5800     9.2120     9.8710   103.2210     9.2430     2.5200     0.0170
  747.0000   -99.3360     9.4810     9.1460     9.7520   100.5020     9.2410     2.5270     0.0160
  747.5000   -99.3260     9.3810     9.0810     9.6330    99.0610     9.2390     2.5430     0.0290
  748.0000   -99.3160     9.2820     9.0150     9.5140    98.8820     9.2370     2.5570     0.0410
  748.5000   -99.3050     9.1830     8.9490     9.3950    98.6870     9.2390     2.5580     0.0380
  749.0000   -99.3240     9.0830     8.8520     9.2690    98.1010     9.2530     2.5740     0.0430
  749.5000   -99.3490     9.0160     8.9550     9.2690    97.0860     9.2520     2.5660     0.0510
  750.0000   -99.3730     9.2570     9.0210     9.6030    97.2310     9.2500     2.5520     0.0300
  750.5000   -99.3980     9.4710     9.0870     9.8730    97.5420     9.2480     2.5560     0.0320
  751.0000   -99.4230     9.6860     9.1530    10.0700    97.8410     9.2460     2.5620     0.0330
  751.5000   -99.4470     9.9540     9.2180    10.0750    97.6230     9.2450     2.5520     0.0200
  752.0000   -99.4720     9.8650     9.2690    10.1630    98.7610     9.2430     2.5420     0.0150
  752.5000   -99.4970     9.6900     9.2690    10.0140   100.9820     9.2410     2.5310     0.0100
  753.0000   -99.5210     9.4410     9.1930     9.7960   102.6140     9.2390     2.5390     0.0160
  753.5000   -99.5460     9.6240     9.0040     9.9080   102.9420     9.2380     2.5440     0.0130
  754.0000   -99.5710     9.8860     8.8140    10.0700   101.0330     9.2360     2.5350     0.0170
  754.5000   -99.5950     9.5560     9.1000     9.8860   100.7740     9.2390     2.5280     0.0100
  755.0000   -99.6200     9.2720     8.7840     9.6800    99.2450     9.2460     2.5230     0.0160
  755.5000   -99.6440     8.9870     8.5030     9.4410    97.8060     9.2520     2.5220     0.0180
  756.0000   -99.6710     8.6110     8.2210     9.6130    97.0080     9.2450     2.5210     0.0110
  756.5000   -99.6990     8.9550     8.0730    10.0390    97.5910     9.2280     2.5120     0.0080
  757.0000   -99.6640     9.4630     9.0730    10.5520    98.1380     9.2110     2.5040     0.0020
  757.5000   -99.4440     9.9720     9.3550    10.8400    98.6010     9.1960     2.5170     0.0080
  758.0000   -99.3300    10.2080     9.8050    10.7480    97.6650     9.2010     2.5330     0.0160
  758.5000   -99.2240    10.3160    10.3520    10.6420    97.3580     9.2060     2.5450     0.0240
  759.0000   -99.1180    10.4230    10.2750    10.7890    98.7840     9.2110     2.5490     0.0240
  759.5000   -99.0120    10.6310    10.1980    11.0590   100.4340     9.2170     2.5530     0.0380
  760.0000   -98.9070    10.8690    10.1630    11.3290   100.5580     9.2220     2.5570     0.0330
  760.5000   -98.8010    11.1070    10.6110    11.5310   102.1530     9.2270     2.5500     0.0280
  761.0000   -98.6950    11.3450    10.9430    11.6710   101.5340     9.2330     2.5500     0.0290
  761.5000   -98.5900    11.5620    11.2470    11.8860   100.8810     9.2380     2.5530     0.0270
  762.0000   -98.5100    11.4860    11.1480    11.8020   100.1050     9.2430     2.5430     0.0240
  762.5000   -98.5120    11.4000    11.0570    11.6260    99.1870     9.2480     2.5410     0.0120
  763.0000   -98.5120    11.3140    10.9660    11.4560    97.7700     9.2540     2.5390     0.0160
  763.5000   -98.5120    11.2470    10.8760    11.5040    96.3660     9.2590     2.5400     0.0110
  764.0000   -98.5120    11.3090    10.8400    11.5630    95.4160     9.2640     2.5500     0.0180
  764.5000   -98.5120    11.3610    11.0650    11.6210    98.9550     9.2700     2.5600     0.0260
  765.0000   -98.5120    11.4120    11.1440    11.6790    99.6690     9.2750     2.5660     0.0220
  765.5000   -98.5120    11.4510    10.9570    11.7380    99.6890     9.2840     2.5560     0.0220
  766.0000   -98.5260    11.1810    10.7160    11.7770   100.0280     9.2930     2.5440     0.0160
  766.5000   -98.5520    10.9810    10.4740    11.3720   101.0600     9.3020     2.5530     0.0120
