~VERSION INFORMATION
 VERS.                2.0:   CWLS LOG ASCII STANDARD - VERSION 2.0
 WRAP.                 NO:   ONE LINE PER DEPTH STEP
~WELL INFORMATION
#MNEM.UNIT      DATA TYPE    INFORMATION
#----------   ------------   ------------------------------
 STRT.F           11.0000:   START DEPTH
 STOP.F         4154.0000:   STOP DEPTH
 STEP.F            0.5000:   STEP LENGTH
 NULL.          -999.2500:   NO VALUE
 COMP.   LAWRENCE ALLISON:   COMPANY
 WELL. ALLISON NPR 3 "LX" #14-22:   WELL
 FLD .                NPR:   FIELD
 LOC .      S22 T38N R78W:   LOCATION
 CNTY.            NATRONA:   COUNTY
 STAT.            WYOMING:   STATE
 CTRY. UNITED STATES OF AMERICA:   COUNTRY
 SRVC.       DRESER ATLAS:   SERVICE COMPANY
 DATE.        14-APR-1985:   LOGDATE
 API .     49025110230000:   API NUMBER
~CURVE INFORMATION
#MNEM.UNIT       API CODE    CURVE DESCRIPTION
#----------   ------------   ------------------------------
 DEPT.F                  :   
 TEND.LBS    45 635 01 00:   TENSION FROM DENSITY LOG
 RHOB.G/C3   45 350 01 00:   BULK DENSITY
 DRHO.G/C3   45 356 01 00:   DENSITY CORRECTION
 CALD.IN     45 280 60 00:   CALIPER FROM DENSITY LOG
 NPHI.DEC    42 890 03 00:   NEUTRON POROSITY SANDSTONE
 TENR.LBS    07 635 01 00:   TENSION FROM RESISTIVITY
 SPR .MV     07 010 01 00:   SPONTANEOUS POTENTIAL
 GRR .GAPI   07 310 01 00:   GAMMA RAY FROM RESISTIVITY
 RFOC.OHMM   07 220 01 00:   RESISTIVITY FOCUSED LOG RES.
 RILD.OHMM   07 120 46 00:   DEEP INDUCTION RESISTIVITY
 RILM.OHMM   07 120 44 00:   INDUCTION LOG MEDIUM RESISTIVITY
~PARAMETER INFORMATION
#MNEM.UNIT          VALUE    DESCRIPTION
#----------   ------------   ------------------------------
 EKB .F         5230.4000:   Kelly bushing
 EGL .F         5220.4000:   Ground level
 EDF .F            0.0000:   Drilling floor
 TD  .F         4150.0000:   Total depth
 DATE.        14-APR-1985:   Date logged
 CLNT.            A2DTECH:   Client Code
 SL  . 905' FNL & 824' FWL:   Surface Location
 PD  .                 GL:   Permanent Datum
 EPD .F            5220.4:   Elevation Permanent Datum
 LMF .                 KB:   Log Measured From
 DMF .                 KB:   Drilling Measured From
 DAPD.F                10:   Feet Above Permanent Datum
 DD  .F              4150:   Depth driller
 DL  .F              4140:   Depth logger
 BLI .F              4138:   Bottom log interval
 CS1 .IN            8.625:   Casing size
 CBD1.      8.625" @ 738':   Casing driller 1
 CBL1.F               738:   Casing logger 1
 BS1 .IN            7.875:   Bit size
 BSD1.F              4150:   Depth drilled with bit1
 DFT .            KCL/GEL:   Type fluid in hole
 DFD .                9.1:   Density
 DFV .                 48:   Viscosity
 DFPH.                8.5:   pH
 DFL .                 10:   Fluid loss
 MSS .           FLOWLINE:   Source of sample
 RMS .OHMM            .35:   Rm
 MST .F                62:   Rm Meas. temp.
 RMF .OHMM            .26:   Rmf
 MFST.F                62:   Rmf Meas. temp.
 RMC .OHMM            .43:   Rmc
 MCST.F                62:   Rmc Meas. temp.
 MFSS.               CALC:   Source Rmf.
 MCSS.               CALC:   Source Rmc.
 RMB .OHMM            .16:   Rm. at BHT
 BHT .F               140:   BHT.
 TCS .HRS               6:   Time Circ. stopped
 MRT .F               140:   Maximum recorded temp.
 LUN .               6274:   Logging unit number
 LUL .               GLTE:   Logging unit location
 ENGI.               MACK:   Recorded By
 WITN.             STRONG:   Witnessed by
 ORIG.           5" PRINT:   Origin of data
 UWI .     49025110230000:   Unique Well ID
 DICO. A2D TECHNOLOGIES, INC.:   Digitizing Company
~OTHER INFORMATION
~A   DEPT     TEND       RHOB       DRHO       CALD       NPHI       TENR        SPR        GRR       RFOC       RILD       RILM   
# ...
 2756.0000    -3.5350     2.3840    -0.0030     9.4630     0.1940   -46.2800   -31.5740    68.4430    14.7610    22.3170    16.4980
 2756.5000   -15.4280     2.3840    -0.0070     9.4520     0.2050   -56.0640   -31.5750    68.7860    14.9320    22.1350    16.3500
 2757.0000   -27.3210     2.3790    -0.0080     9.4470     0.2090   -65.8480   -31.6950    68.0600    15.0280    22.1960    16.1780
 2757.5000   -39.2140     2.3740    -0.0090     9.4400     0.2050   -75.6320   -31.9560    67.5910    14.7790    22.2450    16.2640
 2758.0000   -45.6140     2.3700    -0.0110     9.4360     0.2030   -84.8350   -32.2170    67.8950    14.5780    22.2950    16.4550
 2758.5000   -41.4520     2.3680    -0.0100     9.4390     0.2090   -82.8230   -32.4790    68.1810    14.3770    22.3440    16.6460
 2759.0000   -37.2890     2.3780    -0.0030     9.4420     0.2030   -79.7900   -32.7400    67.7480    14.2190    22.3940    16.8370
 2759.5000   -38.8400     2.3910     0.0110     9.4450     0.1950   -76.7570   -32.9670    66.6170    14.2190    22.4430    17.0280
 2760.0000   -42.6820     2.4030     0.0250     9.4480     0.1880   -73.7240   -32.9210    65.7880    14.4500    22.4930    17.2190
 2760.5000   -46.5240     2.4160     0.0250     9.4500     0.1970   -70.6910   -32.8690    65.0920    15.2270    22.5470    17.4100
 2761.0000   -50.3670     2.4190     0.0170     9.4530     0.1950   -67.6580   -32.8170    65.9060    15.4500    23.0520    17.6200
 2761.5000   -54.2090     2.4030     0.0100     9.4560     0.1920   -64.6250   -32.7650    66.9250    15.0240    23.6070    17.9690
 2762.0000   -45.3330     2.3860     0.0020     9.4590     0.1880   -61.5920   -32.7130    67.8560    14.6180    24.1620    18.3190
 2762.5000   -20.3570     2.3830     0.0120     9.4620     0.1900   -58.5590   -32.6610    66.1630    14.6930    24.7170    18.6680
 2763.0000    -9.5330     2.3870     0.0250     9.4640     0.1910   -55.5260   -32.6100    64.3410    14.8310    25.2160    19.0170
 2763.5000   -15.7770     2.3870     0.0260     9.4670     0.1930   -54.8050   -32.5690    62.5400    14.9690    25.4130    19.3670
 2764.0000   -22.0210     2.3870     0.0250     9.4700     0.1930   -56.3060   -32.5710    61.0610    15.0280    25.6530    19.7160
 2764.5000   -28.2650     2.3870     0.0290     9.4720     0.1910   -58.2510   -32.6690    60.9070    15.0280    25.6110    20.0000
 2765.0000   -34.5080     2.3970     0.0230     9.4590     0.1950   -60.1950   -32.8930    65.6470    16.1870    25.5040    19.6410
 2765.5000   -35.9170     2.4100     0.0170     9.4550     0.2040   -62.1390   -33.1170    72.3130    17.3580    25.3960    19.1880
 2766.0000   -35.0710     2.4200     0.0110     9.4550     0.2130   -64.0830   -33.3410    79.3750    17.7410    25.2890    18.8830
 2766.5000   -34.2240     2.4140     0.0090     9.4550     0.2190   -64.8150   -33.5660    80.5390    16.9910    25.1840    18.6960
 2767.0000   -33.3770     2.4010     0.0150     9.4550     0.2120   -65.2880   -33.7470    74.5750    15.8240    24.4990    18.5090
 2767.5000   -32.5310     2.3880     0.0280     9.4550     0.2030   -65.7480   -33.6000    66.8680    14.6570    23.8330    18.3210
 2768.0000   -31.6840     2.3840     0.0240     9.4550     0.1960   -66.2070   -33.6790    60.3680    14.3510    23.1670    18.1340
 2768.5000   -30.8380     2.3870     0.0160     9.4550     0.2020   -66.6670   -33.8320    60.7480    14.4110    22.5470    17.9760
 2769.0000   -29.9910     2.3930     0.0080     9.4550     0.2120   -67.1260   -34.0120    65.5130    14.4590    22.2950    17.7710
 2769.5000   -29.1440     2.3980     0.0050     9.4550     0.2250   -67.5860   -34.2960    70.7330    14.4840    22.2280    17.5670
 2770.0000   -28.2980     2.3960     0.0130     9.4550     0.2220   -68.0450   -34.5850    75.0390    14.1710    22.1620    17.3620
 2770.5000   -27.4510     2.3910     0.0220     9.4550     0.2160   -68.5050   -34.8740    74.7690    13.8190    22.0960    17.1570
 2771.0000   -26.5640     2.3850     0.0320     9.4550     0.2100   -68.9640   -35.1510    73.1070    13.5790    22.0290    17.0250
 2771.5000   -31.3210     2.3830     0.0450     9.4550     0.2080   -69.4240   -35.0190    71.4480    13.8450    21.9630    16.7940
 2772.0000   -36.3160     2.3850     0.0490     9.4550     0.2100   -69.8840   -34.6640    69.9570    14.0470    21.6990    16.5620
 2772.5000   -41.3110     2.3870     0.0400     9.4550     0.2110   -70.3430   -34.3150    68.6070    14.2190    21.2650    16.3300
 2773.0000   -46.3060     2.3870     0.0280     9.4550     0.2100   -70.8030   -33.9660    66.6180    13.9770    20.8310    16.0990
 2773.5000   -51.3010     2.3790     0.0180     9.4550     0.2080   -71.2620   -33.5780    64.6050    13.6550    20.3970    15.8670
 2774.0000   -56.3560     2.3680    -0.0030     9.4550     0.2070   -71.7220   -33.4970    62.7790    13.4540    19.9620    15.6350
 2774.5000   -39.2570     2.3570    -0.0070     9.4550     0.2080   -72.1810   -33.9950    64.5070    13.3310    19.5280    15.4040
 2775.0000   -30.1750     2.3520    -0.0110     9.4550     0.2110   -72.6410   -34.4920    66.5330    13.4890    19.0940    15.1720
 2775.5000   -34.7700     2.3490    -0.0150     9.4540     0.2110   -73.1000   -34.9880    68.5370    13.6220    18.7500    14.9400
 2776.0000   -48.3930     2.3430    -0.0190     9.4540     0.2080   -73.5600   -35.4830    69.8040    13.8320    18.6710    14.7090
 2776.5000   -56.3560     2.3360    -0.0190     9.4530     0.1980   -74.0190   -35.9790    69.2420    13.6690    18.5920    14.4840
 2777.0000   -56.3560     2.3360    -0.0160     9.4520     0.1940   -74.4790   -36.4740    68.7640    13.2870    18.5130    14.4150
 2777.5000   -56.3560     2.3520    -0.0040     9.4510     0.1970   -76.2970   -36.9700    69.9900    12.9050    18.4350    14.3320
 2778.0000   -58.2110     2.3700     0.0180     9.4500     0.2090   -82.2440   -37.4650    71.3410    12.8480    18.1560    14.2490
 2778.5000   -62.4930     2.3820     0.0250     9.4490     0.2200   -88.1910   -37.9610    72.6900    12.8480    17.9760    14.1650
 2779.0000   -66.7740     2.3920     0.0300     9.4480     0.2220   -94.1380   -38.4550    74.1710    12.8480    17.7960    14.0890
 2779.5000   -71.0550     2.4010     0.0340     9.4470     0.2220   -99.0870   -38.9530    75.8810    12.8480    17.6150    14.0890
 2780.0000   -75.3370     2.4090     0.0210     9.4460     0.2220  -103.9020   -38.9640    77.6170    12.9680    17.4170    14.0890
 2780.5000   -79.6180     2.4100     0.0040     9.4450     0.2220  -108.7160   -38.5320    76.2730    13.2080    17.4170    14.0890
 2781.0000   -83.9000     2.4070     0.0010     9.4440     0.2210  -113.5300   -38.0970    73.7450    12.9930    17.9720    14.0890
 2781.5000   -67.0140     2.4120     0.0030     9.4430     0.2210  -100.3960   -37.9030    71.8960    12.6130    18.3970    14.6350
 2782.0000   -33.7140     2.4320     0.0310     9.4430     0.2200   -72.8230   -37.7760    73.0340    12.6130    18.8210    15.2270
 2782.5000    -0.4140     2.4420     0.0520     9.4420     0.2160   -45.2500   -37.4970    73.7140    13.7000    19.2940    15.8200
 2783.0000    23.0880     2.4280     0.0510     9.4410     0.2120   -17.6770   -36.4610    68.5050    14.5130    19.8590    16.4120
 2783.5000    32.7440     2.4120     0.0430     9.4400     0.2080     5.2550   -35.4540    63.4610    15.0280    20.4230    17.0050
 2784.0000    41.5590     2.4010     0.0340     9.4390     0.2020    13.1520   -34.4500    59.8990    15.0520    20.9870    17.2570
 2784.5000    50.3740     2.3960     0.0290     9.4380     0.1960     7.5350   -34.0490    62.0940    15.0930    21.3330    17.1280
 2785.0000    52.8800     2.3930     0.0220     9.4370     0.1930     1.9190   -34.3370    65.0290    15.1350    21.2320    16.9950
 2785.5000    28.6810     2.3920     0.0160     9.4360     0.1970    -3.6980   -34.6150    66.2390    15.1670    21.0620    16.8630
 2786.0000     2.3910     2.3810     0.0090     9.4370     0.2010   -25.2750   -34.9000    67.1670    14.4710    20.8920    16.5060
