~VERSION INFORMATION
 VERS.                2.0:   CWLS LOG ASCII STANDARD - VERSION 2.0
 WRAP.                 NO:   ONE LINE PER DEPTH STEP
~WELL INFORMATION
#MNEM.UNIT      DATA TYPE    INFORMATION
#----------   ------------   ------------------------------
 STRT.F          176.0000:   START DEPTH
 STOP.F         3400.0000:   STOP DEPTH
 STEP.F            0.5000:   STEP LENGTH
 NULL.          -999.2500:   NO VALUE
 COMP.    PENIX & SCISSON:   COMPANY
 WELL. FENIX NPR 3 "AX" #64-4:   WELL
 FLD .                NPR:   FIELD
 LOC .       S4 T38N R78W:   LOCATION
 CNTY.            NATRONA:   COUNTY
 STAT.            WYOMING:   STATE
 CTRY. UNITED STATES OF AMERICA:   COUNTRY
 SRVC.       SCHLUMBERGER:   SERVICE COMPANY
 DATE.        25-JAN-1981:   LOGDATE
 API .     49025108640000:   API NUMBER
~CURVE INFORMATION
#MNEM.UNIT       API CODE    CURVE DESCRIPTION
#----------   ------------   ------------------------------
 DEPT.F                  :   
 SPR .MV     07 010 01 00:   SPONTANEOUS POTENTIAL
 RFOC.OHMM   07 220 01 00:   RESISTIVITY FOCUSED LOG RES.
 ILD .OHMM   07 120 46 00:   DEEP INDUCTION RESISTIVITY
 TENR.LBS    07 635 01 00:   TENSION
 ILM .OHMM   07 120 44 00:   INDUCTION LOG MEDIUM RESISTIVITY
 GRD .GAPI   45 310 01 00:   GAMMA RAY FROM DENSITY LOG
 CALD.IN     45 280 60 00:   CALIPER FROM DENSITY LOG
 RHOB.G/C3   45 350 01 00:   BULK DENSITY
 TEND.LBS    45 635 01 00:   TENSION FROM DENSITY LOG
 CORR.G/C3   45 356 01 00:   DENSITY CORRECTION
~PARAMETER INFORMATION
#MNEM.UNIT          VALUE    DESCRIPTION
#----------   ------------   ------------------------------
 EKB .F         5257.0000:   Kelly bushing
 EGL .F         5247.0000:   Ground level
 EDF .F            0.0000:   Drilling floor
 TD  .F         3388.0000:   Total depth
 DATE.        25-JAN-1981:   Date logged
 CLNT.            A2DTECH:   Client Code
 SL  . 2289' FNL & 1495' FEL:   Surface Location
 PD  .                 GL:   Permanent Datum
 EPD .F              5247:   Elevation Permanent Datum
 LMF .                 KB:   Log Measured From
 DMF .                 KB:   Drilling Measured From
 DAPD.F                10:   Feet Above Permanent Datum
 DD  .F              3388:   Depth driller
 DL  .F              3386:   Depth logger
 BLI .F              3380:   Bottom log interval
 TLI .F               192:   Top log interval
 CS1 .IN            8.625:   Casing size
 CBD1.      8.625" @ 191':   Casing driller 1
 CBL1.F               192:   Casing logger 1
 BS1 .IN            7.875:   Bit size
 BSD1.F              3388:   Depth drilled with bit1
 DFT .                FGM:   Type fluid in hole
 DFD .                8.7:   Density
 DFV .                 32:   Viscosity
 DFPH.                9.5:   pH
 DFL .                 18:   Fluid loss
 MSS .           FLOWLINE:   Source of sample
 RMS .OHMM           1.60:   Rm
 MST .F                60:   Rm Meas. temp.
 RMF .OHMM           1.33:   Rmf
 MFST.F                60:   Rmf Meas. temp.
 MFSS.               MEAS:   Source Rmf.
 RMB .OHMM            .83:   Rm. at BHT
 BHT .F               115:   BHT.
 TCS .HRS            1700:   Time Circ. stopped
 TLAB.HRS            2200:   Time logger at bottom
 MRT .F               115:   Maximum recorded temp.
 LUN .               8039:   Logging unit number
 LUL .               CSPR:   Logging unit location
 ENGI.           C. PFARR:   Recorded By
 WITN.           L. FIVAS:   Witnessed by
 ORIG.           5" PRINT:   Origin of data
 UWI .     49025108640000:   Unique Well ID
 DICO. A2D TECHNOLOGIES, INC.:   Digitizing Company
~OTHER INFORMATION
~A   DEPT      SPR       RFOC        ILD       TENR        ILM         GRD      CALD         RHOB      TEND      CORR   
# ...
 1449.0000   -15.7560     8.7720     8.2590   618.7620     7.7670   107.4950     9.8100     2.4280   765.2730     0.1860
 1449.5000   -15.7700     8.5050     8.0910   618.7620     7.6040   109.7250     9.7130     2.3900   765.4310     0.1500
 1450.0000   -15.7840     8.1850     7.8890   618.7620     7.6480   110.1900     9.6060     2.3680   765.5880     0.1520
 1450.5000   -15.7980     8.3600     7.9260   618.7620     7.6930   109.4250     9.5330     2.3580   765.7460     0.1270
 1451.0000   -15.8120     8.5780     7.9720   618.7620     7.7370   109.4310     9.5000     2.3700   765.9030     0.0800
 1451.5000   -15.8260     8.7970     8.0180   618.7620     7.7810   109.9400     9.4620     2.4480   766.0600     0.0890
 1452.0000   -15.8400     8.9750     8.0640   618.7620     7.8260   109.6600     9.4390     2.5180   766.2180     0.1310
 1452.5000   -15.8540     8.8200     8.1100   618.7620     7.8890   108.1220     9.5060     2.5610   766.3750     0.1680
 1453.0000   -15.8680     8.6890     8.1850   618.7620     7.8760   105.8720     9.5620     2.5520   766.5330     0.2100
 1453.5000   -15.8820     8.5570     8.1770   618.7620     7.8540   105.7610     9.6240     2.5430   766.6900     0.2290
 1454.0000   -15.8960     8.4260     8.1530   618.7620     7.8310   107.2270     9.6700     2.5300   766.8480     0.2130
 1454.5000   -15.9110     8.2950     8.1300   618.7620     7.8090   108.1670     9.6780     2.5180   767.0050     0.2070
 1455.0000   -15.9240     8.1850     8.1070   618.7620     7.7870   107.6420     9.6860     2.5030   767.1630     0.2050
 1455.5000   -15.9400     8.2880     8.0840   618.7620     7.7650   106.8970     9.6910     2.4950   767.3200     0.2040
 1456.0000   -15.9350     8.3760     8.0600   618.7620     7.7460   107.1910     9.6990     2.4780   767.4770     0.1410
 1456.5000   -15.9130     8.4640     8.0380   618.7620     7.7620   106.7470     9.7050     2.5120   767.6350     0.1470
 1457.0000   -15.8930     8.5520     8.0500   618.7620     7.7750   105.4080     9.7060     2.5460   767.7920     0.1510
 1457.5000   -15.8730     8.6400     8.0630   618.7620     7.7880   104.1750     9.6550     2.5460   767.9500     0.1520
 1458.0000   -15.8530     8.7290     8.0780   618.7620     7.8030   104.3110     9.6130     2.5140   768.1070     0.1580
 1458.5000   -15.8330     8.8170     8.0920   618.7620     7.8160   104.3970     9.5670     2.4540   768.2650     0.0600
 1459.0000   -15.8120     8.9050     8.1060   618.7620     7.8300   103.9870     9.5230     2.4730   768.4220     0.0670
 1459.5000   -15.7920     8.9930     8.1210   618.7620     7.8440   101.5180     9.4780     2.5080   768.5800     0.0740
 1460.0000   -15.7720     9.1420     8.1350   618.7620     7.8580   102.4080     9.4330     2.5560   768.7370     0.1030
 1460.5000   -15.7520     9.0870     8.1500   618.7620     7.8720   104.6740     9.3880     2.5500   768.8940     0.1280
 1461.0000   -15.7320     8.9150     8.1640   618.7620     7.8860   106.7040     9.3540     2.5390   769.0520     0.1350
 1461.5000   -15.7110     8.7430     8.1850   618.7620     7.7440   108.8330     9.3540     2.5210   769.2090     0.1300
 1462.0000   -15.6910     8.5710     8.0770   618.7620     7.5370   110.2080     9.3530     2.5020   769.3670     0.1240
 1462.5000   -15.6710     8.3990     7.8640   618.7620     7.3320   111.0220     9.3530     2.5060   769.5240     0.1270
 1463.0000   -15.6510     8.2270     7.6510   618.7620     7.1260   108.3740     9.3530     2.5140   769.6820     0.1410
 1463.5000   -15.6300     8.0360     7.4380   618.7620     7.0560   105.6470     9.3530     2.5080   769.8390     0.1280
 1464.0000   -15.6100     8.1100     7.3230   618.7620     7.0450   104.4430     9.3530     2.4990   769.9960     0.0920
 1464.5000   -15.5900     8.1940     7.3120   618.7620     7.0340   107.8730     9.3530     2.4900   770.1540     0.0590
 1465.0000   -15.5700     8.2770     7.3000   618.7620     7.0230   112.3880     9.3530     2.4860   770.3110     0.0280
 1465.5000   -15.5500     8.3310     7.2890   618.7620     7.0120   115.7000     9.3530     2.4880   770.4690     0.0150
 1466.0000   -15.5290     8.3070     7.2770   618.7620     7.0010   115.1490     9.3530     2.4980   770.6260    -0.0010
 1466.5000   -15.5090     8.2830     7.2660   618.7620     6.9900   113.3840     9.3570     2.5040   770.7840     0.0010
 1467.0000   -15.4890     8.2600     7.2540   618.7620     6.9780   113.1220     9.3610     2.5110   770.9410     0.0030
 1467.5000   -15.4690     8.2360     7.2430   618.7620     6.9670   115.2270     9.3640     2.5220   771.0990     0.0130
 1468.0000   -15.4490     8.2130     7.2310   618.7620     6.9560   117.2540     9.3680     2.5360   771.2560     0.0300
 1468.5000   -15.4280     8.1860     7.2200   618.7620     6.9450   118.2710     9.3710     2.5500   771.4130     0.0470
 1469.0000   -15.4080     8.1510     7.2080   618.7620     6.9350   118.3150     9.3750     2.5550   771.5710     0.0540
 1469.5000   -15.3880     8.1090     7.1950   618.7620     6.9070   115.4830     9.3780     2.5540   771.7280     0.0510
 1470.0000   -15.3680     8.0680     7.1720   618.7620     6.8810   112.1340     9.3820     2.5500   771.8860     0.0490
 1470.5000   -15.3480     8.0270     7.1450   618.7620     6.8550   108.2390     9.3850     2.5340   772.0430     0.0330
 1471.0000   -15.3270     7.9860     7.1170   618.7620     6.8280   108.0530     9.3890     2.5280   772.2010     0.0290
 1471.5000   -15.3070     7.9460     7.0910   618.7620     6.8080   110.3150     9.3920     2.5240   772.3580     0.0320
 1472.0000   -15.2870     7.8890     7.0650   618.7620     6.8080   112.8880     9.3960     2.5220   772.5160     0.0290
 1472.5000   -15.2670     7.9470     7.0640   618.7620     6.8080   115.5180     9.3990     2.5150   772.6730     0.0230
 1473.0000   -15.2470     8.0390     7.0630   618.7620     6.8080   117.4580     9.4030     2.5080   772.8300     0.0180
 1473.5000   -15.2260     8.1850     7.0630   618.7620     6.8080   114.9010     9.4060     2.5160   772.9880     0.0270
 1474.0000   -15.2060     8.1390     7.0640   618.7620     6.8080   111.6490     9.4100     2.5270   773.1450     0.0400
 1474.5000   -15.1860     8.0270     7.0640   618.7620     6.8080   107.1380     9.4130     2.5350   773.3030     0.0430
 1475.0000   -15.1640     7.9150     7.0630   618.7620     6.8080   107.9570     9.4160     2.5290   773.4600     0.0340
 1475.5000   -15.1660     7.8030     7.0630   618.7620     6.8080   110.2450     9.4200     2.5230   773.6180     0.0270
 1476.0000   -15.1840     7.6900     7.0640   618.7620     6.7700   112.6480     9.4230     2.5200   773.7750     0.0390
 1476.5000   -15.2000     7.5780     7.0120   618.7620     6.7210   113.2370     9.4270     2.5360   773.9330     0.0500
 1477.0000   -15.2160     7.4660     6.9240   618.7620     6.6730   113.9570     9.4320     2.5510   774.0900     0.0380
 1477.5000   -15.2330     7.3540     6.8370   618.7620     6.6250   113.4040     9.4220     2.5490   774.2470     0.0260
 1478.0000   -15.2490     7.3290     6.7490   618.7620     6.5770   112.9600     9.3940     2.5370   774.4050     0.0110
 1478.5000   -15.2660     7.3290     6.6610   618.7620     6.5290   114.3770     9.3660     2.5160   774.5620     0.0150
 1479.0000   -15.2820     7.3290     6.5740   618.7620     6.4810   115.6890     9.3390     2.5120   774.7200     0.0200
 1479.5000   -15.2990     7.3290     6.4860   618.7620     6.4320   116.0350     9.3110     2.5190   774.8770     0.0260
 1480.0000   -15.3150     7.3290     6.3980   618.8070     6.3840   114.4810     9.2830     2.5220   775.0350     0.0280
 1480.5000   -15.3320     7.3290     6.3250   618.9320     6.3360   114.1050     9.2560     2.5160   775.1920     0.0180
 1481.0000   -15.3480     7.3290     6.4000   619.0560     6.3720   113.6860     9.2360     2.5130   775.3500     0.0270
 1481.5000   -15.3640     7.3290     6.4650   619.1810     6.4350   113.2860     9.2520     2.5300   775.5070     0.0490
 1482.0000   -15.3810     7.3800     6.5310   619.3050     6.4980   112.8160     9.2650     2.5530   775.6640     0.0690
