~VERSION INFORMATION
 VERS.                2.0:   CWLS LOG ASCII STANDARD - VERSION 2.0
 WRAP.                 NO:   ONE LINE PER DEPTH STEP
~WELL INFORMATION
#MNEM.UNIT      DATA TYPE    INFORMATION
#----------   ------------   ------------------------------
 STRT.F          240.0000:   START DEPTH
 STOP.F         2876.0000:   STOP DEPTH
 STEP.F            0.5000:   STEP LENGTH
 NULL.          -999.2500:   NO VALUE
 COMP.    FENIX & SCISSON:   COMPANY
 WELL. FENIX & SCISSON "A" #23-21:   WELL
 FLD .               NPR3:   FIELD
 LOC .      S21 T39N R78W:   LOCATION
 CNTY.            NATRONA:   COUNTY
 STAT.            WYOMING:   STATE
 CTRY. UNITED STATES OF AMERICA:   COUNTRY
 SRVC.              WELEX:   SERVICE COMPANY
 DATE.        05-MAR-1977:   LOGDATE
 API .     49025103030000:   API NUMBER
~CURVE INFORMATION
#MNEM.UNIT       API CODE    CURVE DESCRIPTION
#----------   ------------   ------------------------------
 DEPT.F                  :   
 GRD .GAPI   45 310 01 00:   GAMMA RAY FROM DENSITY LOG
 CALD.IN     45 280 60 00:   CALIPER FROM DENSITY LOG
 CORR.G/C3   45 356 01 00:   DENSITY CORRECTION
 RHOB.G/C3   45 350 01 00:   BULK DENSITY
 SPR .MV     07 010 01 00:   SPONTANEOUS POTENTIAL
 ILD .OHMM   07 120 46 00:   DEEP INDUCTION RESISTIVITY
 ILM .OHMM   07 120 44 00:   INDUCTION LOG MEDIUM RESISTIVITY
 SGRD.OHMM   07 220 05 00:   SHALLOW SHORT GUARD RESISTIVITY
~PARAMETER INFORMATION
#MNEM.UNIT          VALUE    DESCRIPTION
#----------   ------------   ------------------------------
 EKB .F         4986.0000:   Kelly bushing
 EGL .F         4976.0000:   Ground level
 TD  .F         2885.0000:   Total depth
 CLNT.            A2DTECH:   Client Code
 SL  . 990' FWL & 1650' FNL:   Surface Location
 DATE.        05-MAR-1977:   Date Logged [DD-MMM-YYYY]
 DD  .F              2885:   Depth driller
 DL  .F              2882:   Depth logger
 BLI .F              2876:   Bottom log interval
 TLI .F               238:   Top log interval
 CS1 .IN            8.625:   Casing size
 CBD1.      8.625" @ 251':   Casing driller 1
 CBL1.IN              251:   Casing logger 1
 BS1 .IN            7.875:   Bit size
 BSD1.F              2885:   Depth drilled with bit1
 DFT .                KCL:   Type fluid in hole
 DFD .                9.5:   Density
 TCS .HRS               3:   Time Circ. stopped
 MRT .F                78:   Maximum recorded temp.
 ENGI.          D. LAWSON:   Recorded By
 WITN.            K. JAPP:   Witnessed by
 ORIG.         2.5" PRINT:   Origin of data
 UWI .     49025103030000:   Unique Well ID
 DICO. A2D TECHNOLOGIES,INC.:   Digitizing Company
 PD  .                 GL:   Permanent Datum
 EPD .               4976:   Elevation Permanent Datum
 LMF .                 KB:   Log Measured From
 DMF .                 KB:   Drilling Measured From
 DAPD.                 10:   Feet Above Permanent Datum
 DFL .                8.8:   Fluid loss
 MSS .           FLOWLINE:   Source of sample
 RMS .OHMM            .40:   Rm
 MST .F                58:   Rm Meas. temp.
 RMF .OHMM            .37:   Rmf
 MFST.F                58:   Rmf Meas. temp.
 MFSS.OHMM            .67:   Source Rmf.
 MCST.F                58:   Rmc Meas. temp.
 MCSS.               MEAS:   Source Rmc.
 RMB .OHMM            .30:   Rm. at BHT
 BHT .F                78:   BHT.
~OTHER INFORMATION
~A   DEPT       GRD        CALD      CORR        RHOB      SPR        ILD        ILM       SGRD   
# ...
 2670.0000   144.6335     8.9500    -0.0009     2.4673   -40.5853     4.0145     4.2033     6.4701
 2670.5000   144.4907     8.9498    -0.0009     2.4645   -40.6028     4.1001     4.2978     6.7405
 2671.0000   143.7663     8.9497    -0.0009     2.4735   -40.6204     4.1226     4.3559     6.8310
 2671.5000   140.8997     8.9495     0.0021     2.4862   -40.6379     4.1531     4.4380     6.9223
 2672.0000   140.6115     8.9494     0.0051     2.4951   -40.6555     4.2087     4.5608     7.0148
 2672.5000   144.4093     8.9492     0.0122     2.4988   -40.6730     4.2066     4.5982     7.1081
 2673.0000   148.3665     8.9491     0.0183     2.5003   -40.6906     4.1470     4.6604     7.1041
 2673.5000   150.5090     8.9489     0.0202     2.5011   -40.7081     4.0647     4.7232     7.1002
 2674.0000   158.4283     8.9488     0.0212     2.4996   -40.7256     3.8759     4.6953     7.0963
 2674.5000   161.0691     8.9486     0.0232     2.4988   -40.7432     3.6664     4.5657     6.8989
 2675.0000   164.2964     8.9780     0.0202     2.4959   -40.7607     3.3825     4.2119     6.3460
 2675.5000   167.5237     8.9778     0.0202     2.4930   -40.7783     3.1300     3.9837     6.0848
 2676.0000   171.0442     8.9777     0.0202     2.4863   -40.7958     2.8804     3.6239     5.7541
 2676.5000   177.4973     8.9775     0.0173     2.4722   -40.8134     2.7175     3.1550     5.4414
 2677.0000   187.7627     8.9774     0.0134     2.4492   -40.8309     2.6062     2.8342     4.6068
 2677.5000   194.5090     9.0066     0.0113     2.4238   -40.8485     2.5693     2.7511     3.8467
 2678.0000   190.6982     9.0194     0.0152     2.4480   -40.8639     2.5615     2.7883     3.2119
 2678.5000   173.9841     9.0484     0.0182     2.4705   -40.5729     2.6468     2.8225     2.8345
 2679.0000   157.2700     9.0774     0.0211     2.4936   -40.5798     2.8114     3.0206     4.4712
 2679.5000   146.8916     9.0943     0.0233     2.5086   -40.2889     3.0101     3.3048     5.4989
 2680.0000   143.3920     9.0941     0.0234     2.5176   -40.2959     3.2497     3.5894     6.0545
 2680.5000   141.2475     9.0940     0.0226     2.5236   -40.3018     3.4798     3.8983     6.3953
 2681.0000   139.6955     9.0939     0.0174     2.5267   -40.3077     3.6752     4.2058     6.5715
 2681.5000   138.4184     9.0937     0.0144     2.5239   -40.3136     3.8073     4.4433     6.7516
 2682.0000   138.5982     9.0936     0.0114     2.5186   -40.3195     3.9661     4.6300     6.9371
 2682.5000   139.6480     9.0831     0.0085     2.5164   -40.3254     4.0192     4.7591     7.1277
 2683.0000   141.5676     9.0638     0.0055     2.5122   -40.3313     4.0513     4.7251     7.1237
 2683.5000   146.8138     9.0637     0.0055     2.4917   -40.3373     4.1056     4.5947     6.6441
 2684.0000   151.4194     9.0636     0.0019     2.4689   -40.3432     4.1032     4.5616     6.1968
 2684.5000   152.3445     9.0634    -0.0035     2.4743   -40.3491     4.1012     4.4975     6.0244
 2685.0000   150.2493     9.0633     0.0001     2.4833   -40.3550     4.0993     4.4642     5.9384
 2685.5000   149.5754     9.0631     0.0056     2.4918   -40.3609     4.0973     4.3722     5.9351
 2686.0000   149.3725     9.0630     0.0086     2.4901   -40.3669     4.0953     4.3108     6.0149
 2686.5000   148.7875     9.0628     0.0091     2.4783   -40.3728     4.0373     4.3094     6.3530
 2687.0000   144.6834     9.0627     0.0121     2.4905   -40.3787     3.9393     4.3079     6.4384
 2687.5000   142.8887     9.0625     0.0151     2.4930   -40.3846     3.7780     4.3064     6.3459
 2688.0000   146.4458     9.0624     0.0176     2.4871   -40.3905     3.5919     4.3049     6.2553
 2688.5000   150.8461     9.0622     0.0176     2.4838   -40.1000     3.4275     4.2388     6.0813
 2689.0000   151.3019     9.0621     0.0176     2.4892   -40.1065     3.2421     4.0095     5.9945
 2689.5000   156.4122     9.0619     0.0172     2.5021   -40.1124     3.0668     3.6841     5.9912
 2690.0000   166.7351     9.0618     0.0113     2.4782   -40.1183     2.9011     3.3432     5.5110
 2690.5000   180.5469     9.0616     0.0083     2.4568   -40.1243     2.7578     3.1425     4.9998
 2691.0000   191.6876     9.0615     0.0057     2.4506   -40.0858     2.7187     3.0194     4.5360
 2691.5000   200.6065     9.0613     0.0027     2.4455   -39.7982     2.6936     2.9596     4.0586
 2692.0000   215.1946     9.0612     0.0028     2.4370   -39.5499     2.7058     2.9827     3.4840
 2692.5000   221.2365     9.0316     0.0031     2.4333   -39.5191     2.7800     3.0653     3.2494
 2693.0000   198.5456     9.0315     0.0094     2.4626   -39.2317     2.8960     3.2925     3.8339
 2693.5000   161.7065     9.0313     0.0181     2.4888   -38.9760     2.9902     3.6344     5.0526
 2694.0000   148.2914     9.0277     0.0240     2.5187   -38.9823     3.1149     3.8391     6.1286
 2694.5000   145.5850     9.0016     0.0268     2.5303   -38.9882     3.2898     4.1117     6.2975
 2695.0000   145.5865     9.0015     0.0268     2.5220   -38.9941     3.4438     4.2839     6.3817
 2695.5000   145.4683     8.9719     0.0268     2.5058   -39.0000     3.6193     4.5252     6.3776
 2696.0000   143.5361     8.9424     0.0236     2.4991   -39.0059     3.8040     4.7147     6.4628
 2696.5000   140.6181     8.9128     0.0178     2.5126   -39.0119     3.9627     4.8449     6.8266
 2697.0000   136.8877     8.9109     0.0119     2.5140   -39.0177     4.0714     4.9786     7.0142
 2697.5000   130.7115     8.8831     0.0118     2.5045   -39.0236     4.1831     5.1871     7.0103
 2698.0000   125.0672     8.8829     0.0089     2.4947   -39.0296     4.2979     5.3303     7.0064
 2698.5000   126.9558     8.8828     0.0090     2.5087   -39.0355     4.4158     5.3285     7.0025
 2699.0000   128.9998     8.8826     0.0149     2.5221   -39.0415     4.4749     5.3266     6.9987
 2699.5000   131.4385     8.8825     0.0179     2.5151   -39.0473     4.5976     5.3248     6.9948
 2700.0000   134.0665     8.8824     0.0210     2.4923   -39.0533     4.7024     5.3230     7.0883
 2700.5000   136.5996     8.8822     0.0210     2.4750   -39.0592     4.7870     5.3211     7.3844
 2701.0000   138.8444     8.8821     0.0180     2.4680   -39.0651     4.8292     5.3193     7.6930
 2701.5000   140.5983     8.9113     0.0150     2.4814   -39.0711     4.8939     5.3175     7.7965
 2702.0000   142.3516     8.9112     0.0120     2.4906   -39.0770     4.9134     5.3886     7.5789
 2702.5000   143.7267     8.9110     0.0091     2.4954   -39.0830     4.9571     5.4611     7.2669
 2703.0000   144.8134     8.9109     0.0091     2.5009   -39.0889     4.9543     5.5346     7.3640
 2703.5000   143.1774     8.9401     0.0091     2.5039   -39.0948     5.0210     5.6091     7.5663
 2704.0000   135.0734     8.9400     0.0181     2.5128   -39.1008     5.0883     5.7012     7.8068
 2704.5000   128.5205     8.9398     0.0211     2.5218   -39.1067     5.1165     5.8569     8.0481
 2705.0000   127.7271     8.9397     0.0241     2.5323   -39.1124     5.1242     5.9346     8.2677
 2705.5000   130.7930     8.9401     0.0241     2.5412   -39.1183     5.0882     6.0827     8.5843
 2706.0000   134.8855     8.9404     0.0241     2.5427   -39.1242     4.9834     6.0800     8.7938
 2706.5000   138.7517     8.9408     0.0241     2.5353   -39.2953     4.9146     5.9718     8.2700
 2707.0000   143.0705     8.9412     0.0212     2.5309   -39.4319     4.7148     5.6513     7.6958
 2707.5000   147.9341     8.9412     0.0182     2.5279   -39.7337     4.4959     5.2825     6.9513
 2708.0000   150.0475     8.9412     0.0182     2.5175   -40.1932     4.1968     4.9855     6.4436
 2708.5000   151.2234     8.9412     0.0129     2.5041   -40.3373     3.8003     4.5905     6.1941
 2709.0000   153.8656     8.9706     0.0095     2.4743   -40.3432     3.4237     4.2305     6.0230
 2709.5000   159.4404     8.9706     0.0066     2.4535   -40.3491     3.1103     4.0009     5.8682
 2710.0000   170.5871     8.9706     0.0066     2.4267   -40.3550     2.7867     3.6789     5.8654
