~VERSION INFORMATION
 VERS.                2.0:   CWLS LOG ASCII STANDARD - VERSION 2.0
 WRAP.                 NO:   ONE LINE PER DEPTH STEP
~WELL INFORMATION
#MNEM.UNIT      DATA TYPE    INFORMATION
#----------   ------------   ------------------------------
 STRT.F          204.5000:   START DEPTH
 STOP.F         2964.0000:   STOP DEPTH
 STEP.F            0.5000:   STEP LENGTH
 NULL.          -999.2500:   NO VALUE
 COMP.    FENIX & SCISSON:   COMPANY
 WELL. FENIX NPR 3 "AX" #14-28:   WELL
 FLD .  TEAPOT DOME NPR-3:   FIELD
 LOC .      S28 T39N R78W:   LOCATION
 CNTY.            NATRONA:   COUNTY
 STAT.            WYOMING:   STATE
 CTRY. UNITED STATES OF AMERICA:   COUNTRY
 SRVC.           BIRDWELL:   SERVICE COMPANY
 DATE.        24-MAY-1978:   LOGDATE
 API .     49025106450000:   API NUMBER
~CURVE INFORMATION
#MNEM.UNIT       API CODE    CURVE DESCRIPTION
#----------   ------------   ------------------------------
 DEPT.F                  :   
 SPR .MV     05 010 01 00:   SPONTANEOUS POTENTIAL
 CORR.G/C3   45 356 01 00:   DENSITY CORRECTION
 DEN .G/C3   45 350 01 00:   DENSITY
 CALD.IN     45 280 60 00:   CALIPER FROM DENSITY LOG
 GRD .GAPI   45 310 01 00:   GAMMA RAY FROM DENSITY LOG
 SN  .OHMM   05 040 16 00:   SHORT NORMAL 16"
 ILD .OHMM   05 120 46 00:   DEEP INDUCTION RESISTIVITY
~PARAMETER INFORMATION
#MNEM.UNIT          VALUE    DESCRIPTION
#----------   ------------   ------------------------------
 EKB .F         5042.0000:   Kelly bushing
 EGL .F         5032.0000:   Ground level
 EDF .F            0.0000:   Drilling floor
 TD  .F         2957.0000:   Total depth
 DATE.        24-MAY-1978:   Date logged
 CLNT.            A2DTECH:   Client Code
 SL  . 2410' FNL & 280' FWL:   Surface Location
 PD  .                 GL:   Permanent Datum
 EPD .F              5032:   Elevation Permanent Datum
 LMF .                 KB:   Log Measured From
 DMF .                 KB:   Drilling Measured From
 DAPD.F                10:   Feet Above Permanent Datum
 DD  .F              2950:   Depth driller
 DL  .F              2957:   Depth logger
 BLI .F              2951:   Bottom log interval
 TLI .F               225:   Top log interval
 CS1 .IN            8.625:   Casing size
 CBL1.F               225:   Casing logger 1
 BS1 .IN            7.875:   Bit size
 BSD1.F              2950:   Depth drilled with bit1
 DFT .       CHEMICAL GEL:   Type fluid in hole
 DFD .                  9:   Density
 DFV .                 34:   Viscosity
 DFPH.               10.5:   pH
 DFL .                  6:   Fluid loss
 MSS .           FLOWLINE:   Source of sample
 RMS .OHMM            1.5:   Rm
 MST .F                70:   Rm Meas. temp.
 RMF .OHMM            1.1:   Rmf
 MFST.F                78:   Rmf Meas. temp.
 RMC .OHMM            2.8:   Rmc
 MCST.F                72:   Rmc Meas. temp.
 MFSS.               MEAS:   Source Rmf.
 RMB .OHMM           0.95:   Rm. at BHT
 BHT .F               110:   BHT.
 TCS .HRS               2:   Time Circ. stopped
 MRT .F               110:   Maximum recorded temp.
 LUN .               2958:   Logging unit number
 LUL .               CASP:   Logging unit location
 ENGI.             MILLER:   Recorded By
 WITN.            RHOADES:   Witnessed by
 ORIG.           5" PRINT:   Origin of data
 UWI .     49025106450000:   Unique Well ID
 DICO. A2D TECHNOLOGIES, INC.:   Digitizing Company
~OTHER INFORMATION
~A   DEPT      SPR       CORR        DEN       CALD         GRD        SN        ILD   
# ...
 1660.5000    -4.7060     0.1020     2.5360     8.7000   108.8520     6.9830     6.0090
 1661.0000    -4.7210     0.1030     2.5330     8.6920   108.7130     7.0440     6.0360
 1661.5000    -4.7350     0.1030     2.5310     8.7020   107.1990     7.1050     6.0640
 1662.0000    -4.7500     0.1040     2.5350     8.7110   104.1910     7.1660     6.0910
 1662.5000    -4.7650     0.1040     2.5330     8.7190   105.5900     7.2270     6.1180
 1663.0000    -4.7790     0.1050     2.5320     8.7290   108.2410     7.2760     6.1450
 1663.5000    -4.7940     0.1060     2.5300     8.7210   108.9490     7.2580     6.1720
 1664.0000    -4.8090     0.1060     2.5280     8.7120   106.9930     7.2420     6.2000
 1664.5000    -4.8240     0.1070     2.5260     8.7030   108.3590     7.2280     6.2270
 1665.0000    -4.8380     0.1070     2.5240     8.6930   112.9640     7.2130     6.2540
 1665.5000    -4.8530     0.1080     2.5230     8.6930   114.5900     7.1980     6.2790
 1666.0000    -4.8680     0.1080     2.5290     8.7020   114.0130     7.1830     6.2730
 1666.5000    -4.8820     0.1090     2.5350     8.7090   112.0440     7.1680     6.2670
 1667.0000    -4.8970     0.1100     2.5410     8.7160   109.5600     7.1530     6.2600
 1667.5000    -4.9120     0.1050     2.5470     8.7270   109.0540     7.1350     6.2530
 1668.0000    -4.9270     0.0910     2.5400     8.7170   108.8580     7.1130     6.2460
 1668.5000    -4.9410     0.0780     2.5330     8.6710   107.2490     7.0920     6.2390
 1669.0000    -4.9560     0.0630     2.5240     8.6630   105.4950     7.0700     6.2320
 1669.5000    -4.9710     0.0680     2.5220     8.7180   105.5110     7.0480     6.2250
 1670.0000    -4.9850     0.0750     2.5300     8.7080   106.9020     7.0260     6.2180
 1670.5000    -4.9970     0.0830     2.5310     8.6790   107.3270     7.0130     6.2110
 1671.0000    -4.9590     0.0850     2.5290     8.6510   106.8050     7.0130     6.2040
 1671.5000    -4.9210     0.0820     2.5330     8.6490   106.3240     7.0130     6.1970
 1672.0000    -4.8800     0.0800     2.5370     8.6610   107.7110     7.0140     6.1900
 1672.5000    -4.8400     0.0780     2.5380     8.6900   109.6970     7.0140     6.1830
 1673.0000    -4.8000     0.0760     2.5360     8.6940   111.9370     7.0150     6.1760
 1673.5000    -4.7600     0.0740     2.5350     8.6980   111.6430     6.9720     6.1690
 1674.0000    -4.7200     0.0790     2.5370     8.7020   109.2940     6.8660     6.1220
 1674.5000    -4.6800     0.0840     2.5420     8.7060   108.9230     6.7600     6.0460
 1675.0000    -4.6400     0.0890     2.5460     8.7100   109.8320     6.6540     5.9710
 1675.5000    -4.6000     0.0930     2.5510     8.7150   110.5710     6.5480     5.8960
 1676.0000    -4.5600     0.0840     2.5440     8.7190   111.2680     6.4420     5.8200
 1676.5000    -4.5200     0.0750     2.5310     8.7230   112.1550     6.3360     5.7450
 1677.0000    -4.4800     0.0740     2.5300     8.7270   110.7650     6.1670     5.6700
 1677.5000    -4.4400     0.0740     2.5330     8.7280   110.6760     6.1720     5.5940
 1678.0000    -4.4000     0.0740     2.5260     8.7190   111.5690     6.1850     5.5190
 1678.5000    -4.3600     0.0750     2.5120     8.7110   112.5110     6.1980     5.4440
 1679.0000    -4.3210     0.0860     2.5080     8.7030   110.6740     6.2110     5.3230
 1679.5000    -4.2790     0.0980     2.5100     8.6930   109.4160     6.2240     5.3480
 1680.0000    -4.2410     0.0910     2.5030     8.6960   111.3590     6.2370     5.4090
 1680.5000    -4.2060     0.0780     2.4950     8.7140   112.6340     6.2500     5.4690
 1681.0000    -4.2680     0.0810     2.4940     8.7310   111.1970     6.2630     5.5300
 1681.5000    -4.3320     0.0870     2.4950     8.7470   110.6030     6.2810     5.5910
 1682.0000    -4.4000     0.0930     2.5000     8.7650   111.9940     6.1670     5.6520
 1682.5000    -4.4670     0.0840     2.5050     8.7620   113.6020     6.5850     5.7130
 1683.0000    -4.5330     0.0740     2.5100     8.7460   113.2990     7.1440     5.7740
 1683.5000    -4.5960     0.0760     2.5150     8.7320   110.7860     7.1330     5.8350
 1684.0000    -4.5990     0.0790     2.5150     8.7170   108.5320     7.1040     5.8960
 1684.5000    -4.6010     0.0820     2.5110     8.7030   106.0760     7.0760     5.9570
 1685.0000    -4.6000     0.0820     2.5070     8.6900   104.8570     7.0480     6.0540
 1685.5000    -4.6000     0.0820     2.5030     8.6900   104.9910     7.0200     6.0110
 1686.0000    -4.6000     0.0820     2.5050     8.6890   104.9290     6.9920     5.8360
 1686.5000    -4.6000     0.0740     2.5020     8.6900   105.4440     6.9640     5.8730
 1687.0000    -4.6000     0.0630     2.4940     8.6900   107.0760     6.9360     5.9640
 1687.5000    -4.6000     0.0620     2.4860     8.6890   108.8340     6.9080     6.0560
 1688.0000    -4.6000     0.0660     2.4770     8.6900   110.3050     6.8860     6.1670
 1688.5000    -4.6000     0.0710     2.4730     8.6890   111.8630     7.1270     6.1670
 1689.0000    -4.6000     0.0730     2.4820     8.6890   107.8500     7.3270     6.1670
 1689.5000    -4.6000     0.0620     2.4910     8.6940   106.3030     7.5280     6.1670
 1690.0000    -4.6000     0.0520     2.5000     8.7080   104.8170     7.6890     6.1670
 1690.5000    -4.6010     0.0420     2.5090     8.7250   103.4190     7.5170     6.1670
 1691.0000    -4.5950     0.0370     2.5150     8.7160   103.0230     7.3730     6.1670
 1691.5000    -4.5840     0.0340     2.5120     8.6860   102.6970     7.2300     6.1670
 1692.0000    -4.5740     0.0350     2.5070     8.6570   105.8850     7.0870     6.0670
 1692.5000    -4.5640     0.0350     2.5060     8.6720   109.3170     6.8860     5.8360
 1693.0000    -4.5540     0.0360     2.5050     8.7110   112.9310     6.9510     5.8560
 1693.5000    -4.5450     0.0360     2.5040     8.7190   114.2960     7.0590     5.8900
 1694.0000    -4.5350     0.0370     2.5020     8.6710   114.8530     7.1680     5.9440
 1694.5000    -4.5250     0.0370     2.4990     8.6570   115.4350     7.2760     5.9410
 1695.0000    -4.5150     0.0380     2.4970     8.6890   116.7360     7.2410     5.9350
 1695.5000    -4.5050     0.0380     2.4950     8.7190   117.9600     7.2070     5.9280
 1696.0000    -4.4950     0.0420     2.4920     8.7210   118.8310     7.1720     5.9210
 1696.5000    -4.4850     0.0450     2.4910     8.6970   115.6620     7.1370     5.9140
 1697.0000    -4.4750     0.0490     2.4910     8.6890   114.6060     7.1020     5.9070
 1697.5000    -4.4650     0.0520     2.4930     8.6900   114.6230     7.0670     5.9010
 1698.0000    -4.4550     0.0560     2.5000     8.6890   114.6700     7.0320     5.8940
 1698.5000    -4.4460     0.0550     2.5070     8.6900   114.6360     6.9970     5.8870
 1699.0000    -4.4360     0.0470     2.5060     8.6900   115.7340     6.9630     5.8800
 1699.5000    -4.4260     0.0400     2.4990     8.6890   114.7580     6.9280     5.8730
 1700.0000    -4.4160     0.0340     2.4920     8.6900   111.3580     6.8930     5.8670
 1700.5000    -4.4060     0.0350     2.4900     8.6900   110.3020     6.8580     5.8600
 1701.0000    -4.3960     0.0360     2.4880     8.6900   112.2760     6.8230     5.8530
 1701.5000    -4.3860     0.0360     2.4850     8.6900   113.9570     6.7880     5.8470
 1702.0000    -4.3760     0.0380     2.4810     8.6900   114.6990     6.7600     5.8400
 1702.5000    -4.3660     0.0390     2.4810     8.6900   114.6330     6.5290     5.7290
 1703.0000    -4.3560     0.0470     2.4870     8.6900   114.4880     6.3370     5.4620
 1703.5000    -4.3470     0.0550     2.4930     8.6900   112.8930     6.1440     5.1950
 1704.0000    -4.3370     0.0600     2.4870     8.6900   111.8860     5.9510     4.9280
 1704.5000    -4.3270     0.0610     2.4770     8.6900   111.9710     5.6960     4.5180
 1705.0000    -4.3170     0.0640     2.4660     8.6900   112.3250     5.3460     4.2690
 1705.5000    -4.3070     0.0680     2.4600     8.6900   112.5030     4.9960     4.2690
