~VERSION INFORMATION
 VERS.                2.0:   CWLS LOG ASCII STANDARD - VERSION 2.0
 WRAP.                 NO:   ONE LINE PER DEPTH STEP
~WELL INFORMATION
#MNEM.UNIT      DATA TYPE    INFORMATION
#----------   ------------   ------------------------------
 STRT.F          670.0000:   START DEPTH
 STOP.F         3440.0000:   STOP DEPTH
 STEP.F            0.5000:   STEP LENGTH
 NULL.          -999.2500:   NO VALUE
 COMP.    FENIX & SCISSON:   COMPANY
 WELL.   FENIX "A" #57-33:   WELL
 FLD .             NPR #3:   FIELD
 LOC .      S33 T39N R78W:   LOCATION
 CNTY.            NATRONA:   COUNTY
 STAT.            WYOMING:   STATE
 CTRY. UNITED STATES OF AMERICA:   COUNTRY
 SRVC.       SCHLUMBERGER:   SERVICE COMPANY
 DATE.        27-APR-1977:   LOGDATE
 API .     49025103600000:   API NUMBER
~CURVE INFORMATION
#MNEM.UNIT       API CODE    CURVE DESCRIPTION
#----------   ------------   ------------------------------
 DEPT.F                  :   
 SPR .MV     11 010 01 00:   SPONTANEOUS POTENTIAL FROM RES.
 MSFL.OHMM   11 270 04 00:   MICRO SPHERICALLY FOCUSED
 LLD .OHMM   11 220 10 00:   LATEROLOG LOG DEEP
 LLS .OHMM   11 220 09 00:   LATEROLOG LOG SHALLOW
 CALD.IN     45 280 60 00:   CALIPER FROM DENSITY LOG
 DRHO.G/C3   45 356 01 00:   DENSITY CORRECTION
 NPHI.DEC    42 890 03 00:   NEUTRON POROSITY SANDSTONE
 RHOB.G/C3   45 350 01 00:   BULK DENSITY
 GRD .GAPI   45 310 01 00:   GAMMA RAY FROM RESISTIVITY
~PARAMETER INFORMATION
#MNEM.UNIT          VALUE    DESCRIPTION
#----------   ------------   ------------------------------
 EKB .F         5183.0000:   Kelly bushing
 EGL .F         5172.0000:   Ground level
 EDF .F            0.0000:   Drilling floor
 TD  .F         3424.0000:   Total depth
 DATE.        27-APR-1977:   Date logged
 CLNT.            A2DTECH:   Client Code
 SL  . 990' FSL & 2310' FEL:   Surface Location
 PD  .                 GL:   Permanent Datum
 EPD .F              5172:   Elevation Permanent Datum
 LMF .                 KB:   Log Measured From
 DMF .                 KB:   Drilling Measured From
 DAPD.F                11:   Feet Above Permanent Datum
 DD  .F              3421:   Depth driller
 DL  .F              3424:   Depth logger
 BLI .F              3423:   Bottom log interval
 TLI .F               764:   Top log interval
 CS1 .IN            8.625:   Casing size
 CBD1.      8.625" @ 711':   Casing driller 1
 BS1 .IN            7.875:   Bit size
 BSD1.F              3421:   Depth drilled with bit1
 DFT .            KCL MUD:   Type fluid in hole
 DFD .                9.5:   Density
 DFV .                 41:   Viscosity
 DFPH.                  8:   pH
 DFL .               10.8:   Fluid loss
 MSS .            MUD PIT:   Source of sample
 RMS .OHMM           0.26:   Rm
 MST .F                74:   Rm Meas. temp.
 RMF .OHMM           0.21:   Rmf
 MFST.F                74:   Rmf Meas. temp.
 RMC .OHMM            .09:   Rmc
 MCST.F                74:   Rmc Meas. temp.
 MFSS.               MEAS:   Source Rmf.
 MCSS.               CALC:   Source Rmc.
 RMB .OHMM           0.15:   Rm. at BHT
 BHT .F               126:   BHT.
 TCS .HRS            0900:   Time Circ. stopped
 TLAB.HRS            1430:   Time logger at bottom
 MRT .F               126:   Maximum recorded temp.
 LUN .               7711:   Logging unit number
 LUL .               CSPR:   Logging unit location
 ENGI.             SAYLER:   Recorded By
 WITN.         PETTINGILL:   Witnessed by
 ORIG.           5" PRINT:   Origin of data
 UWI .     49025103600000:   Unique Well ID
 DICO. A2D TECHNOLOGIES, INC.:   Digitizing Company
~OTHER INFORMATION
~A   DEPT      SPR       MSFL        LLD        LLS         CALD      DRHO        NPHI       RHOB      GRD   
# ...
 2677.5000   -78.8300    11.4460     8.1750     9.4190     9.1930     0.0070     0.2640     2.6000   144.7200
 2678.0000   -78.3340    11.0930     7.9290     9.2180     9.1950     0.0110     0.2570     2.6050   144.1660
 2678.5000   -77.8320    10.9340     7.6820     9.0180     9.1910     0.0160     0.2500     2.6030   147.5630
 2679.0000   -77.4730    11.0830     7.4360     8.8170     9.1460     0.0200     0.2490     2.6000   149.8290
 2679.5000   -77.4800    11.3790     7.2310     8.6900     9.0980     0.0210     0.2500     2.6090   148.9090
 2680.0000   -77.4810    11.6750     7.3660     8.7500     9.0590     0.0250     0.2510     2.6210   148.5960
 2680.5000   -77.4870    11.9710     7.4220     8.8000     9.0620     0.0290     0.2540     2.6150   148.9180
 2681.0000   -77.2520    12.2090     7.4790     8.8510     9.0660     0.0330     0.2570     2.6230   149.9310
 2681.5000   -76.9550    12.0050     7.5020     8.8190     9.0690     0.0300     0.2580     2.6180   151.8670
 2682.0000   -76.6560    11.7740     7.4590     8.7780     9.0730     0.0250     0.2630     2.6130   150.7010
 2682.5000   -76.3560    11.5440     7.4040     8.7380     9.0770     0.0200     0.2650     2.6130   150.0720
 2683.0000   -76.0570    11.3130     7.3500     8.6900     9.0810     0.0170     0.2660     2.6060   150.1070
 2683.5000   -75.7600    11.1370     7.2980     8.7270     9.0840     0.0120     0.2710     2.5910   150.0490
 2684.0000   -75.4630    11.5180     7.3960     8.7850     9.0880     0.0200     0.2760     2.5970   148.3160
 2684.5000   -75.4150    11.8500     7.5480     8.8440     9.0920     0.0310     0.2750     2.6120   147.0950
 2685.0000   -75.6660    12.0970     7.7830     8.9330     9.0950     0.0400     0.2700     2.6240   147.3630
 2685.5000   -75.9160    11.5980     7.7120     8.8510     9.0990     0.0350     0.2670     2.6130   147.1610
 2686.0000   -76.1680    10.7610     7.4310     8.6980     9.1030     0.0260     0.2630     2.5960   148.3050
 2686.5000   -76.4200    10.1590     7.1670     8.5540     9.1060     0.0170     0.2590     2.5830   150.3280
 2687.0000   -76.6760    10.5040     6.9040     8.4110     9.1100     0.0090     0.2620     2.5750   149.9500
 2687.5000   -76.5230    10.8340     6.7190     8.2670     9.1130     0.0080     0.2680     2.5790   151.6220
 2688.0000   -76.2100    10.7390     6.7810     8.2240     9.1210     0.0050     0.2720     2.5800   151.3850
 2688.5000   -75.9280    10.6040     6.8490     8.2930     9.1340     0.0290     0.2740     2.6020   153.3190
 2689.0000   -75.9080    10.4430     6.9230     8.3550     9.1320     0.0220     0.2690     2.6200   155.1100
 2689.5000   -76.6230    10.7600     6.9980     8.4170     9.1290     0.0180     0.2660     2.6050   153.0090
 2690.0000   -77.3700    10.9980     7.0720     8.4790     9.1250     0.0160     0.2750     2.5840   150.6050
 2690.5000   -78.1070    11.3440     7.1470     8.5320     9.1220     0.0220     0.2810     2.5920   149.7310
 2691.0000   -78.6830    11.1800     7.1650     8.5320     9.1180     0.0260     0.2810     2.6070   147.9000
 2691.5000   -78.7790    10.8830     7.0830     8.5080     9.1150     0.0280     0.2790     2.6090   144.7940
 2692.0000   -78.9020    10.6370     6.9740     8.4430     9.1120     0.0300     0.2780     2.6220   143.9920
 2692.5000   -79.0250    10.9180     6.9070     8.3770     9.1080     0.0320     0.2810     2.6200   146.0030
 2693.0000   -79.4180    11.1540     7.1010     8.5650     9.1050     0.0260     0.2810     2.6140   147.9350
 2693.5000   -79.9180    11.3440     7.2670     8.7440     9.1010     0.0250     0.2760     2.6080   149.9220
 2694.0000   -80.4220    11.1930     7.3660     8.9330     9.0980     0.0280     0.2720     2.6050   148.7010
 2694.5000   -80.9450    11.0420     7.2980     8.7700     9.0940     0.0300     0.2670     2.6070   142.6650
 2695.0000   -81.2060    10.8530     7.2310     8.5320     9.0910     0.0240     0.2610     2.6030   140.2500
 2695.5000   -81.3800    11.0340     7.3770     8.6460     9.0880     0.0100     0.2610     2.5970   137.1720
 2696.0000   -81.5380    11.3540     7.5190     8.8300     9.0840     0.0110     0.2640     2.5920   135.7930
 2696.5000   -81.6980    11.6610     7.6620     9.0160     9.0810     0.0150     0.2680     2.5980   136.0460
 2697.0000   -81.8610    11.2780     7.7120     8.9890     9.0790     0.0180     0.2640     2.6090   138.4320
 2697.5000   -82.0230    10.8520     7.4090     8.9300     9.0990     0.0220     0.2560     2.6000   140.8460
 2698.0000   -82.1850    10.5400     7.2310     8.8710     9.1190     0.0050     0.2540     2.5800   141.9370
 2698.5000   -82.6520    11.0790     7.2940     8.7700     9.1390     0.0050     0.2640     2.5730   143.0700
 2699.0000   -83.2770    11.5540     7.5240     8.8140     9.1590     0.0110     0.2680     2.5830   143.7740
 2699.5000   -83.9030    11.1320     7.6410     8.8480     9.1770     0.0100     0.2700     2.5840   143.8740
 2700.0000   -84.1680    10.3610     7.0440     8.4870     9.1800     0.0070     0.2620     2.5780   145.7510
 2700.5000   -84.0590     9.5350     6.5810     8.0780     9.1830     0.0050     0.2550     2.5710   148.1880
 2701.0000   -83.9490     8.7090     6.0730     7.7720     9.1870     0.0120     0.2610     2.5810   150.1240
 2701.5000   -83.8360     7.6410     6.2050     7.7900     9.1900     0.0240     0.2700     2.5960   149.8730
 2702.0000   -83.9790     9.2800     6.3910     7.8580     9.1930     0.0240     0.2760     2.6060   149.7810
 2702.5000   -84.1450    11.1950     6.5780     7.9260     9.1960     0.0230     0.2790     2.6160   149.7900
 2703.0000   -84.3080     9.8440     6.7810     8.0010     9.2000     0.0400     0.2710     2.6320   149.2270
 2703.5000   -84.3630     8.3770     6.4780     7.7500     9.2030     0.0350     0.2640     2.6350   153.1670
 2704.0000   -84.1230     8.6910     6.1390     7.5010     9.2060     0.0260     0.2740     2.6160   155.1240
 2704.5000   -83.8930     9.0340     5.9080     7.2310     9.2090     0.0190     0.2840     2.5980   157.0490
 2705.0000   -83.6640     9.2680     6.1800     7.2310     9.2130     0.0180     0.2870     2.5860   155.7390
 2705.5000   -83.4350     8.7410     6.3000     7.3660     9.2160     0.0170     0.2910     2.5820   156.9840
 2706.0000   -83.2330     7.6300     5.5960     7.2630     9.2170     0.0230     0.2960     2.5880   159.2490
 2706.5000   -83.3200     6.5970     4.9160     7.1220     9.2170     0.0300     0.3000     2.5980   162.1270
 2707.0000   -83.4400     8.3420     5.3070     6.9710     9.2170     0.0230     0.3000     2.5930   159.8020
 2707.5000   -83.5590    10.7350     5.8440     7.1610     9.2160     0.0100     0.3000     2.5840   153.2410
 2708.0000   -83.6780    10.4570     6.4170     7.6340     9.1640     0.0050     0.2990     2.5780   149.7380
 2708.5000   -83.7910     9.7930     6.5360     8.0010     9.1380     0.0020     0.2760     2.5940   148.9310
 2709.0000   -84.1970     9.8830     6.6950     8.0740     9.1380     0.0100     0.2550     2.6110   145.4660
 2709.5000   -84.6960    10.8700     6.9560     8.3480     9.1410     0.0170     0.2600     2.6270   142.7510
 2710.0000   -85.1950    11.9860     7.2910     8.6190     9.1450     0.0190     0.2620     2.6190   143.0750
 2710.5000   -84.9890    11.7030     7.7120     8.8510     9.1480     0.0210     0.2460     2.6090   139.9330
 2711.0000   -84.7390    11.1920     7.5280     8.8510     9.1520     0.0220     0.2420     2.6230   139.0220
 2711.5000   -84.4850    10.6810     7.2800     8.5700     9.1550     0.0230     0.2370     2.6130   141.1280
 2712.0000   -84.7050    10.3480     6.9710     8.3600     9.1590     0.0240     0.2400     2.6030   140.2000
 2712.5000   -85.1900    11.0220     7.0450     8.2240     9.1630     0.0240     0.2430     2.6030   138.6120
 2713.0000   -85.6270    11.7680     7.1140     8.4020     9.1660     0.0220     0.2490     2.5990   139.7670
 2713.5000   -85.2800    11.5140     7.1830     8.4910     9.1700     0.0190     0.2520     2.5950   143.9900
