~VERSION INFORMATION
 VERS.                2.0:   CWLS LOG ASCII STANDARD - VERSION 2.0
 WRAP.                 NO:   ONE LINE PER DEPTH STEP
~WELL INFORMATION
#MNEM.UNIT      DATA TYPE    INFORMATION
#----------   ------------   ------------------------------
 STRT.F            0.5000:   START DEPTH
 STOP.F         5663.0000:   STOP DEPTH
 STEP.F            0.5000:   STEP LENGTH
 NULL.          -999.2500:   NO VALUE
 COMP.         U. S. NAVY:   COMPANY
 WELL.         US TP #1-3:   WELL
 FLD . TEAPOT NAVAL RESERVE:   FIELD
 LOC .       S3 T38N R78W:   LOCATION
 CNTY.            NATRONA:   COUNTY
 STAT.            WYOMING:   STATE
 CTRY. UNITED STATES OF AMERICA:   COUNTRY
 SRVC.       SCHLUMBERGER:   SERVICE COMPANY
 DATE.        27-FEB-1953:   LOGDATE
 API .     49025064250000:   API NUMBER
~CURVE INFORMATION
#MNEM.UNIT       API CODE    CURVE DESCRIPTION
#----------   ------------   ------------------------------
 DEPT.F                  :   
 SPR .MV     01 010 01 00:   SPONTANEOUS POTENTIAL FROM RES.
 ASN .OHMM   01 041 16 00:   AMPLIFIED SHORT NORMAL 16"
 LAT .OHMM   01 070 00 00:   LATERAL
 LN  .OHMM   01 060 64 00:   LONG NORMAL 64"
 GRN .CPS    35 310 01 00:   GAMMA RAY
 NEUT.NAPI   35 330 01 00:   NEUTRON
~PARAMETER INFORMATION
#MNEM.UNIT          VALUE    DESCRIPTION
#----------   ------------   ------------------------------
 EKB .F            0.0000:   Kelly bushing
 EGL .F            0.0000:   Ground level
 EDF .F            0.0000:   Drilling floor
 EPD .F            0.0000:   Permanent datum
 TD  .F         5653.0000:   Total depth
 DATE.        27-FEB-1953:   Date logged
 CLNT.            A2DTECH:   Client Code
 DD  .F              5653:   Depth driller
 DL  .F              5653:   Depth logger
 BLI .F              5652:   Bottom log interval
 TLI .F               446:   Top log interval
 CBD1.F               445:   Casing driller 1
 CBL1.F               446:   Casing logger 1
 BS1 .IN                9:   Bit size
 BSD1.F              5653:   Depth drilled with bit1
 DFT .          LIMA/BASE:   Type fluid in hole
 DFD .                9.9:   Density
 DFV .                 43:   Viscosity
 RMS .OHMM            1.1:   Rm
 MST .F                55:   Rm Meas. temp.
 RMB .OHMM            .34:   Rm. at BHT
 BHT .F               166:   BHT.
 TCS .HRS               1:   Time Circ. stopped
 MRT .F               166:   Maximum recorded temp.
 LUN .                728:   Logging unit number
 LUL .               CSPR:   Logging unit location
 ENGI.            EVENSON:   Recorded By
 WITN.              MILLS:   Witnessed by
 ORIG.      1" 2.5" PRINT:   Origin of data
 UWI .     49025064250000:   Unique Well ID
 DICO. A2D TECHNOLOGIES, INC.:   Digitizing Company
~OTHER INFORMATION
~A  DEPTH      SPR        ASN        LAT         LN        GRN       NEUT
# ...
 2132.5000   -36.5952     7.9967    11.2172    10.1153    48.5086   133.5213
 2133.0000   -36.5952     8.1443    11.3821    10.1621    47.6615   126.2626
 2133.5000   -36.5952     8.3142    11.6141    10.2497    46.8742   119.2926
 2134.0000   -36.5952     8.4140    11.7652    10.2501    46.4058   116.1616
 2134.5000   -36.5952     8.4687    11.8810    10.2503    45.6529   121.2121
 2135.0000   -36.5952     8.5345    12.1758    10.1827    47.1873   144.4498
 2135.5000   -36.5952     8.5754    12.3186    10.1173    50.4122   164.1414
 2136.0000   -36.5952     8.5654    12.4087    10.1176    52.5666   183.6360
 2136.5000   -36.5952     8.4397    12.6771    10.1180    54.6702   202.0202
 2137.0000   -36.6838     8.3584    12.8112    10.1183    55.4211   212.1212
 2137.5000   -36.7934     8.3851    12.4328    10.1187    55.3102   210.8571
 2138.0000   -36.8633     8.4424    12.2302     9.9853    54.6666   204.5455
 2138.5000   -36.8633     8.4927    12.1381     9.9857    53.0302   201.1611
 2139.0000   -36.8633     8.5130    12.0034     9.9611    51.1552   191.9192
 2139.5000   -36.8633     8.5623    11.9549     9.8526    50.3359   185.9602
 2140.0000   -36.8633     8.5730    12.1505     9.8463    49.6491   138.8889
 2140.5000   -36.8633     8.4672    12.4055     9.7196    52.9060   128.7879
 2141.0000   -36.8633     8.2751    12.6751     9.6526    55.7431   139.9993
 2141.5000   -36.8633     8.1151    12.8082     9.5549    55.6603   151.5152
 2142.0000   -36.8633     7.8151    12.9422     9.4532    54.6000   151.5152
 2142.5000   -36.8633     7.6196    13.0763     9.4535    53.7274   146.4646
 2143.0000   -37.0791     7.4902    12.6557     9.4539    52.9702   143.6353
 2143.5000   -37.1314     7.4900    12.1878     9.4542    52.0494   141.4141
 2144.0000   -37.1314     7.4897    11.7312     9.3209    51.1428   151.5152
 2144.5000   -37.1314     7.4624    11.2984     9.3212    50.2829   170.1531
 2145.0000   -37.1314     7.4351    10.7896     9.3216    49.6364   181.8182
 2145.5000   -37.1314     7.3808    10.5205     9.3219    49.6731   177.6273
 2146.0000   -37.1314     7.3208    10.7339     9.3222    52.0902   161.6162
 2146.5000   -37.1314     7.2181    11.0638     9.3225    54.1440   148.5416
 2147.0000   -37.1314     7.1587    11.1915     9.3229    56.2416   133.9368
 2147.5000   -37.1314     7.0554    11.2559     9.3232    58.9033   126.2626
 2148.0000   -37.1314     7.0011    11.3253     9.3235    60.6567   135.3529
 2148.5000   -37.1314     6.9738    11.3249     9.2847    60.2764   164.1414
 2149.0000   -37.1314     7.0546    11.3246     9.1681    59.6516   174.6484
 2149.5000   -37.1314     7.0938    11.3243     9.0572    58.8691   172.7777
 2150.0000   -37.1314     7.1824    11.1895     8.9238    58.1452   164.1414
 2150.5000   -37.1314     7.2752    11.1891     8.9714    57.8527   157.6786
 2151.0000   -37.1314     7.3778    11.1888     9.0803    58.3933   148.9899
 2151.5000   -37.1314     7.3776    11.1885     9.1922    58.8935   145.8080
 2152.0000   -37.1314     7.3772    11.1882     9.1203    59.7443   156.5657
 2152.5000   -37.1314     7.3230    11.1878     8.9255    60.6453   175.5095
 2153.0000   -37.1314     7.3064    11.1875     8.9258    58.4136   209.5960
 2153.5000   -37.3027     7.2954    11.3418     8.7924    53.6251   212.1212
 2154.0000   -37.3995     7.2971    11.4556     8.6591    50.2790   214.6465
 2154.5000   -37.3995     7.3133    11.6144     8.3920    47.0292   219.6970
 2155.0000   -37.5011     7.3216    11.7977     8.2587    44.3483   219.1925
 2155.5000   -37.6107     7.3484    12.0302     8.2213    43.4512   207.0707
 2156.0000   -37.6676     7.3751    12.2608     8.1257    42.8419   183.9375
 2156.5000   -37.6676     7.4019    12.3409     7.9659    43.6770   186.4692
 2157.0000   -37.6676     7.3825    12.5069     7.7253    46.5988   204.5455
 2157.5000   -37.6676     7.3327    12.4240     7.7256    48.6027   209.5960
 2158.0000   -37.8454     7.2119    12.2593     7.7260    49.6042   204.8992
 2158.5000   -37.9357     7.1158    12.1900     7.7263    49.8534   201.6652
 2159.0000   -37.9357     6.9951    12.0245     7.7266    49.8084   196.9697
 2159.5000   -37.9357     6.8783    11.7208     7.7269    48.0963   193.6358
 2160.0000   -37.9357     6.6162    11.3440     7.7273    46.8421   191.9192
 2160.5000   -37.9357     6.1013    10.5104     7.7276    45.2772   204.5455
 2161.0000   -37.9357     6.0752     9.4847     7.5942    43.8320   223.4341
 2161.5000   -38.0391     6.2248     9.0312     7.5946    43.0196   237.3737
 2162.0000   -38.2038     6.3329     9.0309     7.4458    42.3322   242.6270
 2162.5000   -38.2038     6.4096     9.0305     7.3279    41.6902   244.0028
 2163.0000   -38.2038     6.4593     9.0302     7.1945    41.5714   242.4242
 2163.5000   -38.2038     6.4251     9.0299     7.1546    43.0739   233.9888
 2164.0000   -38.2038     6.3632     9.1720     6.9238    46.2556   227.8783
 2164.5000   -38.2038     6.2894     9.2981     6.7598    51.0913   221.7688
 2165.0000   -38.2038     6.2074     9.2977     6.6611    53.5023   212.1212
 2165.5000   -38.2038     6.1159     9.1048     6.6614    56.8531   200.2183
 2166.0000   -38.2038     5.8562     8.8938     6.6618    57.8546   186.0577
 2166.5000   -38.2038     5.5841     8.4903     6.6621    58.4454   169.1919
 2167.0000   -38.2038     5.3962     8.0867     6.6624    58.6040   160.2030
 2167.5000   -38.2038     5.3020     7.9850     6.6628    58.8535   151.5152
 2168.0000   -38.2038     5.2611     7.8172     6.6631    58.1000   146.1602
 2168.5000   -38.2038     5.3750     7.6825     6.5664    55.5691   143.9394
 2169.0000   -38.2038     5.4451     7.6821     6.5301    51.6939   141.4141
 2169.5000   -38.2038     5.5300     7.8162     6.5304    49.5751   141.4141
 2170.0000   -38.2038     5.4696     7.7302     6.6645    48.8221   141.4141
 2170.5000   -38.2038     5.4363     7.6801     6.6648    47.8181   141.9717
 2171.0000   -38.2038     5.4211     7.4838     6.6651    46.5450   146.4646
 2171.5000   -38.2038     5.4208     7.1428     6.6655    45.1935   155.5290
 2172.0000   -38.2038     5.5465     6.8737     6.7995    43.0526   164.0399
 2172.5000   -38.2038     5.7986     6.8733     6.9335    40.0752   179.2929
 2173.0000   -38.2038     5.9961     6.7386     7.0361    37.2856   200.9158
 2173.5000   -38.2038     6.2305     7.1588     7.2016    37.8375   237.3737
 2174.0000   -38.2038     6.3384     7.6540     7.2019    38.7431   242.4242
 2174.5000   -38.2038     6.4696     7.9472     7.2023    39.6487   239.8990
 2175.0000   -38.2038     6.6351     8.2325     7.3362    40.4134   234.8485
 2175.5000   -38.1298     6.7786     8.4841     7.3625    41.2894   230.5303
 2176.0000   -37.9357     6.7968     8.6183     7.4706    41.9400   224.7475
 2176.5000   -37.9357     6.7586     8.6046     7.5042    43.0411   222.2222
 2177.0000   -37.9357     6.7334     8.5382     7.6049    43.5414   219.6970
 2177.5000   -37.8503     6.7149     8.4274     7.6329    43.9005   214.3927
 2178.0000   -37.6676     6.7145     8.0793     7.7393    44.5413   202.0202
 2178.5000   -37.6676     6.7143     8.0008     7.7396    45.6743   189.3939
 2179.0000   -37.6676     6.8334     7.8915     7.7400    47.5462   170.6127
 2179.5000   -37.6676     6.9261     7.6981     7.7403    49.1364   169.4964
 2180.0000   -37.6676     6.9919     7.5090     7.7407    51.1775   192.4260
 2180.5000   -37.5769     7.0476     7.4056     7.6002    52.8057   191.9192
 2181.0000   -37.3995     7.0963     7.3639     7.4740    53.5566   189.2926
 2181.5000   -37.3995     7.1621     7.2705     7.3406    53.8058   185.7076
 2182.0000   -37.3995     7.2278     7.2701     7.3173    54.3808   181.8182
 2182.5000   -37.3995     7.2797     7.4042     7.2076    57.0612   181.0600
 2183.0000   -37.3995     7.3065     7.5135     7.1425    58.5639   178.3840
 2183.5000   -37.3995     7.3603     7.8068     7.0745    59.3147   176.7677
 2184.0000   -37.3995     7.3600     7.9409     6.9960    59.5639   191.9192
