~VERSION INFORMATION
 VERS.                2.0:   CWLS LOG ASCII STANDARD - VERSION 2.0
 WRAP.                 NO:   ONE LINE PER DEPTH STEP
~WELL INFORMATION
#MNEM.UNIT      DATA TYPE    INFORMATION
#----------   ------------   ------------------------------
 STRT.F           14.0000:   START DEPTH
 STOP.F         3030.0000:   STOP DEPTH
 STEP.F            0.5000:   STEP LENGTH
 NULL.          -999.2500:   NO VALUE
 COMP. LAWRENCE ALLISON & ASSOC. WEST:   COMPANY
 WELL. LAWRENCE "X" #37-28:   WELL
 FLD .          N.P.R. #3:   FIELD
 LOC .      S28 T39N R78W:   LOCATION
 CNTY.            NATRONA:   COUNTY
 STAT.            WYOMING:   STATE
 CTRY. UNITED STATES OF AMERICA:   COUNTRY
 SRVC.      DRESSER ATLAS:   SERVICE COMPANY
 DATE.        22-SEP-1986:   LOGDATE
 API .     49025111090000:   API NUMBER
~CURVE INFORMATION
#MNEM.UNIT       API CODE    CURVE DESCRIPTION
#----------   ------------   ------------------------------
 DEPT.F                  :   
 GRR .GAPI   07 310 01 00:   GAMMA RAY FROM RESISTIVITY
 SPR .MV     07 010 01 00:   SPONTANEOUS POTENTIAL
 TENR.LBS    07 635 01 00:   TENSION FROM RESISTIVITY
 RILD.OHMM   07 120 46 00:   DEEP INDUCTION RESISTIVITY
 RILM.OHMM   07 120 44 00:   INDUCTION LOG MEDIUM RESISTIVITY
 RFOC.OHMM   07 220 04 00:   RESISTIVITY FOCUSED LOG RES.
 CNC .DEC    42 890 03 00:   NEUTRON PORISITY SANDSTONE
 RHOB.G/C3   45 350 01 00:   BULK DENSITY
 CORR.G/C3   45 356 01 00:   DENSITY CORRECTION
 TEND.LBS    45 635 01 00:   TENSION FROM DENSITY LOG
 CALD.IN     45 280 60 00:   CALIPER FROM DENSITY LOG
~PARAMETER INFORMATION
#MNEM.UNIT          VALUE    DESCRIPTION
#----------   ------------   ------------------------------
 EKB .F         5124.0000:   Kelly bushing
 EGL .F         5113.0000:   Ground level
 EDF .F         5123.0000:   Drilling floor
 TD  .F         3026.0000:   Total depth
 DATE.        22-SEP-1986:   Date logged
 CLNT.            A2DTECH:   Client Code
 SL  . 1097' FSL & 1722' FWL:   Surface Location
 PD  .                 GL:   Permanent Datum
 EPD .F              5113:   Elevation Permanent Datum
 LMF .                 KB:   Log Measured From
 DMF .                 KB:   Drilling Measured From
 DAPD.F                11:   Feet Above Permanent Datum
 DD  .F              3026:   Depth driller
 DL  .F              3023:   Depth logger
 BLI .F              3020:   Bottom log interval
 CS1 .IN            8.625:   Casing size
 CBD1.      8.625" @ 517':   Casing driller 1
 CBL1.F               518:   Casing logger 1
 BS1 .IN            7.875:   Bit size
 BSD1.F              3026:   Depth drilled with bit1
 DFT .            KCL-GEL:   Type fluid in hole
 DFD .                8.6:   Density
 DFV .                 41:   Viscosity
 DFPH.                9.5:   pH
 DFL .                6.8:   Fluid loss
 MSS .           FLOWLINE:   Source of sample
 RMS .OHMM           0.37:   Rm
 MST .F                58:   Rm Meas. temp.
 RMF .OHMM           0.33:   Rmf
 MFST.F                63:   Rmf Meas. temp.
 RMC .OHMM           0.59:   Rmc
 MCST.F                58:   Rmc Meas. temp.
 MFSS.               MEAS:   Source Rmf.
 MCSS.               CALC:   Source Rmc.
 RMB .OHMM           0.16:   Rm. at BHT
 BHT .F               131:   BHT.
 TCS .HRS               3:   Time Circ. stopped
 MRT .F               131:   Maximum recorded temp.
 LUN .            HL 6426:   Logging unit number
 LUL .                 RS:   Logging unit location
 ENGI.               RALL:   Recorded By
 WITN.             STRONG:   Witnessed by
 ORIG.           5" PRINT:   Origin of data
 UWI .     49025111090000:   Unique Well ID
 DICO. A2D TECHNOLOGIES, INC.:   Digitizing Company
~OTHER INFORMATION
~A   DEPT      GRR        SPR       TENR       RILD       RILM       RFOC        CNC       RHOB       CORR       TEND       CALD   
# ...
 1356.0000   105.1120   -14.1950   -60.5950     7.0140     7.6370     7.8430  -999.2500  -999.2500  -999.2500  -999.2500  -999.2500
 1356.5000   107.8640   -14.3380   -60.1890     6.9100     7.5500     7.7120  -999.2500  -999.2500  -999.2500  -999.2500  -999.2500
 1357.0000   108.4890   -14.4600   -59.7820     6.8050     7.4150     7.5820  -999.2500  -999.2500  -999.2500  -999.2500  -999.2500
 1357.5000   109.8240   -14.5970   -59.3750     6.7090     7.2810     7.4520  -999.2500  -999.2500  -999.2500  -999.2500  -999.2500
 1358.0000   109.5840   -14.7230   -58.9680     6.7140     7.1580     7.3600  -999.2500  -999.2500  -999.2500  -999.2500  -999.2500
 1358.5000   106.1330   -14.8590   -58.5610     6.7250     7.1680     7.3920  -999.2500  -999.2500  -999.2500  -999.2500  -999.2500
 1359.0000   104.0220   -14.9840   -58.1540     6.7360     7.1790     7.4160  -999.2500  -999.2500  -999.2500  -999.2500  -999.2500
 1359.5000   105.2820   -15.2140   -57.7480     6.7470     7.1900     7.4710  -999.2500  -999.2500  -999.2500  -999.2500  -999.2500
 1360.0000   107.4230   -15.5140   -57.3410     6.7580     7.2000     7.5520  -999.2500  -999.2500  -999.2500  -999.2500  -999.2500
 1360.5000   108.0960   -15.5130   -56.9340     6.7710     7.2110     7.6370  -999.2500  -999.2500  -999.2500  -999.2500  -999.2500
 1361.0000   109.5880   -15.2490   -56.5270     6.7870     7.2250     7.6370  -999.2500  -999.2500  -999.2500  -999.2500  -999.2500
 1361.5000   111.7950   -14.9830   -56.1200     6.8080     7.3030     7.6370  -999.2500  -999.2500  -999.2500  -999.2500  -999.2500
 1362.0000   109.8760   -14.7230   -55.7130     6.8280     7.4050     7.6370  -999.2500  -999.2500  -999.2500  -999.2500  -999.2500
 1362.5000   104.9930   -14.4560   -55.3070     6.8490     7.5070     7.7100  -999.2500  -999.2500  -999.2500  -999.2500  -999.2500
 1363.0000   101.0050   -14.1940   -54.9000     6.8700     7.6240     7.8330  -999.2500  -999.2500  -999.2500  -999.2500  -999.2500
 1363.5000    99.4560   -14.0480   -54.4930     6.8900     7.7630     7.9550  -999.2500  -999.2500  -999.2500  -999.2500  -999.2500
 1364.0000    99.9910   -14.0590   -54.0200     6.9110     7.9250     8.0730  -999.2500  -999.2500  -999.2500  -999.2500  -999.2500
 1364.5000   100.6130   -14.0810   -54.0200     6.9400     7.8360     8.0400  -999.2500  -999.2500  -999.2500  -999.2500  -999.2500
 1365.0000   100.6970   -14.0900   -54.0200     6.9700     7.6960     7.9990  -999.2500  -999.2500  -999.2500  -999.2500  -999.2500
 1365.5000    99.9810   -14.1110   -54.0200     7.0000     7.5560     7.8690  -999.2500  -999.2500  -999.2500  -999.2500  -999.2500
 1366.0000    98.6550   -14.1220   -54.0200     7.0270     7.4280     7.7470  -999.2500  -999.2500  -999.2500  -999.2500  -999.2500
 1366.5000    98.0680   -14.1400   -54.0200     6.9930     7.4940     7.8140  -999.2500  -999.2500  -999.2500  -999.2500  -999.2500
 1367.0000    98.6760   -14.1540   -54.0200     6.9540     7.6280     7.9680  -999.2500  -999.2500  -999.2500  -999.2500  -999.2500
 1367.5000    99.3570   -14.1690   -54.0200     6.9160     7.7620     8.1210  -999.2500  -999.2500  -999.2500  -999.2500  -999.2500
 1368.0000    99.3680   -14.1870   -54.0200     6.8980     7.8460     8.2240  -999.2500  -999.2500  -999.2500  -999.2500  -999.2500
 1368.5000    98.9760   -14.1960   -54.0200     7.0080     7.8250     7.8590  -999.2500  -999.2500  -999.2500  -999.2500  -999.2500
 1369.0000    97.8790   -14.2200   -54.0200     7.1050     7.8040     7.4650  -999.2500  -999.2500  -999.2500  -999.2500  -999.2500
 1369.5000    96.1960   -14.2240   -54.0200     7.2250     7.7830     7.3600  -999.2500  -999.2500  -999.2500  -999.2500  -999.2500
 1370.0000    95.2030   -14.2490   -54.0200     7.2430     7.7620     7.7040  -999.2500  -999.2500  -999.2500  -999.2500  -999.2500
 1370.5000    95.3210   -14.3670   -54.0200     7.2760     7.7410     8.3010  -999.2500  -999.2500  -999.2500  -999.2500  -999.2500
 1371.0000    95.4370   -14.5050   -54.0200     7.3080     7.7210     8.3010  -999.2500  -999.2500  -999.2500  -999.2500  -999.2500
 1371.5000    95.5580   -14.6380   -54.0200     7.3410     7.7430     8.3010  -999.2500  -999.2500  -999.2500  -999.2500  -999.2500
 1372.0000    96.5920   -14.7610   -54.0200     7.3560     7.8280     8.2350  -999.2500  -999.2500  -999.2500  -999.2500  -999.2500
 1372.5000    97.7370   -14.9080   -54.0200     7.3480     7.9250     8.1800  -999.2500  -999.2500  -999.2500  -999.2500  -999.2500
 1373.0000    98.9440   -15.0400   -54.0200     7.3400     7.9180     8.1260  -999.2500  -999.2500  -999.2500  -999.2500  -999.2500
 1373.5000   100.3490   -15.0050   -54.0200     7.3320     7.9010     8.0710  -999.2500  -999.2500  -999.2500  -999.2500  -999.2500
 1374.0000   101.3620   -14.9040   -54.0200     7.3240     7.8840     8.0170  -999.2500  -999.2500  -999.2500  -999.2500  -999.2500
 1374.5000   102.6400   -14.8330   -54.0200     7.3160     7.8670     8.0130  -999.2500  -999.2500  -999.2500  -999.2500  -999.2500
 1375.0000   102.1650   -14.7420   -54.0200     7.3080     7.8520     8.0420  -999.2500  -999.2500  -999.2500  -999.2500  -999.2500
 1375.5000   100.2600   -14.6610   -54.0200     7.3000     7.8440     8.0710  -999.2500  -999.2500  -999.2500  -999.2500  -999.2500
 1376.0000   100.5050   -14.5780   -54.0200     7.2920     7.8320     8.1000  -999.2500  -999.2500  -999.2500  -999.2500  -999.2500
 1376.5000   101.3640   -14.4910   -54.0200     7.2820     7.8200     8.1290  -999.2500  -999.2500  -999.2500  -999.2500  -999.2500
 1377.0000   101.1430   -14.4120   -54.0200     7.2710     7.8090     8.1490  -999.2500  -999.2500  -999.2500  -999.2500  -999.2500
 1377.5000    99.1490   -14.3230   -54.0200     7.2610     7.7970     8.1490  -999.2500  -999.2500  -999.2500  -999.2500  -999.2500
 1378.0000    96.8310   -14.2450   -54.0200     7.2500     7.7850     8.1490  -999.2500  -999.2500  -999.2500  -999.2500  -999.2500
 1378.5000    97.1720   -14.1550   -54.0200     7.2400     7.7750     7.9360  -999.2500  -999.2500  -999.2500  -999.2500  -999.2500
 1379.0000    97.5950   -14.0770   -54.0200     7.2290     7.7660     7.5670  -999.2500  -999.2500  -999.2500  -999.2500  -999.2500
 1379.5000    96.2920   -14.1410   -54.0200     7.2200     7.7570     7.9990  -999.2500  -999.2500  -999.2500  -999.2500  -999.2500
 1380.0000    95.3770   -14.3150   -54.0200     7.2090     7.7480     8.0610  -999.2500  -999.2500  -999.2500  -999.2500  -999.2500
 1380.5000    96.6560   -14.4830   -54.0200     7.1980     7.7380     8.1370  -999.2500  -999.2500  -999.2500  -999.2500  -999.2500
 1381.0000   100.0500   -14.6540   -54.0200     7.1860     7.7290     8.2140  -999.2500  -999.2500  -999.2500  -999.2500  -999.2500
 1381.5000   103.9740   -14.8250   -54.0200     7.1750     7.7200     8.3010  -999.2500  -999.2500  -999.2500  -999.2500  -999.2500
 1382.0000   104.4480   -14.9940   -54.0200     7.1640     7.7110     8.2590  -999.2500  -999.2500  -999.2500  -999.2500  -999.2500
 1382.5000   100.2030   -15.1660   -54.0200     7.2280     7.7230     8.1950  -999.2500  -999.2500  -999.2500  -999.2500  -999.2500
 1383.0000    97.3450   -15.2820   -54.0200     7.3760     7.7440     8.1310  -999.2500  -999.2500  -999.2500  -999.2500  -999.2500
 1383.5000    96.5480   -15.3480   -54.0200     7.5670     7.7650     8.0730  -999.2500  -999.2500  -999.2500  -999.2500  -999.2500
 1384.0000    94.9140   -15.4100   -54.0200     7.6370     7.7800     8.1410  -999.2500  -999.2500  -999.2500  -999.2500  -999.2500
 1384.5000    94.0610   -15.4870   -55.7910     7.6370     7.7800     8.2240  -999.2500  -999.2500  -999.2500  -999.2500  -999.2500
 1385.0000    94.4570   -15.5910   -57.3810     7.6370     7.7800     8.4660  -999.2500  -999.2500  -999.2500  -999.2500  -999.2500
 1385.5000    95.7250   -15.6230   -58.9700     7.6370     7.7800     8.6800  -999.2500  -999.2500  -999.2500  -999.2500  -999.2500
 1386.0000    96.1620   -15.5420   -60.5590     7.6370     7.7800     8.7750  -999.2500  -999.2500  -999.2500  -999.2500  -999.2500
