~VERSION INFORMATION
 VERS.                2.0:   CWLS LOG ASCII STANDARD - VERSION 2.0
 WRAP.                 NO:   ONE LINE PER DEPTH STEP
~WELL INFORMATION
#MNEM.UNIT      DATA TYPE    INFORMATION
#----------   ------------   ------------------------------
 STRT.F          200.5000:   START DEPTH
 STOP.F         3012.5000:   STOP DEPTH
 STEP.F            0.5000:   STEP LENGTH
 NULL.          -999.2500:   NO VALUE
 COMP.    FENIX & SCISSON:   COMPANY
 WELL.  FENIX "AX" #75-29:   WELL
 FLD .              NPR-3:   FIELD
 LOC .      S29 T39N R78W:   LOCATION
 CNTY.            NATRONA:   COUNTY
 STAT.            WYOMING:   STATE
 CTRY. UNITED STATES OF AMERICA:   COUNTRY
 SRVC.           BIRDWELL:   SERVICE COMPANY
 DATE.        15-FEB-1978:   LOGDATE
 API .     49025105830000:   API NUMBER
~CURVE INFORMATION
#MNEM.UNIT       API CODE    CURVE DESCRIPTION
#----------   ------------   ------------------------------
 DEPT.F                  :   
 GRD .GAPI   45 310 01 00:   GAMMA RAY FROM DENSITY LOG
 CALD.IN     45 280 60 00:   CALIPER FROM DENSITY LOG
 DEN .G/C3   45 350 01 00:   BULK DENSITY
 DCOR.G/C3   45 356 01 00:   DENSITY CORRECTION
 SPR .MV     05 010 01 00:   SPONTANEOUS POTENTIAL
 SN  .OHMM   05 040 16 00:   SHORT NORMAL 16"
 RILD.OHMM   05 120 46 00:   DEEP INDUCTION RESISTIVITY
~PARAMETER INFORMATION
#MNEM.UNIT          VALUE    DESCRIPTION
#----------   ------------   ------------------------------
 EKB .F         5042.0000:   Kelly bushing
 EGL .F         5032.0000:   Ground level
 EDF .F            0.0000:   Drilling floor
 TD  .F         3010.0000:   Total depth
 DATE.        15-FEB-1978:   Date logged
 CLNT.            A2DTECH:   Client Code
 SL  . 2550' FSL & 950' FEL:   Surface Location
 PD  .                 GL:   Permanent Datum
 EPD .F              5032:   Elevation Permanent Datum
 LMF .                 KB:   Log Measured From
 DMF .                 KB:   Drilling Measured From
 DAPD.F                10:   Feet Above Permanent Datum
 DD  .F              3010:   Depth driller
 DL  .F              3010:   Depth logger
 BLI .F              3002:   Bottom log interval
 TLI .F               200:   Top log interval
 CS1 .IN            8.625:   Casing size
 CBD1.      8.625" @ 222':   Casing driller 1
 CBL1.F               222:   Casing logger 1
 BS1 .IN            7.875:   Bit size
 BSD1.F              3010:   Depth drilled with bit1
 DFT .         LIGNO/SULF:   Type fluid in hole
 DFD .                9.1:   Density
 DFV .                 33:   Viscosity
 DFPH.                 10:   pH
 DFL .                4.9:   Fluid loss
 MSS .           FLOWLINE:   Source of sample
 RMS .OHMM              2:   Rm
 MST .F                66:   Rm Meas. temp.
 RMF .OHMM            2.2:   Rmf
 MFST.F                58:   Rmf Meas. temp.
 RMC .OHMM            1.8:   Rmc
 MCST.F                60:   Rmc Meas. temp.
 MFSS.               MEAS:   Source Rmf.
 RMB .OHMM            1.7:   Rm. at BHT
 BHT .F               118:   BHT.
 TCS .HRS               5:   Time Circ. stopped
 MRT .F               118:   Maximum recorded temp.
 LUN .               2958:   Logging unit number
 LUL .               CASP:   Logging unit location
 ENGI.            POINTER:   Recorded By
 WITN.           MCGINLEY:   Witnessed by
 ORIG.           5" PRINT:   Origin of data
 UWI .     49025105830000:   Unique Well ID
 DICO. A2D TECHNOLOGIES, INC.:   Digitizing Company
~OTHER INFORMATION
~A   DEPT       GRD      CALD        DEN       DCOR        SPR         SN       RILD   
# ...
 2430.0000    86.6860     8.1600     2.5650     0.0610   -42.0390    10.5740     8.1680
 2430.5000    81.6200     8.1200     2.5860     0.0570   -42.3020    10.8980     8.6440
 2431.0000    68.7940     8.1190     2.5910     0.0520   -41.8780    11.5960     9.1200
 2431.5000    56.1370     8.1190     2.6050     0.0530   -41.3530    13.0010     9.5960
 2432.0000    36.7840     8.1190     2.6100     0.0700   -41.3320    17.3080    10.0090
 2432.5000    29.2860     8.1380     2.6250     0.0900   -41.3320    22.6580     9.9250
 2433.0000    26.8010     8.1590     2.6570     0.0950   -41.3470    26.6170    10.0260
 2433.5000    29.6680     8.1800     2.6440     0.0960   -41.9090    27.1120    10.1680
 2434.0000    52.0740     8.2240     2.6360     0.0900   -42.5490    22.6470    10.2980
 2434.5000    88.3550     8.2670     2.6050     0.0760   -42.7090    17.0990     9.7400
 2435.0000    92.9520     8.3090     2.5660     0.0620   -42.0340    13.5390     9.2300
 2435.5000    91.7750     8.3510     2.5480     0.0610   -41.5750    11.2080     8.7200
 2436.0000    91.9110     8.3790     2.5350     0.0610   -41.9520    10.3330     8.2100
 2436.5000    91.2290     8.4040     2.5330     0.0610   -42.1100     9.7440     7.7000
 2437.0000    90.2270     8.4290     2.5420     0.0610   -42.0700     9.4700     7.5000
 2437.5000    90.4890     8.4550     2.5440     0.0610   -42.0320     9.2130     7.4600
 2438.0000    90.8790     8.4800     2.5470     0.0610   -41.9940     8.9680     7.4200
 2438.5000    93.5760     8.5060     2.5530     0.0630   -41.9550     9.0510     7.3890
 2439.0000    95.6000     8.5070     2.5430     0.0650   -42.1160     8.8460     7.3890
 2439.5000    96.6810     8.4960     2.5470     0.0640   -42.4970     8.6800     7.3890
 2440.0000    97.5410     8.5060     2.5540     0.0600   -42.8740     8.5150     7.3890
 2440.5000    96.3660     8.5170     2.5410     0.0510   -42.9280     8.4680     7.3890
 2441.0000    92.8400     8.5280     2.5270     0.0510   -42.9280     8.4460     7.3940
 2441.5000    92.6870     8.5390     2.5170     0.0520   -42.9270     8.4250     7.4190
 2442.0000    94.0800     8.5500     2.5140     0.0560   -42.9800     8.4070     7.4440
 2442.5000    93.6960     8.5540     2.5200     0.0600   -43.0390     8.4160     7.4680
 2443.0000    94.3390     8.5540     2.5270     0.0640   -43.1060     8.4230     7.4930
 2443.5000    93.1280     8.5540     2.5370     0.0630   -42.6990     8.4300     7.5180
 2444.0000    90.2440     8.5540     2.5230     0.0630   -42.1110     8.4370     7.5420
 2444.5000    88.8680     8.5540     2.5200     0.0640   -42.0440     8.4440     7.5670
 2445.0000    88.7610     8.5550     2.5270     0.0660   -41.5480     8.4510     7.5910
 2445.5000    89.0000     8.5580     2.5360     0.0680   -41.6130     8.4580     7.6160
 2446.0000    89.0430     8.5620     2.5290     0.0690   -42.3900     8.4650     7.6410
 2446.5000    88.3020     8.5660     2.5410     0.0690   -42.1710     8.4720     7.6660
 2447.0000    88.6330     8.5690     2.5430     0.0690   -41.6300     8.4790     7.6590
 2447.5000    88.9400     8.5720     2.5380     0.0690   -42.0210     8.4840     7.6500
 2448.0000    89.1360     8.6090     2.5330     0.0690   -42.3180     8.4570     7.6420
 2448.5000    88.5700     8.6620     2.5270     0.0690   -42.2200     8.4320     7.6330
 2449.0000    88.0880     8.7140     2.5320     0.0680   -42.1190     8.4070     7.6250
 2449.5000    88.3970     8.7660     2.5380     0.0650   -42.0190     8.3820     7.6160
 2450.0000    91.7510     8.7920     2.5410     0.0620   -41.9480     8.3580     7.6080
 2450.5000    91.6250     8.7920     2.5360     0.0590   -42.2580     8.3330     7.5990
 2451.0000    91.2920     8.7920     2.5310     0.0590   -42.5220     8.3500     7.4610
 2451.5000    93.2400     8.7920     2.5120     0.0610   -42.4330     8.3730     7.3210
 2452.0000    95.1300     8.7920     2.5160     0.0630   -42.3390     8.4070     7.4580
 2452.5000    98.7100     8.7920     2.5210     0.0630   -42.4770     8.2640     7.1030
 2453.0000   102.3830     8.7920     2.5190     0.0620   -42.6890     7.9620     7.1470
 2453.5000   100.9810     8.7920     2.5320     0.0620   -42.9000     7.6670     7.1880
 2454.0000    96.6100     8.7920     2.5230     0.0620   -42.9280     7.5960     7.0000
 2454.5000    93.7760     8.7920     2.5150     0.0670   -42.9290     7.5960     6.7810
 2455.0000    94.0180     8.7920     2.5240     0.0730   -42.9260     7.7380     6.5550
 2455.5000   101.8240     8.7920     2.5330     0.0690   -42.8700     7.6870     6.6100
 2456.0000   109.5590     8.7920     2.5360     0.0650   -42.6160     7.5960     6.5560
 2456.5000   110.8060     8.7920     2.5320     0.0600   -42.3680     7.4070     6.4630
 2457.0000   111.2560     8.7920     2.5310     0.0640   -42.1200     7.2220     6.3700
 2457.5000   110.9920     8.7920     2.5160     0.0680   -41.8730     7.1290     6.2590
 2458.0000   109.9270     8.7920     2.5280     0.0670   -41.6250     7.0560     6.3320
 2458.5000   107.4780     8.7920     2.5320     0.0630   -41.3750     7.0930     6.4510
 2459.0000   102.6190     8.7920     2.5230     0.0560   -41.1280     7.1540     6.5700
 2459.5000    97.2710     8.7920     2.5260     0.0530   -41.5460     7.3220     6.6890
 2460.0000    95.5500     8.7920     2.5240     0.0520   -41.9770     7.4900     6.8840
 2460.5000    94.8510     8.7920     2.5330     0.0530   -42.1300     7.7030     7.1320
 2461.0000    92.0710     8.7920     2.5370     0.0550   -42.2150     7.9280     7.3890
 2461.5000    89.2820     8.7920     2.5320     0.0570   -42.2980     8.1540     7.3890
 2462.0000    88.8190     8.7920     2.5410     0.0590   -42.3810     8.3250     7.3890
 2462.5000    89.8230     8.7920     2.5540     0.0580   -42.4620     8.4850     7.3890
 2463.0000    91.4590     8.7920     2.5500     0.0560   -42.5160     8.4800     7.3890
 2463.5000    93.1160     8.7920     2.5530     0.0500   -42.4250     8.4740     7.3900
 2464.0000    93.5090     8.7920     2.5430     0.0440   -42.3370     8.4670     7.3870
 2464.5000    91.0510     8.7920     2.5270     0.0430   -42.2500     8.4610     7.3840
 2465.0000    87.8990     8.7920     2.5220     0.0440   -42.1630     8.4540     7.4600
 2465.5000    88.2850     8.7920     2.5330     0.0440   -42.0750     8.4470     7.4400
 2466.0000    92.5660     8.7920     2.5360     0.0440   -41.9890     8.4410     7.4310
 2466.5000    97.1100     8.7920     2.5290     0.0450   -41.9660     8.4340     7.4210
 2467.0000    96.8330     8.7920     2.5200     0.0450   -42.0620     8.4280     7.4120
 2467.5000    93.4930     8.7920     2.5250     0.0460   -42.1570     8.4210     7.4020
 2468.0000    91.7860     8.7920     2.5240     0.0530   -42.2500     8.4150     7.3890
 2468.5000    90.1640     8.7920     2.5320     0.0580   -42.3330     8.4080     7.4360
 2469.0000    88.1890     8.7920     2.5420     0.0580   -42.3310     8.4360     7.5050
 2469.5000    83.2990     8.7920     2.5390     0.0630   -42.3290     8.4680     7.5730
 2470.0000    80.6410     8.7920     2.5430     0.0640   -42.2740     8.5620     7.6350
 2470.5000    80.6400     8.7920     2.5520     0.0640   -42.2140     8.7270     7.7910
 2471.0000    86.5180     8.7920     2.5500     0.0640   -42.1540     8.8920     8.0610
 2471.5000    89.2260     8.7920     2.5460     0.0650   -42.0930     9.0510     8.1030
 2472.0000    88.6750     8.7930     2.5500     0.0650   -42.0330     8.9610     8.1030
 2472.5000    88.7840     8.7960     2.5550     0.0650   -41.9760     8.8740     8.1030
 2473.0000    87.8730     8.8000     2.5580     0.0640   -41.9830     8.7880     8.1030
 2473.5000    87.8420     8.8030     2.5570     0.0600   -42.1700     8.7010     7.8370
 2474.0000    89.2490     8.8070     2.5450     0.0600   -42.3700     8.6150     7.5130
 2474.5000    91.1750     8.8100     2.5370     0.0610   -42.7140     8.4870     7.3210
 2475.0000    91.0140     8.8080     2.5440     0.0610   -42.8890     8.2990     7.3210
