~VERSION INFORMATION
 VERS.                2.0:   CWLS LOG ASCII STANDARD - VERSION 2.0
 WRAP.                 NO:   ONE LINE PER DEPTH STEP
~WELL INFORMATION
#MNEM.UNIT      DATA TYPE    INFORMATION
#----------   ------------   ------------------------------
 STRT.F          520.0000:   START DEPTH
 STOP.F         3092.0000:   STOP DEPTH
 STEP.F            0.5000:   STEP LENGTH
 NULL.          -999.2500:   NO VALUE
 COMP.    FENIX & SCISSON:   COMPANY
 WELL. FENIX 87 "AX" #3-3:   WELL
 FLD .              N P R:   FIELD
 LOC .       S3 T38N R78W:   LOCATION
 CNTY.            NATRONA:   COUNTY
 STAT.            WYOMING:   STATE
 CTRY. UNITED STATES OF AMERICA:   COUNTRY
 SRVC.              WELEX:   SERVICE COMPANY
 DATE.        30-OCT-1980:   LOGDATE
 API .     49025108510000:   API NUMBER
~CURVE INFORMATION
#MNEM.UNIT       API CODE    CURVE DESCRIPTION
#----------   ------------   ------------------------------
 DEPT.F                  :   
 CALD.IN     45 280 60 00:   CALIPER FROM DENSITY LOG
 GRD .GAPI   45 310 01 00:   GAMMA RAY FROM DENSITY LOG
 RHOB.G/C3   45 350 01 00:   BULK DENSITY
 CORR.G/C3   45 356 01 00:   DENSITY CORRECTION
 SPR .MV     07 010 01 00:   SPONTANEOUS POTENTIAL
 ILD .OHMM   07 120 46 00:   DEEP INDUCTION RESISTIVITY
 ILM .OHMM   07 120 44 00:   INDUCTION LOG MEDIUM RESISTIVITY
 SGRD.OHMM   07 220 05 00:   SHALLOW SHORT GUARD RESISTIVITY
~PARAMETER INFORMATION
#MNEM.UNIT          VALUE    DESCRIPTION
#----------   ------------   ------------------------------
 EKB .F         5131.0000:   Kelly bushing
 EGL .F         5121.0000:   Ground level
 TD  .F         3095.0000:   Total depth
 DATE.        30-OCT-1980:   Date logged
 CLNT.            A2DTECH:   Client Code
 SL  . 910' FWL & 95' FEL:   Surface Location
 PD  .                 GL:   Permanent Datum
 EPD .F              5121:   Elevation Permanent Datum
 LMF .                 KB:   Log Measured From
 DMF .                 KB:   Drilling Measured From
 DD  .F              3095:   Depth driller
 DL  .F              3094:   Depth logger
 BLI .F              3092:   Bottom log interval
 TLI .F               525:   Top log interval
 CS1 .IN            9.625:   Casing size
 CBD1.      9.625" @ 525':   Casing driller 1
 CBL1.F               525:   Casing logger 1
 BS1 .IN            7.875:   Bit size
 DFT .          DISPERSED:   Type fluid in hole
 DFD .                  9:   Density
 DFV .                 40:   Viscosity
 DFPH.                 10:   pH
 DFL .                  8:   Fluid loss
 MSS .             MUDPIT:   Source of sample
 RMS .OHMM           2.40:   Rm
 MST .F                68:   Rm Meas. temp.
 MFST.F                68:   Rmf Meas. temp.
 RMC .OHMM            2.8:   Rmc
 MCST.F                68:   Rmc Meas. temp.
 MFSS.F              MEAS:   Source Rmf.
 RMB .OHMM           1.36:   Rm. at BHT
 BHT .F               120:   BHT.
 TCS .HRS             5.5:   Time Circ. stopped
 MRT .F               120:   Maximum recorded temp.
 LUN .               1891:   Logging unit number
 LUL .             CASPER:   Logging unit location
 ENGI.          PFERIMMER:   Recorded By
 WITN.              FIVAS:   Witnessed by
 ORIG.           5" PRINT:   Origin of data
 UWI .     49025108510000:   Unique Well ID
 DICO. A2D TECHNOLOGIES, INC.:   Digitizing Company
 DAPD.F                10:   Feet Above Permanent Datum
 BSD1.F              3095:   Depth drilled with bit1
 RMF .OHMM           1.92:   Rmf
 MCSS.               MEAS:   Source Rmc.
~OTHER INFORMATION
~A   DEPT     CALD        GRD       RHOB       CORR        SPR          ILD        ILM      SGRD  
# ...
 1897.0000     8.5410   110.6640     2.4850     0.0280   -26.7230     7.0880     9.2750    11.3720
 1897.5000     8.5370   110.3140     2.5010     0.0320   -26.7310     7.0140     9.0980    10.5630
 1898.0000     8.5340   109.9680     2.5010     0.0380   -26.7400     6.9400     8.9050     9.7550
 1898.5000     8.5300   109.6270     2.4950     0.0340   -26.7480     6.8660     8.9050     9.5890
 1899.0000     8.5270   109.2480     2.4900     0.0270   -26.7560     6.7470     9.2780    10.8750
 1899.5000     8.5230   109.3040     2.4970     0.0190   -26.7650     6.7470     9.5440    12.0820
 1900.0000     8.5190   110.2100     2.5090     0.0210   -26.7730     6.8240     9.8100    11.4830
 1900.5000     8.5160   111.1110     2.5210     0.0240   -26.7810     6.8840    10.0420    10.7140
 1901.0000     8.5120   112.0060     2.5270     0.0270   -26.7900     6.9440     9.9730    11.3120
 1901.5000     8.5090   112.9020     2.5160     0.0300   -26.7980     7.0040     9.8790    12.3080
 1902.0000     8.5050   113.7960     2.5150     0.0330   -26.7930     7.0640     9.7850    11.0400
 1902.5000     8.5020   114.6790     2.5230     0.0300   -26.7680     7.1240     9.6780    10.2000
 1903.0000     8.4980   114.6260     2.5220     0.0280   -26.7440     7.1840     9.7350    10.0420
 1903.5000     8.4950   113.5480     2.5190     0.0260   -26.7190     7.2440     9.8020    10.7950
 1904.0000     8.4910   112.4790     2.5160     0.0230   -26.6940     7.3040     9.8690    11.4930
 1904.5000     8.4880   111.4040     2.5180     0.0210   -26.6700     7.3640     9.9360    12.1920
 1905.0000     8.4840   110.3290     2.5220     0.0180   -26.6450     7.4010    10.0030    12.8900
 1905.5000     8.4810   109.2450     2.5330     0.0160   -26.6200     7.3260    10.0420    13.0100
 1906.0000     8.4770   108.1450     2.5430     0.0160   -26.5950     7.2720     9.9950    11.5220
 1906.5000     8.4740   108.5550     2.5460     0.0150   -26.5710     7.2170     9.9210    10.8500
 1907.0000     8.4700   109.0880     2.5390     0.0130   -26.5460     7.1630     9.8480    10.5180
 1907.5000     8.4660   109.6140     2.5330     0.0120   -26.5210     7.1090     9.7740    10.7500
 1908.0000     8.4630   110.1380     2.5260     0.0110   -26.4960     7.0540     9.7000    10.9960
 1908.5000     8.4590   110.6600     2.5210     0.0100   -26.4720     7.0000     9.6260    11.2420
 1909.0000     8.4560   111.4220     2.5260     0.0090   -26.4470     6.9460     9.5520    11.4300
 1909.5000     8.4520   112.8060     2.5300     0.0080   -26.4210     6.8910     9.4790    11.4300
 1910.0000     8.4490   113.0700     2.5340     0.0070   -26.4600     6.8370     9.4050    11.1500
 1910.5000     8.4450   112.4170     2.5290     0.0100   -26.5310     6.7830     9.3260    10.8880
 1911.0000     8.4420   111.7210     2.5240     0.0150   -26.6020     6.7470     9.3260    10.6150
 1911.5000     8.4440   111.9830     2.5210     0.0190   -26.6740     6.8490     9.4290    10.8750
 1912.0000     8.4480   113.1150     2.5300     0.0240   -26.7450     6.9530     9.5200    11.1560
 1912.5000     8.4510   112.9230     2.5400     0.0280   -26.8170     7.0560     9.6100    11.4380
 1913.0000     8.4550   112.4100     2.5470     0.0320   -26.8890     7.1590     9.7000    11.7520
 1913.5000     8.4580   111.9030     2.5410     0.0300   -26.9600     7.2620     9.7900    11.2270
 1914.0000     8.4620   111.3960     2.5340     0.0280   -26.9990     7.3660     9.8800    10.7140
 1914.5000     8.4650   110.8790     2.5280     0.0250   -26.9540     7.4690     9.9700    11.0150
 1915.0000     8.4690   110.7550     2.5280     0.0230   -26.8940     7.5720    10.0420    11.4210
 1915.5000     8.4720   110.4200     2.5320     0.0200   -26.8320     7.6750    10.0420    11.9440
 1916.0000     8.4760   110.6620     2.5360     0.0180   -26.7700     7.7790    10.0420    12.4670
 1916.5000     8.4790   111.0370     2.5280     0.0150   -26.7080     7.8820    10.1410    12.6540
 1917.0000     8.4830   111.4180     2.5330     0.0180   -26.6460     7.9850    10.2560    12.5160
 1917.5000     8.4860   111.7980     2.5310     0.0260   -26.5840     8.0880    10.4210    12.3880
 1918.0000     8.4900   112.1830     2.5190     0.0330   -26.5220     8.1940    10.3980    12.3080
 1918.5000     8.4930   112.5770     2.5130     0.0380   -26.4600     8.3470    10.3580    12.3530
 1919.0000     8.4970   112.7940     2.5160     0.0360   -26.3990     8.2900    10.3180    12.5770
 1919.5000     8.5000   112.0160     2.5180     0.0330   -26.3370     8.2210    10.2770    12.8000
 1920.0000     8.5000   110.7460     2.5200     0.0310   -26.2750     8.1520    10.2370    13.0230
 1920.5000     8.5000   109.4670     2.5240     0.0290   -26.2130     8.0820    10.1970    13.2530
 1921.0000     8.5000   108.1870     2.4780     0.0270   -26.1510     8.0130    10.1570    13.3760
 1921.5000     8.5000   106.8770     2.4790     0.0250   -26.0890     7.9440    10.1160    13.3760
 1922.0000     8.5000   106.5890     2.4810     0.0260   -26.0250     7.8740    10.0760    12.7590
 1922.5000     8.5000   106.9730     2.4840     0.0290   -26.0850     7.8050    10.0360    12.1360
 1923.0000     8.5000   108.2540     2.4870     0.0310   -26.1680     7.7360     9.9960    11.5130
 1923.5000     8.5000   109.5840     2.4890     0.0330   -26.2520     7.6670     9.9560    10.8890
 1924.0000     8.5000   110.9040     2.4910     0.0360   -26.3360     7.5970     9.9150    10.6150
 1924.5000     8.5000   112.2210     2.4980     0.0380   -26.4190     7.5390     9.8750    12.7690
 1925.0000     8.5000   113.5390     2.5040     0.0400   -26.5030     7.4700     9.8580    13.5000
 1925.5000     8.5000   114.8580     2.5040     0.0420   -26.5860     7.6310     9.9810    12.5490
 1926.0000     8.5000   116.1790     2.5030     0.0390   -26.6700     7.7470    10.0830    11.7520
 1926.5000     8.5000   117.4850     2.5040     0.0360   -26.7530     7.8630    10.1860    11.5370
 1927.0000     8.5000   118.3840     2.5110     0.0330   -26.8040     7.9800    10.2880    12.2880
 1927.5000     8.5000   117.4250     2.5240     0.0310   -26.8030     8.0960    10.3910    12.7970
 1928.0000     8.5000   116.4010     2.5360     0.0320   -26.8040     8.2120    10.4930    13.3060
 1928.5000     8.5000   115.3750     2.5310     0.0320   -26.7790     8.3280    10.5950    13.8150
 1929.0000     8.5000   114.3520     2.5270     0.0270   -26.7450     8.4440    10.6980    14.3240
 1929.5000     8.5000   113.3280     2.5300     0.0220   -26.7110     8.5600    10.8130    14.4030
 1930.0000     8.5000   112.3050     2.5260     0.0170   -26.6760     8.6760    10.7900    13.9430
 1930.5000     8.5000   111.2810     2.5130     0.0190   -26.6420     8.8230    10.7080    13.4600
 1931.0000     8.5000   110.2570     2.5010     0.0220   -26.6070     8.7990    10.6270    12.9780
 1931.5000     8.5000   109.2300     2.5080     0.0240   -26.5720     8.7540    10.5460    12.6540
 1932.0000     8.5000   108.2050     2.5200     0.0270   -26.5380     8.7090    10.4650    12.8440
 1932.5000     8.5000   108.2300     2.5320     0.0290   -26.5030     8.6650    10.3840    13.1820
 1933.0000     8.5030   108.3970     2.5360     0.0320   -26.4690     8.6200    10.3020    13.5210
 1933.5000     8.5060   108.5660     2.5250     0.0350   -26.4350     8.5750    10.2300    13.7520
 1934.0000     8.5090   108.7320     2.5140     0.0360   -26.4650     8.5310    10.3610    12.8550
 1934.5000     8.5120   108.8980     2.5090     0.0300   -26.6000     8.4860    10.4710    11.5370
 1935.0000     8.5150   109.0640     2.5010     0.0250   -26.7330     8.4420    10.6150    12.1780
 1935.5000     8.5180   109.2300     2.4940     0.0200   -26.7990     8.4240    10.6150    12.9080
 1936.0000     8.5210   109.3950     2.5010     0.0150   -26.7800     8.4900    10.5360    13.6390
 1936.5000     8.5230   109.5600     2.5080     0.0140   -26.7620     8.5530    10.4120    14.0090
 1937.0000     8.5260   109.7400     2.5030     0.0180   -26.7440     8.6170    10.2880    13.6190
