~VERSION INFORMATION
 VERS.                2.0:   CWLS LOG ASCII STANDARD - VERSION 2.0
 WRAP.                 NO:   ONE LINE PER DEPTH STEP
~WELL INFORMATION
#MNEM.UNIT      DATA TYPE    INFORMATION
#----------   ------------   ------------------------------
 STRT.F           54.0000:   START DEPTH
 STOP.F         5201.0000:   STOP DEPTH
 STEP.F            0.5000:   STEP LENGTH
 NULL.          -999.2500:   NO VALUE
 COMP.   TESORO PETROLEUM:   COMPANY
 WELL. TESORO DX NPR-3 #51-26:   WELL
 FLD .        TEAPOT DOME:   FIELD
 LOC .      S26 T38N R78W:   LOCATION
 CNTY.            NATRONA:   COUNTY
 STAT.            WYOMING:   STATE
 CTRY. UNITED STATES OF AMERICA:   COUNTRY
 SRVC.      DRESSER ATLAS:   SERVICE COMPANY
 DATE.        27-AUG-1976:   LOGDATE
 API .     49025102680000:   API NUMBER
~CURVE INFORMATION
#MNEM.UNIT       API CODE    CURVE DESCRIPTION
#----------   ------------   ------------------------------
 DEPT.F                  :   
 GRD .GAPI   45 310 01 00:   GAMMA RAY FROM DENSITY LOG
 CALD.IN     45 280 60 00:   CALIPER FROM DENSITY LOG
 CORR.G/C3   45 356 01 00:   DENSITY CORRECTION
 RHOB.G/C3   45 350 01 00:   BULK DENSITY
 SPR .MV     07 010 01 00:   SPONTANEOUS POTENTIAL
 ILD .OHMM   07 120 46 00:   DEEP INDUCTION RESISTIVITY
 ILM .OHMM   07 120 44 00:   INDUCTION LOG MEDIUM RESISTIVITY
 RFOC.OHMM   07 220 04 00:   RESISTIVITY FOCUSED LOG RES.
 TEND.LBS    45 635 01 00:   TENSION FORM DENSITY LOG
 NPHI.DEC    42 890 03 00:   NEUTRON POROSITY SANDSTONE
~PARAMETER INFORMATION
#MNEM.UNIT          VALUE    DESCRIPTION
#----------   ------------   ------------------------------
 EKB .F         5453.5000:   Kelly bushing
 EGL .F         5442.0000:   Ground level
 EDF .F         5452.0000:   Drilling floor
 EPD .F            0.0000:   Permanent datum
 TD  .F         5193.0000:   Total depth
 CLNT.            A2DTECH:   Client Code
 SL  . 2000' FEL & 600' FNL:   Surface Location
 PD  .                 GL:   Permanent Datum
 DAPD.F              11.5:   Feet Above Permanent Datum
 DATE.        27-AUG-1976:   Date Logged [DD-MMM-YYYY]
 DD  .F              5193:   Depth driller
 DL  .F              5193:   Depth logger
 BLI .F              5191:   Bottom log interval
 TLI .F              1726:   Top log interval
 CS1 .IN            8.625:   Casing size
 CBD1.     8.625" @ 1724':   Casing driller 1
 CBL1.F              1726:   Casing logger 1
 BS1 .IN            7.875:   Bit size
 BSD1.F              5193:   Depth drilled with bit1
 DFT .           CHEM GEL:   Type fluid in hole
 DFD .                9.2:   Density
 DFV .                 65:   Viscosity
 DFPH.                 10:   pH
 DFL .                5.8:   Fluid loss
 MSS .           FLOWLINE:   Source of sample
 RMS .OHMM           1.70:   Rm
 MST .F                71:   Rm Meas. temp.
 RMF .OHMM              1:   Rmf
 MFST.F                68:   Rmf Meas. temp.
 MFSS.               MEAS:   Source Rmf.
 RMC .OHMM           1.30:   Rmc
 MCST.F                66:   Rmc Meas. temp.
 MCSS.               MEAS:   Source Rmc.
 RMB .OHMM           0.85:   Rm. at BHT
 BHT .F               142:   BHT.
 TCS .HRS               6:   Time Circ. stopped
 MRT .F               142:   Maximum recorded temp.
 LUN .               6145:   Logging unit number
 LUL .              GLTTE:   Logging unit location
 ENGI.        GOULD-HOYER:   Recorded By
 WITN.        WOLF-CARTER:   Witnessed by
 ORIG.           5" PRINT:   Origin of data
 UWI .     49025102680000:   Unique Well ID
 DICO. A2D TECHNOLOGIES, INC.:   Digitizing Company
~OTHER INFORMATION
~A   DEPT      GRD       CALD       CORR       RHOB        SPR         ILD        ILM      RFOC       TEND       NPHI   
# ...
 4710.5000    91.6169     7.9814     0.0827     2.4561   -37.5711     5.9359     6.5876     7.0653    33.5832     0.1776
 4711.0000    89.7577     7.9692     0.0874     2.4299   -37.3874     6.2349     6.8244     6.9715    40.1971     0.1839
 4711.5000    89.0806     7.9421     0.0966     2.4142   -37.2001     7.1156     7.0696     7.5799    31.6142     0.1893
 4712.0000    90.0784     7.9290     0.1102     2.4339   -37.0136     7.2200     7.4254     9.5269    23.2497     0.1958
 4712.5000    93.9403     7.9166     0.0924     2.4264   -36.8270     7.0770     7.7990     8.3024    14.8843     0.1978
 4713.0000    95.6728     7.9346     0.0745     2.3972   -36.6387     6.7944     8.0239     7.7526    21.5114     0.1900
 4713.5000    98.3510     7.9371     0.0506     2.2965   -36.4679     5.8399     7.8132     8.6643    95.6048     0.1990
 4714.0000   120.1033     7.9994     0.0297     2.1786   -36.2014     4.7694     6.5355    16.9387    72.2468     0.2209
 4714.5000   138.0547     8.3532     0.0254     2.1606   -36.1828     3.8900     4.6006    15.5019     0.0000     0.2386
 4715.0000   152.6629     8.7768     0.0270     2.1998   -36.0231     3.6834     3.8749    10.1766     0.0000     0.2452
 4715.5000   150.5546     8.7991     0.0362     2.2697   -36.2299     3.4878     3.9049     3.7133    24.4444     0.2160
 4716.0000   127.9090     8.0249     0.0454     2.5166   -36.3448     3.3019     4.3341     2.9174    61.2740     0.2003
 4716.5000   111.9499     7.8929     0.0395     2.5009   -36.6053     3.5909     4.7775     3.2830    22.7061     0.2252
 4717.0000   107.9312     7.8954     0.0336     2.4829   -36.8525     3.7980     5.2662     8.4068     0.0000     0.2357
 4717.5000   109.8827     7.8979     0.0277     2.4612   -37.1397     3.9345     5.4985    18.2381    43.4565     0.2284
 4718.0000   118.5206     7.9004     0.0399     2.4538   -37.2700     4.7129     5.7439    16.1150    50.0836     0.2317
 4718.5000   125.0094     7.9626     0.0401     2.4524   -37.1849     5.8958     6.1032     9.8636    11.5157     0.2389
 4719.0000   128.1837     7.9502     0.0387     2.4501   -37.2054     6.4145     6.4103     9.4009     3.3678     0.2431
 4719.5000   133.4495     7.9159     0.0374     2.4368   -37.2029     6.6294     6.7330     8.2037    54.7550     0.2406
 4720.0000   126.8142     7.9103     0.0360     2.4158   -37.2038     6.7267     7.0232     6.9543    91.3671     0.2400
 4720.5000   125.6509     7.9129     0.0407     2.4136   -37.2044     6.4582     7.0761     7.1043    83.0017     0.2378
 4721.0000   126.8961     7.9154     0.0454     2.4273   -37.1486     6.2433     6.9729     7.9946    67.1400     0.2339
 4721.5000   125.2654     7.9334     0.0470     2.4334   -36.8146     6.1463     6.9436     8.2236    36.1297     0.2284
 4722.0000   124.1124     7.9807     0.0473     2.4192   -36.3956     6.0818     6.9975     7.8399    11.7052     0.2263
 4722.5000   124.8698     7.9981     0.0518     2.4178   -36.4026     6.0446     7.0032     8.5230    79.3084     0.2319
 4723.0000   130.1645     7.9850     0.0565     2.4383   -36.1973     6.0491     6.9619     9.5250   131.1297     0.2367
 4723.5000   130.4340     7.9879     0.0596     2.4586   -36.2169     6.0537     6.6390     8.1401    55.0814     0.2307
 4724.0000   129.5284     7.9906     0.0613     2.4707   -36.2925     6.0591     6.2876     7.1839    24.2272     0.2309
 4724.5000   132.9143     7.9780     0.0584     2.4663   -36.2067     6.0636     6.1214     7.7571    30.8843     0.2276
 4725.0000   133.1940     7.9656     0.0495     2.4483   -36.4459     5.9026     5.8779     7.3444    29.9852     0.2197
 4725.5000   130.0742     7.8636     0.0388     2.4108   -36.6050     5.5890     5.3780     6.8110    29.1160     0.2121
 4726.0000   127.7470     7.7913     0.0363     2.3823   -36.7729     5.2557     4.9890     7.7712    80.5031     0.2165
 4726.5000   139.2973     7.7789     0.0395     2.3794   -36.9389     4.9423     4.7249    12.1003   102.3403     0.2315
 4727.0000   149.3681     7.7896     0.0457     2.3961   -37.1051     4.7449     4.5342    13.5456    93.7574     0.2439
 4727.5000   158.7225     7.8144     0.0518     2.4488   -37.2702     4.5196     4.7993    10.5375    70.3995     0.2634
 4728.0000   150.6441     7.8468     0.0399     2.4729   -37.3902     4.0963     5.4008     8.2116   114.5078     0.2559
 4728.5000   117.2523     7.8791     0.0431     2.4625   -37.3121     4.2878     5.7913     3.8790    98.6462     0.2326
 4729.0000   103.4425     7.8963     0.0493     2.4566   -37.2380     4.9959     6.1248     5.1178    74.3826     0.2374
 4729.5000   101.3239     7.8835     0.0554     2.4537   -37.1640     4.9301     6.2149    14.6373    44.2166     0.2386
 4730.0000   110.4498     7.8714     0.0661     2.4447   -37.0950     4.8997     6.0913    20.4029    28.3558     0.2430
 4730.5000   118.6102     7.8740     0.0737     2.4396   -37.0317     5.1120     6.0553    10.8132    12.4942     0.2382
 4731.0000   118.4124     7.8765     0.0814     2.4389   -36.7619     5.6358     6.0604     6.8103    19.1213     0.2312
 4731.5000   115.4168     7.8941     0.0890     2.4383   -36.6760     6.0437     6.1945     5.8131    48.2371     0.2271
 4732.0000   107.9021     7.9115     0.0952     2.4135   -36.6122     6.3940     6.5785     6.0750    47.3680     0.2242
 4732.5000   102.3067     7.9439     0.0999     2.4016   -36.7574     6.5448     7.2702     7.4565    46.4768     0.2296
 4733.0000    99.0044     7.9116     0.1015     2.4145   -36.8030     6.7670     7.7957     9.5130    45.4122     0.2271
 4733.5000    97.6125     7.8568     0.0987     2.4281   -36.5901     6.9620     8.3018    11.3920    37.0468     0.2283
 4734.0000    97.4045     7.8320     0.0613     2.3963   -36.5061     7.0641     8.1947    12.7314    28.6814     0.2352
 4734.5000   107.2467     7.8196     0.0509     2.3794   -36.6249     7.2176     7.6545    12.3918    20.3160     0.2382
 4735.0000   118.7503     7.8224     0.0601     2.3863   -36.8063     7.2229     7.3501    10.3604    11.9506     0.2363
 4735.5000   123.5675     7.8399     0.0678     2.3992   -37.0170     6.9826     7.0092     8.9048    33.5702     0.2308
 4736.0000   128.3846     7.8567     0.0694     2.4248   -37.2198     6.3871     6.7770     6.9480    85.1748     0.2191
 4736.5000   130.0937     7.8148     0.0695     2.4430   -37.5512     6.3931     6.7939     5.9307    54.1031     0.2121
 4737.0000   122.9808     7.8025     0.0697     2.4483   -37.7491     6.5761     7.6341     6.5961     8.4740     0.2151
 4737.5000   115.3800     7.8199     0.0758     2.4507   -37.5149     6.1849     8.3572    12.5250    97.3424     0.2223
 4738.0000   111.5898     7.8224     0.0880     2.4589   -37.2399     5.4651     7.8064    23.6652   111.6832     0.2379
 4738.5000   121.6708     7.8262     0.0956     2.4448   -37.0462     4.6328     6.3084    30.1578    35.6340     0.2537
 4739.0000   141.2939     7.9222     0.0973     2.4164   -36.7784     4.1221     4.7580    23.8582    32.9615     0.2726
 4739.5000   158.7677     7.9800     0.0945     2.3834   -36.5840     3.4703     3.6134    15.3409   170.5224     0.2768
 4740.0000   175.2863     7.9077     0.0856     2.3744   -36.3802     3.0877     3.0857     3.3109   107.7725     0.2494
 4740.5000   199.4467     7.8947     0.0797     2.3843   -36.1720     2.6723     2.5457     2.9254    46.9333     0.2379
 4741.0000   191.3682     7.8978     0.0769     2.3867   -35.9694     2.1718     2.2588     3.3253    16.2958     0.2364
 4741.5000   170.6331     7.9451     0.0740     2.3960   -35.8288     1.9572     1.9758     6.0308    30.4191     0.2466
 4742.0000   171.5649     7.9775     0.0652     2.4079   -35.6215     1.9352     1.9365     4.7545    36.8296     0.2387
 4742.5000   177.1628     7.9800     0.0533     2.4245   -35.6361     2.0613     2.1647     2.8928    28.4642     0.2278
 4743.0000   159.7778     7.9675     0.0445     2.4370   -35.6166     2.3042     2.5742     2.9551    27.5863     0.2046
 4743.5000   134.0243     7.9407     0.0416     2.4453   -35.5983     2.7034     3.4900     3.5881    34.2222     0.1977
