~VERSION INFORMATION
 VERS.                2.0:   CWLS LOG ASCII STANDARD - VERSION 2.0
 WRAP.                 NO:   ONE LINE PER DEPTH STEP
~WELL INFORMATION
#MNEM.UNIT      DATA TYPE    INFORMATION
#----------   ------------   ------------------------------
 STRT.F          290.0000:   START DEPTH
 STOP.F         2884.0000:   STOP DEPTH
 STEP.F            0.5000:   STEP LENGTH
 NULL.          -999.2500:   NO VALUE
 COMP.   FENNIX & SCISSON:   COMPANY
 WELL. FENIX & SCISSON AX #22-28:   WELL
 FLD .             NPR #3:   FIELD
 LOC .      S28 T39N R78W:   LOCATION
 CNTY.            NATRONA:   COUNTY
 STAT.            WYOMING:   STATE
 CTRY. UNITED STATES OF AMERICA:   COUNTRY
 SRVC.              WELEX:   SERVICE COMPANY
 DATE.        29-DEC-1979:   LOGDATE
 API .     49025107930000:   API NUMBER
~CURVE INFORMATION
#MNEM.UNIT       API CODE    CURVE DESCRIPTION
#----------   ------------   ------------------------------
 DEPT.F                  :   
 GRD .GAPI   45 310 01 00:   GAMMA RAY FROM DENSITY LOG
 CALD.IN     45 280 60 00:   CALIPER FROM DENSITY LOG
 CORR.G/C3   45 356 01 00:   DENSITY CORRECTION
 RHOB.G/C3   45 350 01 00:   BULK DENSITY
 NPHI.DEC    42 890 03 00:   NEUTRON POROSITY SANDSTONE
 SPR .MV     07 010 01 00:   SPONTANEOUS POTENTIAL
 TENR.LBS    07 635 01 00:   TENSION FROM RESISTIVITY
 ILD .OHMM   07 120 46 00:   DEEP INDUCTION RESISTIVITY
 ILM .OHMM   07 120 44 00:   INDUCTION LOG MEDIUM RESISTIVITY
 SGRD.OHMM   07 220 08 00:   LATEROLOG-8 RES.
~PARAMETER INFORMATION
#MNEM.UNIT          VALUE    DESCRIPTION
#----------   ------------   ------------------------------
 EKB .F         4988.0000:   Kelly bushing
 EGL .F         4978.0000:   Ground level
 EPD .F         4978.0000:   Permanent datum
 TD  .F         2872.0000:   Total depth
 CLNT.            A2DTECH:   Client Code
 SL  . 803' FNL & 938' FWL:   Surface Location
 DATE.        29-DEC-1979:   Date Logged [DD-MMM-YYYY]
 DD  .F              2868:   Depth driller
 DL  .F              2872:   Depth logger
 BLI .F              2870:   Bottom log interval
 TLI .F               300:   Top log interval
 CS1 .              8.625:   Casing size
 CBD1.      8.625" @ 318':   Casing driller 1
 CBL1.IN              318:   Casing logger 1
 BS1 .IN            7.875:   Bit size
 BSD1.F              2868:   Depth drilled with bit1
 DFT .          GEL-BENEX:   Type fluid in hole
 DFD .                8.8:   Density
 TCS .HRS              10:   Time Circ. stopped
 MRT .F               109:   Maximum recorded temp.
 ENGI.               REIN:   Recorded By
 WITN.          MR. AMEND:   Witnessed by
 ORIG.      2.5" 5" PRINT:   Origin of data
 UWI .     49025107930000:   Unique Well ID
 DICO. A2D TECHNOLOGIES, INC.:   Digitizing Company
 PD  .                 GL:   Permanent Datum
 LMF .                 KB:   Log Measured From
 DMF .                 KB:   Drilling Measured From
~OTHER INFORMATION
~A   DEPT       GRD        CALD     CORR         RHOB       NPHI      SPR       TENR        ILD        ILM       SGRD   
# ...
 2501.0000    88.8216     8.9659     0.0445     2.4796     0.1383   -69.1305  1834.5206    18.9103    18.5608    18.9434
 2501.5000    87.3613     8.9364     0.0461     2.4797     0.1360   -69.1261  1826.9006    17.9376    17.5769    18.6907
 2502.0000    83.1957     8.9378     0.0478     2.4805     0.1323   -68.8249  1819.2806    17.6976    18.5710    17.6985
 2502.5000    77.5308     8.9234     0.0494     2.4852     0.1319   -68.8205  1814.2396    19.3550    21.0109    17.9476
 2503.0000    73.5893     8.9251     0.0495     2.4930     0.1307   -68.5193  1814.7330    22.5788    23.1296    19.2260
 2503.5000    69.3995     8.9264     0.0433     2.4970     0.1288   -68.5149  1815.2263    26.0611    25.1159    21.7560
 2504.0000    65.2098     8.9278     0.0278     2.5002     0.1322   -68.0990  1815.7197    28.3105    27.6485    42.0158
 2504.5000    61.4855     8.9446     0.0155     2.4979     0.1433   -67.9124  1816.2131    26.6995    27.9894    54.5289
 2505.0000    64.7891     8.9614     0.0124     2.5046     0.1566   -67.6113  1816.7065    22.4992    22.5297    48.8796
 2505.5000    81.1076     8.9782     0.0211     2.5151     0.1684   -67.3101  1817.1998    19.1379    18.6065    29.0440
 2506.0000    94.2476     9.0108     0.0344     2.5237     0.1723   -66.7122  1817.6932    16.2302    16.0105    20.6237
 2506.5000    98.9871     9.0430     0.0267     2.5323     0.1667   -66.4110  1818.1866    13.6109    13.7767    17.0275
 2507.0000   102.1598     9.1061     0.0174     2.5386     0.1676   -66.2798  1818.6801    11.3325    11.5344    14.2525
 2507.5000   100.0965     9.1692     0.0237     2.5449     0.1651   -65.9767  1819.1735    10.4179    10.8859    12.6019
 2508.0000    97.4335     9.2323     0.0331     2.5488     0.1617   -65.5074  1819.6667    10.1996    10.7775    12.0976
 2508.5000    96.2697     9.2799     0.0379     2.5474     0.1591   -65.5030  1820.1602     9.9254    10.3464    11.6135
 2509.0000    96.3053     9.2967     0.0193     2.5288     0.1565   -65.4985  1820.6536     9.8548    10.2086    11.3025
 2509.5000    96.6408     9.2981     0.0023     2.5048     0.1550   -65.4941  1821.1470    10.0591    10.2117    11.0000
 2510.0000    97.5760     9.2995    -0.0117     2.4933     0.1563   -65.3512  1821.6403    10.2741    10.0756    11.0030
 2510.5000    99.1108     9.3008    -0.0179     2.4988     0.1599   -65.1885  1822.1337    10.3466    10.0784    11.3119
 2511.0000   100.6457     9.3176    -0.0052     2.5089     0.1615   -65.1839  1822.6271    10.4938     9.9438    11.4711
 2511.5000   102.4804     9.3344     0.0010     2.5082     0.1611   -65.3240  1823.1205    10.2119     9.9468    11.4743
 2512.0000   103.1069     9.3526     0.0045     2.5160     0.1611   -65.4718  1823.6139     9.8711     9.9495    11.3212
 2512.5000    98.0539     9.3706     0.0152     2.5262     0.1620   -65.4674  1824.1072     9.8738     9.9523    10.4303
 2513.0000    95.6908     9.4160     0.0324     2.5332     0.1638   -65.4629  1824.6006     9.9484    10.0922    10.1511
 2513.5000    97.5255     9.4328     0.0464     2.5395     0.1687   -65.4585  1825.0940    10.2288    10.0949    10.5801
 2514.0000    99.9599     9.4650     0.0442     2.5380     0.1709   -65.4540  1825.5874    10.4522    10.2368    11.4900
 2514.5000    99.3958     9.4818     0.0354     2.5341     0.1693   -65.4495  1826.0808    10.7318    10.3807    11.8126
 2515.0000    98.2309     9.4986     0.0266     2.5327     0.1683   -65.4451  1826.5741    10.8829    10.6717    11.6550
 2515.5000    98.8674     9.5154     0.0178     2.5383     0.1683   -65.4407  1827.0675    10.8020    10.9708    11.1886
 2516.0000   100.4023     9.5476     0.0131     2.5445     0.1698   -65.4362  1827.5609    10.6568    11.1250    10.8890
 2516.5000   101.6373     9.5644     0.0148     2.5469     0.1723   -65.4318  1828.0543    10.3108    10.9765    11.1947
 2517.0000   103.1890     9.5812     0.0164     2.5447     0.1719   -65.4273  1828.5476    10.0113    10.6833    11.3523
 2517.5000   104.7071     9.6135     0.0165     2.5378     0.1669   -65.4229  1829.0410     9.7661    10.3977    11.3554
 2518.0000   100.7178     9.6457     0.0166     2.5331     0.1647   -65.4184  1829.5344     9.6363    10.2592    11.2039
 2518.5000    96.8958     9.6787     0.0151     2.5309     0.1622   -65.7107  1830.0278     9.5077     9.9849    10.9040
 2519.0000    97.7315     9.6947     0.0137     2.5263     0.1599   -65.7062  1830.5212     9.5103     9.8517    10.9070
 2519.5000   100.3607     9.7273     0.0091     2.5202     0.1580   -65.7018  1831.0145     9.6442     9.7204    11.8451
 2520.0000   100.0965     9.7441     0.0045     2.5226     0.1562   -65.6964  1831.5079     9.6468     9.7233    12.3457
 2520.5000    98.3330     9.7763     0.0030     2.5273     0.1568   -65.6920  1832.0013     9.5176     9.7260    11.8516
 2521.0000    97.1692     9.8240     0.0094     2.5328     0.1571   -65.6876  1832.4948     9.3906     9.7286    10.9190
 2521.5000    96.3053     9.8562     0.0110     2.5336     0.1548   -65.6831  1831.7240     9.3937     9.7313    12.0217
 2522.0000    95.7323     9.8884     0.0111     2.5275     0.1542   -65.3820  1830.3916     9.2679     9.7339    12.3592
 2522.5000    95.4681     9.9207     0.0112     2.5268     0.1542   -65.3775  1829.0593     9.2709     9.7366    11.8646
 2523.0000    95.8125     9.9529     0.0160     2.5308     0.1535   -65.3731  1827.7269     9.4014     9.7392    11.0818
 2523.5000    96.1480     9.9542     0.0223     2.5347     0.1525   -65.3687  1826.3945     9.4040     9.8761    10.7851
 2524.0000    96.4834     9.9556     0.0319     2.5332     0.1516   -65.3642  1825.0623     9.5892     9.8788    11.5533
 2524.5000    97.4186     9.9819     0.0315     2.5285     0.1543   -65.6565  1823.7299     9.7461    10.0177    11.7422
 2525.0000    98.6537    10.0092     0.0223     2.5288     0.1583   -65.6521  1822.3975     9.9029    10.2985    11.5331
 2525.5000    99.5888    10.0364     0.0195     2.5319     0.1626   -65.3509  1821.0652    10.0820    10.4432    12.0482
 2526.0000   100.5240    10.0637     0.0165     2.5180     0.1682   -65.3465  1819.7328    10.2239    10.4461    11.4086
 2526.5000   100.8595    10.0933     0.0104     2.5219     0.1731   -65.3420  1818.4004    10.2267    10.4490    11.1028
 2527.0000    98.7962    10.0945     0.0012     2.5305     0.1793   -65.3376  1817.0681    10.6589    10.5958    11.0788
 2527.5000    97.0327    10.1266     0.0044     2.5423     0.1836   -65.3332  1815.7357    10.6618    10.5987    11.5755
 2528.0000    98.8674    10.1433     0.0138     2.5501     0.1851   -65.3287  1814.4033    10.3764    10.4575    12.0647
 2528.5000   102.5012    10.1599     0.0108     2.5470     0.1870   -65.0275  1813.0710    10.2379    10.4604    12.2346
 2529.0000   101.9372    10.1457     0.0046     2.5487     0.1859   -65.0231  1811.7386     9.8282    10.4632    12.4068
 2529.5000   100.4655    10.1469    -0.0015     2.5557     0.1803   -65.0187  1810.4062     9.3064    10.4661    12.2413
 2530.0000   101.7493    10.1636    -0.0061     2.5620     0.1818   -65.0142  1809.0740     8.8123    10.7594    11.5914
 2530.5000   104.2398    10.1802     0.0018     2.5675     0.1900   -65.0098  1807.7416     8.3445    10.9107    10.6793
 2531.0000   106.6674    10.1969     0.0112     2.5745     0.1998   -65.0054  1806.4092     8.0105    10.9137    10.5365
 2531.5000   109.0691    10.2159     0.0207     2.5785     0.2088   -65.0009  1805.0769     7.6899    10.6219    10.3962
 2532.0000   110.5556    10.2614     0.0285     2.5778     0.2140   -64.9965  1803.7445     7.3822    10.1974     9.4478
 2532.5000   112.9900    10.3089     0.0364     2.5615     0.2093   -64.9921  1802.4121     7.0867     9.3961     8.2399
 2533.0000   114.2251    10.3564     0.0302     2.5539     0.2065   -64.9876  1801.0798     6.7105     7.9752     7.8025
 2533.5000   116.3596    10.4039     0.0222     2.5485     0.2096   -64.9832  1799.7474     6.5308     7.8690     7.3883
 2534.0000   115.7956    10.4514     0.0146     2.5478     0.2102   -64.9788  1798.4150     6.2695     7.8711     7.2895
