~VERSION INFORMATION
 VERS.                2.0:   CWLS LOG ASCII STANDARD - VERSION 2.0
 WRAP.                 NO:   ONE LINE PER DEPTH STEP
~WELL INFORMATION
#MNEM.UNIT      DATA TYPE    INFORMATION
#----------   ------------   ------------------------------
 STRT.F           76.0000:   START DEPTH
 STOP.F         4972.0000:   STOP DEPTH
 STEP.F            0.5000:   STEP LENGTH
 NULL.          -999.2500:   NO VALUE
 COMP.    PENIX & SCISSON:   COMPANY
 WELL. FENIX NPR 3 "LX" #85-9:   WELL
 FLD .                NPR:   FIELD
 LOC .       S9 T38N R78W:   LOCATION
 CNTY.            NATRONA:   COUNTY
 STAT.            WYOMING:   STATE
 CTRY. UNITED STATES OF AMERICA:   COUNTRY
 SRVC.       SCHLUMBERGER:   SERVICE COMPANY
 DATE.        10-OCT-1978:   LOGDATE
 API .     49025107250000:   API NUMBER
~CURVE INFORMATION
#MNEM.UNIT       API CODE    CURVE DESCRIPTION
#----------   ------------   ------------------------------
 DEPT.F                  :   
 TENR.LBS    07 635 01 00:   TENSION FROM RESISTIVITY
 SPR .MV     07 010 01 00:   SPONTANEOUS POTENTIAL
 SFL .OHMM   07 220 01 00:   SHALLOW FOCUSED LOG RESISTIVITY
 ILD .OHMM   07 120 46 00:   DEEP INDUCTION RESISTIVITY
 ILM .OHMM   07 120 44 00:   INDUCTION LOG MEDIUM RESISTIVITY
 CALD.IN     45 280 60 00:   CALIPER FROM DENSITY LOG
 GRD .GAPI   45 310 01 00:   GAMMA RAY FROM DENSITY LOG
 CORR.G/C3   45 356 01 00:   DENSITY CORRECTION
 TEND.LBS    45 635 01 00:   TENSION FROM DENSITY LOG
 RHOB.G/C3   45 350 01 00:   BULK DENSITY
 NPHI.DEC    42 890 03 00:   NEUTRON POROSITY SANDSTONE
~PARAMETER INFORMATION
#MNEM.UNIT          VALUE    DESCRIPTION
#----------   ------------   ------------------------------
 EKB .F         5288.0000:   Kelly bushing
 EGL .F         5278.0000:   Ground level
 EDF .F            0.0000:   Drilling floor
 TD  .F         4950.0000:   Total depth
 DATE.        10-OCT-1978:   Date logged
 CLNT.            A2DTECH:   Client Code
 SL  . 2310' FSL & 230' FEL:   Surface Location
 PD  .                 GL:   Permanent Datum
 EPD .F              5278:   Elevation Permanent Datum
 LMF .                 KB:   Log Measured From
 DMF .                 KB:   Drilling Measured From
 DAPD.F                10:   Feet Above Permanent Datum
 DD  .F              4950:   Depth driller
 DL  .F              4950:   Depth logger
 BLI .F              4947:   Bottom log interval
 TLI .F               499:   Top log interval
 CS1 .IN            8.625:   Casing size
 CBD1.      8.625" @ 489':   Casing driller 1
 CBL1.F               499:   Casing logger 1
 BS1 .IN            7.875:   Bit size
 BSD1.F              4950:   Depth drilled with bit1
 DFT .            GEL/MUD:   Type fluid in hole
 DFD .                9.3:   Density
 DFV .                175:   Viscosity
 DFPH.                 12:   pH
 DFL .                  4:   Fluid loss
 MSS .               TANK:   Source of sample
 RMS .OHMM           .600:   Rm
 MST .F                71:   Rm Meas. temp.
 RMF .OHMM           .804:   Rmf
 MFST.F                71:   Rmf Meas. temp.
 MFSS.               MEAS:   Source Rmf.
 RMB .OHMM           .308:   Rm. at BHT
 BHT .F               138:   BHT.
 TCS .HRS            1200:   Time Circ. stopped
 TLAB.HRS            0330:   Time logger at bottom
 MRT .F               138:   Maximum recorded temp.
 LUN .               8035:   Logging unit number
 LUL .               CSPR:   Logging unit location
 ENGI.        CRAIG/DFARR:   Recorded By
 WITN.              AMEND:   Witnessed by
 ORIG.           5" PRINT:   Origin of data
 UWI .     49025107250000:   Unique Well ID
 DICO. A2D TECHNOLOGIES, INC.:   Digitizing Company
~OTHER INFORMATION
~A   DEPT     TENR        SPR        SFL        ILD        ILM       CALD         GRD      CORR       TEND       RHOB         NPHI 
# ...
 3461.5000  1615.5250   -19.4880     9.2810     9.2570     9.1830    11.0440   109.3790     0.0790  1808.9430     2.5270     0.2090
 3462.0000  1615.7300   -19.0480     9.9780     9.2260     9.2260    11.0230   106.9720     0.0510  1808.9430     2.5120     0.2060
 3462.5000  1615.9340   -18.6050    10.6750     9.6470     9.5570    11.0010    93.0950     0.0230  1808.9430     2.4970     0.1920
 3463.0000  1616.1379   -18.0950    11.3720     9.9990     9.8340    10.9810    87.0700     0.0100  1808.9430     2.5030     0.1770
 3463.5000  1616.3420   -17.9830    12.0680    10.3500    10.1100    10.9610    85.6250     0.0110  1808.9430     2.5170     0.1630
 3464.0000  1616.5470   -17.8630    12.9050    10.7020    10.3860    10.9640    85.9260     0.0100  1808.9430     2.5350     0.1480
 3464.5000  1616.7510   -17.7880    12.7880    11.0530    10.6630    10.9670    85.9530     0.0170  1808.9430     2.5520     0.1380
 3465.0000  1616.9550   -17.6720    12.4950    11.4050    10.9390    10.9720    86.0300     0.0280  1808.9430     2.5700     0.1400
 3465.5000  1617.1591   -17.9850    12.2030    11.7560    11.3260    10.9750    86.1520     0.0400  1808.9430     2.5810     0.1430
 3466.0000  1617.3640   -18.3980    12.6280    11.7560    11.0290    10.9790    86.1870     0.0400  1808.9430     2.5760     0.1460
 3466.5000  1617.5680   -18.8220    13.0540    11.2490    10.5340    10.9830    86.3480     0.0290  1808.9430     2.5670     0.1480
 3467.0000  1617.7720   -19.2250    13.2710    10.8100     9.9400    10.9870    87.1140     0.0220  1808.9430     2.5710     0.1490
 3467.5000  1617.9771   -19.6260    12.2010    10.2110     9.5270    10.9900    92.0670     0.0240  1808.9430     2.5830     0.1520
 3468.0000  1618.1810   -19.7300    11.0180     9.5880     9.0120    10.9940    98.9190     0.0250  1808.9430     2.5900     0.1620
 3468.5000  1618.3850   -19.8280     9.8350     8.9650     8.4960    10.9990   108.6670     0.0260  1808.9430     2.5870     0.1780
 3469.0000  1618.5890   -19.9120     8.8880     8.3420     7.9810    10.9970   117.8630     0.0260  1808.9430     2.5750     0.1930
 3469.5000  1618.7939   -20.0050     8.0930     7.7200     7.4650    11.0280   128.6810     0.0260  1808.9430     2.5630     0.2090
 3470.0000  1618.9980   -20.0960     7.4300     7.0970     6.8460    11.0820   131.8720     0.0250  1808.9430     2.5520     0.2250
 3470.5000  1619.2020   -20.1820     6.7670     6.4740     6.8900    11.1320   136.7370     0.0330  1808.9430     2.5480     0.2400
 3471.0000  1619.4060   -20.2800     6.2370     6.4140     7.0010    11.1840   135.5100     0.0490  1808.9430     2.5430     0.2560
 3471.5000  1619.6110   -20.3630     6.5640     6.3540     7.1110    11.1870   130.1920     0.0530  1808.9430     2.5400     0.2590
 3472.0000  1619.8149   -20.4070     6.8370     6.7170     7.2220    11.1610   123.6310     0.0530  1808.9430     2.5410     0.2600
 3472.5000  1620.0190   -20.0600     7.1100     7.0790     7.3320    11.1390   121.9990     0.0510  1808.9430     2.5460     0.2400
 3473.0000  1620.2230   -19.7740     7.3830     7.4420     7.5210    11.1170   122.8010     0.0420  1808.9430     2.5500     0.2190
 3473.5000  1620.4280   -19.4530     7.6560     7.8040     7.7620    11.0940   123.9560     0.0330  1808.9430     2.5450     0.2190
 3474.0000  1620.6320   -19.1580     8.4060     8.1670     8.0020    11.0720   122.3010     0.0230  1808.9430     2.5390     0.2190
 3474.5000  1620.8361   -18.8650     9.1560     8.5290     8.2430    11.0480   110.9760     0.0160  1808.9430     2.5400     0.2110
 3475.0000  1621.0400   -18.8500     9.7560     8.8920     8.4840    11.0410    99.4420     0.0150  1808.9430     2.5460     0.1920
 3475.5000  1621.2450   -18.8510    11.3260     9.2540     8.7250    11.0470    95.4990     0.0140  1808.9430     2.5500     0.1720
 3476.0000  1621.4490   -18.8390    11.3260     9.5340     8.9660    11.0510    94.9510     0.0130  1808.9430     2.5520     0.1580
 3476.5000  1621.6530   -18.8570    10.8490     9.7600     9.2070    11.0560    97.2280     0.0120  1808.9430     2.5540     0.1610
 3477.0000  1621.8571   -18.8990    10.4510     9.9400     9.3990    11.0610    99.9920     0.0140  1808.9430     2.5560     0.1690
 3477.5000  1622.0620   -19.5420    10.0530     9.6450     9.1970    11.0650   102.9180     0.0210  1808.9430     2.5570     0.1770
 3478.0000  1622.2660   -20.1190     9.5760     9.3990     9.0280    11.0690   104.5360     0.0230  1808.9430     2.5530     0.1850
 3478.5000  1622.4700   -20.4700     9.3990     9.0550     8.8590    11.0740   103.2750     0.0250  1808.9430     2.5520     0.1930
 3479.0000  1622.6750   -20.4290     9.2260     9.1110     8.7240    11.0780   101.3630     0.0270  1808.9430     2.5530     0.2020
 3479.5000  1622.8790   -20.4370     9.5630     9.2040     8.8000    11.0830   100.0500     0.0280  1808.9430     2.5550     0.2020
 3480.0000  1623.0830   -20.4400     9.9840     9.2970     8.8640    11.0880   100.3690     0.0300  1808.9430     2.5570     0.2010
 3480.5000  1623.2870   -20.4350    10.4060     9.3900     8.9280    11.0920   100.4690     0.0310  1808.9430     2.5580     0.1950
 3481.0000  1623.4919   -20.4420    10.9110     9.4830     8.9920    11.0970   100.6550     0.0320  1808.9430     2.5600     0.1880
 3481.5000  1623.6960   -20.3900    10.9110     9.5760     9.0550    11.1010   100.7390     0.0270  1808.9430     2.5570     0.1820
 3482.0000  1623.9000   -20.2630    11.1170     8.8890     8.5310    11.1050   102.5910     0.0230  1808.9430     2.5480     0.1790
 3482.5000  1624.1040   -20.1380    10.9110     8.2010     8.0060    11.1110   104.9320     0.0300  1808.9430     2.5450     0.1780
 3483.0000  1624.3090   -20.0180     8.8880     7.3760     7.3760    11.1140   107.2560     0.0540  1808.9430     2.5440     0.1930
 3483.5000  1624.5129   -19.8900     8.1320     7.3080     7.3760    11.1180   109.8320     0.0780  1808.9430     2.5390     0.2060
 3484.0000  1624.7170   -19.7600     7.3760     7.2400     7.7960    11.0770   110.0420     0.0850  1808.9430     2.5250     0.2190
 3484.5000  1624.9210   -19.6770     8.6230     8.7240     8.4960    11.0290   107.8210     0.0520  1808.9430     2.5190     0.2150
 3485.0000  1625.1260   -19.3750     9.6620     8.6940     9.5760    10.9800   106.1850     0.0240  1808.9430     2.5420     0.2100
 3485.5000  1625.3300   -18.8380    11.1170     8.6440     9.5260    10.9320   106.8390     0.0300  1808.9430     2.5670     0.2060
 3486.0000  1625.5341   -18.4580    11.0140     8.5940     9.4010    10.8840   107.3760     0.0390  1808.9430     2.5920     0.2090
 3486.5000  1625.7380   -18.4590    10.0210     8.5440     9.2260    10.8360   108.0590     0.0480  1808.9430     2.5950     0.2170
 3487.0000  1625.9430   -18.4480     9.5760     8.4940     9.2480    10.7860   108.7140     0.0440  1808.9430     2.5940     0.2180
 3487.5000  1626.1470   -18.4490     9.5760     8.4440     9.2840    10.7400   109.1740     0.0310  1808.9430     2.5810     0.2180
 3488.0000  1626.3510   -18.4550     9.5760     8.4040     9.3210    10.6850   109.3630     0.0180  1808.9430     2.5620     0.2180
 3488.5000  1626.5551   -18.4670     9.5760     8.5270     9.3570    10.6760   109.5880     0.0050  1808.9430     2.5460     0.2180
 3489.0000  1626.7600   -18.7600     9.5760     8.6280     9.3940    10.6680   109.6590     0.0030  1808.9430     2.5500     0.2180
 3489.5000  1626.9640   -19.0590     9.5760     8.7300     9.4300    10.6620   109.7010     0.0060  1808.9430     2.5540     0.2170
 3490.0000  1627.1680   -19.3690     9.5760     8.8320     9.4670    10.6550   109.1710     0.0080  1808.9430     2.5590     0.2130
 3490.5000  1627.3719   -19.6730    10.0210     8.9330     9.5030    10.6480   107.1940     0.0160  1808.9430     2.5570     0.2080
 3491.0000  1627.5770   -19.9790    10.3920     9.0550     9.5400    10.6410   105.6420     0.0300  1808.9430     2.5590     0.2040
 3491.5000  1627.7810   -20.2840    10.7630     9.1850     9.5760    10.6340   104.5990     0.0430  1808.9430     2.5750     0.2010
