~VERSION INFORMATION
 VERS.                2.0:   CWLS LOG ASCII STANDARD - VERSION 2.0
 WRAP.                 NO:   ONE LINE PER DEPTH STEP
~WELL INFORMATION
#MNEM.UNIT      DATA TYPE    INFORMATION
#----------   ------------   ------------------------------
 STRT.F            3.5000:   START DEPTH
 STOP.F         5648.0000:   STOP DEPTH
 STEP.F            0.5000:   STEP LENGTH
 NULL.          -999.2500:   NO VALUE
 COMP.       FLUOR DANIEL:   COMPANY
 WELL.   FLUOR "X" #46-10:   WELL
 FLD .          N.P.R. #3:   FIELD
 LOC .      S10 T38N R78W:   LOCATION
 CNTY.            NATRONA:   COUNTY
 STAT.            WYOMING:   STATE
 CTRY. UNITED STATES OF AMERICA:   COUNTRY
 SRVC.      WESTERN ATLAS:   SERVICE COMPANY
 DATE.        25-MAR-1996:   LOGDATE
 API .     49025227700000:   API NUMBER
~CURVE INFORMATION
#MNEM.UNIT       API CODE    CURVE DESCRIPTION
#----------   ------------   ------------------------------
 DEPT.F                  :   
 CALD.IN     45 280 60 00:   CALIPER FROM DENSITY LOG
 ZDEN.G/C3   45 350 01 00:   BULK DENSITY
 ZCOR.G/C3   45 356 01 00:   DENSITY CORRECTION
 TEND.LBS    45 635 01 00:   TENSION FORM DENSITY LOG
 GRD .GAPI   45 310 01 00:   GAMMA RAY FROM DENSITY LOG
 CNC .DEC    42 890 01 00:   NEUTRON POROSITY LIMESTONE
 SPR .MV     07 010 01 00:   SPONTANEOUS POTENTIAL
 RD  .OHMM   07 220 10 00:   RESISTIVITY DEEP
 RS  .OHMM   07 220 09 00:   RESISTIVITY SHALLOW
~PARAMETER INFORMATION
#MNEM.UNIT          VALUE    DESCRIPTION
#----------   ------------   ------------------------------
 EKB .F         5216.0000:   Kelly bushing
 EGL .F         5206.0000:   Ground level
 EDF .F         5215.0000:   Drilling floor
 TD  .F         5650.0000:   Total depth
 CLNT.            A2DTECH:   Client Code
 SL  . 1493' FSL & 2330' FWL:   Surface Location
 PD  .                 GL:   Permanent Datum
 EPD .F              5206:   Elevation Permanent Datum
 LMF .                 KB:   Log Measured From
 DMF .                 KB:   Drilling Measured From
 DAPD.F                10:   Feet Above Permanent Datum
 DATE.        25-MAR-1996:   Date Logged [DD-MMM-YYYY]
 DD  .F              5650:   Depth driller
 DL  .F              5648:   Depth logger
 BLI .F              5636:   Bottom log interval
 TLI .F                 0:   Top log interval
 CS1 .IN            9.625:   Casing size
 CBD1.      9.625" @ 498':   Casing driller 1
 CBL1.F               496:   Casing logger 1
 BS1 .IN             8.75:   Bit size
 BSD1.F              5650:   Depth drilled with bit1
 DFT .           CHEM GEL:   Type fluid in hole
 DFD .                9.6:   Density
 DFV .                 54:   Viscosity
 DFPH.                9.5:   pH
 DFL .                8.4:   Fluid loss
 MSS .           FLOWLINE:   Source of sample
 RMS .OHMM          0.635:   Rm
 MST .F                68:   Rm Meas. temp.
 RMF .OHMM          0.483:   Rmf
 MFST.F                68:   Rmf Meas. temp.
 MFSS.               MEAS:   Source Rmf.
 RMC .OHMM          0.789:   Rmc
 MCST.F                68:   Rmc Meas. temp.
 MCSS.               MEAS:   Source Rmc.
 RMB .OHMM           0.26:   Rm. at BHT
 BHT .F               166:   BHT.
 TCS .HRS               6:   Time Circ. stopped
 MRT .F               166:   Maximum recorded temp.
 LUN .            HL-6530:   Logging unit number
 LUL .             CASPER:   Logging unit location
 ENGI.        VERN RAUTIO:   Recorded By
 WITN. LORRAINE LAFRENIERE:   Witnessed by
 ORIG.           5" PRINT:   Origin of data
 UWI .     49025227700000:   Unique Well ID
 DICO. A2D TECHNOLOGIES, INC.:   Digitizing Company
~OTHER INFORMATION
~A  DEPTH     CALD       ZDEN       ZCOR       TEND        GRD        CNC        SPR         RD         RS
# ...
 3872.5000     9.3405     2.6268     0.0213   -18.3745    77.7568     0.2182   -80.1202     9.8499     7.0558
 3873.0000     9.3410     2.6148     0.0108   -35.8566    79.2831     0.2236   -80.1146     9.7926     6.7602
 3873.5000     9.3416     2.6088     0.0048   -45.8167    80.5121     0.2266   -80.1076     9.7258     6.4922
 3874.0000     9.3422     2.6133     0.0109   -55.7769    81.4355     0.2278   -80.1020     9.7941     6.4918
 3874.5000     9.3428     2.6156     0.0140   -65.7371    82.6601     0.2257   -80.3982     9.2025     6.5819
 3875.0000     9.3434     2.6126     0.0154   -75.6972    81.4800     0.2227   -80.3910     9.0763     6.6733
 3875.5000     9.3440     2.6118     0.0124   -65.7371    80.5912     0.2197   -80.3854     9.2701     6.7192
 3876.0000     9.3446     2.6126     0.0109   -65.6533    81.8208     0.2191   -80.3798     9.5953     6.7655
 3876.5000     9.3453     2.6126     0.0172   -65.7180    82.7442     0.2227   -80.5250     9.5297     6.8593
 3877.0000     9.3458     2.6111     0.0290   -65.7371    83.6725     0.2284   -80.3672     9.2057     6.8587
 3877.5000     9.3464     2.6058     0.0305   -65.7371    84.2947     0.2335   -80.3615     9.0169     6.5791
 3878.0000     9.3470     2.6006     0.0245   -65.7371    84.9169     0.2386   -80.3559     8.8934     6.3990
 3878.5000     9.3476     2.5991     0.0168   -65.7371    85.8404     0.2465   -80.3489     8.7715     6.3986
 3879.0000     9.3483     2.6006     0.0095   -65.7371    86.7687     0.2392   -80.4956     8.7115     6.5324
 3879.5000     9.3488     2.6134     0.0065   -65.7371    86.7884     0.2206   -80.4885     8.7728     6.8091
 3880.0000     9.3494     2.6179     0.0065   -65.7371    84.0974     0.2086   -80.6338     9.2095     6.9516
 3880.5000     9.3349     2.6172     0.0081   -60.8566    79.5218     0.2053   -80.6268     9.5349     7.0615
 3881.0000     9.3356     2.6172     0.0141   -65.7371    76.0044     0.1983   -80.6211     9.8037     7.3465
 3881.5000     9.3361     2.6187     0.0186   -75.6972    74.2219     0.1779   -80.4646    10.2206     7.8727
 3882.0000     9.3367     2.6217     0.0141   -75.6972    71.2296     0.1746   -80.6099    12.1548     8.8557
 3882.5000     9.3373     2.6225     0.0066   -75.6972    66.3253     0.1785   -80.4535    13.4873    10.0306
 3883.0000     9.3380     2.6052     0.0036   -75.6972    63.1367     0.1834   -80.5973    12.9159     9.6886
 3883.5000     9.3386     2.5751     0.0081   -75.6972    67.3783     0.1905   -80.2886    10.3661     8.2045
 3884.0000     9.3392     2.5495     0.0848   -85.6574    81.5547     0.2155   -80.2830     8.9953     6.8446
 3884.5000     9.3398     2.5683     0.1209   -85.6574    90.9168     0.2471   -80.0566     8.3055     6.0486
 3885.0000     9.3404     2.5999     0.0593   -75.6972    93.9486     0.2603   -79.9688     8.0788     6.0482
 3885.5000     9.3410     2.6332     0.0353   -65.7371    93.0647     0.2456   -79.9632     7.9681     6.3044
 3886.0000     9.3416     2.6542     0.0263   -85.6574    89.1689     0.2411   -79.9575     9.2813     7.1181
 3886.5000     9.3422     2.6557     0.0263   -85.6574    81.3623     0.2368   -79.9505    10.0869     8.0324
 3887.0000     9.3429     2.6497     0.0263   -75.6972    76.2616     0.2212   -79.9449    10.4433     8.5484
 3887.5000     9.3434     2.6301     0.0233   -65.7371    69.3537     0.2119   -79.9393    10.7375     8.5478
 3888.0000     9.3398     2.5638     0.0233   -65.7371    66.6626     0.2041   -79.9336    10.1591     7.9753
 3888.5000     9.3295     2.5488     0.0654   -75.6972    70.3018     0.2077   -79.9267     9.9507     7.8651
 3889.0000     9.3308     2.5631     0.1090   -75.6972    72.7312     0.2125   -80.0733    10.2313     8.2552
 3889.5000     9.3320     2.6000     0.0835   -75.6972    73.0472     0.2134   -80.0663    11.2744     9.2219
 3890.0000     9.3332     2.6512     0.0384   -77.1912    70.3414     0.2041   -80.0593    11.9658     9.6793
 3890.5000     9.3345     2.6362     0.0429   -85.6574    74.0003     0.1989   -80.2059    11.5526     9.3491
 3891.0000     9.3357     2.6219     0.0730   -85.6574    80.3454     0.2134   -80.1989    10.4129     8.1394
 3891.5000     9.3369     2.6166     0.0745   -75.6972    86.3893     0.2468   -80.1919     9.3856     7.1774
 3892.0000     9.3382     2.6264     0.0715   -65.7371    91.2289     0.2633   -80.1863     8.1652     6.7503
 3892.5000     9.3394     2.6287     0.0715   -55.7769    89.1446     0.2583   -80.1807     8.4007     7.1344
 3893.0000     9.3406     2.6294     0.0730   -55.7769    87.0560     0.2377   -80.3388     9.0020     7.6455
 3893.5000     9.3419     2.6293     0.0791   -75.6972    84.9673     0.2269   -80.6206     9.5138     8.3073
 3894.0000     9.3431     2.6224     0.0821   -85.6574    81.6788     0.2188   -80.9166     9.9165     8.5402
 3894.5000     9.3443     2.6068     0.0806   -85.6574    78.9877     0.2024   -81.2127     9.7794     8.5395
 3895.0000     9.3456     2.5873     0.0761   -95.6175    77.2003     0.1956   -81.2057     9.7113     8.1914
 3895.5000     9.3468     2.5835     0.0746   -95.6175    76.6175     0.1929   -80.8984     9.7107     7.8574
 3896.0000     9.3480     2.6001     0.0746   -95.6175    79.0520     0.1884   -80.5911     9.7773     7.8028
 3896.5000     9.3493     2.6287     0.0626   -95.6175    81.4814     0.1653   -80.1316    10.0511     8.5372
 3897.0000     9.3505     2.6626     0.0491   -95.6175    82.4406     0.1415   -80.1260    12.3692    10.5148
 3897.5000     9.3517     2.6641     0.0446   -85.6574    79.0863     0.1099   -79.9696    19.5662    16.8263
 3898.0000     9.3530     2.6491     0.0476   -85.6574    58.3530     0.0883   -79.8130    25.5760    21.8903
 3898.5000     9.3542     2.6205     0.0477   -85.6574    47.8306     0.0922   -79.5045    24.3650    20.9977
 3899.0000     9.3554     2.5971     0.0522   -75.6972    50.2600     0.1087   -79.3480    20.0720    16.8335
 3899.5000     9.3567     2.5896     0.0552   -65.7371    56.4536     0.1355   -79.1871    14.7543    11.5734
 3900.0000     9.3579     2.5956     0.0347   -74.0601    68.6780     0.1433   -78.8829    13.2499    10.5034
 3900.5000     9.3591     2.5971     0.0057   -91.4719    71.7049     0.1259   -78.7265    13.8107    10.5757
 3901.0000     9.3445     2.5979    -0.0033  -105.5777    62.3923     0.1015   -78.5701    15.6416    12.8376
 3901.5000     9.3151     2.5987     0.0087  -105.5777    56.0930     0.0979   -78.5630    18.0557    17.1662
 3902.0000     9.3308     2.5919     0.0163   -95.6175    47.0753     0.0961   -78.5574    20.0639    18.0165
 3902.5000     9.3464     2.5851     0.0178   -85.6574    44.3843     0.0964   -78.5518    19.5146    18.0142
 3903.0000     9.3469     2.5829     0.0133   -85.6574    44.0497     0.0977   -78.5448    17.9584    17.3983
 3903.5000     9.3422     2.5853     0.0089   -75.6972    50.1517     0.1090   -78.5392    15.3148    15.7887
 3904.0000     9.3383     2.5913     0.0149   -78.6853    55.5931     0.1232   -78.5336    13.8195    13.5558
 3904.5000     9.3343     2.5992     0.0194   -85.6574    63.5490     0.1292   -78.5279    12.9859    11.2422
 3905.0000     9.3304     2.6105     0.0210   -85.6574    67.3217     0.1340   -78.5210    12.6324    11.7991
 3905.5000     9.3264     2.6358     0.0180   -85.6574    68.5408     0.1364   -78.5154    13.2602    12.6435
 3906.0000     9.3225     2.6464     0.0090   -92.6295    68.8564     0.1394   -78.5098    14.3099    13.6602
 3906.5000     9.3185     2.6411     0.0120   -95.6175    69.7743     0.1424   -78.5028    15.4429    14.3179
 3907.0000     9.3146     2.6283     0.0121   -95.6175    70.9940     0.1457   -78.3463    15.6591    14.1191
 3907.5000     9.3117     2.6193     0.0091   -95.6175    73.4211     0.1484   -78.5596    15.2326    13.7284
 3908.0000     9.2975     2.6148     0.0076   -85.6574    76.4475     0.1517   -78.5578    14.3776    12.9895
 3908.5000     9.2835     2.6126     0.0092   -85.6574    80.0763     0.1568   -78.5564    13.2658    11.7878
