~VERSION INFORMATION
 VERS.                2.0:   CWLS LOG ASCII STANDARD - VERSION 2.0
 WRAP.                 NO:   ONE LINE PER DEPTH STEP
~WELL INFORMATION
#MNEM.UNIT      DATA TYPE    INFORMATION
#----------   ------------   ------------------------------
 STRT.F            0.5000:   START DEPTH
 STOP.F         5663.0000:   STOP DEPTH
 STEP.F            0.5000:   STEP LENGTH
 NULL.          -999.2500:   NO VALUE
 COMP.         U. S. NAVY:   COMPANY
 WELL.         US TP #1-3:   WELL
 FLD . TEAPOT NAVAL RESERVE:   FIELD
 LOC .       S3 T38N R78W:   LOCATION
 CNTY.            NATRONA:   COUNTY
 STAT.            WYOMING:   STATE
 CTRY. UNITED STATES OF AMERICA:   COUNTRY
 SRVC.       SCHLUMBERGER:   SERVICE COMPANY
 DATE.        27-FEB-1953:   LOGDATE
 API .     49025064250000:   API NUMBER
~CURVE INFORMATION
#MNEM.UNIT       API CODE    CURVE DESCRIPTION
#----------   ------------   ------------------------------
 DEPT.F                  :   
 SPR .MV     01 010 01 00:   SPONTANEOUS POTENTIAL FROM RES.
 ASN .OHMM   01 041 16 00:   AMPLIFIED SHORT NORMAL 16"
 LAT .OHMM   01 070 00 00:   LATERAL
 LN  .OHMM   01 060 64 00:   LONG NORMAL 64"
 GRN .CPS    35 310 01 00:   GAMMA RAY
 NEUT.NAPI   35 330 01 00:   NEUTRON
~PARAMETER INFORMATION
#MNEM.UNIT          VALUE    DESCRIPTION
#----------   ------------   ------------------------------
 EKB .F            0.0000:   Kelly bushing
 EGL .F            0.0000:   Ground level
 EDF .F            0.0000:   Drilling floor
 EPD .F            0.0000:   Permanent datum
 TD  .F         5653.0000:   Total depth
 DATE.        27-FEB-1953:   Date logged
 CLNT.            A2DTECH:   Client Code
 DD  .F              5653:   Depth driller
 DL  .F              5653:   Depth logger
 BLI .F              5652:   Bottom log interval
 TLI .F               446:   Top log interval
 CBD1.F               445:   Casing driller 1
 CBL1.F               446:   Casing logger 1
 BS1 .IN                9:   Bit size
 BSD1.F              5653:   Depth drilled with bit1
 DFT .          LIMA/BASE:   Type fluid in hole
 DFD .                9.9:   Density
 DFV .                 43:   Viscosity
 RMS .OHMM            1.1:   Rm
 MST .F                55:   Rm Meas. temp.
 RMB .OHMM            .34:   Rm. at BHT
 BHT .F               166:   BHT.
 TCS .HRS               1:   Time Circ. stopped
 MRT .F               166:   Maximum recorded temp.
 LUN .                728:   Logging unit number
 LUL .               CSPR:   Logging unit location
 ENGI.            EVENSON:   Recorded By
 WITN.              MILLS:   Witnessed by
 ORIG.      1" 2.5" PRINT:   Origin of data
 UWI .     49025064250000:   Unique Well ID
 DICO. A2D TECHNOLOGIES, INC.:   Digitizing Company
~OTHER INFORMATION
~A  DEPTH      SPR        ASN        LAT         LN        GRN       NEUT
# ...
 4940.5000   -36.1304    18.9880    48.8256    34.3161    73.4526   341.5597
 4941.0000   -36.1317    17.9013    48.6403    33.8354    77.4551   359.1093
 4941.5000   -36.1331    16.8373    48.3222    32.9210    78.2072   386.6591
 4942.0000   -36.1344    16.2897    47.9539    29.9065    76.5153   414.2088
 4942.5000   -36.1358    15.9668    47.5622    29.0259    74.2130   431.7585
 4943.0000   -36.1371    15.6917    46.7545    28.4167    73.9646   434.2999
 4943.5000   -36.1249    15.4781    45.9369    28.1259    78.9679   421.8579
 4944.0000   -36.0161    15.6118    44.6131    27.7398    84.2204   414.3994
 4944.5000   -35.9074    15.8039    43.3914    27.3337    85.7229   404.4491
 4945.0000   -35.8737    16.3152    42.2881    27.5373    86.2254   401.9905
 4945.5000   -35.8750    16.7813    41.1044    27.8695    85.4779   409.5568
 4946.0000   -35.8763    17.3597    40.0827    28.2018    81.6279   454.6064
 4946.5000   -35.8307    17.5428    38.1454    28.5917    76.9828   482.1562
 4947.0000   -35.7220    17.8302    36.9400    29.0606    71.2353   507.2059
 4947.5000   -35.6116    18.0256    35.4552    29.5712    66.7378   512.2473
 4948.0000   -35.6129    18.3557    34.5837    30.1000    61.9903   504.7970
 4948.5000   -35.6142    18.5677    34.1091    30.5411    58.2428   512.3550
 4949.0000   -35.6156    18.7466    33.9738    30.8734    55.7452   524.9047
 4949.5000   -35.5932    18.9560    33.8382    31.2057    54.9973   539.9545
 4950.0000   -35.5212    19.1374    34.1062    31.5379    57.5002   545.0000
 4950.5000   -35.4491    19.3722    34.5701    31.9684    59.3886   542.1739
 4951.0000   -35.3771    19.4685    35.1794    32.2635    61.0052   533.6735
 4951.5000   -35.3535    19.7744    35.8692    32.6703    61.7575   500.1533
 4952.0000   -35.3548    20.0467    36.9247    33.1653    62.0101   462.6947
 4952.5000   -35.3564    20.1767    38.0261    33.5045    60.0126   507.7527
 4953.0000   -35.3575    20.5802    39.0732    33.9790    56.2651   510.2941
 4953.5000   -35.3589    20.8056    39.2067    34.2912    54.2672   500.3521
 4954.0000   -35.3602    21.1173    38.8455    34.9282    56.0205   495.3936
 4954.5000   -35.3616    21.7048    38.5139    35.3545    56.5225   500.4598
 4955.0000   -35.3629    22.1933    38.1282    36.0129    54.2754   538.0095
 4955.5000   -35.3642    22.7316    37.8585    36.5552    52.7775   603.0593
 4956.0000   -35.3656    23.2694    37.7229    37.0703    50.2804   645.6089
 4956.5000   -35.3669    23.4298    37.5877    37.7754    48.5329   640.6421
 4957.0000   -35.3683    23.7160    37.4523    38.3990    47.5354   645.7001
 4957.5000   -35.3696    23.8806    37.4512    39.1311    50.2878   658.2581
 4958.0000   -35.3710    24.1125    37.9018    39.4296    51.5403   605.8078
 4958.5000   -35.3723    24.2079    38.3900    39.6738    50.5428   598.3409
 4959.0000   -35.3737    24.2069    39.0395    39.6741    50.0059   623.4072
 4959.5000   -35.3750    24.2983    40.4041    39.4035    49.5474   635.9569
 4960.0000   -35.3763    24.2049    41.7202    39.0650    54.7509   618.5066
 4960.5000   -35.3777    24.0690    43.7623    38.6047    57.8027   553.5563
 4961.0000   -35.3790    23.7346    45.4389    38.0495    60.5552   481.1060
 4961.5000   -35.3804    23.2583    47.1205    37.1351    63.0738   416.1558
 4962.0000   -35.3817    22.4905    48.3396    35.3401    66.8102   361.2055
 4962.5000   -35.3831    21.2347    49.0675    34.1546    71.5627   333.7552
 4963.0000   -35.3844    20.3662    49.4025    33.1728    76.0651   313.8049
 4963.5000   -35.3858    18.9415    49.4015    32.4352    80.3176   316.3500
 4964.0000   -35.4821    17.8221    49.1317    31.5475    84.8201   308.9043
 4964.5000   -35.6575    16.2441    48.7704    30.5856    86.8230   301.4540
 4965.0000   -35.6586    15.7042    48.0544    29.9898    87.0755   296.4954
 4965.5000   -35.6988    15.5102    47.0713    29.3804    85.8280   329.0534
 4966.0000   -35.9302    15.4326    45.3641    28.9200    81.3304   394.1031
 4966.5000   -35.9502    15.7480    44.3257    27.7551    73.5829   394.1529
 4967.0000   -36.0836    16.0781    42.6739    26.6307    66.3354   401.7026
 4967.5000   -36.2147    16.4083    41.3821    26.1298    62.5879   436.7523
 4968.0000   -36.3261    16.6227    39.4461    26.1570    60.8404   456.8020
 4968.5000   -36.4376    16.7753    37.6772    26.5370    63.3428   416.8517
 4969.0000   -36.4758    16.9089    36.2884    26.7473    67.5953   329.4097
 4969.5000   -36.4772    16.9162    36.2174    26.9442    70.5978   299.4594
 4970.0000   -36.4787    17.1764    36.6464    27.2154    72.8503   314.5091
 4970.5000   -36.4798    17.3103    36.7530    27.3140    75.3528   372.0588
 4971.0000   -36.4812    17.3093    37.0638    27.4871    76.3553   394.6086
 4971.5000   -36.4825    17.3083    36.9969    27.4875    75.9984   377.1582
 4972.0000   -36.4839    17.3073    36.5279    27.4878    74.3602   364.6114
 4972.5000   -36.4853    17.3063    36.1173    27.4713    71.8627   354.7577
 4973.0000   -36.4866    17.2471    35.6514    27.3530    69.7234   349.7991
 4973.5000   -36.4879    17.1694    35.3195    27.2178    68.6177   352.3571
 4974.0000   -36.4893    16.9522    34.9878    27.2182    73.1201   377.4068
 4974.5000   -36.4906    16.8230    34.6926    27.0796    74.3726   419.9565
 4975.0000   -36.4919    16.7621    34.4590    26.9140    73.3747   457.5062
 4975.5000   -36.4933    16.6262    34.1274    26.7483    73.1272   480.0559
 4976.0000   -36.4946    16.4420    33.8684    26.6775    75.3805   490.0973
 4976.5000   -36.4960    16.3548    33.4641    26.6779    75.8821   432.6553
 4977.0000   -36.4973    16.2190    32.9764    26.7188    75.3846   397.6968
 4977.5000   -36.4987    16.2180    32.6259    27.2206    78.3879   420.2548
 4978.0000   -36.5001    16.2169    31.8991    27.5188    86.8904   427.7962
 4978.5000   -36.5013    16.2160    31.1372    27.8988    90.3929   385.3542
 4979.0000   -36.5027    16.7540    29.4777    28.3233    91.6454   330.4039
 4979.5000   -36.5040    17.3576    28.7860    28.8480    91.8970   302.9536
 4980.0000   -36.5054    18.5039    28.1316    29.2547    91.1499   302.0000
 4980.5000   -36.5067    19.3327    27.7194    29.6074    84.9028   328.0530
 4981.0000   -36.5081    19.9843    27.3876    30.0684    79.1553   358.1027
 4981.5000   -36.5094    20.4007    27.0534    30.5227    73.4078   408.1524
 4982.0000   -36.5110    20.9257    26.7246    31.0176    59.4103   460.7022
 4982.5000   -36.5121    21.1944    27.0514    31.4075    57.1627   515.7518
 4983.0000   -36.5134    21.6376    27.8919    31.8313    56.4148   578.3099
 4983.5000   -36.5148    21.8662    29.0655    32.1026    60.6677   603.3596
 4984.0000   -36.5161    22.1349    30.1932    32.5095    64.4202   660.9093
 4984.5000   -36.5175    22.4032    32.2892    32.8012    63.1727   740.9590
 4985.0000   -36.5188    22.6719    34.0353    33.5942    59.6751   753.5087
 4985.5000   -36.5203    22.6707    35.7818    34.2720    58.6772   716.0584
 4986.0000   -36.5215    22.3492    37.0382    34.8143    60.1801   651.1082
 4986.5000   -36.5229    21.0514    38.1991    34.3321    64.5210   586.1578
 4987.0000   -36.5242    20.0787    38.7414    33.6903    70.4355   458.7076
 4987.5000   -36.5255    19.2973    39.2725    32.7829    76.4380   458.9563
 4988.0000   -36.5269    18.6175    39.7337    32.0787    81.6904   468.8070
 4988.5000   -36.5282    18.0887    40.1335    31.7175    90.1929   431.3567
 4989.0000   -36.5296    17.6772    40.7479    31.2797    93.9454   328.9064
 4989.5000   -36.5309    17.4067    41.0159    31.0227    95.4479   228.9561
 4990.0000   -36.5323    17.8099    40.2082    30.6617    95.4504   216.4975
 4990.5000   -36.5336    18.2237    35.5017    30.4813    89.4529   229.0555
 4991.0000   -36.5350    18.7513    31.6040    30.4817    84.2053   264.1053
 4991.5000   -36.5363    19.1323    30.9069    30.2990    81.0600   319.1549
 4992.0000   -36.5376    19.5578    30.2579    30.0759    77.7103   359.2047
