~VERSION INFORMATION
 VERS.                2.0:   CWLS LOG ASCII STANDARD - VERSION 2.0
 WRAP.                 NO:   ONE LINE PER DEPTH STEP
~WELL INFORMATION
#MNEM.UNIT      DATA TYPE    INFORMATION
#----------   ------------   ------------------------------
 STRT.F            0.0000:   START DEPTH
 STOP.F         5786.0000:   STOP DEPTH
 STEP.F            0.5000:   STEP LENGTH
 NULL.          -999.2500:   NO VALUE
 COMP. U.S. DEPARTMENT OF ENERGY:   COMPANY
 WELL. DEPARTMENT "X" #2-3:   WELL
 FLD .           N P R #3:   FIELD
 LOC .       S3 T38N R78W:   LOCATION
 CNTY.            NATRONA:   COUNTY
 STAT.            WYOMING:   STATE
 CTRY. UNITED STATES OF AMERICA:   COUNTRY
 SRVC.       BAKER HUHGES:   SERVICE COMPANY
 DATE.        14-JUL-2002:   LOGDATE
 API .     49025230540000:   API NUMBER
~CURVE INFORMATION
#MNEM.UNIT       API CODE    CURVE DESCRIPTION
#----------   ------------   ------------------------------
 DEPT.F                  :   
 TEND.LBS    45 635 01 00:   TENSION FROM DENSITY LOG
 CALD.IN     45 280 60 00:   CALIPER FROM DENSITY LOG
 ZCOR.G/C3   45 356 01 00:   DENSITY CORRECTION
 PE  .B/E    45 358 01 00:   PHOTOELECTRIC FACTOR
 ZDEN.G/C3   45 350 01 00:   BULK DENSITY
 CNCF.DEC    42 890 03 00:   NEUTRON POROSITY
 TENS.LBS    60 635 01 00:   TENSION FROM SONIC
 DT  .US/F   60 520 00 00:   DELTA TIME
 RD  .OHMM   11 220 10 00:   RESISTIVITY DEEP
 TENR.LBS    11 635 01 00:   TENSION FROM RES. LOG
 RS  .OHMM   11 220 09 00:   RESISTIVITY SHALLOW
 GRR .GAPI   11 310 01 00:   GAMMA RAY FROM RES.
 RMLL.OHMM   11 270 04 00:   MICRO LATEROLOG
 SPR .MV     11 010 01 00:   SPONTANEOUS POTENTIAL FROM RES.
~PARAMETER INFORMATION
#MNEM.UNIT          VALUE    DESCRIPTION
#----------   ------------   ------------------------------
 EKB .F         5164.7000:   Kelly bushing
 EGL .F         5154.7000:   Ground level
 EDF .F         5163.7000:   Drilling floor
 TD  .F         5773.0000:   Total depth
 DATE.        14-JUL-2002:   Date logged
 CLNT.            A2DTECH:   Client Code
 SL  . 838' FNL & 2128' FWL:   Surface Location
 PD  .                 GL:   Permanent Datum
 EPD .F            5154.7:   Elevation Permanent Datum
 LMF .                 KB:   Log Measured From
 DMF .                 KB:   Drilling Measured From
 DD  .F              5770:   Depth driller
 DL  .F              5773:   Depth logger
 BLI .F              5770:   Bottom log interval
 CS1 .IN            9.625:   Casing size
 CBD1.       9.625 @ 578':   Casing driller 1
 CBL1.F               578:   Casing logger 1
 BS1 .IN             8.75:   Bit size
 DFT .       GEL/CHEMICAL:   Type fluid in hole
 DFD .                  9:   Density
 DFV .                 45:   Viscosity
 DFPH.                8.5:   pH
 DFL .                9.6:   Fluid loss
 MSS .           FLOWLINE:   Source of sample
 RMS .OHMM          0.568:   Rm
 MST .F                91:   Rm Meas. temp.
 RMF .OHMM          0.490:   Rmf
 MFST.F                92:   Rmf Meas. temp.
 RMC .OHMM          1.072:   Rmc
 MCST.F                90:   Rmc Meas. temp.
 MFSS.               MEAS:   Source Rmf.
 RMB .OHMM          0.291:   Rm. at BHT
 BHT .F               184:   BHT.
 TCS .HRS               8:   Time Circ. stopped
 MRT .F               184:   Maximum recorded temp.
 LUN .            HL-6530:   Logging unit number
 LUL .             CASPER:   Logging unit location
 ENGI.           VERCIMAK:   Recorded By
 WITN.              HARDY:   Witnessed by
 ORIG.           5" PRINT:   Origin of data
 UWI .     49025230540000:   Unique Well ID
 DICO. A2D TECHNOLOGIES, INC.:   Digitizing Company
~OTHER INFORMATION
~A    DEPT    TEND       CALD       ZCOR         PE       ZDEN       CNCF       TENS         DT         RD       TENR         RS         GRR      RMLL        SPR   
# ...
 2964.5000   -35.7170     8.3870     0.0570     1.8380     2.3610     0.2240   -44.5890    76.3370    20.1880     4.4910    24.3700    52.6880  -999.2500   -31.0080
 2965.0000   -38.1220     8.3890     0.0450     1.8130     2.3590     0.2220   -44.5890    76.3010    19.2880     4.4910    24.4190    48.9650  -999.2500   -30.9530
 2965.5000   -40.5270     8.3900     0.0460     1.8280     2.3520     0.2200   -44.5890    76.3950    19.5460     4.4910    24.4770    47.1640  -999.2500   -30.7430
 2966.0000   -42.9320     8.3920     0.0520     1.8490     2.3470     0.2210   -44.3070    76.2410    19.7240     4.4910    24.5350    46.7610  -999.2500   -30.5320
 2966.5000   -45.3370     8.3940     0.0650     1.8750     2.3450     0.2210   -41.9570    76.1580    19.9080     4.4910    24.5950    48.6060  -999.2500   -30.3220
 2967.0000   -47.7410     8.3950     0.0650     2.0230     2.3440     0.2220   -39.6060    77.0560    19.9080     4.4910    24.3560    51.8220  -999.2500   -30.1120
 2967.5000   -50.1460     8.3970     0.0620     2.0490     2.3480     0.2230   -37.2560    77.9540    19.7260     4.4910    23.6970    55.3880  -999.2500   -29.8930
 2968.0000   -52.5510     8.3980     0.0570     2.0190     2.3570     0.2220   -34.9060    78.8520    19.4840     4.4910    22.8510    56.8340  -999.2500   -29.5900
 2968.5000   -55.0000     8.4000     0.0560     1.9420     2.3660     0.2130   -35.5480    79.4290    19.3670     4.4910    23.1530    58.3400  -999.2500   -28.8460
 2969.0000   -56.3240     8.4010     0.0590     1.8170     2.3720     0.2040   -37.0250    79.0220    19.7260     8.5830    23.4410    58.6920  -999.2500   -28.1280
 2969.5000   -58.0240     8.4030     0.0550     1.7590     2.3710     0.1950   -38.5030    78.6270    21.7730    16.7660    23.7070    58.3280  -999.2500   -27.4100
 2970.0000   -59.7240     8.4050     0.0480     1.7850     2.3490     0.1940   -39.9800    79.0890    23.6440    24.4510    25.0390    54.5420  -999.2500   -26.6940
 2970.5000   -61.4240     8.4060     0.0430     1.7810     2.3210     0.1940   -41.4570    80.0720    25.2830    15.8820    26.4720    48.1510  -999.2500   -26.5970
 2971.0000   -63.1240     8.4080     0.0430     1.7690     2.2980     0.1940   -42.9340    81.3300    24.5290     2.7880    25.7460    43.0970  -999.2500   -26.6090
 2971.5000   -64.8240     8.4090     0.0460     1.7560     2.2820     0.1940   -44.4120    82.9550    22.7970   -10.3060    24.0760    42.5440  -999.2500   -26.2190
 2972.0000   -62.5440     8.4110     0.0490     1.7510     2.2730     0.1960   -40.3660    84.5800    21.0650    -5.4890    22.4070    46.9180  -999.2500   -25.0930
 2972.5000   -59.8060     8.4120     0.0530     1.7540     2.2660     0.1990   -34.2110    86.2050    19.3330     4.6990    20.7370    51.9000  -999.2500   -23.9510
 2973.0000   -57.0670     8.4140     0.0490     1.7560     2.2730     0.2020   -28.0560    87.5050    17.6010    14.9280    19.0670    56.9020  -999.2500   -22.9520
 2973.5000   -55.0000     8.4160     0.0400     1.7590     2.2850     0.2050   -21.9010    88.0670    17.0280    25.1580    18.1510    58.8580  -999.2500   -22.9850
 2974.0000   -73.3570     8.4170     0.0310     1.7610     2.2980     0.2080   -15.7460    87.9790    17.0360    35.3880    18.0880    57.4650  -999.2500   -22.9880
 2974.5000   -90.9640     8.4190     0.0290     1.7640     2.3090     0.2150    -9.5910    87.2460    17.0910    44.4110    18.0250    55.2160  -999.2500   -22.9860
 2975.0000  -100.8820     8.4200     0.0320     1.7660     2.3130     0.2220    -3.4350    86.4430    17.1460    44.4110    17.9630    56.1260  -999.2500   -22.9860
 2975.5000   -80.5820     8.4220     0.0340     1.7690     2.3130     0.2270     2.7200    86.4970    17.1850    44.4110    17.9000    57.3410  -999.2500   -22.9860
 2976.0000   -60.2820     8.4240     0.0360     1.7780     2.3070     0.2290    -4.1440    88.0200    16.8720    39.5300    17.8380    57.4360  -999.2500   -22.9860
 2976.5000   -39.9820     8.4250     0.0390     1.7920     2.2980     0.2210   -31.5160    89.2890    16.4990     8.2830    17.5260    57.7120  -999.2500   -22.9850
 2977.0000   -36.1370     8.4280     0.0420     1.8060     2.2920     0.2200   -58.8880    90.5580    16.0680   -15.4690    16.9810    60.3250  -999.2500   -22.9870
 2977.5000   -43.9210     8.4300     0.0410     1.8340     2.2880     0.2250   -84.6690    91.7540    15.8210    -2.8790    16.4360    62.6930  -999.2500   -23.0420
 2978.0000   -51.7050     8.4330     0.0390     1.8550     2.2850     0.2310   -62.3250    91.5090    15.6760    12.2290    15.9670    64.1540  -999.2500   -23.3170
 2978.5000   -59.4890     8.4350     0.0270     1.8650     2.2770     0.2330   -34.5690    90.6510    15.5880    24.4510    15.9670    64.9250  -999.2500   -23.5800
 2979.0000   -64.2800     8.4380     0.0210     1.8760     2.2680     0.2230   -34.5690    89.6640    15.5330    23.9000    15.8210    66.5650  -999.2500   -23.6390
 2979.5000   -61.8150     8.4400     0.0220     1.8860     2.2630     0.2150   -34.5690    88.8540    15.7810    23.3420    16.2040    68.9740  -999.2500   -23.7920
 2980.0000   -59.3500     8.4430     0.0240     1.8960     2.2600     0.2070   -34.5690    88.3370    16.0700    22.7840    16.4510    69.1950  -999.2500   -24.2720
 2980.5000   -56.8850     8.4450     0.0250     1.9060     2.2570     0.1990   -34.5690    88.3620    16.3590    22.2260    16.7180    65.5430  -999.2500   -24.3780
 2981.0000   -56.6570     8.4480     0.0250     1.9360     2.2530     0.1950   -34.5690    88.5440    16.6480    21.6680    17.0280    59.6720  -999.2500   -23.7850
 2981.5000   -63.7000     8.4500     0.0250     1.9450     2.2480     0.1910   -34.5690    88.7270    16.9380    21.1100    17.1850    54.9940  -999.2500   -23.1240
 2982.0000   -70.7430     8.4530     0.0260     1.9320     2.2490     0.1950   -34.5690    88.8480    17.1850    20.5520    17.4010    53.4830  -999.2500   -22.4680
 2982.5000   -75.9500     8.4550     0.0280     1.9350     2.2620     0.2050   -34.5690    88.3700    16.7970    19.9940    17.6660    52.4090  -999.2500   -22.3850
 2983.0000   -80.8800     8.4580     0.0340     1.9430     2.2740     0.2140   -34.5690    87.7380    15.9220    19.4360    17.2250    52.9230  -999.2500   -22.7250
 2983.5000   -85.8100     8.4610     0.0390     1.9510     2.2820     0.2240   -34.5690    87.1060    14.9770    18.8780    16.0980    55.7820  -999.2500   -22.7070
 2984.0000   -90.7400     8.4630     0.0440     1.9600     2.2850     0.2290   -34.5690    86.5820    13.7990    18.3200    14.9720    58.9020  -999.2500   -22.5750
 2984.5000   -94.4850     8.4660     0.0490     1.9680     2.2910     0.2330   -34.5690    86.3520    12.6210    17.7620    13.8450    62.0240  -999.2500   -22.1360
 2985.0000   -90.6920     8.4680     0.0530     1.9880     2.2980     0.2370   -34.5690    86.4000    11.7890    17.2040    12.9240    63.4800  -999.2500   -21.6970
 2985.5000   -86.9000     8.4710     0.0570     2.0130     2.3030     0.2350   -34.5690    86.7020    11.8330    16.6460    13.0730    61.5830  -999.2500   -21.3860
 2986.0000   -83.1080     8.4740     0.0530     2.0370     2.3090     0.2300   -34.5690    86.9950    11.8900    16.0880    13.1020    58.9740  -999.2500   -21.5340
 2986.5000   -79.3150     8.4760     0.0480     2.0620     2.3120     0.2290   -34.5690    86.4270    11.9470    15.5300    13.1320    56.7520  -999.2500   -21.9650
 2987.0000   -75.5230     8.4790     0.0470     2.0890     2.3120     0.2400   -34.5690    84.9670    12.0080    14.9720    13.1640    58.8850  -999.2500   -22.3960
 2987.5000   -60.8330     8.4820     0.0500     2.0900     2.3110     0.2500   -34.5690    83.5080    11.7890    14.4710    12.9430    61.2390  -999.2500   -22.9210
 2988.0000   -44.4000     8.4840     0.0540     2.0900     2.3190     0.2450   -34.5690    82.2340    11.2040    11.4290    12.5080    63.5900  -999.2500   -23.1770
 2988.5000   -35.0000     8.4930     0.0570     2.0900     2.3280     0.2390   -34.5690    82.2950    10.6730     8.0430    12.0730    66.0230  -999.2500   -23.1880
