~VERSION INFORMATION
 VERS.                2.0:   CWLS LOG ASCII STANDARD - VERSION 2.0
 WRAP.                 NO:   ONE LINE PER DEPTH STEP
~WELL INFORMATION
#MNEM.UNIT      DATA TYPE    INFORMATION
#----------   ------------   ------------------------------
 STRT.F           11.0000:   START DEPTH
 STOP.F         3368.0000:   STOP DEPTH
 STEP.F            0.5000:   STEP LENGTH
 NULL.          -999.2500:   NO VALUE
 COMP. LAWRENCE ALLISON AND ASSOC.:   COMPANY
 WELL. LAWRENCE NPR "AX" #3-11:   WELL
 FLD .                NPR:   FIELD
 LOC .      S11 T38N R78W:   LOCATION
 CNTY.            NATRONA:   COUNTY
 STAT.            WYOMING:   STATE
 CTRY. UNITED STATES OF AMERICA:   COUNTRY
 SRVC.      DRESSER ATLAS:   SERVICE COMPANY
 DATE.        17-JAN-1986:   LOGDATE
 API .     49025110540000:   API NUMBER
~CURVE INFORMATION
#MNEM.UNIT       API CODE    CURVE DESCRIPTION
#----------   ------------   ------------------------------
 DEPT.F                  :   
 TEND.LBS    45 635 01 00:   TENSION FROM DENSITY LOG
 DEN .G/C3   45 350 01 00:   BULK DENSITY
 CORR.G/C3   45 356 01 00:   DENSITY CORRECTION
 CNC .DEC    42 890 03 00:   NEUTRON PORISITY SANDSTONE
 TENR.LBS    07 635 01 00:   TENSION FROM RESISTIVITY
 CALR.IN     07 280 01 00:   CALIPER FROM RESISTIVITY
 SPR .MV     07 010 01 00:   SPONTANEOUS POTENTIAL
 GRR .GAPI   07 310 01 00:   GAMMA RAY FROM RESISTIVITY
 RFOC.OHMM   07 220 04 00:   RESISTIVITY FOCUSED LOG RES.
 RILD.OHMM   07 120 46 00:   INDUCTION LOG DEEP RESISTIVITY
 RILM.OHMM   07 120 44 00:   INDUCTION LOG MEDIUM RESISTIVITY
 TENS.LBS    60 635 01 00:   TENSION FROM SONIC
 AC  .US/F   60 250 00 00:   ACCOUSTIC
~PARAMETER INFORMATION
#MNEM.UNIT          VALUE    DESCRIPTION
#----------   ------------   ------------------------------
 EKB .F         5195.5000:   Kelly bushing
 EGL .F         5183.2000:   Ground level
 EDF .F         5194.5000:   Drilling floor
 TD  .F         3360.0000:   Total depth
 DATE.        17-JAN-1986:   Date logged
 CLNT.            A2DTECH:   Client Code
 SL  . 2389' FSL & 461'FWL:   Surface Location
 PD  .                 GL:   Permanent Datum
 EPD .F            5183.2:   Elevation Permanent Datum
 LMF .                 KB:   Log Measured From
 DMF .                 KB:   Drilling Measured From
 DAPD.F              12.3:   Feet Above Permanent Datum
 DD  .F              3360:   Depth driller
 DL  .F              3358:   Depth logger
 BLI .F              3356:   Bottom log interval
 TLI .F               575:   Top log interval
 CS1 .IN            8.625:   Casing size
 CBD1.      8.625" @ 575':   Casing driller 1
 CBL1.F               575:   Casing logger 1
 BS1 .IN            7.875:   Bit size
 BSD1.F              3360:   Depth drilled with bit1
 DFT .        POLYMER-KCL:   Type fluid in hole
 DFD .                  9:   Density
 DFV .                 36:   Viscosity
 DFPH.                  9:   pH
 DFL .                9.5:   Fluid loss
 MSS .           FLOWLINE:   Source of sample
 RMS .OHMM           .633:   Rm
 MST .F                68:   Rm Meas. temp.
 RMF .OHMM           .475:   Rmf
 MFST.F                68:   Rmf Meas. temp.
 RMC .OHMM           .791:   Rmc
 MCST.F                68:   Rmc Meas. temp.
 RMB .OHMM            .44:   Rm. at BHT
 BHT .F                98:   BHT.
 TCS .HRS               4:   Time Circ. stopped
 MRT .F                98:   Maximum recorded temp.
 LUN .               6264:   Logging unit number
 LUL .               GLTE:   Logging unit location
 ENGI.             MILLER:   Recorded By
 WITN.             STRONG:   Witnessed by
 ORIG.        2" 5" PRINT:   Origin of data
 UWI .     49025110540000:   Unique Well ID
 DICO. A2D TECHNOLOGIES, INC.:   Digitizing Company
~OTHER INFORMATION
~A   DEPT     TEND        DEN       CORR        CNC       TENR       CALR        SPR         GRR      RFOC       RILD       RILM       TENS         AC   
# ...
 1129.0000  -999.2500  -999.2500  -999.2500  -999.2500  -101.8520     9.1020   -48.7370    93.2840     8.4810     8.0720     8.0720   -98.9250    91.4500
 1129.5000  -999.2500  -999.2500  -999.2500  -999.2500  -103.2670     9.1000   -48.6280   102.6240     8.4970     8.0910     8.1000   -98.3250    91.4900
 1130.0000  -999.2500  -999.2500  -999.2500  -999.2500  -104.7090     9.0970   -48.5160   100.5530     8.5130     8.1100     8.1290   -97.7260    91.5300
 1130.5000  -999.2500  -999.2500  -999.2500  -999.2500  -100.3010     9.0950   -48.4050    97.1910     8.5490     8.1330     8.1570   -97.1260    91.5390
 1131.0000  -999.2500  -999.2500  -999.2500  -999.2500   -95.8010     9.0930   -48.2930    93.9160     8.5890     8.1260     8.1850   -96.5260    91.5170
 1131.5000  -999.2500  -999.2500  -999.2500  -999.2500   -91.3010     9.0900   -48.1820    95.0910     8.6300     8.1150     8.2140   -95.9270    91.4950
 1132.0000  -999.2500  -999.2500  -999.2500  -999.2500   -86.8010     9.0880   -48.0420    95.5540     8.6710     8.1050     8.2420   -95.3270    91.4730
 1132.5000  -999.2500  -999.2500  -999.2500  -999.2500   -85.3050     9.0850   -47.8600    95.1160     8.7120     8.0950     8.2840   -94.6890    91.4500
 1133.0000  -999.2500  -999.2500  -999.2500  -999.2500   -86.5120     9.0930   -47.6780    95.3540     8.7560     8.0850     8.2630   -94.9620    91.2480
 1133.5000  -999.2500  -999.2500  -999.2500  -999.2500   -87.7190     9.1030   -47.4970    95.7340     8.7170     8.0750     8.2200   -95.2530    91.0110
 1134.0000  -999.2500  -999.2500  -999.2500  -999.2500   -88.9270     9.1140   -47.3160    96.5450     8.6730     8.0650     8.1780   -95.5440    90.7500
 1134.5000  -999.2500  -999.2500  -999.2500  -999.2500   -90.1340     9.1240   -47.1220    98.5700     8.6300     8.0580     8.1350   -95.8350    90.9500
 1135.0000  -999.2500  -999.2500  -999.2500  -999.2500   -91.3410     9.1340   -46.6460   102.0210     8.5860     8.0580     8.0930   -96.1260    91.2830
 1135.5000  -999.2500  -999.2500  -999.2500  -999.2500   -92.5490     9.1450   -46.1360   103.7040     8.5420     8.0580     8.0510   -96.4170    91.6580
 1136.0000  -999.2500  -999.2500  -999.2500  -999.2500   -93.7560     9.1700   -45.6260   101.8370     8.4990     8.0580     8.0080   -96.7080    92.0330
 1136.5000  -999.2500  -999.2500  -999.2500  -999.2500   -94.5490     9.1980   -45.1180    99.8460     8.4430     8.0580     7.9660   -96.9990    92.4080
 1137.0000  -999.2500  -999.2500  -999.2500  -999.2500   -93.9300     9.2260   -44.6750    99.8050     8.4580     8.0580     7.9240   -97.2900    92.8500
 1137.5000  -999.2500  -999.2500  -999.2500  -999.2500   -93.3120     9.2540   -44.4320   100.9340     8.4890     8.0580     7.8810   -97.5810    92.8190
 1138.0000  -999.2500  -999.2500  -999.2500  -999.2500   -92.6930     9.2760   -44.4520   101.5850     8.5200     8.0580     7.8380   -97.8720    92.6500
 1138.5000  -999.2500  -999.2500  -999.2500  -999.2500   -92.0740     9.2950   -44.6890   101.5370     8.5510     8.0580     7.8880   -98.1630    92.3980
 1139.0000  -999.2500  -999.2500  -999.2500  -999.2500   -91.4550     9.3130   -44.9250   100.9600     8.5960     8.0580     7.9380   -98.4540    92.0820
 1139.5000  -999.2500  -999.2500  -999.2500  -999.2500   -90.8370     9.3320   -45.1620   100.3850     8.5860     8.0510     7.9880   -98.7450    91.8500
 1140.0000  -999.2500  -999.2500  -999.2500  -999.2500   -90.2180     9.3500   -45.3990    99.8200     8.5680     8.0380     8.0380   -99.0360    91.8270
 1140.5000  -999.2500  -999.2500  -999.2500  -999.2500   -89.5990     9.3680   -45.6360    99.7980     8.5510     8.0250     8.0890   -99.3270    91.8090
 1141.0000  -999.2500  -999.2500  -999.2500  -999.2500   -88.9800     9.3860   -45.8700    99.8310     8.5330     8.0120     8.1280   -99.6180    91.7910
 1141.5000  -999.2500  -999.2500  -999.2500  -999.2500   -88.3620     9.4040   -46.2320   100.5480     8.5040     7.9990     8.0880   -99.9090    91.7730
 1142.0000  -999.2500  -999.2500  -999.2500  -999.2500   -87.7430     9.4220   -46.6290   102.9480     8.3750     7.9860     8.0470  -100.2000    91.7550
 1142.5000  -999.2500  -999.2500  -999.2500  -999.2500   -87.1240     9.4380   -47.0280   105.1950     8.3130     7.9280     8.0070  -100.4910    91.8090
 1143.0000  -999.2500  -999.2500  -999.2500  -999.2500   -86.5060     9.4540   -47.4260   105.2100     8.2590     7.8460     7.9660  -100.7820    91.8940
 1143.5000  -999.2500  -999.2500  -999.2500  -999.2500   -85.8870     9.4700   -47.8220   104.5700     8.2040     7.7650     7.9260  -101.0730    91.9780
 1144.0000  -999.2500  -999.2500  -999.2500  -999.2500   -85.2680     9.4870   -48.1220   105.5850     8.1500     7.6830     7.8860  -101.3640    92.0500
 1144.5000  -999.2500  -999.2500  -999.2500  -999.2500   -84.6690     9.5030   -48.1140   108.1650     8.0960     7.6010     7.8450  -101.6560    92.3910
 1145.0000  -999.2500  -999.2500  -999.2500  -999.2500   -84.6690     9.5190   -48.1130   109.2230     8.0420     7.4990     7.7540  -101.9470    92.6500
 1145.5000  -999.2500  -999.2500  -999.2500  -999.2500   -84.6690     9.5350   -48.0260   109.7340     7.9870     7.3700     7.6530  -102.2380    93.3450
 1146.0000  -999.2500  -999.2500  -999.2500  -999.2500   -84.6690     9.5520   -47.8190   110.2180     7.9330     7.2410     7.5520  -102.5290    93.9630
 1146.5000  -999.2500  -999.2500  -999.2500  -999.2500   -84.6690     9.5680   -47.6130   110.5680     7.8470     7.1110     7.4510  -102.8200    94.5800
 1147.0000  -999.2500  -999.2500  -999.2500  -999.2500   -84.6690     9.5840   -47.4060   110.7240     7.7400     6.9820     7.3500  -103.1110    95.1500
 1147.5000  -999.2500  -999.2500  -999.2500  -999.2500   -84.6690     9.6010   -47.1610   110.9380     7.6320     6.9200     7.2490  -103.4020    95.5750
 1148.0000  -999.2500  -999.2500  -999.2500  -999.2500   -84.6690     9.6170   -46.8880   108.7470     7.5240     6.8780     7.1480  -103.6930    95.9500
 1148.5000  -999.2500  -999.2500  -999.2500  -999.2500   -84.6690     9.6190   -46.6160   105.9820     7.4170     6.8360     7.0780  -103.9840    96.2400
 1149.0000  -999.2500  -999.2500  -999.2500  -999.2500   -84.6690     9.6140   -46.3440   103.0370     7.3090     6.7950     7.0690  -104.2750    96.5170
 1149.5000  -999.2500  -999.2500  -999.2500  -999.2500   -84.6690     9.6100   -46.0710    98.5680     7.2150     6.7530     7.0590  -104.5660    96.6840
 1150.0000  -999.2500  -999.2500  -999.2500  -999.2500   -84.6690     9.6060   -46.1300    99.2950     7.2280     6.7110     7.0490  -104.7090    96.7500
 1150.5000  -999.2500  -999.2500  -999.2500  -999.2500   -84.4750     9.6020   -46.5100   101.7920     7.2400     6.6690     7.0390  -103.3450    96.7500
 1151.0000  -999.2500  -999.2500  -999.2500  -999.2500   -83.7930     9.6010   -46.8890   104.0750     7.2530     6.6360     7.0300  -101.9800    96.6810
 1151.5000  -999.2500  -999.2500  -999.2500  -999.2500   -83.1110     9.6010   -47.2700   102.9790     7.2660     6.6260     7.0180  -100.6150    96.5370
 1152.0000  -999.2500  -999.2500  -999.2500  -999.2500   -82.4290     9.6010   -47.6530   101.7980     7.2800     6.6160     7.0240   -99.2500    96.3940
 1152.5000  -999.2500  -999.2500  -999.2500  -999.2500   -81.7470     9.6010   -47.7170   102.7420     7.2560     6.6060     7.0350   -97.8850    96.2500
 1153.0000  -999.2500  -999.2500  -999.2500  -999.2500   -81.0650     9.6010   -47.7180   104.8770     7.2270     6.5960     7.0460   -96.5210    96.1060
 1153.5000  -999.2500  -999.2500  -999.2500  -999.2500   -80.3830     9.6010   -47.7180   106.7870     7.1970     6.5860     7.0580   -95.1560    95.9500
 1154.0000  -999.2500  -999.2500  -999.2500  -999.2500   -79.7010     9.6010   -47.7180   108.6140     7.1670     6.5790     7.0690   -93.7910    96.0010
 1154.5000  -999.2500  -999.2500  -999.2500  -999.2500   -79.0190     9.6010   -47.7040   105.8410     7.1470     6.5980     7.0810   -92.4260    96.0580
