~VERSION INFORMATION
 VERS.                2.0:   CWLS LOG ASCII STANDARD - VERSION 2.0
 WRAP.                 NO:   ONE LINE PER DEPTH STEP
~WELL INFORMATION
#MNEM.UNIT      DATA TYPE    INFORMATION
#----------   ------------   ------------------------------
 STRT.F          470.0000:   START DEPTH
 STOP.F         3791.5000:   STOP DEPTH
 STEP.F            0.5000:   STEP LENGTH
 NULL.          -999.2500:   NO VALUE
 COMP.    FENIX & SCISSON:   COMPANY
 WELL.   FENIX MDX #44-10:   WELL
 FLD .                NPR:   FIELD
 LOC .      S10 T38N R78W:   LOCATION
 CNTY.            NATRONA:   COUNTY
 STAT.            WYOMING:   STATE
 CTRY. UNITED STATES OF AMERICA:   COUNTRY
 SRVC.       SCHLUMBERGER:   SERVICE COMPANY
 DATE.        25-OCT-1977:   LOGDATE
 API .     49025104310000:   API NUMBER
~CURVE INFORMATION
#MNEM.UNIT       API CODE    CURVE DESCRIPTION
#----------   ------------   ------------------------------
 DEPT.F                  :   
 DT  .US/F   60 520 00 00:   DELTA TIME
 SPR .MV     11 010 01 00:   SPONTANEOUS POTENTIAL FROM RES.
 LLS .OHMM   11 220 09 00:   LATEROLOG LOG SHALLOW
 LLD .OHMM   11 220 10 00:   LATEROLOG LOG DEEP
 MSFL.OHMM   11 270 04 00:   MICRO SPHERICALLY FOCUSED
 NPOR.DEC    42 890 03 00:   ALPHA PROCESSED NEUTRON POROSITY
 RHOB.G/C3   45 350 01 00:   BULK DENSITY
 CORR.G/C3   45 356 01 00:   DENSITY CORRECTION
 GRD .GAPI   45 310 01 00:   GAMMA RAY FROM DENSITY LOG
 CALD.IN     45 280 60 00:   CALIPER FROM DENSITY LOG
~PARAMETER INFORMATION
#MNEM.UNIT          VALUE    DESCRIPTION
#----------   ------------   ------------------------------
 EKB .F         5239.0000:   Kelly bushing
 EGL .F         5229.0000:   Ground level
 EDF .F            0.0000:   Drilling floor
 EPD .F           10.0000:   Permanent datum
 TD  .F         3802.0000:   Total depth
 DATE.        25-OCT-1977:   Date logged
 CLNT.            A2DTECH:   Client Code
 SL  . 2640' FNL & 2640' FEL:   Surface Location
 PD  .                 GL:   Permanent Datum
 DD  .F              3802:   Depth driller
 DL  .F              3791:   Depth logger
 BLI .F              3789:   Bottom log interval
 TLI .F               505:   Top log interval
 CS1 .IN            8.625:   Casing size
 CBD1.       8.625 @ 505':   Casing driller 1
 CBL1.F               505:   Casing logger 1
 BS1 .IN            7.875:   Bit size
 DFT .            KCL MUD:   Type fluid in hole
 DFD .                9.1:   Density
 DFV .                 45:   Viscosity
 DFPH.               10.5:   pH
 DFL .                  8:   Fluid loss
 MSS .             MUDPIT:   Source of sample
 RMS .OHMM           .209:   Rm
 MST .F                72:   Rm Meas. temp.
 RMF .OHMM           .179:   Rmf
 MFST.F                72:   Rmf Meas. temp.
 RMC .OHMM           .314:   Rmc
 MCST.F                72:   Rmc Meas. temp.
 MFSS.               MEAS:   Source Rmf.
 RMB .OHMM           .122:   Rm. at BHT
 BHT .F               123:   BHT.
 TCS .HRS            1400:   Time Circ. stopped
 MRT .F               123:   Maximum recorded temp.
 LUN .               5642:   Logging unit number
 LUL .               CSPR:   Logging unit location
 ENGI.             SAYLER:   Recorded By
 WITN.         PETTINGILL:   Witnessed by
 ORIG.           5" PRINT:   Origin of data
 UWI .     49025104310000:   Unique Well ID
 DICO. A2D TECHNOLOGIES, INC.:   Digitizing Company
 DAPD.                 10:   Feet Above Permanent Datum
 BSD1.               3802:   Depth drilled with bit1
 MCSS.               CALC:   Source Rmc.
~OTHER INFORMATION
~A   DEPT        DT       SPR        LLS        LLD       MSFL       NPOR       RHOB       CORR        GRD       CALD   
# ...
 3753.0000    76.4160  -999.2500    10.5450     9.3550    12.3320     0.2380     2.5820     0.0420   122.5980     7.9660
 3753.5000    77.1220  -999.2500    11.4870     9.2690    13.8040     0.2420     2.5920     0.0540   126.4190     7.9550
 3754.0000    77.6680  -999.2500    12.5610     9.5620    14.1590     0.2510     2.5620     0.0340   122.7190     7.9580
 3754.5000    78.2670  -999.2500    12.3320     9.9640    13.0330     0.2720     2.5360    -0.0030   130.2300     7.9610
 3755.0000    79.2940  -999.2500    12.3320    11.1610    13.6720     0.2690     2.5360     0.0110   125.7500     7.9650
 3755.5000    80.5660  -999.2500    14.9140    13.0170    17.3900     0.2620     2.5350     0.0000   121.6160     7.9680
 3756.0000    80.3680  -999.2500    17.4160    14.8730    21.1090     0.2660     2.5360     0.0110   128.8830     7.9710
 3756.5000    80.3500  -999.2500    19.9180    16.7280    24.8280     0.2720     2.5390     0.0010   122.7720     7.9750
 3757.0000    81.4950  -999.2500    22.0310    18.6650    26.4870     0.2670     2.5530     0.0200   125.6280     7.9780
 3757.5000    82.6230  -999.2500    22.2350    18.7400    25.8290     0.2560     2.5400     0.0200   127.6890     7.9810
 3758.0000    83.3500  -999.2500    21.1220    18.8380    24.6490     0.2450     2.5360     0.0050   123.5830     7.9850
 3758.5000    81.4560  -999.2500    20.3030    18.1910    23.4690     0.2360     2.5470     0.0220   123.3030     7.9880
 3759.0000    79.6500  -999.2500    19.4840    17.3450    22.2890     0.2320     2.5550     0.0080   125.8030     7.9920
 3759.5000    77.5330  -999.2500    18.6650    16.5000    21.1100     0.2340     2.5440     0.0030   128.1040     7.9970
 3760.0000    75.1860  -999.2500    18.1560    15.6540    20.8460     0.2420     2.5320     0.0160   125.5790     8.0100
 3760.5000    75.1290  -999.2500    18.1560    14.9630    22.3390     0.2500     2.5310     0.0030   121.8620     8.0220
 3761.0000    75.4500  -999.2500    18.4480    15.3420    24.9040     0.2570     2.5580     0.0370   124.1690     8.0340
 3761.5000    76.2630  -999.2500    18.9460    15.8140    26.9790     0.2600     2.5700     0.0300   126.2610     8.0460
 3762.0000    77.0630  -999.2500    19.4440    17.6860    25.0630     0.2610     2.5630     0.0130   116.3500     8.0510
 3762.5000    76.9500  -999.2500    22.0040    19.5730    25.0630     0.2570     2.5550     0.0240   118.4050     8.0360
 3763.0000    78.8500  -999.2500    25.0910    21.4600    26.8710     0.2510     2.5560     0.0030   121.7870     8.0210
 3763.5000    79.1500  -999.2500    28.1770    24.2570    31.1400     0.2460     2.5580     0.0270   123.9340     8.0070
 3764.0000    78.7500  -999.2500    31.2640    27.2750    35.4090     0.2350     2.5650     0.0090   116.6070     7.9920
 3764.5000    76.8500  -999.2500    34.3510    30.7260    39.6780     0.2240     2.5490     0.0010   110.3940     7.9780
 3765.0000    74.2270  -999.2500    42.8660    38.5550    46.9840     0.2140     2.5620     0.0000   110.3790     7.9730
 3765.5000    74.9000  -999.2500    52.5990    46.3840    86.4440     0.2050     2.5600     0.0000   115.8480     7.9710
 3766.0000    75.1500  -999.2500    60.1220    48.1980   108.4000     0.1990     2.5670     0.0230   117.8810     7.9700
 3766.5000    72.8500  -999.2500    54.5130    46.9240    78.6960     0.1950     2.5740     0.0080  -999.2500     7.9680
 3767.0000    72.2950  -999.2500    46.4800    44.9000    42.8510     0.1850     2.5730     0.0010  -999.2500     7.9660
 3767.5000    71.3540  -999.2500    38.4460    42.8760    29.8560     0.1760     2.5600     0.0160  -999.2500     7.9640
 3768.0000    69.9500  -999.2500    34.6720    40.8510    52.1140     0.1920     2.5530     0.0040  -999.2500     7.9620
 3768.5000    68.1780  -999.2500    33.3450    38.8270    58.4830     0.2060     2.5660     0.0060  -999.2500     7.9600
 3769.0000    67.7500  -999.2500    32.1390    36.8030    44.5510     0.2010     2.5810     0.0210  -999.2500     7.9590
 3769.5000    68.8730  -999.2500    30.1170    34.7790    34.4600     0.1820     2.5930     0.0120  -999.2500     7.9570
 3770.0000    70.2500  -999.2500    28.1950    32.7550    27.5280     0.1870     2.6040     0.0260  -999.2500     7.9550
 3770.5000    73.1340  -999.2500    26.2730    30.3170    21.0390     0.1980     2.6010     0.0050  -999.2500     7.9530
 3771.0000    73.4520  -999.2500    24.3510    26.7170    20.6550     0.2080     2.6210     0.0340  -999.2500     7.9510
 3771.5000    72.3520  -999.2500    23.7150    25.9020    22.0940     0.2170     2.6470     0.0280  -999.2500     7.9490
 3772.0000    70.9500  -999.2500    24.8860    25.5090    25.1550     0.2240     2.6580     0.0360  -999.2500     7.9480
 3772.5000    73.3500  -999.2500    25.9780    25.1150    28.2160     0.2300     2.6230     0.0270  -999.2500     7.9460
 3773.0000    73.4390  -999.2500    26.9790    24.2670    30.6920     0.2230     2.6100     0.0280  -999.2500     7.9440
 3773.5000    73.8130  -999.2500    26.9790    22.2660    30.6920     0.2170     2.6030     0.0410  -999.2500     7.9420
 3774.0000    74.3470  -999.2500    23.4290    20.4110    26.0910     0.2090     2.6130     0.0150  -999.2500     7.9400
 3774.5000    74.5660  -999.2500    21.0410    18.9160    22.8580     0.1980     2.6050     0.0320  -999.2500     7.9380
 3775.0000    74.2060  -999.2500    18.9750    17.4200    20.4200  -999.2500     2.5830     0.0130  -999.2500     7.9370
 3775.5000    73.6080  -999.2500    17.6680    15.9240    18.1950  -999.2500     2.5940     0.0110  -999.2500     7.9350
 3776.0000    73.5870  -999.2500    16.1760    14.4290    15.9700  -999.2500     2.5870     0.0250  -999.2500     7.9420
 3776.5000    74.2390  -999.2500    14.6900    13.3980    13.7450  -999.2500     2.5780     0.0100  -999.2500     7.9500
 3777.0000    74.9340  -999.2500    14.6900    13.3560    11.6830  -999.2500     2.5880     0.0220  -999.2500     7.9590
 3777.5000    75.6670  -999.2500    14.6900    13.2960    10.8730  -999.2500     2.6030     0.0180  -999.2500     7.9670
 3778.0000    76.6760  -999.2500    14.6900    13.2370    10.1630  -999.2500     2.6110     0.0080  -999.2500     7.9750
 3778.5000    78.2320  -999.2500    14.6900    13.1780    10.0340  -999.2500     2.5990     0.0200  -999.2500     7.9840
 3779.0000    79.7500  -999.2500    14.6900    13.1190     9.7890  -999.2500     2.5720    -0.0010  -999.2500     7.9920
 3779.5000    81.6430  -999.2500    14.6900    13.0600     9.5290  -999.2500     2.5560     0.0070  -999.2500     8.0000
 3780.0000    83.4350  -999.2500    14.6910    13.0330     9.4780  -999.2500     2.5580    -0.0070  -999.2500     8.0090
 3780.5000    84.9830  -999.2500    14.6310    12.6770     9.1120  -999.2500     2.5690     0.0140  -999.2500     8.0150
 3781.0000    86.5320  -999.2500    14.5500    13.0330     8.7460  -999.2500     2.5760     0.0160  -999.2500     8.0180
 3781.5000    88.0660  -999.2500    14.4700    13.0330     8.3810  -999.2500     2.5600    -0.0020  -999.2500     8.0210
 3782.0000    89.4500  -999.2500    14.3900    13.0330     7.9990  -999.2500     2.5340     0.0160  -999.2500     8.0230
 3782.5000    91.8570  -999.2500    14.2900    13.0330     7.6510  -999.2500     2.5170     0.0000  -999.2500     8.0260
 3783.0000  -999.2500  -999.2500    14.2980    13.0330     7.2870  -999.2500     2.5020     0.0260  -999.2500     8.0290
 3783.5000  -999.2500  -999.2500    14.3090    13.0330     6.9240  -999.2500     2.4830     0.0660  -999.2500     8.0310
 3784.0000  -999.2500  -999.2500    14.3190    13.0330     5.9570  -999.2500     2.4610     0.1100  -999.2500     8.0380
 3784.5000  -999.2500  -999.2500    14.3300    13.0330     4.2760  -999.2500     2.4080     0.1570  -999.2500     8.1190
 3785.0000  -999.2500  -999.2500    14.3410    13.0330     3.0930  -999.2500     2.3160     0.1870  -999.2500     8.2070
 3785.5000  -999.2500  -999.2500    14.3520    13.0330     2.1040  -999.2500     2.2070     0.2070  -999.2500     8.5330
 3786.0000  -999.2500  -999.2500    14.3620    13.0330     2.9350  -999.2500     2.1400     0.1850  -999.2500     8.9570
