~VERSION INFORMATION
 VERS.                2.0:   CWLS LOG ASCII STANDARD - VERSION 2.0
 WRAP.                 NO:   ONE LINE PER DEPTH STEP
~WELL INFORMATION
#MNEM.UNIT      DATA TYPE    INFORMATION
#----------   ------------   ------------------------------
 STRT.F          198.5000:   START DEPTH
 STOP.F         3172.0000:   STOP DEPTH
 STEP.F            0.5000:   STEP LENGTH
 NULL.          -999.2500:   NO VALUE
 COMP.    FENIX & SCISSON:   COMPANY
 WELL. FENIX & SCISSON AX #26-11:   WELL
 FLD .              NPR-3:   FIELD
 LOC .      S11 T38N R78W:   LOCATION
 CNTY.            NATRONA:   COUNTY
 STAT.            WYOMING:   STATE
 CTRY. UNITED STATES OF AMERICA:   COUNTRY
 SRVC.              WELEX:   SERVICE COMPANY
 DATE.        11-NOV-1977:   LOGDATE
 API .     49025104420000:   API NUMBER
~CURVE INFORMATION
#MNEM.UNIT       API CODE    CURVE DESCRIPTION
#----------   ------------   ------------------------------
 DEPT.F                  :   
 GRD .GAPI   45 310 01 00:   GAMMA RAY FROM DENSITY LOG
 CALD.IN     45 280 60 00:   CALIPER FROM DENSITY LOG
 CORR.G/C3   45 356 01 00:   DENSITY CORRECTION
 TEND.LBS    45 635 01 00:   TENSION FROM DENSITY LOG
 RHOB.G/C3   45 350 01 00:   BULK DENSITY
 SPR .MV     07 010 01 00:   SPONTANEOUS POTENTIAL
 ILD .OHMM   07 120 46 00:   DEEP INDUCTION RESISTIVITY
 ILM .OHMM   07 120 44 00:   INDUCTION LOG MEDIUM RESISTIVITY
 SGRD.OHMM   07 220 05 00:   SHALLOW SHORT GUARD RESISTIVITY
~PARAMETER INFORMATION
#MNEM.UNIT          VALUE    DESCRIPTION
#----------   ------------   ------------------------------
 EKB .F         5187.0000:   Kelly bushing
 EGL .F         5177.0000:   Ground level
 EDF .F            0.0000:   Drilling floor
 EPD .F         5177.0000:   Permanent datum
 TD  .F         3174.0000:   Total depth
 CLNT.            A2DTECH:   Client Code
 SL  . 1650' FSL & 840' FWL:   Surface Location
 PD  .                 GL:   Permanent Datum
 LMF .                 KB:   Log Measured From
 DMF .                 KB:   Drilling Measured From
 DAPD.F                10:   Feet Above Permanent Datum
 DATE.        11-NOV-1977:   Date Logged [DD-MMM-YYYY]
 DD  .F              3170:   Depth driller
 DL  .F              3174:   Depth logger
 BLI .F              3172:   Bottom log interval
 TLI .F               200:   Top log interval
 CS1 .              8.625:   Casing size
 CBD1.      8.625" @ 220':   Casing driller 1
 CBL1.IN              220:   Casing logger 1
 BS1 .IN            7.875:   Bit size
 BSD1.F              3170:   Depth drilled with bit1
 DFT .            KCL MUD:   Type fluid in hole
 DFD .                8.9:   Density
 DFV .                 37:   Viscosity
 DFPH.               11.0:   pH
 DFL .                6.4:   Fluid loss
 MSS .           FLOWLINE:   Source of sample
 RMS .OHMM           2.79:   Rm
 MST .F                50:   Rm Meas. temp.
 RMF .OHMM           2.16:   Rmf
 MFST.F                50:   Rmf Meas. temp.
 MFSS.               FANN:   Source Rmf.
 MCSS.               TEST:   Source Rmc.
 RMB .OHMM           1.22:   Rm. at BHT
 BHT .F               114:   BHT.
 TCS .HRS               3:   Time Circ. stopped
 MRT .F               114:   Maximum recorded temp.
 LUN .               8611:   Logging unit number
 LUL .             CASPER:   Logging unit location
 ENGI.            C. DOAK:   Recorded By
 WITN.         HARRINGTON:   Witnessed by
 ORIG.      2.5" 5" PRINT:   Origin of data
 UWI .     49025104420000:   Unique Well ID
 DICO. A2D TECHNOLOGIES, INC.:   Digitizing Company
~OTHER INFORMATION
~A   DEPT       GRD      CALD       CORR       TEND       RHOB        SPR        ILD        ILM       SGRD   
# ...
 1950.5000   170.9355     8.4134    -0.0046  1662.1539     2.4639   -71.5870     4.3775     3.3436     7.8279
 1951.0000   175.7050     8.4122    -0.0016  1662.7693     2.4638   -71.5843     4.1113     3.0996     5.9332
 1951.5000   182.8698     8.4110     0.0046  1663.3846     2.4623   -71.5816     3.8345     2.8925     6.6256
 1952.0000   197.2202     8.4097     0.0076  1664.0000     2.4592   -71.5789     3.8067     2.7367     5.2711
 1952.5000   210.3729     8.3775     0.0168  1664.6154     2.4576   -71.5763     3.8054     2.6988     4.5256
 1953.0000   234.3042     8.3763     0.0168  1665.2308     2.4545   -71.5799     3.8312     2.7171     5.1597
 1953.5000   240.8701     8.3751     0.0045  1665.8462     2.4529   -71.5855     3.9667     2.9549     4.1618
 1954.0000   234.2624     8.3739    -0.0078  1666.4615     2.4483   -71.5912     4.1441     4.0598     6.4784
 1954.5000   227.0559     8.3726    -0.0201  1667.0770     2.4421   -71.5968     4.4829     4.4450     8.5414
 1955.0000   222.8434     8.3714    -0.0232  1667.6924     2.4344   -71.6025     4.8764     4.7946    10.7289
 1955.5000   214.4393     8.3392    -0.0262  1668.3076     2.4282   -71.6081     5.2699     5.1958    11.8212
 1956.0000   221.0053     8.3380    -0.0293  1668.9230     2.4205   -71.6138     5.6634     5.6438    12.0600
 1956.5000   223.3796     8.3367    -0.0324  1669.5383     2.4159   -71.6194     6.0646     6.2158    11.3280
 1957.0000   223.9581     8.3355    -0.0324  1670.1538     2.4143   -71.6251     6.4517     6.9408    12.4751
 1957.5000   219.1463     8.3033    -0.0294  1670.7692     2.4189   -71.6307     6.8635     7.5916    12.3848
 1958.0000   210.1434     8.3021    -0.0140  1663.7939     2.4235   -71.6364     7.3016     8.0216    12.8164
 1958.5000   205.3321     8.3009     0.0013  1641.1534     2.4236   -71.6420     7.5551     8.4760    14.0181
 1959.0000   207.7064     8.2687    -0.0141  1641.8461     2.4142   -71.6477     7.7634     8.8333    14.7100
 1959.5000   211.2784     8.2674    -0.0294  1642.4614     2.4034   -71.6533     7.8131     9.2056    12.2827
 1960.0000   214.2515     8.2662    -0.0294  1643.0769     2.3942   -71.6590     7.8633     9.5937    12.8879
 1960.5000   216.0369     8.2650    -0.0233  1643.6923     2.3849   -71.6646     7.8589     9.9293    13.1549
 1961.0000   218.4212     8.2638    -0.0233  1644.3076     2.3833   -71.6703     7.8546    10.2063    13.1493
 1961.5000   219.5781     8.2625    -0.0203  1644.9230     2.3910   -71.6759     7.8503    10.2753    13.5149
 1962.0000   220.1756     8.2613    -0.0203  1645.5383     2.4002   -71.6816     7.8459    10.1329    13.7927
 1962.5000   220.7585     8.2601    -0.0203  1646.1538     2.4063   -71.6872     7.8416     9.7878    13.1358
 1963.0000   221.3119     8.2588    -0.0142  1646.7692     2.4109   -71.6929     7.8364     9.5199    11.6740
 1963.5000   220.6217     8.2576    -0.0112  1678.1538     2.4201   -71.6932     7.8321     9.6520    11.4303
 1964.0000   219.4331     8.2873    -0.0020  1678.7693     2.4277   -71.6915     7.8823    10.0671    13.5311
 1964.5000   218.8533     8.2861     0.0012  1679.3846     2.4231   -71.6899     7.9328    10.4817    14.1719
 1965.0000   218.2344     8.3158    -0.0143  1680.0000     2.4138   -71.6882     7.9285    10.0434    14.2489
 1965.5000   220.1736     8.3146    -0.0235  1680.6155     2.4030   -71.6866     7.9242     9.7121    14.5416
 1966.0000   222.9831     8.3443    -0.0327  1681.2307     2.3969   -71.6849     8.0305     9.7108    14.6388
 1966.5000   217.8613     8.3463    -0.0327  1681.8462     2.3922   -71.6833     8.1382     9.9814    12.7414
 1967.0000   205.2254     8.3728    -0.0327  1682.4615     2.3891   -71.6816     8.2473    10.5468    12.0521
 1967.5000   196.9012     8.3715    -0.0327  1683.0769     2.3891   -71.6800     8.2428    10.9914    14.6226
 1968.0000   190.0434     8.3748    -0.0328  1683.6923     2.3891   -71.6783     8.1814    11.2980    15.4497
 1968.5000   185.8114     8.4001    -0.0327  1684.3077     2.3890   -71.6767     8.1204    11.2183    14.6127
 1969.0000   178.2962     8.4298    -0.0266  1684.9231     2.3875   -71.6750     7.9488    10.8362    14.2089
 1969.5000   175.2254     8.4596    -0.0236  1685.5385     2.3859   -71.6734     7.8896    10.3950    14.1073
 1970.0000   177.7337     8.4644    -0.0298  1686.1538     2.3907   -71.6717     7.8307     9.5672    13.9075
 1970.5000   179.4326     8.4881    -0.0297  1686.7693     2.4077   -71.6701     7.8264     8.6248    12.1059
 1971.0000   181.3941     8.4937    -0.0235  1687.3845     2.4277   -71.6684     7.8767     8.3310     9.6311
 1971.5000   184.3683     8.5166    -0.0174  1688.0000     2.4429   -71.6668     7.8169     8.6822     9.8139
 1972.0000   183.7496     8.5152    -0.0112  1688.6154     2.4550   -71.6651     7.7586     9.8297    13.0035
 1972.5000   177.7418     8.4830    -0.0051  1689.2307     2.4611   -71.6635     7.7544    10.5310    13.7101
 1973.0000   172.3327     8.4817    -0.0022  1689.8462     2.4642   -71.6620     7.6966    10.3851    13.7834
 1973.5000   165.1272     8.4805    -0.0025  1690.4615     2.4686   -71.6694     7.6392     9.8915    14.5617
 1974.0000   156.1253     8.4793    -0.0084  1691.0770     2.4718   -71.6754     7.6892     9.4213    13.8685
 1974.5000   145.9258     8.4780    -0.0115  1691.6924     2.4749   -71.6813     7.7385     9.0418    12.4107
 1975.0000   141.1156     8.4458    -0.0112  1692.3077     2.4794   -71.6872     7.7332     8.7943    11.6574
 1975.5000   140.4969     8.4446    -0.0085  1692.9231     2.4826   -71.8438     7.7838     8.7931    11.4150
 1976.0000   141.0759     8.4322    -0.0054  1693.5385     2.4872   -72.0003     7.7785     8.9759    12.3125
 1976.5000   139.2596     8.4111    -0.0023  1694.1538     2.4933   -72.0062     7.7743     9.2260    13.6546
 1977.0000   136.2457     8.4099     0.0007  1694.7693     2.4977   -72.1628     7.7700     9.4181    14.8318
 1977.5000   135.4293     8.3777    -0.0024  1695.3846     2.5006   -72.1687     7.7658     9.4821    15.3489
 1978.0000   137.4036     8.3765    -0.0024  1696.0000     2.4895   -72.1747     7.7615     9.1588    13.8307
 1978.5000   139.1802     8.3752    -0.0020  1696.6155     2.4819   -72.3313     7.7572     8.4878    12.9912
 1979.0000   140.9581     8.3740     0.0041  1697.2307     2.4773   -72.3373     7.5255     7.9753    12.7194
 1979.5000   145.7273     8.3868     0.0098  1697.8461     2.4836   -72.3461     7.1290     7.7570    12.2541
 1980.0000   152.8931     8.4025     0.0063  1698.4614     2.5057   -72.3571     6.9302     7.8097    11.5268
 1980.5000   157.6637     8.4012     0.0006  1699.0769     2.5127   -72.3680     6.7838     7.7549    11.3752
 1981.0000   160.0390     8.4000    -0.0025  1699.6923     2.5019   -72.3790     6.6867     7.6422    11.9357
 1981.5000   161.8164     8.4297     0.0036  1700.3076     2.4795   -72.3900     6.5910     7.4897    11.8483
 1982.0000   161.7957     8.4285     0.0067  1700.9231     2.4828   -72.4010     6.5418     7.2845    11.5209
 1982.5000   161.7759     8.4582     0.0072  1701.5385     2.4982   -72.4120     6.4931     7.0364    11.3587
 1983.0000   161.7560     8.4570     0.0097  1732.9231     2.5085   -72.4229     6.4895     6.8912    11.3549
 1983.5000   161.1374     8.4867     0.0092  1733.5386     2.5156   -72.4339     6.4860     7.1325    11.2727
 1984.0000   159.9199     8.5164     0.0036  1734.1539     2.5014   -72.4449     6.4824     7.0823    10.4429
 1984.5000   159.3013     8.5461     0.0005  1734.7693     2.4837   -72.4559     6.4789     6.9842     9.9466
 1985.0000   157.4850     8.5759     0.0035  1735.3846     2.4771   -72.4669     6.4753     6.9832    10.4358
 1985.5000   157.4652     8.5744     0.0035  1736.0000     2.4872   -72.4779     6.4718     7.2776    10.8745
 1986.0000   159.8405     8.5731     0.0029  1736.6155     2.4961   -72.4888     6.4683     7.6369    11.1760
 1986.5000   160.4195     8.6031    -0.0027  1737.2308     2.5050   -72.4998     6.4647     7.9588    11.1721
