~VERSION INFORMATION
 VERS.                2.0:   CWLS LOG ASCII STANDARD - VERSION 2.0
 WRAP.                 NO:   ONE LINE PER DEPTH STEP
~WELL INFORMATION
#MNEM.UNIT      DATA TYPE    INFORMATION
#----------   ------------   ------------------------------
 STRT.F           89.5000:   START DEPTH
 STOP.F         1300.5000:   STOP DEPTH
 STEP.F            0.5000:   STEP LENGTH
 NULL.          -999.2500:   NO VALUE
 COMP.            US NAVY:   COMPANY
 WELL. US NPR 3 "S" #62-11:   WELL
 FLD .             TEAPOT:   FIELD
 LOC .      S11 T38N R78W:   LOCATION
 CNTY.            NATRONA:   COUNTY
 STAT.            WYOMING:   STATE
 CTRY. UNITED STATES OF AMERICA:   COUNTRY
 SRVC.       SCHLUMBERGER:   SERVICE COMPANY
 DATE.        20-JUL-1964:   LOGDATE
 API .     49025063660000:   API NUMBER
~CURVE INFORMATION
#MNEM.UNIT       API CODE    CURVE DESCRIPTION
#----------   ------------   ------------------------------
 DEPT.F                  :   
 CALS.IN     60 280 50 00:   CALIPER FROM SONIC LOG
 DT  .US/F   60 520 33 00:   DELTA TIME
 SPR .MV     05 010 01 00:   SPONTANEOUS POTENTIAL FROM RES.
 ASN .OHMM   05 041 16 00:   AMPLIFIED SHORT NORMAL 16"
 ILD .OHMM   05 120 46 00:   INDUCTION LOG DEEP
~PARAMETER INFORMATION
#MNEM.UNIT          VALUE    DESCRIPTION
#----------   ------------   ------------------------------
 EKB .F         5223.0000:   Kelly bushing
 EGL .F         5215.0000:   Ground level
 EDF .F            0.0000:   Drilling floor
 TD  .F         1303.0000:   Total depth
 DATE.        20-JUL-1964:   Date logged
 CLNT.            A2DTECH:   Client Code
 PD  .                 GL:   Permanent Datum
 EPD .F              5215:   Elevation Permanent Datum
 LMF .                 KB:   Log Measured From
 DMF .                 KB:   Drilling Measured From
 DAPD.F                 8:   Feet Above Permanent Datum
 DD  .F              1303:   Depth driller
 DL  .F              1300:   Depth logger
 BLI .F              1299:   Bottom log interval
 TLI .F                94:   Top log interval
 CS1 .IN            12.25:   Casing size
 CBD1.       12.25" @ 10':   Casing driller 1
 BS1 .IN               11:   Bit size
 BSD1.F              1303:   Depth drilled with bit1
 DFT .            GEL/OIL:   Type fluid in hole
 DFD .                9.8:   Density
 DFV .                 60:   Viscosity
 DFL .                 10:   Fluid loss
 MSS .           FLOWLINE:   Source of sample
 RMS .OHMM           3.13:   Rm
 MST .F                86:   Rm Meas. temp.
 RMF .OHMM           1.81:   Rmf
 MFST.F                86:   Rmf Meas. temp.
 RMC .OHMM           3.39:   Rmc
 MCST.F                86:   Rmc Meas. temp.
 MFSS.                 FP:   Source Rmf.
 MCSS.                 FP:   Source Rmc.
 TCS .HRS             2.5:   Time Circ. stopped
 LUN .               4507:   Logging unit number
 LUL .               CSPR:   Logging unit location
 ENGI.             DANNER:   Recorded By
 WITN.         JORGENESEN:   Witnessed by
 ORIG.       2", 5" PRINT:   Origin of data
 UWI .     49025063660000:   Unique Well ID
 DICO. A2D TECHNOLOGIES, INC.:   Digitizing Company
~OTHER INFORMATION
~A   DEPT     CALS         DT        SPR        ASN          ILD 
# ...
  882.5000    11.3040    96.1960   -48.2490    14.9950    13.0400
  883.0000    11.2970    95.5300   -47.6280    14.9750    12.9300
  883.5000    11.3320    94.4050   -47.1260    14.9510    12.8540
  884.0000    11.3740    93.2810   -46.9690    14.9280    12.9050
  884.5000    11.3440    92.2920   -47.1710    14.9240    12.9820
  885.0000    11.2990    92.1920   -47.5260    14.9460    13.0260
  885.5000    11.2950    92.5400   -47.6870    14.9760    13.0950
  886.0000    11.2930    92.6930   -47.4030    14.9890    13.1490
  886.5000    11.2900    91.3630   -47.1400    15.0250    13.2080
  887.0000    11.2870    90.0380   -47.2840    15.0460    13.2740
  887.5000    11.2850    88.7130   -47.5720    15.0570    13.3320
  888.0000    11.2820    87.3880   -47.7950    15.1180    13.5290
  888.5000    11.2790    86.9560   -47.6520    15.0810    13.8090
  889.0000    11.2980    87.7730   -47.3140    15.1700    14.1440
  889.5000    11.2910    88.9610   -47.1610    15.7240    14.8460
  890.0000    11.2850    90.1490   -46.9750    16.3460    15.8100
  890.5000    11.2800    91.3370   -46.9020    17.4230    16.7440
  891.0000    11.3170    92.5250   -46.6790    18.4990    17.7080
  891.5000    11.4110    93.7130   -45.7950    19.5760    18.6340
  892.0000    11.5180    94.0940   -44.8720    20.6520    19.3250
  892.5000    11.6230    91.5920   -44.0920    21.6770    19.4870
  893.0000    11.6520    84.1390   -43.2400    20.9780    18.8690
  893.5000    11.6770    76.8290   -42.7290    19.7680    17.8490
  894.0000    11.5720    59.8600   -42.8780    18.5590    16.8750
  894.5000    11.4660    59.7600   -43.7380    17.3500    15.8850
  895.0000    11.3590    62.4620   -44.6070    16.1410    14.8750
  895.5000    11.3360    63.2220   -44.9620    14.7320    13.9210
  896.0000    11.3300    71.6010   -45.3930    14.4750    12.9530
  896.5000    11.3240    81.6730   -45.7550    14.2280    12.2790
  897.0000    11.3190    86.2530   -45.6210    13.9820    12.1320
  897.5000    11.3170    90.0840   -45.4450    13.7350    12.0910
  898.0000    11.3170    92.8220   -45.3090    13.4880    11.9730
  898.5000    11.3200    94.0690   -45.1990    13.2440    11.9070
  899.0000    11.3230    94.7690   -45.3350    13.1530    11.8100
  899.5000    11.3260    95.0910   -45.4970    13.1650    11.7530
  900.0000    11.3290    95.3950   -45.6020    13.1780    11.8250
  900.5000    11.3330    95.1300   -45.7490    13.1900    11.9060
  901.0000    11.3360    94.6150   -45.8770    13.2030    11.9730
  901.5000    11.3340    94.0990   -46.0050    13.2150    12.0520
  902.0000    11.3280    93.5840   -46.1390    13.2280    12.1250
  902.5000    11.3230    93.0680   -46.2670    13.2440    12.1970
  903.0000    11.3170    92.5530   -46.3970    13.2440    12.2550
  903.5000    11.3130    92.2310   -46.5270    13.2440    12.2500
  904.0000    11.3100    92.3600   -46.6610    13.1400    12.1560
  904.5000    11.3060    92.4890   -46.6810    13.0290    12.0210
  905.0000    11.3020    92.6180   -46.5590    12.9190    11.8900
  905.5000    11.2980    92.7460   -46.4150    12.8070    11.7570
  906.0000    11.2950    92.4990   -46.1880    12.6930    11.6250
  906.5000    11.2910    92.0410   -45.8350    12.5900    11.4920
  907.0000    11.2870    91.8770   -45.4940    12.4440    11.3590
  907.5000    11.2830    91.7480   -45.1500    12.2580    11.2280
  908.0000    11.2800    91.1110   -44.7950    12.1430    11.0920
  908.5000    11.2790    90.0800   -44.6100    12.0690    10.9650
  909.0000    11.2790    89.4200   -44.5610    11.9750    10.8260
  909.5000    11.2790    88.8440   -44.5410    11.8940    10.6660
  910.0000    11.2790    88.2680   -44.5160    11.8080    10.5630
  910.5000    11.2790    87.8700   -44.4530    11.6560    10.5240
  911.0000    11.2790    87.6410   -44.4810    11.4920    10.4840
  911.5000    11.2790    87.6370   -44.3800    11.4050    10.4410
  912.0000    11.2790    87.5880   -43.9270    11.3260    10.4020
  912.5000    11.2760    87.7670   -43.4410    11.2360    10.3600
  913.0000    11.2710    87.9840   -43.0540    11.1560    10.3190
  913.5000    11.2660    88.2010   -42.7340    11.0640    10.2780
  914.0000    11.2610    88.3840   -42.4250    10.9960    10.2370
  914.5000    11.2570    88.3540   -42.1440    10.8900    10.1960
  915.0000    11.2520    88.3240   -42.1780    10.7760    10.1550
  915.5000    11.2470    88.2930   -42.3840    10.8080    10.1140
  916.0000    11.2420    88.5230   -42.4970    10.8920    10.0740
  916.5000    11.2370    88.8040   -42.6550    10.9430    10.0320
  917.0000    11.2330    88.9280   -42.8110    11.0100     9.9910
  917.5000    11.2280    89.0530   -42.6340    11.0750     9.9810
  918.0000    11.2230    89.1780   -42.1580    11.1350    10.0040
  918.5000    11.2230    89.3030   -41.8530    11.2010    10.0280
  919.0000    11.2270    89.4280   -41.7720    11.2640    10.0510
  919.5000    11.2310    89.5530   -41.6300    11.3250    10.0740
  920.0000    11.2350    89.6900   -41.5010    11.3910    10.0980
  920.5000    11.2390    89.6470   -41.3360    11.4590    10.1210
  921.0000    11.2460    89.5860   -40.9500    11.4590    10.1440
  921.5000    11.2540    89.5250   -40.5180    11.3880    10.1710
  922.0000    11.2480    89.2630   -40.0820    11.3210    10.1660
  922.5000    11.2180    88.7080   -39.6450    11.2600    10.1150
  923.0000    11.2100    88.1530   -39.4980    11.1930    10.0610
  923.5000    11.2440    88.3490   -39.6270    11.1310    10.0160
  924.0000    11.2600    88.7270   -39.8470    11.0660     9.9690
  924.5000    11.2380    89.1050   -39.9560    11.0020     9.9170
  925.0000    11.2090    89.1890   -39.7470    10.9390     9.8740
  925.5000    11.1800    89.1890   -39.4250    10.8710     9.8680
  926.0000    11.1630    89.1120   -39.1750    10.8130     9.8730
  926.5000    11.2020    88.9920   -38.9790    10.7410     9.8700
  927.0000    11.2420    88.8730   -38.8840    10.6690     9.8710
  927.5000    11.2500    88.7530   -38.7960    10.6600     9.8710
  928.0000    11.2590    88.6330   -38.6990    10.6860     9.8710
  928.5000    11.2680    88.5130   -38.6120    10.7100     9.8710
  929.0000    11.2780    88.3930   -38.5060    10.7480     9.8710
  929.5000    11.2610    88.2730   -38.4370    10.7730     9.8710
  930.0000    11.2400    88.0880   -38.3120    10.8090     9.8590
  930.5000    11.2210    88.1400   -38.2670    10.8380     9.8360
  931.0000    11.2130    88.1880   -38.4610    10.7620     9.8130
  931.5000    11.2040    88.7870   -38.6370    10.6630     9.7900
  932.0000    11.1790    89.4100   -38.8500    10.6500     9.7670
  932.5000    11.1450    90.0330   -38.9950    10.6510     9.7440
  933.0000    11.2010    90.6560   -38.7170    10.6380     9.7200
  933.5000    11.2630    91.0910   -38.3030    10.6370     9.6980
  934.0000    11.2750    90.9290   -37.9590    10.6280     9.6740
  934.5000    11.2700    90.4400   -37.6820    10.6220     9.6500
  935.0000    11.2640    89.9500   -37.6590    10.6170     9.6280
  935.5000    11.2590    89.4600   -37.8480    10.6080     9.6020
  936.0000    11.2600    89.2010   -38.1360    10.6070     9.5810
  936.5000    11.2600    89.2260   -38.4700    10.5930     9.5560
  937.0000    11.2600    89.2520   -38.7820    10.5920     9.5310
  937.5000    11.2600    89.2780   -39.0150    10.5880     9.5130
  938.0000    11.2600    88.9750   -39.1130    10.5650     9.4790
  938.5000    11.2590    88.4160   -39.1700    10.5900     9.4760
  939.0000    11.2580    87.8580   -39.2490    10.5410     9.5170
  939.5000    11.2560    87.2990   -39.3140    10.4830     9.5630
  940.0000    11.2540    86.6870   -39.3860    10.6780     9.6120
  940.5000    11.2530    86.2910   -39.4610    10.9410     9.6270
  941.0000    11.2510    85.8530   -39.5230    11.1640     9.6940
  941.5000    11.2500    85.4150   -39.6080    11.4110     9.9120
  942.0000    11.2480    84.9850   -39.6670    11.6300    10.2850
  942.5000    11.2460    85.6420   -39.7490    11.9030    10.7400
  943.0000    11.2450    86.2860   -40.0740    12.0840    11.3380
