~VERSION INFORMATION
 VERS.                2.0:   CWLS LOG ASCII STANDARD - VERSION 2.0
 WRAP.                 NO:   ONE LINE PER DEPTH STEP
~WELL INFORMATION
#MNEM.UNIT      DATA TYPE    INFORMATION
#----------   ------------   ------------------------------
 STRT.F          210.5000:   START DEPTH
 STOP.F         3234.0000:   STOP DEPTH
 STEP.F            0.5000:   STEP LENGTH
 NULL.          -999.2500:   NO VALUE
 COMP.    FENIX & SCISSON:   COMPANY
 WELL.   FENIX "A" #21-10:   WELL
 FLD .              NPR-3:   FIELD
 LOC .      S10 T38N R78W:   LOCATION
 CNTY.            NATRONA:   COUNTY
 STAT.            WYOMING:   STATE
 CTRY. UNITED STATES OF AMERICA:   COUNTRY
 SRVC.      DRESSER ATLAS:   SERVICE COMPANY
 DATE.        31-AUG-1977:   LOGDATE
 API .     49025104260000:   API NUMBER
~CURVE INFORMATION
#MNEM.UNIT       API CODE    CURVE DESCRIPTION
#----------   ------------   ------------------------------
 DEPT.F                  :   
 GRD .GAPI   45 310 01 00:   GAMMA RAY FROM DENSITY LOG
 CALD.IN     45 280 60 00:   CALIPER FROM DENSITY LOG
 RHOB.G/C3   45 350 01 00:   BULK DENSITY
 CORR.G/C3   45 356 01 00:   DENSITY CORRECTION
 SPR .MV     11 010 01 00:   SPONTANEOUS POTENTIAL
 LLS .OHMM   11 220 09 00:   LATEROLOG SHALLOW
 LLD .OHMM   11 220 10 00:   LATEROLOG DEEP
 TEND.LBS    45 635 01 00:   TENSION FROM DENSITY LOG
 TENR.LBS    07 635 01 00:   TENSION
~PARAMETER INFORMATION
#MNEM.UNIT          VALUE    DESCRIPTION
#----------   ------------   ------------------------------
 EKB .F         5258.0000:   Kelly bushing
 EGL .F         5248.0000:   Ground level
 EDF .F            0.0000:   Drilling floor
 TD  .F         3222.0000:   Total depth
 DATE.        31-AUG-1977:   Date logged
 CLNT.            A2DTECH:   Client Code
 SL  . 330' FNL & 990' FWL:   Surface Location
 PD  .                 GL:   Permanent Datum
 EPD .F              5248:   Elevation Permanent Datum
 LMF .                 KB:   Log Measured From
 DMF .                 KB:   Drilling Measured From
 DAPD.F                10:   Feet Above Permanent Datum
 DD  .F              3222:   Depth driller
 DL  .F              3219:   Depth logger
 BLI .F              3218:   Bottom log interval
 TLI .F               221:   Top log interval
 CS1 .IN             8.75:   Casing size
 CBD1.       8.75" @ 219':   Casing driller 1
 CBL1.F               221:   Casing logger 1
 BS1 .IN            7.875:   Bit size
 BSD1.F              3222:   Depth drilled with bit1
 DFT .                KCL:   Type fluid in hole
 DFD .                9.1:   Density
 DFV .                 36:   Viscosity
 DFPH.                 11:   pH
 DFL .                  8:   Fluid loss
 MSS .           FLOWLINE:   Source of sample
 RMS .OHMM           0.14:   Rm
 MST .F                72:   Rm Meas. temp.
 RMF .OHMM           0.08:   Rmf
 MFST.F                72:   Rmf Meas. temp.
 RMC .OHMM           0.20:   Rmc
 MCST.F                72:   Rmc Meas. temp.
 MFSS.               CALC:   Source Rmf.
 MCSS.               CALC:   Source Rmc.
 RMB .OHMM           0.08:   Rm. at BHT
 BHT .F               125:   BHT.
 TCS .HRS               3:   Time Circ. stopped
 MRT .F               125:   Maximum recorded temp.
 LUN .               6080:   Logging unit number
 LUL .              WLSTN:   Logging unit location
 ENGI.               RALL:   Recorded By
 WITN.         PETTINGILL:   Witnessed by
 ORIG.           5" PRINT:   Origin of data
 UWI .     49025104260000:   Unique Well ID
 DICO. A2D TECHNOLOGIES, INC.:   Digitizing Company
~OTHER INFORMATION
~A   DEPT      GRD       CALD       RHOB       CORR        SPR        LLS        LLD       TEND        TENR  
# ...
 1816.5000    87.7180     9.9340     2.5430    -0.0030   -79.6920    10.2530    11.0350   405.9410   506.5450
 1817.0000    86.3320     9.9390     2.5480    -0.0020   -79.8030    10.1100    10.8190   403.4650   506.7070
 1817.5000    85.0910     9.9450     2.5510    -0.0020   -79.9150     9.9660    10.6040   398.5150   506.8690
 1818.0000    86.8470     9.9500     2.5480    -0.0010   -80.0270     9.8230    10.3890   393.5640   507.0310
 1818.5000    88.8480     9.9550     2.5450    -0.0010   -80.1380     9.6790    10.1650   388.6140   507.1930
 1819.0000    90.8110     9.9610     2.5430     0.0000   -80.2490     9.6220    10.2510   383.6630   507.3550
 1819.5000    91.6370     9.9660     2.5420     0.0000   -80.3620     9.8950    10.3960   378.7130   507.5170
 1820.0000    89.1900     9.9710     2.5400     0.0010   -80.4130    10.1260    10.5400   373.7620   507.6790
 1820.5000    86.6870     9.9760     2.5380     0.0010   -80.0150    10.2580    10.6850   368.8120   507.8410
 1821.0000    86.5230     9.9820     2.5420     0.0020   -79.5690    10.3520    10.8370   387.1290   508.0020
 1821.5000    87.5550     9.9870     2.5470     0.0020   -79.1280    10.0280    10.5270   456.4360   508.1640
 1822.0000    88.6170     9.9930     2.5500     0.0030   -78.9050     9.7650    10.2760   455.4460   508.3260
 1822.5000    89.3950     9.9960     2.5500     0.0030   -79.2010     9.3610    10.0240   306.9310   508.4880
 1823.0000    88.3600    10.0000     2.5500     0.0040   -79.4790     9.4520     9.8890   504.9500   508.6500
 1823.5000    87.3310    10.0030     2.5500     0.0040   -79.7570     9.7100     9.9820   559.4060   508.8120
 1824.0000    86.3220    10.0070     2.5500     0.0050   -80.0370     9.6110    10.0890   467.4680   508.9740
 1824.5000    88.6290    10.0100     2.5500     0.0060   -80.3160     9.4650    10.2580   366.3370   509.1360
 1825.0000    91.2880    10.0140     2.5500     0.0070   -80.5860     9.3200     9.7910   346.5350   509.2980
 1825.5000    93.1190    10.0180     2.5510     0.0080   -80.6800     8.9750     9.2670   353.9600   509.4590
 1826.0000    94.1190    10.0210     2.5520     0.0080   -80.2750     8.5470     8.7430   362.2110   509.6210
 1826.5000    95.1200    10.0250     2.5530     0.0090   -79.9410     8.0870     8.3880   370.4620   509.7830
 1827.0000    96.8130    10.0290     2.5540     0.0100   -79.8220     8.1330     8.5040   378.7130   509.9450
 1827.5000    98.8020    10.0320     2.5550     0.0110   -79.8290     8.1960     8.5910   386.1390   510.1070
 1828.0000   100.8550    10.0360     2.5560     0.0110   -79.9820     8.2590     8.7010   386.1390   510.2690
 1828.5000   101.0360    10.0400     2.5570     0.0120   -80.1690     8.3120     8.6580   386.8940   510.4310
 1829.0000   100.3920    10.0430     2.5580     0.0130   -80.3330     8.1920     8.5370   387.7330   510.5930
 1829.5000    99.7670    10.0470     2.5600     0.0140   -80.4980     8.0680     8.4160   388.5720   510.7550
 1830.0000    99.7650    10.0510     2.5620     0.0150   -80.6660     7.9400     8.3120   389.4110   510.9160
 1830.5000   101.1290    10.0530     2.5630     0.0150   -80.8340     7.9400     8.2930   390.2500   511.0780
 1831.0000   103.0030    10.0480     2.5650     0.0160   -81.0150     7.8810     8.2620   391.0890   511.2400
 1831.5000   104.8920    10.0420     2.5640     0.0150   -81.1750     7.7250     8.2360   391.9280   511.4020
 1832.0000   106.5020    10.0360     2.5640     0.0140   -81.1090     7.7350     8.2360   392.7670   511.5640
 1832.5000   105.2450    10.0310     2.5630     0.0130   -80.9060     7.7590     8.2360   393.6060   511.7260
 1833.0000   103.9950    10.0250     2.5630     0.0110   -80.7040     7.7960     8.2360   394.4450   511.8880
 1833.5000   103.4600    10.0190     2.5620     0.0100   -80.5030     7.6740     8.2360   395.2840   512.0500
 1834.0000   104.9450    10.0140     2.5590     0.0090   -80.3020     7.5160     8.2360   396.1240   512.2120
 1834.5000   106.3560    10.0080     2.5550     0.0070   -80.1010     7.6500     8.2360   396.9630   512.3740
 1835.0000   107.0150    10.0020     2.5520     0.0060   -79.9010     7.7790     8.2360   397.8020   512.5350
 1835.5000   105.5390     9.9970     2.5500     0.0030   -79.7000     8.0130     8.2360   398.6410   512.6970
 1836.0000   104.1230     9.9910     2.5500     0.0000   -79.4950     7.5850     8.2360   399.4800   512.8590
 1836.5000   102.6600     9.9850     2.5520    -0.0020   -79.6350     7.8780     8.2360   400.3190   513.0210
 1837.0000   103.3310     9.9800     2.5530     0.0000   -79.9670     8.0870     8.2390   401.1580   513.1830
 1837.5000   104.8870     9.9740     2.5550     0.0010   -80.3010     7.9330     8.2360   401.9970   513.3450
 1838.0000   102.2810     9.9680     2.5560     0.0020   -80.6370     7.6550     8.3120   402.8360   513.5070
 1838.5000   106.3400     9.9630     2.5570     0.0040   -80.9690     7.9020     8.3880   403.6750   513.6690
 1839.0000   104.9550     9.9570     2.5560     0.0050   -81.2200     8.0870     8.3570   404.5140   513.8310
 1839.5000   103.4040     9.9490     2.5600     0.0060   -81.2110     8.2360     8.3280   405.3530   513.9920
 1840.0000   101.9000     9.9270     2.5630     0.0080   -80.9570     8.1760     8.3000   405.9410   514.1540
 1840.5000   100.4380     9.9060     2.5660     0.0090   -80.6700     8.0640     8.2710   401.2050   514.3160
 1841.0000    99.3720     9.8850     2.5680     0.0110   -80.3860     7.9520     8.2360   396.9010   514.4780
 1841.5000    99.4410     9.8650     2.5690     0.0130   -80.1100     7.8400     8.2830   392.5960   514.6400
 1842.0000   100.4450     9.8440     2.5690     0.0140   -79.8140     7.7250     8.3650   388.2910   514.8020
 1842.5000   101.6070     9.8230     2.5680     0.0130   -80.1360     7.7250     8.4480   383.9860   514.9640
 1843.0000   106.7920     9.8020     2.5650     0.0120   -80.5470     7.9810     8.5310   379.6810   515.1260
 1843.5000   109.5510     9.7810     2.5620     0.0120   -80.8270     8.1980     8.6140   375.3770   515.2880
 1844.0000   111.2820     9.7600     2.5590     0.0110   -80.5530     8.4150     8.6970   371.0720   515.4490
 1844.5000   109.6640     9.7390     2.5570     0.0100   -80.4210     8.5430     8.7800   366.7670   515.6110
 1845.0000   107.7390     9.7190     2.5550     0.0100   -80.5100     8.5430     8.8620   362.4620   515.7730
 1845.5000   104.6540     9.6980     2.5540     0.0090   -80.7480     8.5430     8.9450   358.1580   515.9350
 1846.0000   101.4460     9.6770     2.5550     0.0090   -80.9870     8.5430     9.1080   353.8530   516.0970
 1846.5000   101.0350     9.6560     2.5560     0.0100   -81.1990     8.4650     9.0410   349.5480   516.2590
 1847.0000   101.6770     9.6350     2.5570     0.0110   -80.8540     8.4330     8.9350   345.2430   516.4210
 1847.5000   102.7870     9.6140     2.5560     0.0120   -80.4680     8.3940     8.8300   340.9380   516.5830
 1848.0000   104.1780     9.5930     2.5550     0.0130   -80.0860     8.3560     8.7240   336.6340   516.7450
 1848.5000   105.5780     9.5730     2.5530     0.0140   -79.7060     8.3170     8.6190   332.3290   516.9070
 1849.0000   106.9810     9.5520     2.5550     0.0150   -79.3250     8.2790     8.4650   328.0240   517.0680
 1849.5000   108.3720     9.5310     2.5580     0.0160   -78.9240     8.2400     8.6220   326.4360   517.2300
 1850.0000   109.3760     9.5100     2.5610     0.0160   -79.1950     8.1610     8.5770   325.8430   517.3920
 1850.5000   109.4110     9.4890     2.5630     0.0170   -79.7120     8.1720     8.5360   325.2500   517.5540
 1851.0000   110.5270     9.4680     2.5620     0.0180   -80.2370     8.1950     8.4950   324.6580   517.7160
 1851.5000   111.6100     9.4480     2.5600     0.0190   -80.7570     8.2180     8.4650   324.0650   517.8780
 1852.0000   112.9450     9.4270     2.5580     0.0200   -80.8140     8.2400     8.5400   323.4720   518.0400
 1852.5000   114.5500     9.4060     2.5550     0.0200   -80.5670     8.2630     8.5980   322.8790   518.2020
