~VERSION INFORMATION
 VERS.                2.0:   CWLS LOG ASCII STANDARD - VERSION 2.0
 WRAP.                 NO:   ONE LINE PER DEPTH STEP
~WELL INFORMATION
#MNEM.UNIT      DATA TYPE    INFORMATION
#----------   ------------   ------------------------------
 STRT.F          298.0000:   START DEPTH
 STOP.F         3084.0000:   STOP DEPTH
 STEP.F            0.5000:   STEP LENGTH
 NULL.          -999.2500:   NO VALUE
 COMP. LAWERNCE ALLISON AND ASSOCIATED:   COMPANY
 WELL. LAWERNCE "TX" #77-20:   WELL
 FLD .        TEAPOT DOME:   FIELD
 LOC .      S20 T39N R78W:   LOCATION
 CNTY.            NATRONA:   COUNTY
 STAT.            WYOMING:   STATE
 CTRY. UNITED STATES OF AMERICA:   COUNTRY
 SRVC.       SCHLUMBERGER:   SERVICE COMPANY
 DATE.        22-JAN-1982:   LOGDATE
 API .     49025108840000:   API NUMBER
~CURVE INFORMATION
#MNEM.UNIT       API CODE    CURVE DESCRIPTION
#----------   ------------   ------------------------------
 DEPT.F                  :   
 CALD.IN     45 280 60 00:   CALIPER FROM DENSITY LOG
 GRD .GAPI   45 310 01 00:   GAMMA RAY FROM DENSITY LOG
 TEND.LBS    45 635 01 00:   TENSION FROM DENSITY LOG
 RHOB.G/C3   45 350 01 00:   BULK DENSITY
 NPHI.DEC    42 890 03 00:   NEUTRON POROSITY SANDSTONE
 CORR.G/C3   45 356 01 00:   DENSITY CORRECTION
 SFLU.OHMM   07 220 01 00:   SPHERICALLY FOCUSED LOG UNAVERAGED RESISTIVITY
 ILD .OHMM   07 120 46 00:   INDUCTION LOG DEEP RESISTIVITY
 ILM .OHMM   07 120 44 00:   INDUCTION LOG MEDIUM RESISTIVITY
 TENR.LBS    07 635 01 00:   TENSION
 SPR .MV     07 010 01 00:   SPONTANEOUS POTENTIAL
~PARAMETER INFORMATION
#MNEM.UNIT          VALUE    DESCRIPTION
#----------   ------------   ------------------------------
 EKB .F         5022.0000:   Kelly bushing
 EGL .F         5012.0000:   Ground level
 EDF .F         5021.0000:   Drilling floor
 TD  .F         3079.0000:   Total depth
 DATE.        22-JAN-1982:   Date logged
 CLNT.            A2DTECH:   Client Code
 SL  . 986' FSL & 779' FEL:   Surface Location
 PD  .                 GL:   Permanent Datum
 EPD .F              5012:   Elevation Permanent Datum
 LMF .                 KB:   Log Measured From
 DMF .                 KB:   Drilling Measured From
 DAPD.F                10:   Feet Above Permanent Datum
 DD  .F              3079:   Depth driller
 DL  .F              3070:   Depth logger
 BLI .F              3064:   Bottom log interval
 TLI .F               328:   Top log interval
 CS1 .IN            9.625:   Casing size
 CBD1.      9.625" @ 300':   Casing driller 1
 CBL1.F               328:   Casing logger 1
 BS1 .IN            7.875:   Bit size
 BSD1.F              3079:   Depth drilled with bit1
 DFT .           CHEM/GEL:   Type fluid in hole
 DFD .                8.9:   Density
 DFV .                 50:   Viscosity
 DFPH.               10.5:   pH
 DFL .                  8:   Fluid loss
 MSS .           FLOWLINE:   Source of sample
 RMS .OHMM           2.53:   Rm
 MST .F                49:   Rm Meas. temp.
 RMF .OHMM           2.04:   Rmf
 MFST.F                49:   Rmf Meas. temp.
 RMC .OHMM           3.80:   Rmc
 MCST.F                49:   Rmc Meas. temp.
 MFSS.               MEAS:   Source Rmf.
 MCSS.               CALC:   Source Rmc.
 RMB .OHMM           1.04:   Rm. at BHT
 BHT .F               119:   BHT.
 TCS .HRS            0330:   Time Circ. stopped
 TLAB.HRS            0800:   Time logger at bottom
 MRT .F               119:   Maximum recorded temp.
 LUN .               8043:   Logging unit number
 LUL .               CSPR:   Logging unit location
 ENGI.            PERAKIS:   Recorded By
 WITN.              SCOTT:   Witnessed by
 ORIG.           5" PRINT:   Origin of data
 UWI .     49025108840000:   Unique Well ID
 DICO. A2D TECHNOLOGIES, INC.:   Digitizing Company
~OTHER INFORMATION
~A   DEPT       CALD       GRD      TEND         RHOB       NPHI     CORR       SFLU        ILD        ILM       TENR        SPR   
# ...
  328.5000     9.5390    69.0530   563.6480     2.5880     0.4410     0.2360     9.9950   989.2750     5.8070   537.4430    52.6560
  329.0000     9.9290    76.0490   560.2440     2.5250     0.4250     0.2310    10.0400  1605.8140     6.4890   542.3250    57.8910
  329.5000    10.3210    82.0380   560.0830     2.4490     0.3900     0.1950     9.3410  1905.9830     6.6740   547.2080    59.0980
  330.0000    10.7100    85.3030   563.8650     2.3980     0.3690     0.1430     9.2930  1953.8361     8.6000   552.0910    60.1160
  330.5000    11.1000    86.7260   567.6480     2.3930     0.3650     0.0950     9.1900   513.7670    13.4470   556.9740    60.1370
  331.0000    11.7010    86.4310   571.4310     2.4120     0.3710     0.0750     8.6020    12.1340    11.4220   561.8560    60.1400
  331.5000    12.0870    86.1490   575.2130     2.4230     0.3640     0.0590     8.0130     7.0280     8.5810   566.7390    60.1390
  332.0000    12.4090    85.8520   578.6800     2.4320     0.3490     0.0500     7.4240     6.2790     6.8980   571.6220    60.1390
  332.5000    12.5420    84.5710   577.5330     2.4380     0.3380     0.0430     6.8360     5.5720     6.0270   576.5050    60.1390
  333.0000    12.5960    83.1520   576.4750     2.4440     0.3520     0.0360     6.2470     5.0900     5.1560   575.1990    60.1390
  333.5000    12.5980    81.8990   575.4160     2.4500     0.3680     0.0290     5.6410     4.4940     4.4640   568.9220    60.1390
  334.0000    12.6010    82.1140   574.3570     2.4520     0.3780     0.0250     4.8460     3.8740     3.8270   562.6440    60.1420
  334.5000    12.6040    82.6170   573.2990     2.4480     0.3800     0.0220     4.0260     3.2540     3.1900   556.3660    60.0200
  335.0000    12.6070    83.8770   572.2400     2.4370     0.3810     0.0180     3.2070     2.8520     2.5530   550.0880    59.8540
  335.5000    12.6100    85.3940   571.1820     2.4230     0.3920     0.0160     2.3870     2.8260     2.2790   543.8100    59.6880
  336.0000    12.6120    86.5790   570.1230     2.4020     0.4060     0.0180     1.8910     2.8260     2.5240   537.5320    59.5210
  336.5000    12.6170    86.4620   569.0640     2.3750     0.4230     0.0240     2.5880     2.9830     2.7730   531.2550    59.3540
  337.0000    12.6820    85.3820   568.0060     2.3480     0.4320     0.0490     3.7070     3.2000     3.1620   524.9770    59.1840
  337.5000    12.7530    84.7170   566.9470     2.3110     0.4540     0.0740     4.8250     3.4060     3.5400   518.6990    59.1430
  338.0000    12.7930    83.5020   565.8880     2.2780     0.4910     0.0930     6.4890     4.3510     4.1940   511.4850    59.2530
  338.5000    12.7710    81.1880   564.8300     2.2140     0.5520     0.0850     6.3850     5.2510     4.9960   501.8720    59.3950
  339.0000    12.7010    78.8890   563.7710     2.1650     0.5410     0.0550     6.1620     6.1510     5.7980   492.2590    59.5380
  339.5000    12.3540    78.4600   562.7130     2.1960     0.5030     0.0250     6.1350     7.0510     6.4430   482.6460    59.6820
  340.0000    11.9770    80.2990   561.6540     2.2800     0.4320     0.0120     6.6510     7.5480     6.6990   473.0330    59.8230
  340.5000    11.5120    82.7100   560.5950     2.3870     0.3300     0.0180     7.1240     7.8950     6.9550   463.4200    59.9430
  341.0000    11.3990    82.3670   559.5370     2.4340     0.3290     0.0220     7.5970     8.0440     7.2110   458.3460    59.8130
  341.5000    11.3980    83.0060   558.4780     2.4490     0.3480     0.0210     7.8950     8.0710     7.4670   463.0610    59.4770
  342.0000    11.4000    85.7560   557.4200     2.4560     0.3510     0.0190     7.9700     8.0990     7.5590   467.7750    59.1440
  342.5000    11.4020    88.9970   556.3610     2.4660     0.3360     0.0200     7.9730     8.1270     7.5900   472.4900    58.8100
  343.0000    11.4040    90.7320   555.3020     2.4830     0.3230     0.0220     7.9780     8.1560     7.6220   477.2040    58.4750
  343.5000    11.4050    89.4550   554.2440     2.5060     0.3150     0.0310     7.9830     8.1840     7.6540   481.9180    58.1620
  344.0000    11.4070    88.3200   553.1850     2.5300     0.3070     0.0420     7.9880     8.1990     7.6860   486.6330    57.9070
  344.5000    11.4080    89.4990   552.1270     2.5380     0.3040     0.0530     7.9930     8.2050     7.7180   491.3470    57.5240
  345.0000    11.4100    92.4320   551.0680     2.5310     0.3030     0.0590     7.9980     8.2110     7.7490   496.0620    57.1650
  345.5000    11.4120    91.6260   550.0090     2.5240     0.3110     0.0650     8.0030     8.2170     7.7560   500.7760    57.1550
  346.0000    11.4130    90.2190   548.9510     2.5160     0.3200     0.0660     8.0080     8.2230     7.7650   505.4900    57.1570
  346.5000    11.4150    88.9290   547.8920     2.5010     0.3270     0.0480     8.0120     8.2290     7.7740   510.2050    57.1770
  347.0000    11.4160    90.5870   546.8330     2.4800     0.3230     0.0290     8.0170     8.2350     7.7830   514.9190    57.2000
  347.5000    11.3540    93.6480   545.7750     2.4560     0.3170     0.0100     8.0220     8.2410     7.7920   519.6340    57.2230
  348.0000    11.2820    95.7770   544.7160     2.4440     0.3140     0.0070     8.0270     8.2470     7.8010   524.3480    57.2470
  348.5000    11.2090    94.6930   543.6580     2.4510     0.3240     0.0210     8.0320     8.2520     7.8100   529.0620    57.2700
  349.0000    11.1370    92.4040   542.5990     2.4580     0.3240     0.0290     8.0370     8.2580     7.8210   533.7770    57.2930
  349.5000    11.0710    90.4310   541.5400     2.4540     0.3240     0.0280     8.0440     8.2640     7.7240   538.0710    57.3130
  350.0000    11.0540    92.5310   540.4820     2.4430     0.3310     0.0210     7.9660     8.2730     7.5800   538.0710    57.3400
  350.5000    11.0380    95.2040   539.4230     2.4440     0.3400     0.0140     7.8120     8.1480     7.4360   538.0710    57.1280
  351.0000    11.0310    97.9040   538.3650     2.4570     0.3440     0.0240     7.6570     7.8990     7.2920   538.0710    57.0700
  351.5000    11.0330    97.6180   538.5120     2.4730     0.3270     0.0320     7.5020     7.6770     7.1480   538.0710    56.9960
  352.0000    11.0350    97.8280   539.1230     2.4690     0.3120     0.0310     7.1910     7.6570     6.9930   538.0710    56.9190
  352.5000    11.0370   102.2140   539.7330     2.4600     0.2990     0.0170     7.1910     7.6060     7.0790   538.0710    56.8430
  353.0000    11.0390   106.3910   540.3430     2.4530     0.2970     0.0110     7.2880     7.6900     7.1730   538.0710    56.7560
  353.5000    11.0410   105.0370   540.9540     2.4540     0.3060     0.0100     7.5230     7.7900     7.2670   538.0710    56.3640
  354.0000    11.0430   102.4830   541.5640     2.4620     0.3160     0.0150     7.7580     7.8900     7.3600   538.0710    55.9410
  354.5000    11.0450    99.9320   542.1740     2.4700     0.3250     0.0250     7.9940     7.9900     7.4540   538.0710    55.5180
  355.0000    11.0470    97.3590   542.7850     2.4680     0.3290     0.0310     8.1960     8.0900     7.6060   538.0710    55.0940
  355.5000    11.0490    94.7830   543.3950     2.4590     0.3280     0.0210     8.1960     8.2730     7.5240   538.0710    54.6630
  356.0000    11.0490    92.2060   544.0050     2.4490     0.3260     0.0100     8.1230     8.2410     7.4380   538.0710    54.5340
  356.5000    11.1000    89.8290   544.6160     2.4400     0.3240    -0.0010     7.9880     8.1810     7.3510   538.3340    54.4190
  357.0000    11.1510    89.7740   545.2260     2.4360     0.3240    -0.0060     7.8530     8.1220     7.2640   539.0830    54.4190
  357.5000    11.1530    89.7720   545.8360     2.4430     0.3240    -0.0070     7.7190     8.0630     7.1910   539.8330    54.6770
  358.0000    11.1520    90.4130   546.4470     2.4550     0.3210    -0.0010     7.6060     8.0040     7.1910   540.5820    54.9330
  358.5000    11.1520    91.3160   547.0570     2.4710     0.3150     0.0040     7.6060     7.9450     7.1910   541.3320    55.1900
