~VERSION INFORMATION
 VERS.                2.0:   CWLS LOG ASCII STANDARD - VERSION 2.0
 WRAP.                 NO:   ONE LINE PER DEPTH STEP
~WELL INFORMATION
#MNEM.UNIT      DATA TYPE    INFORMATION
#----------   ------------   ------------------------------
 STRT.F            0.0000:   START DEPTH
 STOP.F         1165.5000:   STOP DEPTH
 STEP.F            0.5000:   STEP LENGTH
 NULL.          -999.2500:   NO VALUE
 COMP.   JOHN BROWN E & C:   COMPANY
 WELL. BROWN NPR 3 "X" 1 #63-14:   WELL
 FLD .                NPR:   FIELD
 LOC .      S14 T38N R78W:   LOCATION
 CNTY.            NATRONA:   COUNTY
 STAT.            WYOMING:   STATE
 CTRY. UNITED STATES OF AMERICA:   COUNTRY
 SRVC.     ATLAS WIRELINE:   SERVICE COMPANY
 DATE.        15-JAN-1992:   LOGDATE
 API .     49025224960000:   API NUMBER
~CURVE INFORMATION
#MNEM.UNIT       API CODE    CURVE DESCRIPTION
#----------   ------------   ------------------------------
 DEPT.F                  :   
 GRR .GAPI   07 310 01 00:   GAMMA RAY FROM RESISTIVITY
 RILD.OHMM   07 120 46 00:   INDUCTION LOG DEEP RESISTIVITY
 RILM.OHMM   07 120 44 00:   INDUCTION LOG MEDIUM RESISTIVITY
 TENR.LBS    07 635 01 00:   TENSION
~PARAMETER INFORMATION
#MNEM.UNIT          VALUE    DESCRIPTION
#----------   ------------   ------------------------------
 EKB .F         5270.0000:   Kelly bushing
 EGL .F         5260.0000:   Ground level
 EDF .F         5269.0000:   Drilling floor
 TD  .F         1160.0000:   Total depth
 DATE.        15-JAN-1992:   Date logged
 CLNT.            A2DTECH:   Client Code
 SL  . 1893' FNL & 1971' FEL:   Surface Location
 PD  .                 GL:   Permanent Datum
 EPD .F              5260:   Elevation Permanent Datum
 LMF .                 KB:   Log Measured From
 DMF .                 KB:   Drilling Measured From
 DAPD.F                10:   Feet Above Permanent Datum
 DD  .F              1160:   Depth driller
 DL  .F              1158:   Depth logger
 BLI .F              1150:   Bottom log interval
 CS1 .IN            9.625:   Casing size
 CBD1.       9.625" @ 50':   Casing driller 1
 CBL1.F                48:   Casing logger 1
 BS1 .IN             8.75:   Bit size
 BSD1.F              1160:   Depth drilled with bit1
 DFT .                AIR:   Type fluid in hole
 MRT .F                90:   Maximum recorded temp.
 LUN .            HL-6274:   Logging unit number
 LUL .             CASPER:   Logging unit location
 ENGI.             RAUTIO:   Recorded By
 WITN.        GARY STRONG:   Witnessed by
 ORIG.           5" PRINT:   Origin of data
 UWI .     49025224960000:   Unique Well ID
 DICO. A2D TECHNOLOGIES, INC.:   Digitizing Company
 TLI .F                 0:   Top log interval
~OTHER INFORMATION
~A    DEPT      GRR      RILD       RILM       TENR   
# ...
  876.0000   102.7430    13.0080    13.0540    26.9390
  876.5000   100.9220    12.9340    13.0800    26.9390
  877.0000    99.0730    12.8610    13.1210    26.9390
  877.5000    94.2540    12.7870    13.1750    26.9390
  878.0000    88.7670    12.7140    13.1350    26.9390
  878.5000    84.4950    12.6410    13.0550    26.9390
  879.0000    85.6940    12.5670    12.9750    26.9390
  879.5000    88.9000    12.4940    12.8950    26.9390
  880.0000    92.0000    12.4620    12.8140    26.9390
  880.5000    94.1870    12.6240    12.9440    26.9390
  881.0000    91.2660    12.7430    13.0760    26.9390
  881.5000    88.0340    12.8610    13.2090    26.9390
  882.0000    86.0510    12.9790    13.3410    26.9390
  882.5000    85.7360    13.0970    13.4740    26.9390
  883.0000    86.0650    13.2150    13.6070    26.9390
  883.5000    87.8190    13.2980    13.6730    26.9390
  884.0000    89.5230    13.1330    13.4560    26.9390
  884.5000    90.0830    12.9330    13.3110    26.9390
  885.0000    90.4310    12.8730    13.1670    26.9390
  885.5000    92.6810    12.8100    13.0220    26.9390
  886.0000    96.3110    12.7460    12.9200    26.9390
  886.5000   100.0490    12.6830    12.8530    26.9390
  887.0000   103.7310    12.6190    12.7860    26.9390
  887.5000   104.9770    12.5560    12.7200    26.9390
  888.0000   104.4190    12.4920    12.6530    26.9390
  888.5000   103.4770    12.4290    12.5860    26.9390
  889.0000   102.5860    12.3660    12.5550    26.9390
  889.5000   102.6130    12.2990    12.5300    26.9390
  890.0000   103.0250    12.2310    12.5040    26.9390
  890.5000   104.7150    12.1630    12.4780    26.9390
  891.0000   105.7050    12.1200    12.4620    26.9390
  891.5000   104.7820    12.3140    12.6750    26.9390
  892.0000   102.9370    12.3980    12.8570    26.9390
  892.5000   101.5530    12.5360    13.0380    26.9390
  893.0000   100.9450    12.8610    13.2540    26.9390
  893.5000   100.4140    13.1870    13.5770    26.9390
  894.0000    95.8910    13.4220    13.9000    26.9390
  894.5000    90.7380    13.4220    14.1900    28.6730
  895.0000    86.6850    13.4220    14.1900    30.2740
  895.5000    85.3220    13.4220    13.9520    31.8760
  896.0000    88.1630    13.2840    13.6940    33.4780
  896.5000    90.9150    13.1360    13.4360    35.0800
  897.0000    93.6790    12.9890    13.1750    36.6820
  897.5000    96.4330    12.8420    13.0400    35.5520
  898.0000    98.8090    12.6950    12.9040    33.7220
  898.5000    99.5980    12.5470    12.7680    31.8910
  899.0000   100.1240    12.4000    12.6320    30.0600
  899.5000    99.3900    12.2530    12.4960    28.2300
  900.0000    97.6000    12.1200    12.3470    29.1960
  900.5000    95.8920    12.0660    12.2850    36.8570
  901.0000    98.7010    12.0160    12.1980    44.5180
  901.5000   101.9540    11.9660    12.1100    52.1790
  902.0000   104.3980    11.9170    12.0220    55.7710
  902.5000   106.2660    11.8670    11.9350    51.8440
  903.0000   106.9990    11.8180    11.8880    47.9160
  903.5000   105.9890    11.7810    11.8720    43.9890
  904.0000   103.2030    11.7480    11.8560    40.0610
  904.5000   104.1350    11.7140    11.8400    37.9990
  905.0000   107.1750    11.6810    11.8250    42.4380
  905.5000   108.1770    11.6480    11.8090    46.8780
  906.0000   106.2280    11.6150    11.7930    51.3180
  906.5000   101.9600    11.5810    11.7760    55.7580
  907.0000   101.2340    11.5510    11.7580    54.8890
  907.5000   103.9760    11.5090    11.7400    51.5950
  908.0000   106.6130    11.4680    11.7220    48.3010
  908.5000   106.2640    11.4260    11.7040    45.0070
  909.0000   103.4080    11.3850    11.6790    41.7130
  909.5000   101.0470    11.3580    11.8560    38.4190
  910.0000   103.0290    11.6900    12.1730    38.6730
  910.5000   106.8660    11.9750    12.4900    43.1130
  911.0000   106.9790    12.2600    12.8070    47.5520
  911.5000   104.2410    12.5460    13.1230    51.9920
  912.0000   100.8860    12.8310    13.4400    56.4320
  912.5000    94.9870    12.9560    13.7570    53.3740
  913.0000    94.9870    12.9920    13.9290    47.4820
  913.5000    96.9900    13.0280    13.7550    41.5910
  914.0000    98.9240    13.0540    13.3850    35.7000
  914.5000   100.9130    12.6420    13.0540    29.8090
  915.0000   102.2730    12.2640    12.6900    26.9390
  915.5000   103.5030    11.8870    12.2880    26.9390
  916.0000   104.7800    11.4020    11.8870    26.9390
  916.5000   104.0250    10.8800    11.2880    33.7090
  917.0000   102.7130    10.4490    10.6440    42.7200
  917.5000   101.4290    10.3530    10.5460    51.7300
  918.0000   102.0890    10.2570    10.5460    57.1500
  918.5000   105.7700    10.2350    10.4490    56.5930
  919.0000   106.8770    10.1990    10.4490    56.0380
  919.5000   107.9000    10.1630    10.4490    55.4830
  920.0000   108.6350    10.1280    10.4290    54.9280
  920.5000   105.3810    10.0920    10.3870    54.3730
  921.0000   102.0020    10.0560    10.3450    53.8180
  921.5000   100.5050    10.0210    10.3030    53.2630
  922.0000    99.7790     9.9850    10.2610    52.7080
  922.5000    99.0800     9.9570    10.2190    52.1530
  923.0000    99.1820     9.9320    10.1770    51.5980
  923.5000   101.0110     9.9080    10.1350    51.0430
  924.0000   104.2740     9.8830    10.0930    50.4880
  924.5000   107.5840     9.8580    10.0500    49.9330
  925.0000   108.9610     9.8330    10.0080    49.3780
  925.5000   110.3630     9.8090     9.9720    48.8230
  926.0000   111.3380     9.7840     9.9600    48.2680
  926.5000   110.6250     9.7590     9.9480    47.7130
  927.0000   109.9950     9.7340     9.9350    47.1580
  927.5000   108.0900     9.7090     9.9230    47.0800
  928.0000   105.1140     9.6930     9.9100    47.0800
  928.5000   100.8280     9.6770     9.8980    47.0800
  929.0000    99.4650     9.6600     9.8860    47.0800
  929.5000    99.8420     9.6430     9.8730    47.0800
  930.0000   100.1780     9.6260     9.8610    47.0800
  930.5000   100.5210     9.6100     9.8490    43.9160
  931.0000   100.8520     9.5930     9.8360    39.6610
  931.5000   102.2940     9.5760     9.8240    38.3830
  932.0000   104.5500     9.5600     9.8110    42.0300
  932.5000   104.6180     9.5430     9.7990    45.6770
  933.0000   103.3660     9.5260     9.7570    47.9880
  933.5000   103.2150     9.3980     9.5990    50.1610
  934.0000   104.6480     9.1990     9.4410    52.3330
  934.5000   105.8930     9.0910     9.2830    54.5060
  935.0000   107.6670     9.0910     9.2430    56.6790
  935.5000   112.0760     9.0910     9.2210    58.8510
  936.0000   115.9880     9.0910     9.2000    61.0240
  936.5000   114.4770     9.0910     9.1760    63.1970
  937.0000   111.6730     9.1930     9.4250    65.3690
  937.5000   108.1610     9.3200     9.6500    65.9620
  938.0000   102.8800     9.4470     9.8830    57.4520
  938.5000    97.5520     9.5740     9.8830    48.9430
  939.0000    95.7770     9.7010     9.8830    48.7410
  939.5000    96.3200    10.4150    10.5240    50.8690
  940.0000    98.7880    11.1340    11.4420    52.9960
  940.5000   102.3360    11.8530    12.3610    55.1230
  941.0000   105.8370    12.5730    13.2790    57.1500
  941.5000   107.5650    13.2920    14.1970    57.6150
  942.0000    97.5770    14.0420    15.1070    58.0580
  942.5000    89.1210    14.8280    16.0840    58.5020
  943.0000    83.0820    15.6140    16.7690    58.9460
  943.5000    81.3260    16.3080    16.8580    59.3890
  944.0000    83.9660    16.4600    16.9250    59.8330
  944.5000    86.9200    16.1790    16.5450    60.2760
  945.0000    89.7320    15.9310    16.2580    60.7200
  945.5000    89.7630    15.6820    15.9720    61.1640
  946.0000    89.0030    15.4330    15.6860    61.6070
  946.5000    86.9030    15.2830    15.5690    62.0510
  947.0000    88.2760    15.2830    15.5690    62.4940
  947.5000    91.6910    15.2830    15.5690    62.9380
  948.0000    94.9170    15.2830    15.5690    63.3820
  948.5000    95.3000    15.2830    15.5680    63.8250
