~VERSION INFORMATION
 VERS.                2.0:   CWLS LOG ASCII STANDARD - VERSION 2.0
 WRAP.                 NO:   ONE LINE PER DEPTH STEP
~WELL INFORMATION
#MNEM.UNIT      DATA TYPE    INFORMATION
#----------   ------------   ------------------------------
 STRT.F          211.5000:   START DEPTH
 STOP.F         3103.0000:   STOP DEPTH
 STEP.F            0.5000:   STEP LENGTH
 NULL.          -999.2500:   NO VALUE
 COMP.    FENIX & SCISSON:   COMPANY
 WELL. FENIX NPR 3 "AX" #38-10:   WELL
 FLD .  TEAPOT DOME - NPR:   FIELD
 LOC .      S10 T38N R78W:   LOCATION
 CNTY.            NATRONA:   COUNTY
 STAT.            WYOMING:   STATE
 CTRY. UNITED STATES OF AMERICA:   COUNTRY
 SRVC.           BIRDWELL:   SERVICE COMPANY
 DATE.        01-JUL-1978:   LOGDATE
 API .     49025106550000:   API NUMBER
~CURVE INFORMATION
#MNEM.UNIT       API CODE    CURVE DESCRIPTION
#----------   ------------   ------------------------------
 DEPT.F                  :   
 CALD.IN     45 280 60 00:   CALIPER FROM DENSITY LOG
 GRD .GAPI   45 310 01 00:   GAMMA RAY FROM DENSITY LOG
 RHOB.G/C3   45 350 01 00:   BULK DENSITY
 CORR.G/C3   45 356 01 00:   DENSITY CORRECTION
 NPOR.DEC    42 890 03 00:   ALPHA PROCESSED NEUTRON POROSITY
 SPR .MV     05 010 01 00:   SPONTANEOUS POTENTIAL
 SN  .OHMM   05 040 00 00:   SHORT NORMAL
 ILD .OHMM   05 120 46 00:   DEEP INDUCTION RESISTIVITY
~PARAMETER INFORMATION
#MNEM.UNIT          VALUE    DESCRIPTION
#----------   ------------   ------------------------------
 EKB .F         5240.0000:   Kelly bushing
 EGL .F         5230.0000:   Ground level
 TD  .F         3103.0000:   Total depth
 DATE.        01-JUL-1978:   Date logged
 CLNT.            A2DTECH:   Client Code
 SL  . 200' FSL & 2100' FWL:   Surface Location
 PD  .                 GL:   Permanent Datum
 EPD .F              5230:   Elevation Permanent Datum
 LMF .                 KB:   Log Measured From
 DMF .                 KB:   Drilling Measured From
 DAPD.F                10:   Feet Above Permanent Datum
 DD  .F              3100:   Depth driller
 DL  .F              3103:   Depth logger
 BLI .F              3096:   Bottom log interval
 TLI .F               228:   Top log interval
 CS1 .IN            8.625:   Casing size
 CBD1.      8.625" @ 224':   Casing driller 1
 CBL1.F               228:   Casing logger 1
 BS1 .IN            7.875:   Bit size
 BSD1.F              3100:   Depth drilled with bit1
 DFT .            MUD/GEL:   Type fluid in hole
 DFD .                8.7:   Density
 DFV .                 31:   Viscosity
 DFPH.               10.5:   pH
 DFL .                  7:   Fluid loss
 MSS .           FLOWLINE:   Source of sample
 BHT .F               109:   BHT.
 TCS .HRS             4.5:   Time Circ. stopped
 MRT .F               109:   Maximum recorded temp.
 LUN .               2958:   Logging unit number
 LUL .               CASP:   Logging unit location
 ENGI.             MILLER:   Recorded By
 ORIG.      2.5" 5" PRINT:   Origin of data
 UWI .     49025106550000:   Unique Well ID
 DICO. A2D TECHNOLOGIES, INC.:   Digitizing Company
~OTHER INFORMATION
~A   DEPT     CALD         GRD      RHOB       CORR       NPOR        SPR         SN        ILD   
# ...
 2317.5000     9.2746   101.9563     2.4876     0.0516  -999.2500   -18.1600    12.4551    10.0802
 2318.0000     9.2943   101.3642     2.4955     0.0536  -999.2500   -18.3590    12.4557    10.0807
 2318.5000     9.2943   100.9695     2.4757     0.0556  -999.2500   -18.3600    12.4563    10.0811
 2319.0000     9.3141    97.6142     2.4826     0.0316  -999.2500   -18.3609    12.6881    10.0816
 2319.5000     9.3141    88.5353     2.4876     0.0336  -999.2500   -18.3619    12.9243    10.1753
 2320.0000     9.1562    84.1932     2.4749     0.0098  -999.2500   -17.5717    13.4093    10.1757
 2320.5000     9.1956    84.9826     2.4600     0.0058  -999.2500   -18.1661    13.4099    10.1762
 2321.0000     9.1956    85.9695     2.4640     0.0018  -999.2500   -17.9692    13.5344    10.1767
 2321.5000     9.1759    85.7721     2.4679     0.0018  -999.2500   -17.9702    13.5350    10.1771
 2322.0000     9.1167    84.6053     2.4779     0.0038  -999.2500   -17.7734    13.5357    10.4623
 2322.5000     9.1956    80.2458     2.4788     0.0018  -999.2500   -17.9721    13.5363    10.4628
 2323.0000     9.1956    77.8774     2.4759     0.0018  -999.2500   -17.9731    13.5370    10.4630
 2323.5000     9.1956    76.2984     2.4687     0.0000  -999.2500   -17.7765    13.6627    10.4635
 2324.0000     9.2154    72.1537     2.4638    -0.0020  -999.2500   -17.9752    14.1754    10.4641
 2324.5000     9.1562    71.5616     2.4520    -0.0060  -999.2500   -17.7784    13.7902    10.4647
 2325.0000     9.2351    72.3511     2.4499    -0.0040  -999.2500   -17.7794    13.7908    10.4652
 2325.5000     9.2351    73.3379     2.4508     0.0018  -999.2500   -17.7804    13.6651    10.4657
 2326.0000     9.2351    74.3247     2.4419     0.0058  -999.2500   -17.3857    13.2938    10.4658
 2326.5000     9.2351    82.8116     2.4359     0.0078  -999.2500   -17.7823    13.2945    10.4088
 2327.0000     9.2351   100.5921     2.4359     0.0098  -999.2500   -17.7833    13.2951    10.3520
 2327.5000     9.2351   106.3158     2.4369     0.0138  -999.2500   -17.7842    13.2957    10.2956
 2328.0000     9.2351   108.4868     2.4280     0.0098  -999.2500   -17.7852    13.2963    10.2395
 2328.5000     9.2548   106.5132     2.4270     0.0138  -999.2500   -17.9842    13.2969    10.1837
 2329.0000     9.2746    98.0263     2.4449     0.0178  -999.2500   -18.1829    13.1758    10.1282
 2329.5000     9.2746    92.3026     2.4578     0.0198  -999.2500   -17.9861    13.1764    10.0730
 2330.0000     9.2746    93.0921     2.4638     0.0198  -999.2500   -18.1849    13.1769    10.0181
 2330.5000     9.3141    95.0658     2.4568     0.0198  -999.2500   -17.9881    13.1775     9.9635
 2331.0000     9.3141    97.8289     2.4508     0.0218  -999.2500   -18.1868    12.8195     9.9092
 2331.5000     9.3141    99.0132     2.4499     0.0218  -999.2500   -17.9900    12.9386     9.8552
 2332.0000     9.3141    97.6316     2.4558     0.0238  -999.2500   -18.3866    12.8207     9.8015
 2332.5000     9.3141    95.8553     2.4640     0.0278  -999.2500   -17.5963    12.8213     9.7480
 2333.0000     9.3141    93.0921     2.4649     0.0238  -999.2500   -17.5973    12.8219     9.6949
 2333.5000     9.3141    94.6537     2.4669     0.0178  -999.2500   -17.5983    12.5887     9.6413
 2334.0000     9.2943    94.4563     2.4679     0.0098  -999.2500   -17.5994    12.3598     9.7309
 2334.5000     9.2548    93.2721     2.4699     0.0078  -999.2500   -17.6004    12.3604     9.7313
 2335.0000     9.2548    92.8774     2.4570     0.0078  -999.2500   -17.4036    12.2478     9.7318
 2335.5000     9.2548    92.6800     2.4310     0.0078  -999.2500   -17.8005    12.2483     9.4673
 2336.0000     9.2351    88.7500     2.4501     0.0198  -999.2500   -17.6033    12.1368     9.2952
 2336.5000     9.2351    90.9037     2.4826     0.0316  -999.2500   -17.6043    11.8070     9.2954
 2337.0000     9.2351    95.0484     2.4777     0.0436  -999.2500   -17.6053    11.5923     9.1265
 2337.5000     9.1956    96.4300     2.4667     0.0396  -999.2500   -17.6062    11.4867     9.0434
 2338.0000     9.1167    96.4300     2.4808     0.0396  -999.2500   -17.8050    11.2778     8.9610
 2338.5000     9.0969    96.2326     2.5017     0.0396  -999.2500   -17.6082    11.0727     8.8794
 2339.0000     9.0969    95.4432     2.4977     0.0396  -999.2500   -17.8071    10.3827     8.7985
 2339.5000     9.0969    93.0921     2.4967     0.0416  -999.2500   -18.2037    10.1940     8.1967
 2340.0000     9.0969    90.9211     2.4985     0.0476  -999.2500   -18.6003    10.1945     7.5952
 2340.5000     9.0969    88.3553     2.5025     0.0536  -999.2500   -18.2056     9.9175     7.0566
 2341.0000     9.1167    86.3816     2.5045     0.0536  -999.2500   -18.2066     9.4722     7.1221
 2341.5000     9.0969    85.3947     2.5045     0.0536  -999.2500   -18.2076     9.0467     7.1225
 2342.0000     9.1167    87.3684     2.4957     0.0536  -999.2500   -17.0218     8.9643     7.1886
 2342.5000     9.1167    87.5658     2.4908     0.0556  -999.2500   -18.0117     8.8826     7.1890
 2343.0000     9.2548    81.8421     2.4806     0.0614  -999.2500   -18.0127     9.0480     7.1893
 2343.5000     9.4127    79.8684     2.5096     0.0834  -999.2500   -18.0137     9.2164     7.1895
 2344.0000     9.7088    78.6668     2.5345     0.1230  -999.2500   -18.6082     9.5624     7.3911
 2344.5000     8.9983    77.6800     2.4518     0.0714  -999.2500   -18.0158    10.1987     7.5982
 2345.0000     8.9983    76.6932     2.4719     0.0238  -999.2500   -18.0168    10.1992     7.8832
 2345.5000     9.0180    77.0879     2.4888     0.0078  -999.2500   -17.8200    10.2939     8.8038
 2346.0000     9.0180    77.0879     2.4928     0.0078  -999.2500   -18.4143    10.4855     8.9676
 2346.5000     8.9983    76.4958     2.4848     0.0038  -999.2500   -17.8219    11.0809     8.9680
 2347.0000     9.0377    72.3511     2.4808     0.0018  -999.2500   -17.8229    11.6030     8.9684
 2347.5000     9.0575    70.9695     2.4769     0.0038  -999.2500   -17.8238    11.7107     8.9688
 2348.0000     9.0969    71.3816     2.4749     0.0078  -999.2500   -18.0226    11.7113     8.9692
 2348.5000     9.0969    71.1842     2.4729     0.0058  -999.2500   -18.2214    11.7118     9.1362
 2349.0000     9.0772    71.1842     2.4818     0.0078  -999.2500   -18.2223    11.7123     9.3923
 2349.5000     9.0772    70.7721     2.4937     0.0098  -999.2500   -18.2235    11.8213     9.5671
 2350.0000     9.0969    70.9695     2.4957     0.0118  -999.2500   -17.4333    11.8216     9.6559
 2350.5000     9.0792    70.7924     2.5164     0.0208  -999.2500   -18.2254    12.0416     9.7456
 2351.0000     9.0969    70.9695     2.5047     0.0198  -999.2500   -18.2264    12.2659     9.9269
 2351.5000     9.1167    71.1668     2.4997     0.0118  -999.2500   -18.2274    12.4942    10.0192
 2352.0000     9.2154    72.3684     2.4967     0.0138  -999.2500   -18.2284    12.6102    10.1123
 2352.5000     9.1364    73.9474     2.4957     0.0258  -999.2500   -18.2293    12.6108    10.1126
 2353.0000     9.1364    71.9737     2.4977     0.0316  -999.2500   -18.2303    12.6113    10.1132
 2353.5000     9.1167    67.6316     2.5017     0.0316  -999.2500   -18.2319    12.3820     9.8383
 2354.0000     9.1167    68.2237     2.4967     0.0296  -999.2500   -18.0344    12.1569     9.0573
 2354.5000     9.1562    69.4079     2.4828     0.0278  -999.2500   -17.6396    12.0461     8.4928
 2355.0000     9.1956    69.4079     2.4689     0.0118  -999.2500   -18.0366    11.6115     8.4932
 2355.5000     9.2154    68.6184     2.4649     0.0078  -999.2500   -17.8396    11.1926     8.5720
 2356.0000     9.1956    70.0000     2.4620     0.0098  -999.2500   -17.8407    11.0906     8.5724
 2356.5000     9.1956    77.8947     2.4578     0.0078  -999.2500   -17.8417    10.8890     8.5728
 2357.0000     9.1562    84.4079     2.4540     0.0078  -999.2500   -17.6449    10.8894     8.2635
 2357.5000     9.1364    84.4079     2.4431     0.0078  -999.2500   -17.6458    11.0921     8.1132
