~VERSION INFORMATION
 VERS.                2.0:   CWLS LOG ASCII STANDARD - VERSION 2.0
 WRAP.                 NO:   ONE LINE PER DEPTH STEP
~WELL INFORMATION
#MNEM.UNIT      DATA TYPE    INFORMATION
#----------   ------------   ------------------------------
 STRT.F          906.0000:   START DEPTH
 STOP.F         3426.0000:   STOP DEPTH
 STEP.F            0.5000:   STEP LENGTH
 NULL.          -999.2500:   NO VALUE
 COMP.    FENIX & SCISSON:   COMPANY
 WELL. FENIX NPR 3 "AX" #46-11:   WELL
 FLD .                NPR:   FIELD
 LOC .      S11 T38N R78W:   LOCATION
 CNTY.            NATRONA:   COUNTY
 STAT.            WYOMING:   STATE
 CTRY. UNITED STATES OF AMERICA:   COUNTRY
 SRVC.       SCHLUMBERGER:   SERVICE COMPANY
 DATE.        16-MAY-1981:   LOGDATE
 API .     49025108720000:   API NUMBER
~CURVE INFORMATION
#MNEM.UNIT       API CODE    CURVE DESCRIPTION
#----------   ------------   ------------------------------
 DEPT.F                  :   
 SPR .MV     07 010 01 00:   SPONTANEOUS POTENTIAL
 ILD .OHMM   07 120 46 00:   INDUCTION LOG DEEP RESISTIVITY
 SFL .OHMM   07 220 01 00:   SHALLOW FOCUSED LOG RESISTIVITY
 TENR.LBS    07 635 01 00:   TENSION
 ILM .OHMM   07 120 44 00:   INDUCTION LOG MEDIUM RESISTIVITY
 CALD.IN     45 280 60 00:   CALIPER FROM DENSITY LOG
 GRD .GAPI   45 310 01 00:   GAMMA RAY FROM DENSITY LOG
 RHOB.G/C3   45 350 01 00:   BULK DENSITY
 TEND.LBS    45 635 01 00:   TENSION FROM DENSITY LOG
 CORR.G/C3   45 356 01 00:   DENSITY CORRECTION
~PARAMETER INFORMATION
#MNEM.UNIT          VALUE    DESCRIPTION
#----------   ------------   ------------------------------
 EKB .F         5199.0000:   Kelly bushing
 EGL .F         5189.0000:   Ground level
 EDF .F            0.0000:   Drilling floor
 TD  .F         3422.0000:   Total depth
 DATE.        16-MAY-1981:   Date logged
 CLNT.            A2DTECH:   Client Code
 SL  . 1867' FSL & 2100' FWL:   Surface Location
 PD  .                 GL:   Permanent Datum
 EPD .F              5189:   Elevation Permanent Datum
 LMF .                 KB:   Log Measured From
 DMF .                 KB:   Drilling Measured From
 DAPD.F                10:   Feet Above Permanent Datum
 DD  .F              3421:   Depth driller
 DL  .F              3422:   Depth logger
 BLI .F              3416:   Bottom log interval
 TLI .F               926:   Top log interval
 CS1 .IN            8.625:   Casing size
 CBD1.      8.625" @ 925':   Casing driller 1
 CBL1.F               926:   Casing logger 1
 BS1 .IN            7.875:   Bit size
 BSD1.F              3421:   Depth drilled with bit1
 DFT .                FGM:   Type fluid in hole
 DFD .                8.5:   Density
 DFV .                 60:   Viscosity
 DFPH.                  9:   pH
 DFL .                 12:   Fluid loss
 MSS .               PITS:   Source of sample
 RMS .OHMM           1.17:   Rm
 MST .F                73:   Rm Meas. temp.
 RMF .OHMM           1.03:   Rmf
 MFST.F                73:   Rmf Meas. temp.
 MFSS.               MEAS:   Source Rmf.
 RMB .OHMM            .71:   Rm. at BHT
 BHT .F               120:   BHT.
 TCS .HRS            1200:   Time Circ. stopped
 TLAB.HRS            1745:   Time logger at bottom
 MRT .F               120:   Maximum recorded temp.
 LUN .               8133:   Logging unit number
 LUL .               CSPR:   Logging unit location
 ENGI.             TAYLOR:   Recorded By
 WITN.              RIVAS:   Witnessed by
 ORIG.           5" PRINT:   Origin of data
 UWI .     49025108720000:   Unique Well ID
 DICO. A2D TECHNOLOGIES, INC.:   Digitizing Company
~OTHER INFORMATION
~A   DEPT      SPR        ILD        SFL       TENR        ILM       CALD         GRD        RHOB     TEND        CORR  
# ...
 3217.5000    23.7670     2.6330     1.8170  1114.4850     2.9660     8.2810   204.7900     2.3660  1089.5670     0.0080
 3218.0000    23.6620     2.7180     3.9440  1114.6379     3.4410     8.2290   154.8820     2.4240  1089.2290    -0.0060
 3218.5000    23.5480     3.1770     5.8420  1114.7920     3.9160     8.1790   138.9510     2.4820  1088.8900     0.0010
 3219.0000    23.5180     3.6820     7.2610  1114.9460     4.3910     8.1270   131.2180     2.5380  1088.5520     0.0070
 3219.5000    23.5340     4.1410     7.5560  1115.0990     4.8660     8.0710   122.0930     2.5410  1088.2130     0.0040
 3220.0000    23.8000     4.9170     8.0060  1115.2531     5.3410     8.0730   122.4610     2.5460  1087.8750     0.0100
 3220.5000    23.9200     5.6290     7.9820  1115.4060     5.8160     8.0730   122.7770     2.5540  1087.5370     0.0190
 3221.0000    23.9130     5.9010     7.9300  1115.5601     5.9730     8.0760   121.6490     2.5600  1087.1980     0.0240
 3221.5000    23.9330     6.0830     7.8790  1115.7130     6.0830     8.0780   119.1680     2.5550  1086.8600     0.0160
 3222.0000    23.9580     5.9750     7.5940  1115.8669     6.0470     8.0800   119.1070     2.5430  1086.5220     0.0070
 3222.5000    23.9810     5.8100     7.1870  1116.0210     5.9020     8.0820   123.2420     2.5410  1086.1830     0.0130
 3223.0000    24.0050     5.6450     6.7790  1116.1740     5.7570     8.0840   126.5930     2.5480  1085.8450     0.0230
 3223.5000    24.0290     5.4790     6.4720  1116.3280     5.6120     8.0860   127.2400     2.5560  1085.5070     0.0300
 3224.0000    24.0530     5.3140     6.3000  1116.4810     5.4680     8.0880   127.9860     2.5570  1085.1680     0.0300
 3224.5000    24.0770     5.1490     6.1280  1116.6350     5.3230     8.0900   128.7540     2.5550  1084.8300     0.0300
 3225.0000    24.1010     4.9830     5.9560  1116.7889     5.1780     8.0930   129.4940     2.5470  1084.4910     0.0300
 3225.5000    24.1250     4.8830     5.7840  1116.9420     5.0330     8.0950   130.3880     2.5420  1084.1530     0.0300
 3226.0000    24.1490     4.5810     5.6120  1117.0959     4.8030     8.0970   136.1040     2.5390  1083.8149     0.0280
 3226.5000    24.1730     4.2770     5.4400  1117.2490     4.5120     8.0990   143.3350     2.5360  1083.4760     0.0230
 3227.0000    24.1970     3.9730     5.2680  1117.4030     4.2220     8.1010   147.5650     2.5270  1083.1379     0.0180
 3227.5000    24.2210     3.6450     5.0500  1117.5570     3.9200     8.1030   152.2210     2.5150  1082.8000     0.0140
 3228.0000    24.2440     3.2740     4.7950  1117.7100     3.6240     8.1050   166.1620     2.4910  1083.3750     0.0090
 3228.5000    24.2680     2.9040     3.7810  1117.8640     3.3170     8.1070   186.1280     2.4660  1085.6820     0.0120
 3229.0000    24.2940     2.5340     2.9020  1118.0170     3.0090     8.1090   204.9750     2.4420  1087.9890     0.0250
 3229.5000    24.3150     2.3910     2.4670  1118.1710     2.7010     8.1110   223.8220     2.4180  1090.2960     0.0380
 3230.0000    24.3290     2.3910     2.1930  1118.3250     2.1820     8.1090   237.0710     2.3940  1092.6030     0.0460
 3230.5000    24.3450     2.5200     1.7840  1118.4780     2.2580     8.1060   223.7370     2.3910  1094.9100     0.0300
 3231.0000    24.3610     2.6340     2.6530  1118.6320     2.5000     8.1040   192.3430     2.4260  1097.2170     0.0160
 3231.5000    24.3770     2.9640     4.3650  1118.7850     2.7680     8.1010   145.6520     2.4840  1099.5240     0.0020
 3232.0000    24.3930     3.3860     6.0770  1118.9390     3.2360     8.0990   138.9830     2.5390  1101.8311     0.0050
 3232.5000    24.4080     3.8070     7.3060  1119.0920     3.7600     8.0970   136.2630     2.5440  1107.9091     0.0140
 3233.0000    24.4240     4.2290     7.2190  1119.2460     4.2830     8.0940   135.6570     2.5490  1096.1960     0.0160
 3233.5000    24.4400     4.6240     7.1210  1119.4000     4.7310     8.0920   139.2080     2.5530  1084.4840     0.0150
 3234.0000    24.4560     4.9470     7.0220  1119.5530     5.1420     8.0890   141.6520     2.5520  1084.0610     0.0160
 3234.5000    24.4720     5.2700     6.9240  1119.7070     5.5510     8.0870   143.6500     2.5500  1085.8311     0.0170
 3235.0000    24.4870     5.4740     6.8250  1119.8600     5.5750     8.0850   141.6890     2.5410  1087.6021     0.0190
 3235.5000    24.5030     5.5280     6.7900  1120.0140     5.6310     8.0820   140.3030     2.5280  1089.3719     0.0140
 3236.0000    24.5190     5.5830     6.7900  1120.1680     5.6860     8.0800   140.7340     2.5160  1091.1429     0.0080
 3236.5000    24.5350     5.6370     6.8290  1120.3210     5.7410     8.0780   142.3590     2.5140  1092.9130     0.0040
 3237.0000    24.5510     5.6910     7.0080  1120.4750     5.7960     8.0750   144.6630     2.5290  1094.6840     0.0100
 3237.5000    24.5660     5.7450     7.1870  1120.6281     5.8510     8.0730   146.9750     2.5450  1096.4540     0.0180
 3238.0000    24.5820     5.7990     7.4410  1120.7820     5.9060     8.0700   149.2840     2.5570  1098.2250     0.0270
 3238.5000    24.5980     5.8530     7.4080  1120.9360     5.9610     8.0680   151.6030     2.5550  1099.9950     0.0250
 3239.0000    24.6140     5.9070     7.3520  1121.0890     6.0160     8.0660   154.0030     2.5480  1101.7660     0.0190
 3239.5000    24.6300     5.9610     7.3060  1121.2430     6.0720     8.0630   155.6700     2.5410  1103.5360     0.0120
 3240.0000    24.6460     6.0160     7.4090  1121.3960     6.1270     8.0610   157.8190     2.5350  1105.3070     0.0110
 3240.5000    24.6620     6.0750     7.6950  1121.5500     6.1820     8.0580   159.6800     2.5440  1107.0770     0.0120
 3241.0000    24.6780     6.0580     7.9810  1121.7030     6.1330     8.0560   159.1690     2.5550  1108.8480     0.0180
 3241.5000    24.6910     6.0230     8.4580  1121.8571     6.0490     8.0540   158.5740     2.5680  1110.6190     0.0270
 3242.0000    24.7500     5.9890     8.2840  1122.0110     5.9650     8.0510   157.9820     2.5630  1112.3890     0.0280
 3242.5000    24.8910     5.9050     7.7570  1122.1639     5.8810     8.0490   157.3960     2.5550  1112.0620     0.0220
 3243.0000    25.0290     5.7750     7.2300  1122.3180     5.7970     8.0470   156.8460     2.5470  1111.1210     0.0170
 3243.5000    25.1700     5.6460     6.7030  1122.4709     5.7120     8.0440   154.9080     2.5480  1110.1810     0.0210
 3244.0000    25.3080     5.5160     6.5450  1122.6250     5.6280     8.0420   152.6260     2.5510  1109.2410     0.0260
 3244.5000    25.4520     5.4500     6.5450  1122.7791     5.5440     8.0390   150.3190     2.5490  1108.3000     0.0180
 3245.0000    25.4710     5.3510     6.6350  1122.9320     5.4500     8.0370   149.6410     2.5330  1107.3600     0.0100
 3245.5000    25.3750     5.3510     6.7660  1123.0861     5.5700     8.0350   150.9230     2.5170  1106.4189     0.0030
 3246.0000    25.2860     5.4200     6.9150  1123.2600     5.8230     8.0320   152.2480     2.5010  1105.4790    -0.0010
 3246.5000    25.1950     5.6770     6.9150  1123.0940     6.0760     8.0300   151.3040     2.5040  1104.5389     0.0040
 3247.0000    25.1030     5.9340     6.9150  1122.9000     6.3280     8.0270   149.5030     2.5100  1103.5980     0.0080
 3247.5000    25.0120     6.1910     7.3390  1122.7070     6.5810     8.0250   145.7470     2.5180  1102.6580     0.0130
 3248.0000    24.9210     6.4480     7.8410  1122.5140     6.8340     8.0230   141.8270     2.5250  1101.7170     0.0120
 3248.5000    24.8300     6.7060     8.3420  1122.3199     7.0860     8.0200   143.6860     2.5330  1100.7770     0.0090
 3249.0000    24.7390     6.9630     8.9360  1122.1270     7.3390     8.0180   146.2210     2.5380  1099.8370     0.0090
 3249.5000    24.6480     7.2200     9.2030  1121.9330     7.5920     8.0160   148.8180     2.5410  1098.8960     0.0100
 3250.0000    24.5560     7.4770     9.5320  1121.7400     7.8440     8.0130   150.5740     2.5440  1097.9561     0.0120
 3250.5000    24.4660     7.7340     9.8610  1121.5470     8.0970     8.0110   142.3920     2.5460  1097.0150     0.0110
