~VERSION INFORMATION
 VERS.                2.0:   CWLS LOG ASCII STANDARD - VERSION 2.0
 WRAP.                 NO:   ONE LINE PER DEPTH STEP
~WELL INFORMATION
#MNEM.UNIT      DATA TYPE    INFORMATION
#----------   ------------   ------------------------------
 STRT.F          200.0000:   START DEPTH
 STOP.F         2968.0000:   STOP DEPTH
 STEP.F            0.5000:   STEP LENGTH
 NULL.          -999.2500:   NO VALUE
 COMP. FENIX & SCISSON U.S. NAVY:   COMPANY
 WELL.   FENIX "A" #23-28:   WELL
 FLD .              NPR 3:   FIELD
 LOC .      S28 T39N R78W:   LOCATION
 CNTY.            NATRONA:   COUNTY
 STAT.            WYOMING:   STATE
 CTRY. UNITED STATES OF AMERICA:   COUNTRY
 SRVC.       SCHLUMBERGER:   SERVICE COMPANY
 DATE.        10-JUN-1977:   LOGDATE
 API .     49025103860000:   API NUMBER
~CURVE INFORMATION
#MNEM.UNIT       API CODE    CURVE DESCRIPTION
#----------   ------------   ------------------------------
 DEPT.F                  :   
 SPR .MV     07 010 01 00:   SPONTANEOUS POTENTIAL
 RILM.OHMM   07 120 44 00:   INDUCTION LOG MEDIUM RESISTIVITY
 RILD.OHMM   07 120 46 00:   DEEP INDUCTION RESISTIVITY
 LL8 .None   99 022 08 00:   LATEROLOG
 GRD .GAPI   45 310 01 00:   GAMMA RAY FROM DENSITY LOG
 CALD.IN     45 280 60 00:   CALIPER FROM DENSITY LOG
 RHOB.G/C3   45 350 01 00:   BULK DENSITY
 DRHO.G/C3   45 356 01 00:   DENSITY CORRECTION
~PARAMETER INFORMATION
#MNEM.UNIT          VALUE    DESCRIPTION
#----------   ------------   ------------------------------
 EKB .F         5019.0000:   Kelly bushing
 EGL .F         5009.0000:   Ground level
 EDF .F            0.0000:   Drilling floor
 EPD .F         5009.0000:   Permanent datum
 TD  .F         2971.0000:   Total depth
 DATE.        10-JUN-1977:   Date logged
 CLNT.            A2DTECH:   Client Code
 SL  . 1650' FNL & 990' FWL:   Surface Location
 DAPD.F                10:   Feet Above Permanent Datum
 DD  .F              2970:   Depth driller
 DL  .F              2971:   Depth logger
 BLI .F              2905:   Bottom log interval
 TLI .F               216:   Top log interval
 CS1 .IN            8.625:   Casing size
 CBD1.      9.625" @ 216':   Casing driller 1
 CBL1.F               216:   Casing logger 1
 BS1 .IN            7.875:   Bit size
 BSD1.F              2970:   Depth drilled with bit1
 DFT .            KCL MUD:   Type fluid in hole
 DFD .                8.8:   Density
 DFV .                 32:   Viscosity
 DFPH.                8.5:   pH
 DFL .                7.4:   Fluid loss
 MSS .               CIRC:   Source of sample
 RMS .OHMM           1.87:   Rm
 MST .F                85:   Rm Meas. temp.
 RMF .OHMM           1.69:   Rmf
 MFST.F                85:   Rmf Meas. temp.
 RMC .OHMM           2.80:   Rmc
 MCST.F                85:   Rmc Meas. temp.
 MFSS.               MEAS:   Source Rmf.
 MCSS.               CALC:   Source Rmc.
 RMB .OHMM           1.43:   Rm. at BHT
 BHT .F               111:   BHT.
 TCS .HRS            1600:   Time Circ. stopped
 TLAB.HRS            0945:   Time logger at bottom
 MRT .F               111:   Maximum recorded temp.
 LUN .               7711:   Logging unit number
 LUL .               CSPR:   Logging unit location
 ENGI.             SAYLER:   Recorded By
 WITN.         HARRINGTON:   Witnessed by
 ORIG.           5" PRINT:   Origin of data
 UWI .     49025103860000:   Unique Well ID
 DICO. A2D TECHNOLOGIES, INC.:   Digitizing Company
~OTHER INFORMATION
~A  DEPTH      SPR       RILM       RILD        LL8        GRD       CALD       RHOB       DRHO
# ...
 2549.0000   -59.3760     8.8290     9.8860    12.2190    98.1300     9.5670     2.5160     0.0060
 2549.5000   -59.8820     8.6360    10.2570    12.0050    96.7630     9.5930     2.5070     0.0030
 2550.0000   -60.3870     8.4420     9.8860    11.6040    96.7090     9.5930     2.5010     0.0010
 2550.5000   -60.8920     8.2300    10.2440    11.2040    99.1400     9.5930     2.5200     0.0080
 2551.0000   -61.3950     8.2770    10.3520    10.7410   101.6280     9.5930     2.5360     0.0150
 2551.5000   -61.8970     8.3390     9.9460    10.9780    98.9150     9.5940     2.5350     0.0150
 2552.0000   -62.3100     8.3760     9.6220    11.3510    95.5830     9.6010     2.5340     0.0170
 2552.5000   -62.5840     8.1790     9.3370    11.3150    93.9910     9.6070     2.5390     0.0100
 2553.0000   -62.8580     8.0150     9.2330    11.2790    95.7850     9.6130     2.5420     0.0120
 2553.5000   -63.1310     7.8520     9.1300    11.2470    97.6350     9.6190     2.5370     0.0100
 2554.0000   -63.4030     7.6880     8.9770    10.8210    97.1370     9.6260     2.5280     0.0060
 2554.5000   -63.6760     7.5690     8.8520    10.3560    94.7150     9.6320     2.5190     0.0040
 2555.0000   -63.9470     7.5090     9.3260     9.8910    92.2520     9.6390     2.5180     0.0070
 2555.5000   -64.2170     7.4310     9.6170     9.5290    91.8840     9.6450     2.5230     0.0090
 2556.0000   -64.4310     7.4990     8.4530     9.9800    93.0530     9.6500     2.5300     0.0080
 2556.5000   -64.5530     7.6690     8.6430    10.4340    94.8660     9.6760     2.5210     0.0060
 2557.0000   -64.6750     7.7910     8.8440    10.5450    96.2900     9.6830     2.5270     0.0030
 2557.5000   -64.7960     7.8200     8.7710    10.2790    98.9660     9.6900     2.5340     0.0010
 2558.0000   -64.9170     7.8490     8.8350     9.9780   101.9920     9.6920     2.5230     0.0030
 2558.5000   -65.0370     7.9110     8.9270    10.1420   105.1270     9.6920     2.5100     0.0000
 2559.0000   -65.1480     7.9970     9.0160    10.4920   105.9800     9.6920     2.5210    -0.0030
 2559.5000   -65.4930     8.0830     9.0160    10.8400   106.5990     9.6920     2.5350    -0.0030
 2560.0000   -65.8670     8.1690     9.0780    10.3520   107.0820     9.6780     2.5260    -0.0020
 2560.5000   -66.2460     8.2550     9.1810    10.6210   107.1710     9.6650     2.5130     0.0000
 2561.0000   -66.6230     8.3410     9.2850    10.8400   105.7670     9.6510     2.5070     0.0000
 2561.5000   -67.0010     8.4270     9.4410    10.4480   103.4260     9.6380     2.5160    -0.0060
 2562.0000   -67.3780     8.4530     9.3400    10.9930   101.0850     9.6250     2.5050     0.0000
 2562.5000   -67.7560     8.2400     9.0160    11.5620    99.2100     9.6130     2.5190     0.0160
 2563.0000   -68.1330     8.0750     9.0610    11.2720    98.7120     9.6110     2.5270     0.0120
 2563.5000   -68.5110     7.9090     9.1840    10.8190    98.9840     9.6090     2.5200     0.0050
 2564.0000   -68.8880     7.7430     8.8400    10.3660   101.3090     9.6070     2.5130     0.0070
 2564.5000   -69.2650     7.5770     8.2230     9.7960   103.5750     9.6060     2.5140     0.0040
 2565.0000   -69.6460     7.4110     8.2620    10.0700   104.7140     9.6040     2.5220     0.0100
 2565.5000   -70.0300     7.2950     8.2990     9.7060   101.6260     9.6030     2.5300     0.0140
 2566.0000   -70.3680     7.1530     7.9660     9.8450    97.7880     9.6010     2.5310     0.0080
 2566.5000   -70.6820     6.9930     7.5920    10.0240    93.9030     9.5990     2.5150     0.0020
 2567.0000   -71.0030     6.6710     7.0870    10.1630    94.4370     9.5980     2.5150     0.0000
 2567.5000   -71.3240     6.1240     6.4720     9.7960    95.8450     9.5960     2.5210     0.0070
 2568.0000   -71.5330     6.0750     6.7770     8.8690    98.3750     9.5940     2.5330     0.0140
 2568.5000   -71.6430     5.7830     6.5230     7.8010   100.8800     9.5930     2.5350     0.0160
 2569.0000   -71.7640     5.5780     6.2590     7.2950   103.3480     9.6000     2.5320     0.0110
 2569.5000   -71.8900     5.4830     6.0650     7.2950   104.2470     9.6070     2.5300     0.0070
 2570.0000   -71.9300     5.2360     5.9000     7.1940   104.6610     9.6140     2.5300     0.0020
 2570.5000   -71.9450     5.2890     5.7420     7.0800   103.5600     9.6200     2.5400     0.0070
 2571.0000   -71.9580     5.3690     5.6890     6.9670   103.4230     9.6270     2.5430     0.0130
 2571.5000   -71.9720     5.4490     5.7120     7.1510   104.3730     9.6270     2.5410     0.0120
 2572.0000   -71.9850     5.5390     5.8350     7.3010   108.2370     9.6040     2.5350     0.0100
 2572.5000   -71.9990     5.5520     5.9580     7.4310   111.8670     9.5810     2.5270     0.0080
 2573.0000   -72.0130     5.5650     6.0540     7.2280   112.5260     9.5790     2.5360     0.0100
 2573.5000   -72.0260     5.5850     5.9200     7.3040   113.2540     9.5890     2.5370     0.0160
 2574.0000   -72.0400     5.5560     5.8480     7.4310   114.0930     9.5930     2.5300     0.0090
 2574.5000   -72.0540     5.4950     5.8480     7.2090   114.9320     9.5930     2.5230     0.0040
 2575.0000   -72.0670     5.4330     5.6370     7.0960   115.5710     9.5930     2.5290     0.0000
 2575.5000   -72.0810     5.2840     5.6860     6.9670   116.1160     9.5930     2.5220    -0.0070
 2576.0000   -72.0940     5.1410     5.7950     7.0740   116.8790     9.5930     2.5120    -0.0050
 2576.5000   -72.1080     5.0490     5.5340     7.1620   117.6950     9.5930     2.5140    -0.0050
 2577.0000   -72.1220     4.9780     5.2360     6.8870   117.8550     9.5930     2.5120    -0.0090
 2577.5000   -72.0720     4.9090     5.3190     6.6770   118.1000     9.5920     2.5150    -0.0070
 2578.0000   -72.0020     4.9290     5.4830     6.7770   115.9950     9.5930     2.5230    -0.0010
 2578.5000   -71.8990     4.9700     5.1880     6.5730   114.6450     9.5630     2.5310     0.0040
 2579.0000   -71.3950     5.0120     5.2780     6.3770   115.6370     9.5110     2.5300     0.0050
 2579.5000   -70.9580     5.0470     5.3890     6.2950   116.6230     9.4560     2.5250     0.0100
 2580.0000   -70.4950     5.1330     5.4910     7.0080   115.5750     9.4020     2.5340     0.0210
 2580.5000   -70.0330     5.2220     5.5490     7.3630   113.9150     9.3960     2.5410     0.0100
 2581.0000   -69.5700     5.3340     5.6070     7.2950   112.2280     9.3980     2.5290     0.0180
 2581.5000   -69.1030     5.3340     5.6860     7.6360   112.1860     9.4000     2.5360     0.0140
 2582.0000   -68.1750     5.3340     5.8710     8.2230   114.0740     9.4030     2.5400     0.0190
 2582.5000   -66.9950     5.3780     5.9020     7.9560   117.6700     9.4050     2.5190     0.0130
 2583.0000   -65.8160     5.5850     5.9020     7.6340   120.5860     9.4070     2.5060     0.0080
 2583.5000   -64.5860     5.5340     5.9020     7.4710   121.9130     9.4090     2.5000     0.0120
 2584.0000   -62.6360     5.7710     6.1180     7.7100   121.2350     9.4110     2.5150     0.0150
 2584.5000   -60.5990     6.1260     6.4090     7.4080   116.8500     9.4130     2.5260     0.0210
 2585.0000   -58.5640     6.2950     6.9810     7.2280   114.7370     9.4090     2.5330     0.0310
 2585.5000   -56.7170     6.9030     7.7710     8.3720   113.0010     9.3970     2.5500     0.0360
 2586.0000   -55.6740     6.8530     8.3760     9.4280   109.1060     9.3820     2.5440     0.0280
 2586.5000   -54.5670     6.7820     7.4310    10.4850   105.0600     9.3670     2.5350     0.0190
 2587.0000   -53.6510     6.9720     7.7160    11.3510   103.7720     9.3600     2.5350     0.0110
 2587.5000   -53.0940     7.2670     8.2230    11.0170    99.9420     9.4020     2.5300     0.0150
 2588.0000   -52.5360     7.0310     7.9080     8.1480    93.7220     9.4450     2.5150     0.0100
 2588.5000   -51.9810     7.6900     8.4340     9.0170    87.5730     9.4890     2.4850     0.0040
 2589.0000   -51.6020     8.1480     8.9500    10.2310    84.2240     9.4330     2.4630     0.0000
