~VERSION INFORMATION
 VERS.                2.0:   CWLS LOG ASCII STANDARD - VERSION 2.0
 WRAP.                 NO:   ONE LINE PER DEPTH STEP
~WELL INFORMATION
#MNEM.UNIT      DATA TYPE    INFORMATION
#----------   ------------   ------------------------------
 STRT.F           90.0000:   START DEPTH
 STOP.F         3342.0000:   STOP DEPTH
 STEP.F            0.5000:   STEP LENGTH
 NULL.          -999.2500:   NO VALUE
 COMP. LAWRENCE ALLISON AND ASSOCIATES:   COMPANY
 WELL. LAWERNCE "X" #83-3:   WELL
 FLD .             NPR #3:   FIELD
 LOC .       S3 T38N R78W:   LOCATION
 CNTY.            NATRONA:   COUNTY
 STAT.            WYOMING:   STATE
 CTRY. UNITED STATES OF AMERICA:   COUNTRY
 SRVC.      DRESSER ATLAS:   SERVICE COMPANY
 DATE.        23-APR-1985:   LOGDATE
 API .     49025110210000:   API NUMBER
~CURVE INFORMATION
#MNEM.UNIT       API CODE    CURVE DESCRIPTION
#----------   ------------   ------------------------------
 DEPT.F                  :   
 TENR.LBS    07 635 01 00:   TENSION FROM RESISTIVITY
 CALR.IN     07 280 01 00:   CALIPER FROM RESISTIVITY
 SPR .MV     07 010 01 00:   SPONTANEOUS POTENTIAL
 GRR .GAPI   07 310 01 00:   GAMMA RAY FROM RESISTIVITY
 RFOC.OHMM   07 220 04 00:   RESISTIVITY FOCUSED LOG RES.
 RILD.OHMM   07 120 46 00:   DEEP INDUCTION RESISTIVITY
 RILM.OHMM   07 120 44 00:   INDUCTION LOG MEDIUM RESISTIVITY
 NPHI.DEC    42 890 03 00:   NEUTRON POROSITY SANDSTONE
 RHOB.G/C3   45 350 01 00:   BULK DENSITY
 TEND.LBS    45 635 01 00:   TENSION FROM DENSITY LOG
 CORR.G/C3   45 356 01 00:   DENSITY CORRECTION
~PARAMETER INFORMATION
#MNEM.UNIT          VALUE    DESCRIPTION
#----------   ------------   ------------------------------
 EKB .F         5125.0000:   Kelly bushing
 EGL .F         5112.0000:   Ground level
 EDF .F            0.0000:   Drilling floor
 TD  .F         3330.0000:   Total depth
 DATE.        23-APR-1985:   Date logged
 CLNT.            A2DTECH:   Client Code
 SL  . 1745' FNL & 612' FEL:   Surface Location
 PD  .                 GL:   Permanent Datum
 DD  .F              3330:   Depth driller
 DL  .F              3328:   Depth logger
 BLI .F              3326:   Bottom log interval
 CS1 .IN            8.625:   Casing size
 CBD1.      8.625" @ 526':   Casing driller 1
 CBL1.F               528:   Casing logger 1
 BS1 .IN            7.875:   Bit size
 DFT .            KCL-GEL:   Type fluid in hole
 DFD .                9.1:   Density
 DFV .                 43:   Viscosity
 DFPH.                  8:   pH
 DFL .                  8:   Fluid loss
 MSS .           FLOWLINE:   Source of sample
 RMS .OHMM          0.445:   Rm
 MST .F                72:   Rm Meas. temp.
 RMF .OHMM           0.36:   Rmf
 MFST.F                70:   Rmf Meas. temp.
 RMC .OHMM           0.55:   Rmc
 MCST.F                72:   Rmc Meas. temp.
 MFSS.               MEAS:   Source Rmf.
 RMB .OHMM          0.286:   Rm. at BHT
 BHT .F               116:   BHT.
 TCS .HRS               3:   Time Circ. stopped
 MRT .F               116:   Maximum recorded temp.
 LUN .               6274:   Logging unit number
 LUL .               GLTE:   Logging unit location
 ENGI.             RAUTIO:   Recorded By
 WITN.             STRONG:   Witnessed by
 ORIG.           5" PRINT:   Origin of data
 UWI .     49025110210000:   Unique Well ID
 DICO. A2D TECHNOLOGIES, INC.:   Digitizing Company
 DAPD.                 13:   Feet Above Permanent Datum
 BSD1.               3330:   Depth drilled with bit1
 MCSS.               CALC:   Source Rmc.
 EPD .               5112:   Elevation Permanent Datum
 LMF .                 KB:   Log Measured From
 DMF .                 KB:   Drilling Measured From
~OTHER INFORMATION
~A   DEPT     TENR       CALR        SPR         GRR      RFOC       RILD       RILM       NPHI       RHOB       TEND       CORR   
# ...
 3109.5000   -74.8820     8.5350   -71.0060   108.9200     4.4030     3.8840     4.1080     0.2170     2.5200   -92.2970     0.0150
 3110.0000   -67.6900     8.5340   -71.6980   108.0310     4.3610     3.9120     4.0890     0.2190     2.5250   -81.2310     0.0230
 3110.5000   -60.4970     8.5340   -72.3570   108.7680     4.2910     3.9330     4.0690     0.2290     2.5200   -70.1640     0.0220
 3111.0000   -53.3040     8.5330   -73.0260   111.4220     4.2210     3.8900     4.0500     0.2310     2.5130   -59.0970     0.0240
 3111.5000   -45.6130     8.5330   -74.4870   113.9110     4.1680     3.8470     4.0300     0.2310     2.5100   -48.0300     0.0260
 3112.0000   -44.4120     8.5330   -76.8210   115.9990     4.3150     3.8040     4.0100     0.2330     2.5080   -35.8570     0.0280
 3112.5000   -43.1210     8.5320   -79.1890   116.8140     4.1990     3.7610     3.9810     0.2340     2.5040   -35.8570     0.0280
 3113.0000   -41.8300     8.5320   -81.5310   115.7910     4.0760     3.7190     3.9500     0.2310     2.5010   -35.8570     0.0230
 3113.5000   -40.5390     8.5310   -76.6220   114.4930     3.9730     3.6740     3.9200     0.2280     2.4980   -35.8570     0.0130
 3114.0000   -39.2480     8.5310   -70.9820   114.5510     4.1980     3.6250     3.8950     0.2250     2.4960   -35.8570     0.0030
 3114.5000   -37.9570     8.5300   -65.2170   115.0740     4.1460     3.5760     3.8590     0.2290     2.4920   -35.8570     0.0020
 3115.0000   -36.6660     8.5300   -63.9230   115.0770     4.0940     3.5270     3.8230     0.2320     2.4870   -35.8570     0.0040
 3115.5000   -35.6430     8.5290   -63.9280   113.7590     4.0410     3.4780     3.7880     0.2350     2.4860   -35.8570     0.0060
 3116.0000   -35.6430     8.5290   -63.9840   114.0350     3.9880     3.4290     3.7450     0.2380     2.4860   -35.8570     0.0120
 3116.5000   -35.6430     8.5280   -64.0360   115.9460     3.9370     3.3800     3.6780     0.2420     2.4830   -35.8570     0.0170
 3117.0000   -35.6430     8.5280   -64.0830   117.8350     3.8510     3.3320     3.6110     0.2460     2.4740   -35.8570     0.0130
 3117.5000   -35.6430     8.5270   -64.1300   116.6610     3.7680     3.2830     3.5430     0.2470     2.4650   -35.8570     0.0030
 3118.0000   -35.6430     8.5270   -64.1760   114.6120     3.6850     3.2300     3.4760     0.2420     2.4580   -35.8570    -0.0080
 3118.5000   -35.6430     8.5270   -64.2230   115.8210     3.6020     3.1660     3.4090     0.2380     2.4580   -35.8570    -0.0130
 3119.0000   -35.6430     8.5260   -64.2700   118.9340     3.5590     3.1020     3.3410     0.2340     2.4570   -35.8570    -0.0040
 3119.5000   -35.6430     8.5260   -64.3170   119.4400     3.6040     3.0380     3.2860     0.2370     2.4570   -35.8570    -0.0010
 3120.0000   -37.7200     8.5250   -64.3640   118.1790     3.6400     2.9740     3.2130     0.2400     2.4530   -35.8570    -0.0070
 3120.5000   -41.9160     8.5250   -64.4100   117.1600     3.6580     2.9100     3.1400     0.2510     2.4490   -35.8570    -0.0040
 3121.0000   -46.1120     8.5240   -64.4510   117.9290     3.5180     2.8460     3.0670     0.2570     2.4450   -35.8570    -0.0010
 3121.5000   -50.3070     8.5240   -64.5450   120.1890     3.4120     2.7820     2.9890     0.2580     2.4420   -35.8570     0.0000
 3122.0000   -54.5030     8.5230   -64.6500   123.2310     3.3050     2.7230     2.9840     0.2580     2.4410   -35.8570     0.0110
 3122.5000   -53.9970     8.5230   -64.7570   123.8510     3.1980     2.7000     2.9800     0.2660     2.4370   -35.8570     0.0080
 3123.0000   -49.4200     8.5220   -64.8630   121.5230     3.1390     2.6770     2.9750     0.2690     2.4340   -35.8570     0.0040
 3123.5000   -45.6130     8.5220   -64.9690   120.1090     3.2580     2.6540     2.9700     0.2590     2.4350   -35.8570     0.0000
 3124.0000   -45.6130     8.5210   -65.0750   121.0000     3.3530     2.6310     2.9650     0.2510     2.4390   -35.8570     0.0030
 3124.5000   -55.5830     8.5210   -65.1810   121.1400     3.4300     2.6070     2.9530     0.2510     2.4480   -38.3470     0.0060
 3125.0000   -55.5830     8.5210   -65.2870   120.6380     3.3450     2.5840     2.9080     0.2560     2.4480   -46.6470     0.0070
 3125.5000   -55.5830     8.5200   -65.3930   120.2480     3.2590     2.5610     2.8630     0.2600     2.4490   -55.7770     0.0080
 3126.0000   -55.5830     8.5200   -65.4460   120.6370     3.1730     2.5380     2.8180     0.2590     2.4510   -51.2950    -0.0010
 3126.5000   -55.5830     8.5210   -65.5420   121.0430     3.0870     2.4970     2.7730     0.2520     2.4530   -46.3150     0.0030
 3127.0000   -55.5830     8.5220   -65.6490   121.8120     3.0450     2.4530     2.7280     0.2550     2.4500   -41.3350     0.0070
 3127.5000   -55.5830     8.5230   -65.7550   123.1770     3.0010     2.4090     2.6820     0.2630     2.4450   -35.8570     0.0090
 3128.0000   -55.5830     8.5240   -65.8610   122.2180     2.9340     2.3650     2.6370     0.2700     2.4400   -33.9890     0.0030
 3128.5000   -55.5830     8.5250   -65.9680   121.6620     2.9620     2.3330     2.6020     0.2770     2.4370   -31.9140    -0.0020
 3129.0000   -55.5830     8.5260   -66.0740   123.6870     3.0440     2.3330     2.5910     0.2820     2.4400   -29.8390    -0.0080
 3129.5000   -55.5830     8.5270   -66.1790   125.6810     2.9850     2.3330     2.5810     0.2790     2.4470   -27.7640    -0.0010
 3130.0000   -55.5830     8.5280   -66.2760   127.6850     2.8980     2.3330     2.5710     0.2620     2.4530   -25.8960     0.0120
 3130.5000   -55.5830     8.5280   -66.3950   127.6790     2.8550     2.3090     2.5610     0.2500     2.4580   -29.7940     0.0140
 3131.0000   -55.5830     8.5290   -66.2030   126.3000     2.9680     2.2760     2.5500     0.2620     2.4560   -34.1240     0.0150
 3131.5000   -55.5830     8.5300   -67.3640   125.0230     3.0550     2.2430     2.5400     0.2730     2.4560   -38.4550     0.0170
 3132.0000   -55.5830     8.5310   -68.4940   126.6240     3.1200     2.2120     2.5100     0.2790     2.4540   -42.7850     0.0160
 3132.5000   -55.5830     8.5320   -69.6450   128.7270     3.0050     2.1810     2.4400     0.2770     2.4490   -45.8170     0.0090
 3133.0000   -55.5830     8.5330   -68.8460   134.9240     2.8970     2.1640     2.3540     0.2750     2.4440   -42.7730     0.0020
 3133.5000   -55.5830     8.5340   -67.7040   141.6250     2.7880     2.1570     2.3870     0.2760     2.4390   -40.0070     0.0000
 3134.0000   -55.7190     8.5350   -66.5430   141.9990     2.6530     2.1480     2.4290     0.2760     2.4340   -37.2400     0.0020
 3134.5000   -56.4820     8.5360   -65.4270   138.8980     2.7240     2.1620     2.4720     0.2790     2.4320   -36.7620     0.0050
 3135.0000   -57.2450     8.5370   -65.2500   132.3410     2.8410     2.1880     2.5150     0.2810     2.4420   -38.5730     0.0070
 3135.5000   -58.0080     8.5380   -65.2450   125.2200     2.9580     2.2130     2.5570     0.2790     2.4510   -40.3840     0.0110
 3136.0000   -58.7710     8.5390   -65.2520   120.9380     3.0720     2.2770     2.6180     0.2670     2.4550   -42.1950     0.0080
 3136.5000   -59.5340     8.5360   -65.0130   119.9400     3.0430     2.3960     2.6790     0.2540     2.4540   -44.0060     0.0010
 3137.0000   -60.2960     8.5200   -64.6720   120.5340     3.0160     2.5100     2.8100     0.2470     2.4550   -45.8170    -0.0070
 3137.5000   -61.0590     8.5190   -64.3290   121.3720     3.1770     2.7510     2.9810     0.2400     2.4570   -47.6280    -0.0060
 3138.0000   -61.8220     8.5190   -63.9850   123.0660     3.6020     2.9830     3.1510     0.2290     2.4690   -49.4390    -0.0010
 3138.5000   -62.5850     8.5190   -63.6420   125.6020     4.0270     3.2150     3.4060     0.2170     2.4820   -51.2500     0.0060
 3139.0000   -63.3480     8.5190   -63.3010   127.9650     4.4520     3.4360     3.8930     0.2140     2.4950   -53.0600     0.0220
 3139.5000   -64.1110     8.5180   -63.0650   128.5570     5.0910     3.6430     4.0840     0.2150     2.5020   -54.8710     0.0250
