~VERSION INFORMATION
 VERS.                2.0:   CWLS LOG ASCII STANDARD - VERSION 2.0
 WRAP.                 NO:   ONE LINE PER DEPTH STEP
~WELL INFORMATION
#MNEM.UNIT      DATA TYPE    INFORMATION
#----------   ------------   ------------------------------
 STRT.F          700.5000:   START DEPTH
 STOP.F         3060.0000:   STOP DEPTH
 STEP.F            0.5000:   STEP LENGTH
 NULL.          -999.2500:   NO VALUE
 COMP.    FENIX & SCISSON:   COMPANY
 WELL.   FENIX "A" #23-34:   WELL
 FLD .           N P R #3:   FIELD
 LOC .      S34 T39N R78W:   LOCATION
 CNTY.            NATRONA:   COUNTY
 STAT.            WYOMING:   STATE
 CTRY. UNITED STATES OF AMERICA:   COUNTRY
 SRVC.       SCHLUMBERGER:   SERVICE COMPANY
 DATE.        23-APR-1977:   LOGDATE
 API .     49025103590000:   API NUMBER
~CURVE INFORMATION
#MNEM.UNIT       API CODE    CURVE DESCRIPTION
#----------   ------------   ------------------------------
 DEPT.F                  :   
 ILD .OHMM   07 120 46 00:   DEEP INDUCTION RESISTIVITY
 ILM .OHMM   07 120 44 00:   INDUCTION LOG MEDIUM RESISTIVITY
 LL8 .OHMM   07 220 08 00:   LATEROLOG-8 RES.
 SPR .MV     07 010 01 00:   SPONTANEOUS POTENTIAL
 GRD .GAPI   45 310 01 00:   GAMMA RAY FROM DENSITY LOG
 CALD.IN     45 280 60 00:   CALIPER FROM DENSITY LOG
 RHOB.G/C3   45 350 01 00:   BULK DENSITY
 CORR.G/C3   45 356 01 00:   DENSITY CORRECTION
~PARAMETER INFORMATION
#MNEM.UNIT          VALUE    DESCRIPTION
#----------   ------------   ------------------------------
 EKB .F         5094.0000:   Kelly bushing
 EGL .F         5082.0000:   Ground level
 EDF .F            0.0000:   Drilling floor
 EPD .F            0.0000:   Permanent datum
 TD  .F         3051.0000:   Total depth
 DATE.        23-APR-1977:   Date logged
 CLNT.            A2DTECH:   Client Code
 SL  . 990' FWL & 1650' FNL:   Surface Location
 PD  .                 GL:   Permanent Datum
 DD  .F              3050:   Depth driller
 DL  .F              3051:   Depth logger
 BLI .F              3045:   Bottom log interval
 CS1 .IN            8.625:   Casing size
 CBD1.      8.625" @ 718':   Casing driller 1
 CBL1.F               717:   Casing logger 1
 BS1 .IN            7.875:   Bit size
 DFT .                FGM:   Type fluid in hole
 DFD .                8.8:   Density
 DFV .                 34:   Viscosity
 DFPH.                8.5:   pH
 DFL .                8.2:   Fluid loss
 MSS .           FLOWLINE:   Source of sample
 RMS .OHMM           .155:   Rm
 MST .F                66:   Rm Meas. temp.
 RMF .OHMM           .152:   Rmf
 MFST.F                66:   Rmf Meas. temp.
 MFSS.               MEAS:   Source Rmf.
 RMB .OHMM           .085:   Rm. at BHT
 BHT .F               120:   BHT.
 TCS .HRS            0230:   Time Circ. stopped
 MRT .F               120:   Maximum recorded temp.
 LUN .               5642:   Logging unit number
 LUL .               CSPR:   Logging unit location
 ENGI.             TAYLOR:   Recorded By
 WITN.         HARRINGTON:   Witnessed by
 ORIG.           5" PRINT:   Origin of data
 UWI .     49025103590000:   Unique Well ID
 DICO. A2D TECHNOLOGIES, INC.:   Digitizing Company
 DAPD.                 12:   Feet Above Permanent Datum
 BSD1.               3050:   Depth drilled with bit1
 TLI .                717:   Top log interval
 TLAB.               0530:   Time logger at bottom
~OTHER INFORMATION
~A   DEPT      ILD        ILM        LL8        SPR         GRD      CALD       RHOB       CORR   
# ...
 2847.0000     5.3670     5.0780     6.2990   -75.0150   144.9160     8.5770     2.5160     0.0350
 2847.5000     5.7770     5.2790     6.2210   -74.8950   141.0630     8.5720     2.5240     0.0420
 2848.0000     6.2040     5.7140     6.5750   -74.4420   137.1190     8.5670     2.5140     0.0170
 2848.5000     6.6320     6.1500     7.4710   -73.9620   135.8120     8.5620     2.5190     0.0230
 2849.0000     7.0590     6.5860     8.4260   -73.4830   135.8950     8.5560     2.5220     0.0190
 2849.5000     7.4860     7.0210     9.1270   -73.0030   136.1090     8.5510     2.5170     0.0170
 2850.0000     7.9140     7.4570     9.2720   -72.5240   136.1230     8.5460     2.5390     0.0300
 2850.5000     8.1460     7.8920     9.4160   -72.0450   135.3980     8.5410     2.5320     0.0240
 2851.0000     8.2040     8.2810     9.5610   -71.5670   135.4690     8.5350     2.5330     0.0240
 2851.5000     8.2620     8.2810     9.7060   -71.0850   133.7250     8.5300     2.5320     0.0300
 2852.0000     8.2810     8.2050     9.8510   -70.5980   132.7300     8.5250     2.5250     0.0290
 2852.5000     8.3580     8.0470     9.9590   -70.7880   140.6670     8.5250     2.5180     0.0160
 2853.0000     8.3580     7.8990     9.7100   -71.0780   146.6270     8.5280     2.5280     0.0230
 2853.5000     8.1490     7.7510     9.3360   -71.3740   145.7300     8.5310     2.5320     0.0310
 2854.0000     7.9490     7.6020     9.2960   -71.6710   144.2640     8.5340     2.5170     0.0130
 2854.5000     7.7490     7.4540     9.2030   -71.7250   143.1190     8.5360     2.5190     0.0220
 2855.0000     7.5490     7.3050     9.0390   -71.7290   143.7660     8.5390     2.5230     0.0290
 2855.5000     7.3490     7.1570     8.7260   -71.7160   145.3870     8.5420     2.5080     0.0140
 2856.0000     7.1440     7.0080     8.4140   -71.2880   147.9730     8.5450     2.4990     0.0080
 2856.5000     7.0790     6.8850     8.2810   -70.8310   150.0870     8.5480     2.5080     0.0090
 2857.0000     7.0790     6.8850     8.2810   -70.3760   150.5400     8.5510     2.5460     0.0190
 2857.5000     7.1760     6.8850     8.5840   -69.9220   151.0780     8.5540     2.5850     0.0300
 2858.0000     7.3040     6.8850     8.9840   -69.4610   147.4720     8.5570     2.5940     0.0400
 2858.5000     7.4320     7.0790     9.2510   -68.8920   143.5560     8.5600     2.5800     0.0490
 2859.0000     7.5600     7.1440     8.9940   -67.9520   142.6220     8.5650     2.5710     0.0300
 2859.5000     7.6890     7.4130     8.9150   -67.0330   142.7870     8.5240     2.5640     0.0340
 2860.0000     7.8170     7.6560     9.1030   -66.1150   142.6300     8.4800     2.5610     0.0260
 2860.5000     7.9810     7.9080     9.2530   -65.1940   141.1040     8.4360     2.5590     0.0210
 2861.0000     8.2810     8.6720     9.4020   -64.2770   139.5840     8.3910     2.5540     0.0250
 2861.5000     9.6620    10.0340     9.5100   -63.3930   135.8060     8.3470     2.5500     0.0240
 2862.0000    11.4070    11.2930    10.4580   -61.9790   119.1510     8.3020     2.5450     0.0230
 2862.5000    13.1530    12.5530    12.3570   -60.5080   108.1890     8.2580     2.5060     0.0260
 2863.0000    14.8980    13.8130    14.2570   -59.0260    99.9210     8.2130     2.4710     0.0360
 2863.5000    16.6430    15.0730    15.5090   -56.7290    91.5740     8.1310     2.4410     0.0520
 2864.0000    17.9240    16.3330    15.6530   -53.9120    89.6800     7.9970     2.4110     0.0480
 2864.5000    18.5730    17.3250    14.7390   -51.1040    87.9940     7.8620     2.3820     0.0390
 2865.0000    19.2230    16.9440    14.1420   -49.2280    86.8310     7.7850     2.3590     0.0310
 2865.5000    19.4130    16.4710    14.6090   -47.3630    84.4310     7.7870     2.3640     0.0350
 2866.0000    19.4880    15.9990    15.0860   -46.0950    86.2340     7.8010     2.3830     0.0310
 2866.5000    19.5620    15.7980    15.3670   -44.8360    91.2340     7.8160     2.4020     0.0330
 2867.0000    19.6360    16.5610    14.4060   -43.5760    92.0510     7.8310     2.4220     0.0440
 2867.5000    19.7150    17.1970    14.6890   -42.3150    88.6820     7.8460     2.4360     0.0420
 2868.0000    20.0820    17.4860    15.0860   -41.0360    82.0580     7.8450     2.4210     0.0520
 2868.5000    20.6450    17.1090    15.2260   -39.7560    66.0460     7.8360     2.3980     0.0600
 2869.0000    21.6980    16.8520    13.5040   -38.5450    63.3580     7.8270     2.3740     0.0640
 2869.5000    23.9770    17.4860    13.1360   -37.7060    60.9800     7.8180     2.3580     0.0670
 2870.0000    26.4870    18.9380    13.9720   -37.3940    62.6340     7.8090     2.3530     0.0600
 2870.5000    26.9800    20.5310    14.8930   -37.0640    65.7870     7.8000     2.3930     0.0780
 2871.0000    27.2300    21.2250    15.5090   -37.0600    67.4430     7.7910     2.3840     0.0890
 2871.5000    26.9800    19.4180    15.7980   -37.1250    69.0860     7.7860     2.3690     0.0380
 2872.0000    26.0720    17.3630    15.1120   -37.1930    71.4860     7.7970     2.3590     0.0360
 2872.5000    24.4920    15.8690    14.3220   -37.2610    74.5620     7.8110     2.3690     0.0460
 2873.0000    22.9120    15.0490    13.6300   -37.3310    77.2170     7.8240     2.3840     0.0480
 2873.5000    21.3310    14.2290    13.2130   -37.3930    77.5580     7.8380     2.3680     0.0400
 2874.0000    19.7510    13.4090    12.8270   -37.1150    74.9920     7.8520     2.3820     0.0530
 2874.5000    18.7350    12.5890    12.4410   -36.8080    70.1440     7.8660     2.3960     0.0640
 2875.0000    18.4810    11.7690    12.0560   -36.5000    67.4120     7.8800     2.4020     0.0760
 2875.5000    18.4810    11.1250    11.5440   -36.0390    65.4400     7.8940     2.3970     0.0770
 2876.0000    19.1760    11.0230    11.1250   -35.5080    61.7990     7.9080     2.3860     0.0730
 2876.5000    24.4900    11.2290    10.5420   -34.9770    57.0350     7.9220     2.3770     0.0810
 2877.0000    37.6670    12.2010     9.7070   -34.4450    55.5650     7.9360     2.3780     0.0680
 2877.5000    50.8440    13.6300     9.1660   -33.9140    56.0670     7.9470     2.4140     0.0550
 2878.0000    64.0210    23.9300    10.2670   -33.8300    56.5080     7.9750     2.4710     0.0420
 2878.5000    77.1980    32.0330    20.6110   -33.8190    56.0220     8.0020     2.5290     0.0360
 2879.0000    90.3750    40.6580    34.1550   -34.1250    56.9860     8.0290     2.5720     0.0290
 2879.5000   104.7500    50.0670    47.6990   -34.4840    58.6690     8.0570     2.5860     0.0220
 2880.0000   107.6900    52.9170    56.4480   -34.8470    63.3040     8.0550     2.5640     0.0350
 2880.5000    96.4720    52.4310    53.9030   -35.2070    67.8270     8.0400     2.5360     0.0560
 2881.0000    83.2010    44.9730    43.5080   -35.2760    71.3800     8.0250     2.4910     0.0780
 2881.5000    69.9300    36.2000    29.9800   -35.3320    72.2820     8.0100     2.4440     0.0690
 2882.0000    56.6600    27.4270    16.4520   -35.3880    73.2890     7.9950     2.4030     0.0560
 2882.5000    43.3890    22.0320    14.5390   -35.3920    73.6640     7.9800     2.4240     0.0490
 2883.0000    30.1180    19.7150    17.0430   -35.3040    72.7590     7.9660     2.4480     0.0400
 2883.5000    24.4800    18.0920    20.9170   -35.2180    71.7330     7.9660     2.4780     0.0340
 2884.0000    23.2030    16.5330    23.9300   -35.1330    70.6800     7.9670     2.4440     0.0510
 2884.5000    21.9260    14.9730    20.2680   -35.0480    69.5600     7.9700     2.3720     0.0430
 2885.0000    20.6490    13.9380    16.1720   -34.9630    71.7030     7.9720     2.3440     0.0410
 2885.5000    19.3720    13.0260    12.5430   -34.8780    74.3860     7.9750     2.3330     0.0430
 2886.0000    18.0950    12.1150    12.3430   -34.7920    75.3950     7.9780     2.3490     0.0360
 2886.5000    17.1660    11.2040    12.0880   -34.7050    72.1080     7.9810     2.3430     0.0470
 2887.0000    17.1660    10.5260    11.8680   -34.6340    69.3620     7.9830     2.3320     0.0410
