~VERSION INFORMATION
 VERS.                2.0:   CWLS LOG ASCII STANDARD - VERSION 2.0
 WRAP.                 NO:   ONE LINE PER DEPTH STEP
~WELL INFORMATION
#MNEM.UNIT      DATA TYPE    INFORMATION
#----------   ------------   ------------------------------
 STRT.F          728.0000:   START DEPTH
 STOP.F         3296.0000:   STOP DEPTH
 STEP.F            0.5000:   STEP LENGTH
 NULL.          -999.2500:   NO VALUE
 COMP.    FENIX & SCISSON:   COMPANY
 WELL. FENIX TX "AX" #55-34:   WELL
 FLD . N. P. R. - WILDCAT:   FIELD
 LOC .      S34 T39N R78W:   LOCATION
 CNTY.            NATRONA:   COUNTY
 STAT.            WYOMING:   STATE
 CTRY. UNITED STATES OF AMERICA:   COUNTRY
 SRVC.       SCHLUMBERGER:   SERVICE COMPANY
 DATE.        22-JUL-1981:   LOGDATE
 API .     49025108770000:   API NUMBER
~CURVE INFORMATION
#MNEM.UNIT       API CODE    CURVE DESCRIPTION
#----------   ------------   ------------------------------
 DEPT.F                  :   
 TENS.LBS    60 635 01 00:   TENSION FROM SONIC LOG
 DT  .US/F   60 520 00 00:   DELTA TIME
 RHOB.G/C3   45 350 01 00:   BULK DENSITY
 TEND.LBS    45 635 01 00:   TENSION FROM DENSITY LOG
 CORR.G/C3   45 356 01 00:   DENSITY CORRECTION
 CALD.IN     45 280 60 00:   CALIPER FROM DENSITY LOG
 NPHI.DEC    42 890 03 00:   NEUTRON POROSITY SANDSTONE
 TENR.LBS    07 635 01 00:   TENSION FROM RESISTIVITY
 SPR .MV     07 010 01 00:   SPONTANEOUS POTENTIAL
 GRR .GAPI   07 310 01 00:   GAMMA RAY FROM RESISTIVITY
 SFL .OHMM   07 220 01 00:   SHALLOW FOCUSED LOG RESISTIVITY
 ILM .OHMM   07 120 44 00:   INDUCTION LOG MEDIUM RESISTIVITY
 ILD .OHMM   07 120 46 00:   DEEP INDUCTION RESISTIVITY
~PARAMETER INFORMATION
#MNEM.UNIT          VALUE    DESCRIPTION
#----------   ------------   ------------------------------
 EKB .F         5092.0000:   Kelly bushing
 EGL .F         5082.0000:   Ground level
 EDF .F            0.0000:   Drilling floor
 TD  .F         3170.0000:   Total depth
 DATE.        22-JUL-1981:   Date logged
 CLNT.            A2DTECH:   Client Code
 SL  . 2012' FSL & 2774' FWL:   Surface Location
 PD  .                 GL:   Permanent Datum
 EPD .F              5082:   Elevation Permanent Datum
 LMF .                 KB:   Log Measured From
 DMF .                 KB:   Drilling Measured From
 DAPD.F                10:   Feet Above Permanent Datum
 DD  .F              3170:   Depth driller
 DL  .F              3110:   Depth logger
 BLI .F              3104:   Bottom log interval
 TLI .F               753:   Top log interval
 CS1 .IN            9.625:   Casing size
 CBD1.      9.625" @ 751':   Casing driller 1
 CBL1.F               753:   Casing logger 1
 BS1 .IN            7.875:   Bit size
 BSD1.F              3170:   Depth drilled with bit1
 DFT .                FGM:   Type fluid in hole
 DFD .                  9:   Density
 DFV .                  9:   Viscosity
 DFPH.                9.8:   pH
 DFL .                8.6:   Fluid loss
 MSS .           MUD/TANK:   Source of sample
 RMS .OHMM           1.72:   Rm
 MST .F                72:   Rm Meas. temp.
 RMF .OHMM           1.17:   Rmf
 MFST.F                70:   Rmf Meas. temp.
 MFSS.               MEAS:   Source Rmf.
 RMB .OHMM           0.90:   Rm. at BHT
 BHT .F               144:   BHT.
 TCS .HRS            1215:   Time Circ. stopped
 TLAB.HRS            0400:   Time logger at bottom
 MRT .F               144:   Maximum recorded temp.
 LUN .               8035:   Logging unit number
 LUL .               CSPR:   Logging unit location
 ENGI.            PURPICH:   Recorded By
 WITN.           R. SCOTT:   Witnessed by
 ORIG.           5" PRINT:   Origin of data
 UWI .     49025108770000:   Unique Well ID
 DICO. A2D TECHNOLOGIES, INC.:   Digitizing Company
~OTHER INFORMATION
~A   DEPT     TENS         DT         RHOB      TEND      CORR       CALD         NPHI     TENR        SPR         GRR       SFL        ILM        ILD   
# ...
 2444.0000  1695.4320    88.5900     2.5130  1194.3320     0.0090     7.6270     0.3070   679.3870   -39.2600   108.7910     8.0010     6.3020     6.6510
 2444.5000  1696.4790    89.1250     2.5010  1194.3320     0.0060     7.6270     0.3080   679.4560   -39.2920   104.7890     9.0730     6.5040     6.8160
 2445.0000  1697.5260    89.6130     2.4910  1194.3320     0.0030     7.6270     0.3040   679.5240   -39.3240   100.6830    10.1460     6.7060     6.9800
 2445.5000  1698.5730    90.1010     2.4880  1194.3320     0.0040     7.6270     0.3000   679.5930   -39.3570    96.5840    10.9670     6.8690     7.1910
 2446.0000  1699.6200    90.5890     2.4930  1194.3320     0.0070     7.6270     0.2980   679.6610   -39.3890    94.5520    10.3960     6.9960     7.2580
 2446.5000  1700.6670    91.0070     2.4980  1194.3320     0.0090     7.6270     0.2980   679.7300   -39.4210   104.5650     9.6170     7.0610     7.3240
 2447.0000  1701.7140    91.1080     2.5050  1194.3320     0.0090     7.6270     0.2960   679.7980   -39.4530   111.7670     8.8390     6.9650     7.3920
 2447.5000  1681.7720    90.9320     2.5050  1194.3320     0.0070     7.6270     0.3000   679.8670   -39.4850   114.7840     8.0600     6.8120     7.2180
 2448.0000  1681.7720    90.9060     2.5070  1194.3320     0.0050     7.6270     0.2990   679.9360   -39.5170   114.2590     7.2820     6.6590     7.0770
 2448.5000  1704.3220    91.0540     2.5150  1194.3320     0.0050     7.6270     0.2990   680.0040   -39.5490   113.8010     6.6820     6.5610     6.9320
 2449.0000  1708.9220    91.2160     2.5140  1194.3320     0.0090     7.6270     0.2990   680.0730   -39.5810   113.3890     7.8380     6.5610     6.9320
 2449.5000  1713.5210    91.4100     2.4900  1194.3320     0.0110     7.6270     0.2990   680.1410   -39.6130   111.1240     9.0220     6.7850     7.1000
 2450.0000  1718.1200    91.1580     2.4660  1194.3320     0.0080     7.6270     0.2980   680.2100   -39.6460   108.5070    10.2070     7.2010     7.4800
 2450.5000  1722.0540    90.7130     2.4400  1194.3320     0.0050     7.6270     0.3000   680.2780   -39.6780   106.2500    11.3920     7.6160     7.8610
 2451.0000  1722.0540    90.2770     2.4500  1194.3320     0.0060     7.6270     0.3000   680.3470   -39.7100   106.9490    12.0200     8.0280     8.2520
 2451.5000  1701.9130    89.8410     2.4650  1194.3320     0.0070     7.6270     0.2990   680.4160   -39.7420   107.5940    12.0200     8.1770     8.4820
 2452.0000  1705.0150    89.5970     2.4750  1194.3320     0.0070     7.6270     0.2980   680.4840   -39.7740   108.2010    10.5710     8.1770     8.5610
 2452.5000  1715.6090    89.7990     2.4860  1194.3320     0.0080     7.6270     0.2980   680.5530   -39.8060   107.3300     9.3490     8.1770     8.5610
 2453.0000  1726.2030    90.9860     2.4850  1194.3320     0.0080     7.6270     0.2910   680.6210   -39.8380   105.4770     8.0280     8.1770     8.6390
 2453.5000  1736.7980    92.2640     2.4780  1194.3320     0.0080     7.6270     0.2970   680.6900   -39.8700   103.6470     7.9550     7.8170     8.3420
 2454.0000  1742.1949    93.5410     2.4680  1194.3320     0.0090     7.6270     0.2410   680.7580   -39.9020   101.7710     9.8040     7.4230     7.9310
 2454.5000  1743.9060    94.2300     2.4590  1194.3320     0.0090     7.6270     0.2600   680.8270   -39.9340   100.2080    11.0680     7.0300     7.5190
 2455.0000  1745.7640    93.8910     2.4510  1194.3320     0.0090     7.6270     0.2870   680.8960   -39.9670   105.5430    10.0210     6.6360     7.1070
 2455.5000  1747.6230    93.0440     2.4510  1194.3320     0.0040     7.6270     0.3050   680.9640   -39.9990   114.1060     8.5370     6.2430     6.6950
 2456.0000  1749.4810    92.1960     2.4520  1194.3320     0.0010     7.6270     0.3240   681.0330   -40.0320   122.8480     7.0530     5.8230     6.2830
 2456.5000  1751.3400    91.8130     2.4480  1194.3320    -0.0010     7.6270     0.3420   681.1010   -40.0240   128.4560     6.2670     5.8920     6.0970
 2457.0000  1753.1990    92.3880     2.4570  1194.3320     0.0090     7.6270     0.3520   681.1700   -39.7580   124.6390     7.1020     5.9310     6.2100
 2457.5000  1755.0570    93.1820     2.4740  1194.3320     0.0220     7.6270     0.3360   681.2380   -39.4920   120.8870     8.1780     5.9310     6.2100
 2458.0000  1756.9160    93.9770     2.4790  1194.3320     0.0290     7.6270     0.3210   681.3070   -39.2270   121.0830     9.2540     5.8770     6.2100
 2458.5000  1758.7750    94.7710     2.4710  1194.3320     0.0250     7.6270     0.3150   681.3760   -39.0830   122.3670    10.0050     5.7700     6.0970
 2459.0000  1760.6331    95.3370     2.4570  1194.3320     0.0180     7.6270     0.3220   681.4440   -39.0820   123.7020     8.9620     5.6050     5.9240
 2459.5000  1762.3361    95.4380     2.4510  1194.3320     0.0110     7.6270     0.3270   681.5130   -39.1690   126.8380     7.8970     5.4250     5.7040
 2460.0000  1742.1949    94.6860     2.4490  1194.3320     0.0050     7.6270     0.3330   681.5810   -39.2880   133.8990     6.7760     5.2450     5.4830
 2460.5000  1742.1949    93.6060     2.4470  1194.3320     0.0080     7.6270     0.3360   681.6500   -39.4060   140.9040     5.9310     5.0650     5.2630
 2461.0000  1747.6000    92.5270     2.4450  1194.3320     0.0130     7.6270     0.3380   681.7180   -39.5250   147.6180     6.1000     4.8850     5.0430
 2461.5000  1756.4280    91.4470     2.4400  1194.3320     0.0190     7.6270     0.3510   681.7870   -39.6440   151.5030     6.2100     4.7040     4.8920
 2462.0000  1765.2570    90.3670     2.4340  1194.3320     0.0190     7.6270     0.3660   681.8560   -39.7630   152.3350     5.7450     4.5880     4.9620
 2462.5000  1774.0850    89.5970     2.4300  1194.3320     0.0120     7.6270     0.3580   681.9240   -39.8670   149.8280     5.4110     4.9480     5.4020
 2463.0000  1782.9139    89.5820     2.4270  1194.3320     0.0060     7.6270     0.3410   681.9930   -39.8640   147.3620     7.3690     5.3490     5.8430
 2463.5000  1791.7419    89.7990     2.4240  1194.3320     0.0010     7.6270     0.3240   682.0610   -39.8630   146.3640     9.7950     5.7500     6.2840
 2464.0000  1800.5710    89.8990     2.4160  1194.3320     0.0020     7.6270     0.3100   682.1300   -39.8300   147.8360    12.2200     6.1510     6.7250
 2464.5000  1802.6180    89.5540     2.4080  1194.3320     0.0060     7.6270     0.3090   682.1980   -39.7960   149.6780    14.4410     6.5520     7.1650
 2465.0000  1802.6180    89.1300     2.4100  1194.3320     0.0070     7.6270     0.3100   682.2670   -39.7620   153.6980    14.4410     6.9960     7.6060
 2465.5000  1802.6180    88.7060     2.4190  1194.3320     0.0050     7.6270     0.3160   682.3360   -39.7300   157.6220    13.4460     7.1910     7.9550
 2466.0000  1802.2360    88.5900     2.4270  1194.3320     0.0030     7.6270     0.3240   682.4040   -39.6890   162.2380    11.9930     7.3920     7.9130
 2466.5000  1801.1331    88.9310     2.4360  1194.3320     0.0020     7.6260     0.3170   682.4730   -39.5140   170.3380    10.5410     7.3460     7.7430
 2467.0000  1800.0291    89.2840     2.4410  1194.3320     0.0090     7.6270     0.3100   682.5410   -39.2600   178.4150     9.8230     7.1800     7.5720
 2467.5000  1798.9260    90.1060     2.4360  1194.3320     0.0150     7.6270     0.3090   682.6100   -39.2750   186.5450     9.5780     7.0150     7.4020
 2468.0000  1797.8220    91.5440     2.4220  1194.3320     0.0130     7.6260     0.3170   682.6780   -39.2510   191.8670     8.5670     6.8490     7.2320
 2468.5000  1796.7190    92.9820     2.4090  1194.3320     0.0070     7.6270     0.3260   682.7470   -39.1940   194.8980     7.5560     6.6840     7.0610
 2469.0000  1795.6150    93.4240     2.4040  1194.3320     0.0070     7.6260     0.3300   682.8160   -39.1380   189.9890     7.1260     6.4490     6.8910
 2469.5000  1794.5120    93.7260     2.4040  1194.3320     0.0120     7.6270     0.3140   682.8840   -39.0820   185.9570     9.1800     6.0140     6.4590
