~VERSION INFORMATION
 VERS.                2.0:   CWLS LOG ASCII STANDARD - VERSION 2.0
 WRAP.                 NO:   ONE LINE PER DEPTH STEP
~WELL INFORMATION
#MNEM.UNIT      DATA TYPE    INFORMATION
#----------   ------------   ------------------------------
 STRT.F            0.0000:   START DEPTH
 STOP.F         3358.0000:   STOP DEPTH
 STEP.F            0.5000:   STEP LENGTH
 NULL.          -999.2500:   NO VALUE
 COMP. LAWRENCE ALLISON & ASSOC.:   COMPANY
 WELL. LAWRENCE NPR 3 "X" #14-11:   WELL
 FLD .                NPR:   FIELD
 LOC .      S11 T38N R78W:   LOCATION
 CNTY.            NATRONA:   COUNTY
 STAT.            WYOMING:   STATE
 CTRY. UNITED STATES OF AMERICA:   COUNTRY
 SRVC.      DRESSER ATLAS:   SERVICE COMPANY
 DATE.        25-SEP-1985:   LOGDATE
 API .     49025110470000:   API NUMBER
~CURVE INFORMATION
#MNEM.UNIT       API CODE    CURVE DESCRIPTION
#----------   ------------   ------------------------------
 DEPT.F                  :   
 TENR.LBS    07 635 01 00:   TENSION
 SPR .MV     07 010 01 00:   SPONTANEOUS POTENTIAL
 SFL .OHMM   07 220 01 00:   SHALLOW FOCUSED LOG RESISTIVITY
 ILD .OHMM   07 120 46 00:   DEEP INDUCTION RESISTIVITY
 ILM .OHMM   07 120 44 00:   INDUCTION LOG MEDIUM RESISTIVITY
 TENS.LBS    60 635 01 00:   TENSION FROM SONIC LOG
 DT  .US/F   60 520 00 00:   DELTA TIME
 TEND.LBS    45 635 01 00:   TENSION FROM DENSITY LOG
 RHOB.G/C3   45 350 01 00:   BULK DENSITY
 CORR.G/C3   45 356 01 00:   DENSITY CORRECTION
 NPHI.DEC    42 890 01 00:   NEUTRON POROSITY LIMESTONE
 GRR .GAPI   07 310 01 00:   GAMMA RAY FROM RESISTIVITY
~PARAMETER INFORMATION
#MNEM.UNIT          VALUE    DESCRIPTION
#----------   ------------   ------------------------------
 EKB .F         5184.0000:   Kelly bushing
 EGL .F         5173.0000:   Ground level
 EDF .F            0.0000:   Drilling floor
 TD  .F         3353.0000:   Total depth
 DATE.        25-SEP-1985:   Date logged
 CLNT.            A2DTECH:   Client Code
 SL  . 473' FWL & 2360' FNL:   Surface Location
 PD  .                 GL:   Permanent Datum
 EPD .F              5173:   Elevation Permanent Datum
 LMF .                 KB:   Log Measured From
 DMF .                 KB:   Drilling Measured From
 DAPD.F                11:   Feet Above Permanent Datum
 DD  .F              3353:   Depth driller
 DL  .F              3346:   Depth logger
 BLI .F              3344:   Bottom log interval
 CS1 .IN            8.625:   Casing size
 CBD1.      8.625" @ 586':   Casing driller 1
 CBL1.F               585:   Casing logger 1
 BS1 .IN            7.875:   Bit size
 BSD1.F              3353:   Depth drilled with bit1
 DFT .     GEL/KCL/STAFLO:   Type fluid in hole
 DFD .                8.9:   Density
 DFV .                 39:   Viscosity
 DFPH.                  8:   pH
 DFL .                8.9:   Fluid loss
 MSS .           FLOWLINE:   Source of sample
 RMS .OHMM            .45:   Rm
 MST .F                80:   Rm Meas. temp.
 RMF .OHMM            .33:   Rmf
 MFST.F                80:   Rmf Meas. temp.
 RMC .OHMM            .56:   Rmc
 MCST.F                80:   Rmc Meas. temp.
 MFSS.               CALC:   Source Rmf.
 MCSS.               CALC:   Source Rmc.
 RMB .OHMM            .27:   Rm. at BHT
 BHT .F               130:   BHT.
 TCS .HRS               3:   Time Circ. stopped
 MRT .F               135:   Maximum recorded temp.
 LUN .               6274:   Logging unit number
 LUL .               GLTE:   Logging unit location
 ENGI.               MACK:   Recorded By
 WITN.             STRONG:   Witnessed by
 ORIG.           5" PRINT:   Origin of data
 UWI .     49025110470000:   Unique Well ID
 DICO. A2D TECHNOLOGIES, INC.:   Digitizing Company
~OTHER INFORMATION
~A    DEPT    TENR        SPR        SFL        ILD        ILM       TENS         DT       TEND       RHOB       CORR       NPHI         GRR  
# ...
 2604.0000   -62.5320   -38.6090    18.4520    22.5080    16.9390   -75.6880    74.7460   -41.7240     2.4290     0.0110     0.2370    31.2090
 2604.5000   -62.4060   -38.4620    18.9310    22.4040    16.9610   -75.8350    75.2030   -43.0250     2.4120     0.0030     0.2450    31.8870
 2605.0000   -62.2790   -38.3040    18.6410    22.2990    16.9990   -75.9820    76.1520   -44.3270     2.3980     0.0060     0.2480    31.5240
 2605.5000   -62.1530   -38.6480    18.1260    22.1950    17.0380   -76.1300    77.2360   -45.6290     2.3900     0.0140     0.2460    31.1330
 2606.0000   -62.0270   -39.3360    17.2750    22.0910    17.0770   -76.2770    78.0350   -46.9310     2.3900     0.0270     0.2500    30.7340
 2606.5000   -61.9010   -39.9800    17.4180    21.9860    17.1160   -76.4240    78.7970   -48.2320     2.3940     0.0270     0.2570    31.0910
 2607.0000   -61.7740   -40.6370    17.8260    21.8820    17.1550   -76.5720    78.9240   -49.5340     2.3960     0.0150     0.2630    32.0880
 2607.5000   -61.6480   -41.3040    18.2350    21.7780    17.1940   -76.7190    78.7170   -50.8360     2.3880     0.0040     0.2530    32.7460
 2608.0000   -61.5220   -41.8400    18.5870    21.6730    17.2330   -76.8660    78.5110   -52.1380     2.3810    -0.0020     0.2450    33.2880
 2608.5000   -61.3950   -41.9640    18.9310    21.5690    17.2750   -77.0140    78.3040   -53.4390     2.3780     0.0070     0.2370    33.8510
 2609.0000   -61.2690   -42.1250    18.6960    21.0090    17.3670   -77.1610    78.0970   -54.7410     2.3900     0.0180     0.2340    34.2650
 2609.5000   -61.1330   -42.2640    18.4440    21.7240    17.4670   -77.3080    77.8910   -56.0430     2.4010     0.0290     0.2260    33.8480
 2610.0000   -61.1330   -42.4180    18.1920    23.0700    17.5660   -77.4560    77.5910   -57.3450     2.4130     0.0390     0.2180    32.2090
 2610.5000   -61.1330   -42.5640    17.5940    24.4160    18.9600   -77.6030    76.7620   -58.6460     2.4310     0.0430     0.1910    30.3740
 2611.0000   -61.1330   -42.7130    18.2500    25.7610    20.8600   -77.7500    74.8830   -59.9480     2.4510     0.0040     0.1850    28.3310
 2611.5000   -61.1330   -42.8610    23.2850    27.1070    22.7610   -77.8980    72.3960   -61.2500     2.4760    -0.0350     0.1740    27.0490
 2612.0000   -61.1330   -43.0090    27.8100    28.4530    24.4630   -78.0450    69.3160   -62.5520     2.5000    -0.0340     0.1630    27.5800
 2612.5000   -61.1330   -43.0510    32.7900    29.7990    24.4630   -78.1920    67.0690   -63.8530     2.5090     0.0040     0.1690    28.2980
 2613.0000   -61.1330   -42.9270    34.6420    30.6490    24.4630   -78.3400    66.7700   -65.1550     2.4870     0.0340     0.1680    29.0510
 2613.5000   -61.1330   -42.7860    33.1740    31.0370    23.9390   -78.4870    68.3310   -65.4040     2.4670     0.0290     0.1700    29.7750
 2614.0000   -61.1330   -42.6460    31.0620    31.4640    23.4610   -78.6340    70.4540   -63.2340     2.4330     0.0240     0.1720    30.5200
 2614.5000   -61.1330   -42.5030    28.9500    32.3350    22.9830   -78.7820    72.8270   -61.0640     2.3940     0.0200     0.1810    30.7710
 2615.0000   -61.1330   -42.3690    26.8380    33.2060    22.7350   -78.9290    75.1990   -58.8950     2.3700     0.0170     0.1880    30.7310
 2615.5000   -61.1330   -42.2190    24.4630    34.0770    25.6610   -79.0760    76.5680   -56.7250     2.3590     0.0150     0.1900    30.7690
 2616.0000   -61.1330   -42.0880    24.0190    34.9480    28.3690   -79.2240    76.7060   -54.5560     2.3660     0.0160     0.1850    30.5270
 2616.5000   -61.1330   -41.9480    25.2750    35.9340    31.0780   -79.3710    76.0420   -52.3860     2.3810     0.0230     0.1670    29.9490
 2617.0000   -61.1330   -41.7660    29.9450    37.7360    33.7860   -79.5190    73.0020   -50.2170     2.4330     0.0090     0.1520    28.8650
 2617.5000   -61.1330   -41.5690    38.8160    40.1070    36.4950   -79.6660    69.8550   -48.0470     2.4860    -0.0050     0.1380    27.5800
 2618.0000   -61.1330   -42.1160    59.5790    45.3670    38.5010   -79.8130    66.7080   -45.8170     2.5130    -0.0100     0.1320    26.4260
 2618.5000   -61.1330   -42.5730    83.4270    51.4870    40.1070   -79.9610    63.4800   -45.1870     2.4970    -0.0080     0.1300    25.9410
 2619.0000   -61.1330   -43.0870    77.1810    57.6070    41.5600   -80.1080    63.9170   -44.5390     2.4810    -0.0060     0.1320    25.5010
 2619.5000   -61.1330   -43.4610    63.2930    63.7270    43.2670   -80.2550    64.3770   -43.8910     2.4840    -0.0010     0.1340    25.0850
 2620.0000   -61.1330   -43.3480    49.9630    72.0590    45.5910   -80.4030    63.7790   -43.2430     2.5200     0.0030     0.1360    24.6210
 2620.5000   -61.1330   -43.1940    69.9290    68.2290    44.7220   -80.5500    61.7120   -42.5950     2.5430     0.0010     0.1450    24.2600
 2621.0000   -61.1330   -42.7400   106.5560    62.2320    42.6290   -80.6970    59.9900   -41.9460     2.5070     0.0000     0.1540    23.6830
 2621.5000   -61.1330   -42.7740   103.7830    56.2340    39.5780   -80.8450    63.1150   -41.2980     2.4550     0.0100     0.1710    24.5170
 2622.0000   -61.1330   -42.8900    77.5090    50.2360    36.5270   -80.9920    67.5290   -40.6500     2.4020     0.0180     0.1880    26.3800
 2622.5000   -61.1330   -43.0180    51.2340    43.1540    33.4760   -81.1390    72.4240   -40.0020     2.3870     0.0420     0.2000    27.4090
 2623.0000   -61.1330   -43.1240    35.9340    41.6140    29.9210   -81.2870    76.0420   -39.3540     2.3840     0.0660     0.2010    26.9730
 2623.5000   -61.1330   -43.2470    33.3720    39.3790    30.4740   -81.4340    76.9390   -38.7060     2.3770     0.0660     0.1970    26.4930
 2624.0000   -61.1330   -43.3600    30.8500    40.0210    30.4740   -81.5810    76.7090   -38.0580     2.3710     0.0670     0.1820    27.2780
 2624.5000   -61.1330   -43.4760    28.8450    40.8120    30.4740   -81.7290    74.1860   -37.4100     2.3950     0.0610     0.1670    28.3670
 2625.0000   -61.1330   -43.5920    29.1120    41.6030    36.4590   -81.8760    70.3440   -36.7620     2.4430     0.0370     0.1460    29.5560
 2625.5000   -61.1330   -43.7070    29.9210    44.4310    41.4270   -82.0230    66.5010   -36.1140     2.5160     0.0100     0.1220    28.9240
 2626.0000   -61.1330   -43.8230    56.4960    47.2600    46.4340   -82.1710    63.4270   -27.8350     2.5540     0.0000     0.1150    27.6920
 2626.5000   -61.1330   -43.9400    83.4270    50.0880    46.1240   -82.3180    61.3860   -14.5290     2.5380     0.0000     0.1080    26.9090
 2627.0000   -61.1330   -44.0490    70.5320    55.9400    45.5910   -82.4650    61.7970    -1.2220     2.5260     0.0000     0.1050    28.0140
 2627.5000   -61.1330   -44.1890    54.1500    66.6090    45.5910   -82.6130    62.2060    12.0850     2.5240     0.0010     0.0980    28.5300
 2628.0000   -61.1330   -44.1300    43.9520    77.5350    54.7170   -82.7600    61.8810    25.3920     2.5600     0.0080     0.0910    28.7870
 2628.5000   -61.1330   -43.7830    86.5720    78.9680    61.1110   -82.9070    59.8510    38.6990     2.5850     0.0060     0.0830    26.7890
 2629.0000   -61.1330   -43.4640   159.3700    68.2080    52.7840   -83.0550    58.3070    40.0600     2.6020    -0.0040     0.0870    24.8080
 2629.5000   -61.1330   -43.1310   220.1810    64.5620    48.5080   -83.2020    57.0990    22.5950     2.5740    -0.0200     0.0990    25.3570
 2630.0000   -61.1330   -42.8030   200.8440    56.8430    42.6470   -83.3500    58.6040     5.1290     2.5290    -0.0040     0.1180    26.9010
 2630.5000   -61.1330   -42.4740   147.3440    50.2150    36.7870   -83.4970    61.1860   -12.3360     2.4860     0.0200     0.1390    29.6780
 2631.0000   -61.1330   -42.1450    93.8440    43.5870    30.9260   -83.6440    65.3980   -25.8960     2.4560     0.0340     0.1580    31.5010
 2631.5000   -61.1330   -41.8160    40.3440    36.9590    25.0660   -83.7920    68.7900   -25.8960     2.4300     0.0340     0.1860    32.3070
