~VERSION INFORMATION
 VERS.                2.0:   CWLS LOG ASCII STANDARD - VERSION 2.0
 WRAP.                 NO:   ONE LINE PER DEPTH STEP
~WELL INFORMATION
#MNEM.UNIT      DATA TYPE    INFORMATION
#----------   ------------   ------------------------------
 STRT.F          387.0000:   START DEPTH
 STOP.F         2921.0000:   STOP DEPTH
 STEP.F            0.5000:   STEP LENGTH
 NULL.          -999.2500:   NO VALUE
 COMP.    FENIX & SCISSON:   COMPANY
 WELL.  FENIX  "A" #21-28:   WELL
 FLD .          N.P.R. #3:   FIELD
 LOC .      S28 T39N R78W:   LOCATION
 CNTY.            NATRONA:   COUNTY
 STAT.            WYOMING:   STATE
 CTRY. UNITED STATES OF AMERICA:   COUNTRY
 SRVC.       SCHLUMBERGER:   SERVICE COMPANY
 DATE.        30-APR-1977:   LOGDATE
 API .     49025103550000:   API NUMBER
~CURVE INFORMATION
#MNEM.UNIT       API CODE    CURVE DESCRIPTION
#----------   ------------   ------------------------------
 DEPT.F                  :   
 SPR .MV     07 010 01 00:   SPONTANEOUS POTENTIAL
 ILD .OHMM   07 120 46 00:   DEEP INDUCTION RESISTIVITY
 ILM .OHMM   07 120 44 00:   INDUCTION LOG MEDIUM RESISTIVITY
 LL8 .OHMM   07 220 08 00:   LATEROLOG-8 RES.
 GRD .GAPI   45 310 01 00:   GAMMA RAY FROM DENSITY LOG
 CALD.IN     45 280 60 00:   CALIPER FROM DENSITY LOG
 CORR.G/C3   45 356 01 00:   DENSITY CORRECTION
 RHOB.G/C3   45 350 01 00:   BULK DENSITY
~PARAMETER INFORMATION
#MNEM.UNIT          VALUE    DESCRIPTION
#----------   ------------   ------------------------------
 EKB .F         4977.0000:   Kelly bushing
 EGL .F         4967.0000:   Ground level
 EDF .F            0.0000:   Drilling floor
 TD  .F         2922.0000:   Total depth
 CLNT.            A2DTECH:   Client Code
 SL  . 330' FNL & 990' FWL:   Surface Location
 DATE.        30-APR-1977:   Date Logged [DD-MMM-YYYY]
 DD  .F              2915:   Depth driller
 DL  .F              2922:   Depth logger
 BLI .F              2916:   Bottom log interval
 TLI .F               394:   Top log interval
 CS1 .              8.625:   Casing size
 CBD1.      8.625" @ 390':   Casing driller 1
 CBL1.IN              394:   Casing logger 1
 BS1 .IN            7.875:   Bit size
 BSD1.F              2915:   Depth drilled with bit1
 DFT .            KCL MUD:   Type fluid in hole
 DFD .                8.9:   Density
 DFV .                 87:   Viscosity
 DFPH.                8.5:   pH
 DFL .                9.6:   Fluid loss
 MSS .                PIT:   Source of sample
 RMS .OHMM           0.25:   Rm
 MST .F                70:   Rm Meas. temp.
 RMF .OHMM           0.22:   Rmf
 MFST.F                70:   Rmf Meas. temp.
 MFSS.               MEAS:   Source Rmf.
 RMC .OHMM           0.38:   Rmc
 MCST.F                70:   Rmc Meas. temp.
 MCSS.               CALC:   Source Rmc.
 RMB .OHMM           0.09:   Rm. at BHT
 BHT .F               109:   BHT.
 TCS .HRS            1800:   Time Circ. stopped
 TLAB.HRS            2200:   Time logger at bottom
 MRT .F               109:   Maximum recorded temp.
 LUN .                711:   Logging unit number
 LUL .             CASPER:   Logging unit location
 ENGI.              SYLER:   Recorded By
 WITN.         PETTINGILL:   Witnessed by
 ORIG.           5" PRINT:   Origin of data
 UWI .     49025103550000:   Unique Well ID
 DICO. A2D TECHNOLOGIES, INC.:   Digitizing Company
 PD  .                 GL:   Permanent Datum
 EPD .F              4967:   Elevation Permanent Datum
 LMF .                 KB:   Log Measured From
 DMF .                 KB:   Drilling Measured From
 DAPD.F                10:   Feet Above Permanent Datum
~OTHER INFORMATION
~A   DEPT      SPR        ILD        ILM        LL8         GRD      CALD       CORR       RHOB   
# ...
 2047.5000   -17.6968     6.0946     6.0624     5.7125   129.7748     8.9448     0.0289     2.4945
 2048.0000   -17.6911     6.0976     6.6300     6.7498   129.3168     8.9443     0.0158     2.4984
 2048.5000   -17.6866     6.1430     6.8609     8.1421   124.8214     8.9437     0.0135     2.4906
 2049.0000   -17.6820     6.1888     6.9093     8.7907   122.5000     8.9432     0.0143     2.4791
 2049.5000   -17.6775     6.2349     6.8614     9.0406   123.5947     8.9426     0.0174     2.4729
 2050.0000   -17.8504     6.2814     6.5823     8.1311   127.4845     8.9421     0.0174     2.4605
 2050.5000   -18.2745     6.2573     6.2270     8.0974   130.1320     8.9415     0.0152     2.4558
 2051.0000   -18.2715     6.1533     5.8908     8.2692   131.3616     8.9410     0.0128     2.4620
 2051.5000   -18.2685     5.8233     5.5728     7.7783   132.6789     8.9433     0.0100     2.4744
 2052.0000   -18.4173     5.3967     5.2354     6.6531   133.4348     8.9471     0.0074     2.4698
 2052.5000   -18.5654     5.0361     4.9873     6.2831   132.9454     8.9509     0.0051     2.4504
 2053.0000   -18.7134     4.9678     4.9188     5.4231   132.0188     8.9547     0.0168     2.4396
 2053.5000   -18.7097     4.8665     4.9535     4.6895   130.6010     8.9585     0.0323     2.4419
 2054.0000   -18.7067     4.9014     5.1289     4.5937   128.2154     8.9623     0.0261     2.4411
 2054.5000   -18.7037     5.0054     5.3475     6.1474   123.0956     8.9661     0.0106     2.4241
 2055.0000   -18.7007     5.1117     5.5369     7.4654   119.3813     8.9699     0.0091     2.4288
 2055.5000   -18.6977     5.1484     5.4231     8.2849   117.3750     8.9737     0.0114     2.4528
 2056.0000   -18.6947     5.0434     5.0595     8.8813   114.7476     8.9775     0.0161     2.4730
 2056.5000   -18.6917     4.6739     4.6552     8.9449   115.5363     8.9812     0.0215     2.4838
 2057.0000   -18.8399     4.3315     3.8863     6.7339   118.9648     8.9850     0.0161     2.4916
 2057.5000   -18.9879     4.2138     3.7539     4.6973   123.9461     8.9867     0.0192     2.4885
 2058.0000   -19.2870     4.0429     3.7282     3.9508   126.9088     8.9878     0.0231     2.4738
 2058.5000   -19.2840     3.7467     3.7284     3.6616   126.3000     9.0045     0.0193     2.4590
 2059.0000   -19.4321     3.5452     3.7287     3.5622   122.2751     9.0214     0.0105     2.4327
 2059.5000   -19.4290     3.4251     3.7031     3.4895   120.4210     9.0380     0.0146     2.4451
 2060.0000   -19.5771     3.3553     3.6523     4.2086   121.6787     9.0546     0.0100     2.4536
 2060.5000   -19.5740     3.3096     3.6022     5.2911   123.8649     9.0868     0.0069     2.4552
 2061.0000   -19.5704     3.2874     3.5493     5.8314   125.8959     9.0879     0.0165     2.4562
 2061.5000   -19.5674     3.2883     3.4797     4.7050   127.6163     9.1201     0.0294     2.4616
 2062.0000   -19.5644     3.2890     3.4558     4.1830   128.4051     9.1523     0.0146     2.4630
 2062.5000   -19.5614     3.2896     3.4322     4.6744   129.6597     9.1533     0.0183     2.4661
 2063.0000   -19.5584     3.2903     3.3851     4.1271   130.7590     9.1544     0.0349     2.4762
 2063.5000   -19.5555     3.2910     3.3618     3.5198   131.0819     9.1711     0.0318     2.4793
 2064.0000   -19.5525     3.2917     3.3621     3.3075   131.0942     9.1563     0.0225     2.4700
 2064.5000   -19.5495     3.3153     3.5055     3.9342   129.3985     9.1421     0.0024     2.4568
 2065.0000   -19.3954     3.3857     3.6549     4.9461   128.7867     9.0963    -0.0038     2.4452
 2065.5000   -19.3924     3.4832     3.8640     5.4512   131.1313     9.0818     0.0133     2.4685
 2066.0000   -19.3894     3.7377     4.0568     4.4906   134.2492     9.0987     0.0280     2.4878
 2066.5000   -19.2354     4.0377     4.2297     3.9374   135.5038     9.0840     0.0304     2.4886
 2067.0000   -19.0813     4.2975     4.4408     4.3395   136.1373     9.1009     0.0180     2.4731
 2067.5000   -18.9273     4.5145     4.6948     5.8878   136.1207     9.1019     0.0133     2.4716
 2068.0000   -18.7732     4.7621     4.9635     6.9067   136.9384     9.1030     0.0095     2.4856
 2068.5000   -18.7703     5.0000     5.1036     7.0532   137.8824     9.1041     0.0079     2.4933
 2069.0000   -18.7673     5.2863     5.3212     6.4388   137.7395     9.1052     0.0072     2.4987
 2069.5000   -18.7643     5.5505     5.5867     6.0965   134.3357     9.1063     0.0111     2.4941
 2070.0000   -18.7613     5.8683     5.9063     6.2472   132.0188     9.1073     0.0134     2.5019
 2070.5000   -18.7583     6.1189     6.2443     6.8038   131.5653     9.1084     0.0103     2.5026
 2071.0000   -18.6042     6.2924     6.6015     7.6732   131.4223     9.0940     0.0080     2.4980
 2071.5000   -18.6012     6.3816     6.7495     8.3983   130.5019     9.0795     0.0104     2.5175
 2072.0000   -18.4471     6.3829     6.5567     8.9407   129.2693     9.0806     0.0119     2.5368
 2072.5000   -18.2930     6.3842     6.3775     8.6379   129.4486     9.0972     0.0158     2.5329
 2073.0000   -18.2901     6.3414     6.2899     8.0612   131.5285     9.1138     0.0160     2.5228
 2073.5000   -18.2864     6.3427     6.2036     7.4711   134.0287     9.1149     0.0182     2.5259
 2074.0000   -18.1324     6.3440     6.2040     6.9723   136.3850     9.1315     0.0259     2.5422
 2074.5000   -18.1294     6.3014     6.2100     6.9737   138.4084     9.1482     0.0267     2.5484
 2075.0000   -18.1264     6.3907     6.3429     7.0725   139.2852     9.1493     0.0322     2.5500
 2075.5000   -17.9723     6.5279     6.6518     7.1727   137.4729     9.1195     0.0353     2.5531
 2076.0000   -17.9694     6.7644     7.1307     7.5308   128.4434     9.1206     0.0298     2.5492
 2076.5000   -17.9664     7.0566     7.9143     8.1855   124.5738     9.1058     0.0203     2.5415
 2077.0000   -17.9634     7.3612     8.4254     8.9591   124.8967     9.0914     0.0121     2.5369
 2077.5000   -17.9604     7.6703     8.5438     9.9426   126.1513     9.0616     0.0160     2.5338
 2078.0000   -17.9574     8.0446     8.7852    10.5116   125.8531     9.0627     0.0121     2.5214
 2078.5000   -17.9544     8.3302     9.1597    10.8845   125.8654     9.0638     0.0075     2.5059
 2079.0000   -17.9514     8.6259     9.6837    10.9624   126.3436     9.0649     0.0036     2.4981
 2079.5000   -17.9484     8.9321    10.2377    10.8888   126.1976     9.0504     0.0021     2.4811
 2080.0000   -17.9454     9.1218    10.3098    10.5203   125.7472     9.0515     0.0083     2.4811
 2080.5000   -17.9424     9.3155    10.1683    10.0241   121.8196     9.0525     0.0044     2.4858
 2081.0000   -17.9394     9.3823     9.8219     9.6847   116.9199     9.0536     0.0029     2.4968
 2081.5000   -17.9364     9.3842     9.6869     9.7541   116.1528     9.0389     0.0083     2.4889
 2082.0000   -17.7824     9.3862     9.9606    12.5228   120.3608     9.0402     0.0169     2.4982
 2082.5000   -17.6283     9.3881     9.9613    12.5145   122.8576     9.0255     0.0223     2.5098
 2083.0000   -17.6254     9.3246     9.7566    11.7545   124.7333     9.0268     0.0192     2.5137
 2083.5000   -17.6224     9.3271     9.5560    11.1171   130.4910     9.0279    -0.0001     2.5005
 2084.0000   -17.6194     9.3290     9.4248    10.8338   133.9195     9.0290    -0.0071     2.4804
 2084.5000   -17.6163     9.3309     9.4166    11.0643   134.8635     9.0301    -0.0001     2.4757
 2085.0000   -17.7645     9.3328     9.6246    10.7640   134.7206     9.0156     0.0069     2.4796
 2085.5000   -17.7614     9.3997     9.7599    10.5441   134.4224     9.0167     0.0123     2.4835
 2086.0000   -17.6067     9.4671     9.8971    11.5412   134.9028     9.0178     0.0155     2.4975
 2086.5000   -17.6037     9.5349     9.9668    12.2865   136.0231     8.9878     0.0186     2.5029
 2087.0000   -17.4496     9.5369     9.9675    12.5472   138.0500     8.9577     0.0194     2.5037
 2087.5000   -17.4466     9.5389    10.0377    12.5498   138.5090     8.9588     0.0194     2.4983
