~VERSION INFORMATION
 VERS.                2.0:   CWLS LOG ASCII STANDARD - VERSION 2.0
 WRAP.                 NO:   ONE LINE PER DEPTH STEP
~WELL INFORMATION
#MNEM.UNIT      DATA TYPE    INFORMATION
#----------   ------------   ------------------------------
 STRT.F          212.5000:   START DEPTH
 STOP.F         3098.0000:   STOP DEPTH
 STEP.F            0.5000:   STEP LENGTH
 NULL.          -999.2500:   NO VALUE
 COMP.    FENIX & SCISSON:   COMPANY
 WELL. FENIX NPR 77 "A" #3-33:   WELL
 FLD .                NPR:   FIELD
 LOC .      S33 T39N R78W:   LOCATION
 CNTY.            NATRONA:   COUNTY
 STAT.            WYOMING:   STATE
 CTRY. UNITED STATES OF AMERICA:   COUNTRY
 SRVC.       SCHLUMBERGER:   SERVICE COMPANY
 DATE.        07-MAY-1977:   LOGDATE
 API .     49025103700000:   API NUMBER
~CURVE INFORMATION
#MNEM.UNIT       API CODE    CURVE DESCRIPTION
#----------   ------------   ------------------------------
 DEPT.F                  :   
 SPR .MV     07 010 01 00:   SPONTANEOUS POTENTIAL
 LL8 .OHMM   11 220 08 00:   LATERALOG-8 RESISTIVITY
 ILD .OHMM   07 120 46 00:   DEEP INDUCTION RESISTIVITY
 CALD.IN     45 280 60 00:   CALIPER FROM DENSITY LOG
 GRD .GAPI   45 310 01 00:   GAMMA RAY FROM DENSITY LOG
 RHOB.G/C3   45 350 01 00:   BULK DENSITY
 CORR.G/C3   45 356 01 00:   DENSITY CORRECTION
 ILM .OHMM   07 120 44 00:   INDUCTION LOG MEDIUM RESISTIVITY
~PARAMETER INFORMATION
#MNEM.UNIT          VALUE    DESCRIPTION
#----------   ------------   ------------------------------
 EKB .F         5152.0000:   Kelly bushing
 EGL .F         5141.0000:   Ground level
 TD  .F         3097.0000:   Total depth
 DATE.        07-MAY-1977:   Date logged
 CLNT.            A2DTECH:   Client Code
 SL  . 990' FEL & 990' FSL:   Surface Location
 PD  .                 GL:   Permanent Datum
 EPD .F              5141:   Elevation Permanent Datum
 LMF .                 KB:   Log Measured From
 DMF .                 KB:   Drilling Measured From
 DAPD.F                11:   Feet Above Permanent Datum
 DD  .F              3096:   Depth driller
 DL  .F              3097:   Depth logger
 BLI .F              3091:   Bottom log interval
 TLI .F               222:   Top log interval
 CS1 .IN            8.625:   Casing size
 CBD1.      8.625" @ 200':   Casing driller 1
 CBL1.F               222:   Casing logger 1
 BS1 .IN            7.875:   Bit size
 BSD1.F              3096:   Depth drilled with bit1
 DFT .                KCL:   Type fluid in hole
 DFD .                9.2:   Density
 DFV .                 38:   Viscosity
 DFPH.                  8:   pH
 DFL .                7.6:   Fluid loss
 MSS .           FLOWLINE:   Source of sample
 RMS .OHMM           .191:   Rm
 MST .F                76:   Rm Meas. temp.
 RMF .OHMM           .185:   Rmf
 MFST.F                76:   Rmf Meas. temp.
 MFSS.               MEAS:   Source Rmf.
 RMB .OHMM           .126:   Rm. at BHT
 BHT .F               115:   BHT.
 TCS .HRS            1200:   Time Circ. stopped
 TLAB.HRS            1530:   Time logger at bottom
 MRT .F                15:   Maximum recorded temp.
 LUN .               6442:   Logging unit number
 LUL .               CSPR:   Logging unit location
 ENGI.             MARTIN:   Recorded By
 WITN.          PETTMGILL:   Witnessed by
 ORIG.      2.5" 5" PRINT:   Origin of data
 UWI .     49025103700000:   Unique Well ID
 DICO. A2D TECHNOLOGIES, INC.:   Digitizing Company
~OTHER INFORMATION
~A   DEPT      SPR        LL8        ILD       CALD         GRD      RHOB       CORR        ILM   
# ...
 2480.5000   -75.3600     7.7630     6.3950     9.1390   133.5310     2.5560     0.0730     6.6360
 2481.0000   -75.1630     7.9070     6.4250     9.1340   133.2200     2.5660     0.0580     6.6360
 2481.5000   -74.9660     8.0930     6.4540     9.1300   132.3450     2.5600     0.0530     6.6360
 2482.0000   -74.7680     8.2780     6.4840     9.1260   131.4560     2.5530     0.0720     6.6360
 2482.5000   -74.5690     8.4350     6.5140     9.1210   130.5920     2.5430     0.0640     6.6360
 2483.0000   -74.3730     8.2830     6.3950     9.1170   129.4900     2.5430     0.0510     6.6360
 2483.5000   -74.2440     8.0840     6.2780     9.1130   128.2300     2.5570     0.0650     6.6350
 2484.0000   -74.6990     7.8860     6.1950     9.1080   127.5660     2.5570     0.0770     6.6370
 2484.5000   -75.2270     7.6880     6.1080     9.1040   128.5060     2.5500     0.0780     6.5470
 2485.0000   -75.7470     7.4820     6.0210     9.1000   129.4860     2.5580     0.0680     6.4550
 2485.5000   -76.2680     7.4530     5.9340     9.0960   130.5120     2.5650     0.0570     6.3630
 2486.0000   -76.7900     7.4150     5.8470     9.0910   131.1500     2.5770     0.0630     6.2710
 2486.5000   -77.3140     7.3770     5.7600     9.0870   129.0290     2.5730     0.0800     6.1780
 2487.0000   -77.8500     7.3450     5.6730     9.0830   128.5600     2.5610     0.0790     6.0860
 2487.5000   -77.9300     7.2290     5.5860     9.0780   128.9570     2.5650     0.0750     5.9940
 2488.0000   -77.5330     7.0930     5.5000     9.0750   128.9940     2.5760     0.0830     5.9020
 2488.5000   -77.2030     6.9490     5.4130     9.0760   127.7730     2.5860     0.0910     5.8100
 2489.0000   -76.8800     6.6840     5.3260     9.0750   128.8020     2.5940     0.0860     5.7180
 2489.5000   -76.5580     6.4040     5.2690     9.0760   129.9580     2.5870     0.0730     5.6200
 2490.0000   -76.2360     6.1640     5.3180     9.0790   140.0890     2.5710     0.0590     5.5690
 2490.5000   -75.9130     6.1070     5.3540     9.0810   139.1810     2.5550     0.0510     5.5820
 2491.0000   -75.5910     6.4860     5.3910     9.0830   138.0370     2.5460     0.0530     5.6080
 2491.5000   -75.2680     6.8900     5.4270     9.0850   136.3360     2.5490     0.0560     5.6330
 2492.0000   -74.9460     7.1380     5.4640     9.0870   134.9460     2.5520     0.0590     5.6590
 2492.5000   -74.6240     7.0950     5.5000     9.0890   133.5630     2.5550     0.0630     5.6840
 2493.0000   -74.4060     7.0520     5.5370     9.0910   134.1180     2.5590     0.0660     5.7100
 2493.5000   -74.6230     7.0140     5.5690     9.0930   135.0000     2.5620     0.0690     5.7350
 2494.0000   -74.8560     6.9490     5.5020     9.0950   134.0310     2.5650     0.0710     5.7610
 2494.5000   -75.0900     6.9490     5.4720     9.0970   133.6730     2.5690     0.0680     5.7780
 2495.0000   -75.3230     6.9490     5.4430     9.1000   136.8190     2.5620     0.0630     5.7780
 2495.5000   -75.5560     6.9490     5.4130     9.1020   138.3110     2.5500     0.0580     5.7630
 2496.0000   -75.7890     6.9490     5.3830     9.1040   136.8410     2.5390     0.0530     5.7160
 2496.5000   -76.0220     6.9490     5.3540     9.1060   135.5550     2.5310     0.0490     5.6690
 2497.0000   -76.2550     6.8800     5.3240     9.1080   133.9980     2.5490     0.0520     5.6220
 2497.5000   -76.4890     6.7590     5.2940     9.1100   133.6030     2.5820     0.0640     5.5750
 2498.0000   -76.7240     6.7590     5.2650     9.1140   134.6550     2.6040     0.0770     5.5280
 2498.5000   -76.9620     6.8220     5.2350     9.1100   133.1270     2.6030     0.0900     5.4670
 2499.0000   -76.8570     6.8220     5.2200     9.1470   131.0070     2.5990     0.0990     5.5430
 2499.5000   -76.4000     6.7970     5.4370     9.1550   130.8350     2.6000     0.0950     5.6950
 2500.0000   -75.9580     6.7750     5.6770     9.1550   133.3900     2.6160     0.0900     5.8590
 2500.5000   -75.5170     6.7590     5.9170     9.1480   133.7220     2.6170     0.0950     6.0920
 2501.0000   -75.0750     7.3560     6.1570     9.1440   133.4370     2.6060     0.1110     6.3860
 2501.5000   -74.6330     8.0210     6.3970     9.1390   131.2280     2.5930     0.0990     6.6810
 2502.0000   -74.1920     8.6850     6.6370     9.1340   126.3030     2.5930     0.0840     6.9760
 2502.5000   -73.7500     9.3500     6.8770     9.1290   121.4060     2.6060     0.0910     7.2700
 2503.0000   -73.3080     9.5980     7.1170     9.1240   119.5410     2.6100     0.0850     7.5650
 2503.5000   -72.8650     9.2700     7.2770     9.1190   118.1300     2.6060     0.0810     7.8600
 2504.0000   -72.4270     8.9690     7.7040     9.1140   119.8750     2.6060     0.0860     8.1290
 2504.5000   -72.0600     8.7520     8.0960     9.1030   122.2140     2.6250     0.0910     8.4120
 2505.0000   -71.9090     9.2440     8.4890     9.0940   120.1010     2.6370     0.0950     8.9700
 2505.5000   -72.1790    14.9890     8.8820     9.0840   113.3150     2.6400     0.0910     9.6390
 2506.0000   -72.4310    27.4830     9.2510     9.0740    96.3680     2.6330     0.0680    10.3090
 2506.5000   -72.6860    26.7170     9.3360     9.0640    76.9720     2.6210     0.0470    10.5260
 2507.0000   -72.9420    25.1060     9.1040     9.0540    72.7410     2.6260     0.0330    10.2230
 2507.5000   -73.1930    22.1080     8.7600     9.0440    70.1080     2.6550     0.0400     9.7720
 2508.0000   -73.4190    15.3720     8.4150     9.0360    81.5140     2.6740     0.0600     9.3210
 2508.5000   -73.2060     9.0810     8.0710     9.0360   103.4590     2.6370     0.0820     8.8700
 2509.0000   -73.0580     8.4480     7.7260     9.0380   122.5400     2.6090     0.0860     8.4190
 2509.5000   -72.8460     8.1290     7.3820     9.0740   129.8490     2.5920     0.0810     7.9690
 2510.0000   -72.6270     8.2990     7.0370     9.1050   133.2780     2.5790     0.0720     7.5180
 2510.5000   -72.4100     8.4580     6.6930     9.1400   132.4030     2.5650     0.0650     7.0670
 2511.0000   -72.1920     8.6170     6.5460     9.1570   131.3860     2.5580     0.0570     6.7590
 2511.5000   -71.9750     8.6720     6.5020     9.1720   129.0780     2.5760     0.0540     6.6970
 2512.0000   -71.7580     8.5060     6.4580     9.1870   127.0270     2.5990     0.0660     6.6970
 2512.5000   -71.5400     8.2510     6.4140     9.2030   125.1630     2.6130     0.0940     6.6970
 2513.0000   -71.4430     7.9970     6.3700     9.2170   125.9140     2.5990     0.0890     6.6970
 2513.5000   -71.4870     7.8350     6.2780     9.2330   128.6430     2.5850     0.0810     6.6970
 2514.0000   -71.5450     7.7630     6.2930     9.2370   132.4320     2.5700     0.0720     6.6970
 2514.5000   -71.6030     7.7630     6.3260     9.2460   134.2340     2.5560     0.0650     6.6970
 2515.0000   -71.6330     7.7630     6.3590     9.2530   134.1210     2.5470     0.0630     6.7060
 2515.5000   -71.9210     7.8350     6.3920     9.2610   131.5560     2.5660     0.0840     6.7470
 2516.0000   -72.2850     8.1290     6.4250     9.2680   129.0270     2.5820     0.0870     6.7860
 2516.5000   -72.6530     8.2050     6.4580     9.2740   127.1950     2.5880     0.0720     6.8260
 2517.0000   -73.0190     8.1260     6.4910     9.2740   127.7850     2.5780     0.0700     6.8650
 2517.5000   -73.3840     8.0020     6.5240     9.2820   127.9120     2.5920     0.0890     6.9050
 2518.0000   -73.6190     7.9810     6.5560     9.2880   126.2500     2.6080     0.0910     6.9450
 2518.5000   -73.6150     8.0340     6.5890     9.2960   124.8770     2.5990     0.0760     6.9840
 2519.0000   -73.5130     8.1600     6.6220     9.3020   124.6550     2.5760     0.0600     7.0240
 2519.5000   -73.3380     8.2850     6.6550     9.3100   126.4860     2.5760     0.0570     7.0640
 2520.0000   -73.1610     8.3580     6.6880     9.3220   129.7260     2.5880     0.0710     7.0790
 2520.5000   -72.9850     8.2150     6.7210     9.3570   131.2050     2.5990     0.0830     7.0790
