~VERSION INFORMATION
 VERS.                2.0:   CWLS LOG ASCII STANDARD - VERSION 2.0
 WRAP.                 NO:   ONE LINE PER DEPTH STEP
~WELL INFORMATION
#MNEM.UNIT      DATA TYPE    INFORMATION
#----------   ------------   ------------------------------
 STRT.F          705.5000:   START DEPTH
 STOP.F         3212.0000:   STOP DEPTH
 STEP.F            0.5000:   STEP LENGTH
 NULL.          -999.2500:   NO VALUE
 COMP.    FENIX & SCISSON:   COMPANY
 WELL. FENIX 41 "AX" #1-15:   WELL
 FLD .             NPR #3:   FIELD
 LOC .      S15 T38N R78W:   LOCATION
 CNTY.            NATRONA:   COUNTY
 STAT.            WYOMING:   STATE
 CTRY. UNITED STATES OF AMERICA:   COUNTRY
 SRVC.              WELEX:   SERVICE COMPANY
 DATE.        18-NOV-1980:   LOGDATE
 API .     49025108530000:   API NUMBER
~CURVE INFORMATION
#MNEM.UNIT       API CODE    CURVE DESCRIPTION
#----------   ------------   ------------------------------
 DEPT.F                  :   
 SPR .MV     07 010 01 00:   SPONTANEOUS POTENTIAL
 ILD .OHMM   07 120 46 00:   INDUCTION LOG DEEP RESISTIVITY
 ILM .OHMM   07 120 44 00:   INDUCTION LOG MEDIUM RESISTIVITY
 SGRD.OHMM   07 220 05 00:   SHORT GUARD RESISTIVITY
 GRD .GAPI   45 310 01 00:   GAMMA RAY FROM DENSITY LOG
 CALD.IN     45 280 60 00:   CALIPER FROM DENSITY LOG
 RHOB.G/C3   45 350 01 00:   BULK DENSITY
 NPHI.DEC    42 890 03 00:   NEUTRON POROSITY SANDSTONE
~PARAMETER INFORMATION
#MNEM.UNIT          VALUE    DESCRIPTION
#----------   ------------   ------------------------------
 EKB .F         5252.0000:   Kelly bushing
 EGL .F         5242.0000:   Ground level
 EDF .F            0.0000:   Drilling floor
 TD  .F         3214.0000:   Total depth
 CLNT.            A2DTECH:   Client Code
 SL  . 2150' FWL & 550' FNL:   Surface Location
 PD  .                 GL:   Permanent Datum
 EPD .F              5242:   Elevation Permanent Datum
 LMF .                 KB:   Log Measured From
 DMF .                 KB:   Drilling Measured From
 DATE.        18-NOV-1980:   Date Logged [DD-MMM-YYYY]
 DD  .F              3210:   Depth driller
 DL  .F              3214:   Depth logger
 BLI .F              3212:   Bottom log interval
 TLI .F               734:   Top log interval
 CS1 .IN            8.625:   Casing size
 CBD1.      8.625" @ 709':   Casing driller 1
 CBL1.F               734:   Casing logger 1
 BS1 .IN            7.875:   Bit size
 BSD1.F              3210:   Depth drilled with bit1
 DFT .          FRESH MUD:   Type fluid in hole
 DFD .                8.8:   Density
 DFV .                 45:   Viscosity
 DFPH.               10.5:   pH
 DFL .                 12:   Fluid loss
 MSS .           FLOWLINE:   Source of sample
 RMS .OHMM           1.25:   Rm
 MST .F                70:   Rm Meas. temp.
 RMF .OHMM           1.25:   Rmf
 MFST.F                70:   Rmf Meas. temp.
 MFSS.               MEAS:   Source Rmf.
 RMB .OHMM           0.78:   Rm. at BHT
 BHT .F               112:   BHT.
 TCS .HRS               7:   Time Circ. stopped
 MRT .F               112:   Maximum recorded temp.
 LUN .               1892:   Logging unit number
 LUL .             CASPER:   Logging unit location
 ENGI.               REIN:   Recorded By
 WITN.              SCOTT:   Witnessed by
 ORIG.      2.5" 5" PRINT:   Origin of data
 UWI .     49025108530000:   Unique Well ID
 DICO. A2D TECHNOLOGIES, INC.:   Digitizing Company
 DAPD.                 10:   Feet Above Permanent Datum
~OTHER INFORMATION
~A   DEPT      SPR        ILD        ILM       SGRD         GRD      CALD       RHOB       NPHI   
# ...
 1677.5000   -38.1691     6.7498     7.0136     6.7057    80.1113     9.0176     2.6059     0.2725
 1678.0000   -38.1706     6.8336     7.0136     6.6117    78.1068     9.0162     2.6134     0.2656
 1678.5000   -38.1721     6.8316     7.0136     6.6090    76.5387     9.0147     2.6156     0.2578
 1679.0000   -38.1005     6.8297     7.0136     6.8854    75.8577     9.0132     2.6132     0.2510
 1679.5000   -37.8809     6.8278     7.0136     7.0752    75.6179     9.0117     2.6108     0.2454
 1680.0000   -37.8826     6.8260     7.0136     7.4733    75.3781     9.0103     2.6153     0.2486
 1680.5000   -37.8841     6.8241     7.0136     7.6793    75.5795     9.0088     2.6266     0.2561
 1681.0000   -37.5912     6.8222     7.0136     7.7832    76.4379     9.0073     2.6401     0.2558
 1681.5000   -37.5928     6.9610     7.0136     7.8885    78.1834     9.0059     2.6491     0.2572
 1682.0000   -37.5943     7.0085     7.0136     7.7758    80.8403     9.0044     2.6573     0.2613
 1682.5000   -37.5957     7.0066     7.0136     7.5563    82.5519     9.0029     2.6626     0.2664
 1683.0000   -37.5971     7.0043     7.0136     7.3431    82.9739     9.0023     2.6640     0.2626
 1683.5000   -37.5986     7.0025     7.0136     7.2531    83.3959     9.0023     2.6593     0.2658
 1684.0000   -37.6000     7.0006     7.0136     7.1514    83.5973     9.0023     2.6372     0.2674
 1684.5000   -37.6015     6.9031     7.0136     7.1782    83.7987     9.0023     2.6087     0.2691
 1685.0000   -37.6373     6.9013     7.0136     7.2460    84.2158     9.0022     2.5954     0.2704
 1685.5000   -37.8985     6.8053     7.0136     7.2431    84.1966     9.0022     2.5900     0.2723
 1686.0000   -37.9000     6.8034     7.0136     7.3410    84.1726     9.0022     2.5861     0.2771
 1686.5000   -37.9015     6.8016     7.0136     7.3384    84.1534     9.0022     2.5867     0.2699
 1687.0000   -37.9029     6.7997     7.0136     7.3359    83.4725     9.0022     2.5935     0.2665
 1687.5000   -37.9044     6.7979     7.0136     7.3329    79.7033     9.0021     2.6002     0.2634
 1688.0000   -37.9059     6.7960     7.0136     7.2302    77.9146     9.0029     2.6069     0.2681
 1688.5000   -37.9074     6.7941     7.0136     7.2278    78.1159     9.0046     2.6113     0.2632
 1689.0000   -37.9088     6.9403     7.0136     7.2254    78.9791     9.0063     2.6112     0.2610
 1689.5000   -37.9103     6.9797     7.0136     7.2230    79.1805     9.0081     2.6112     0.2607
 1690.0000   -37.9120     6.9775     7.0136     7.2206    78.7153     9.0098     2.6111     0.2605
 1690.5000   -37.9135     6.9756     7.0136     7.2181    78.6961     9.0115     2.6117     0.2605
 1691.0000   -37.9149     6.9737     7.1110     7.2157    78.6769     9.0132     2.6162     0.2631
 1691.5000   -37.9163     7.0683     7.1110     7.3198    78.4364     9.0149     2.6252     0.2663
 1692.0000   -37.9178     7.0665     7.2097     7.4369    77.9719     9.0167     2.6335     0.2651
 1692.5000   -37.9192     7.0646     7.2097     7.7407    77.7321     9.0203     2.6401     0.2629
 1693.0000   -37.9206     7.0627     7.3098     8.0705    77.7129     9.0301     2.6461     0.2651
 1693.5000   -37.9221     7.0607     7.3098     8.0107    77.6928     9.0399     2.6490     0.2690
 1694.0000   -37.9235     7.0588     7.4113     7.7846    77.6697     9.0497     2.6451     0.2658
 1694.5000   -37.6308     7.0456     7.3098     7.5243    77.6505     9.0538     2.6389     0.2603
 1695.0000   -37.6324     6.9586     7.3098     7.0648    77.8519     9.0541     2.6290     0.2641
 1695.5000   -37.6338     6.9567     7.2097     6.7146    78.4897     9.0544     2.6198     0.2632
 1696.0000   -37.6353     6.9548     7.2097     6.8056    80.6763     9.0547     2.6083     0.2717
 1696.5000   -37.6368     6.9529     7.2097     6.8029    81.5395     9.0550     2.6037     0.2758
 1697.0000   -37.6382     6.9162     7.0792     6.8006    81.2847     9.0553     2.6051     0.2705
 1697.5000   -37.6397     6.7606     7.0136     6.7983    79.9522     9.0556     2.6104     0.2722
 1698.0000   -37.9235     6.7587     6.8758     6.7960    78.6094     9.0543     2.6133     0.2760
 1698.5000   -37.9613     6.7569     6.8228     6.7937    77.4873     9.0375     2.6101     0.2663
 1699.0000   -38.2265     6.7550     6.8228     6.7915    77.9674     9.0357     2.6047     0.2565
 1699.5000   -38.5250     6.8463     6.7294     6.7892    79.6500     9.0340     2.5992     0.2510
 1700.0000   -38.5294     6.9395     6.8228     7.1712    81.1532     9.0322     2.5939     0.2520
 1700.5000   -38.5338     6.9373     6.9175     8.2525    82.3956     9.0158     2.5916     0.2605
 1701.0000   -38.5382     6.9355     7.0136     8.6897    83.6380     9.0136     2.5945     0.2650
 1701.5000   -38.5426     6.9336     7.2097     8.1843    83.5231     8.9972     2.5998     0.2694
 1702.0000   -38.2529     6.9318     7.2097     7.7315    82.3962     8.9808     2.6079     0.2795
 1702.5000   -37.9632     7.0258     7.3098     7.3037    81.9311     8.9790     2.6169     0.2777
 1703.0000   -37.9681     6.9280     7.3098     7.2462    81.4659     8.9626     2.6230     0.2718
 1703.5000   -37.9724     6.9262     7.3034     7.1433    80.7794     8.9457     2.6303     0.2680
 1704.0000   -37.9766     6.9243     7.3098     6.9456    80.3091     8.9440     2.6355     0.2655
 1704.5000   -37.9809     6.9224     7.3098     6.9419    80.0646     8.9574     2.6400     0.2697
 1705.0000   -37.9656     7.0164     7.3098     7.0440    80.2672     8.9699     2.6451     0.2657
 1705.5000   -37.6953     7.0143     7.4113     7.1453    80.6786     8.9828     2.6487     0.2604
 1706.0000   -37.7000     7.1097     7.3098     7.3233    81.0956     8.9806     2.6494     0.2667
 1706.5000   -37.7044     7.1075     7.3507     7.4209    79.3010     8.9789     2.6462     0.2693
 1707.0000   -37.7088     7.1055     7.4113     7.5198    77.7329     8.9771     2.6355     0.2725
 1707.5000   -37.7132     7.1036     7.4113     7.7246    76.8266     8.9754     2.6240     0.2764
 1708.0000   -37.7176     7.1016     7.4113     7.8274    77.6890     8.9732     2.6133     0.2716
 1708.5000   -37.7221     7.0997     7.4113     7.8624    77.8816     8.9715     2.6056     0.2670
 1709.0000   -37.7272     7.1960     7.5142     7.8182    77.6311     8.9848     2.6017     0.2651
 1709.5000   -37.7309     7.2936     7.6185     7.7072    77.1660     8.9827     2.6009     0.2649
 1710.0000   -37.4416     7.2912     7.6185     7.7031    76.9214     9.0104     2.6015     0.2634
 1710.5000   -37.4459     7.2893     7.6185     7.6990    76.8971     9.0075     2.5999     0.2625
 1711.0000   -37.4501     7.2873     7.6185     7.5897    76.8675     9.0048     2.5958     0.2616
 1711.5000   -37.4544     7.2854     7.6185     7.5755    77.5053     9.0021     2.5868     0.2601
 1712.0000   -37.4588     7.2836     7.6185     7.4777    77.9225     8.9994     2.5776     0.2589
 1712.5000   -37.4632     7.2815     7.6098     7.5776    78.7809     8.9967     2.5722     0.2599
 1713.0000   -37.5382     7.3803     7.5142     7.5730    79.6894     8.9940     2.5713     0.2586
 1713.5000   -37.7662     7.3783     7.5142     7.6111    80.9329     8.9913     2.5787     0.2559
 1714.0000   -37.7706     7.4784     7.5142     7.6695    81.7913     8.9886     2.5839     0.2587
 1714.5000   -37.7750     7.3664     7.5142     7.6653    82.4351     8.9859     2.5869     0.2619
 1715.0000   -37.7794     7.2866     7.4764     7.6603    81.9640     8.9832     2.5890     0.2582
 1715.5000   -37.7847     7.2476     7.4113     7.7630    80.8311     8.9805     2.5904     0.2570
 1716.0000   -37.7889     7.0860     7.4113     7.7583    79.9248     8.9779     2.5903     0.2624
 1716.5000   -37.7932     7.0846     7.4113     7.7542    80.1214     8.9618     2.5902     0.2590
 1717.0000   -37.7974     7.0828     7.4113     7.7500    80.9798     8.9604     2.5901     0.2550
 1717.5000   -37.8017     6.9847     7.3098     7.7459    81.6176     8.9586     2.5900     0.2585
