~VERSION INFORMATION
 VERS.                2.0:   CWLS LOG ASCII STANDARD - VERSION 2.0
 WRAP.                 NO:   ONE LINE PER DEPTH STEP
~WELL INFORMATION
#MNEM.UNIT      DATA TYPE    INFORMATION
#----------   ------------   ------------------------------
 STRT.F           16.0000:   START DEPTH
 STOP.F         2834.0000:   STOP DEPTH
 STEP.F            0.5000:   STEP LENGTH
 NULL.          -999.2500:   NO VALUE
 COMP.    FENIX & SCISSON:   COMPANY
 WELL. FENIX NPR 3 "AX" #14-21:   WELL
 FLD .              N P R:   FIELD
 LOC .      S21 T39N R78W:   LOCATION
 CNTY.            NATRONA:   COUNTY
 STAT.            WYOMING:   STATE
 CTRY. UNITED STATES OF AMERICA:   COUNTRY
 SRVC.           BIRDWELL:   SERVICE COMPANY
 DATE.        26-JUL-1978:   LOGDATE
 API .     49025106740000:   API NUMBER
~CURVE INFORMATION
#MNEM.UNIT       API CODE    CURVE DESCRIPTION
#----------   ------------   ------------------------------
 DEPT.F                  :   
 GRD .GAPI   45 310 01 00:   GAMMA RAY FROM DENSITY LOG
 CALD.IN     45 280 60 00:   CALIPER FROM DENSITY LOG
 RHOB.G/C3   45 350 01 00:   BULK DENSITY
 CORR.G/C3   45 356 01 00:   DENSITY CORRECTION
 SPR .MV     05 010 01 00:   SPONTANEOUS POTENTIAL
 ILD .OHMM   05 120 46 00:   DEEP INDUCTION RESISTIVITY
 SN  .OHMM   05 040 00 00:   SHORT NORMAL
~PARAMETER INFORMATION
#MNEM.UNIT          VALUE    DESCRIPTION
#----------   ------------   ------------------------------
 EKB .F         4998.0000:   Kelly bushing
 EGL .F         4988.0000:   Ground level
 EDF .F            0.0000:   Drilling floor
 EPD .F            0.0000:   Permanent datum
 TD  .F         2850.0000:   Total depth
 DATE.        26-JUL-1978:   Date logged
 CLNT.            A2DTECH:   Client Code
 SL  . 2640' FNL & 500' FWL:   Surface Location
 PD  .                 GL:   Permanent Datum
 DD  .F              2850:   Depth driller
 DL  .F              2838:   Depth logger
 BLI .F              2832:   Bottom log interval
 CS1 .IN            8.625:   Casing size
 CBD1.      8.625" @ 208':   Casing driller 1
 BS1 .IN            7.875:   Bit size
 DFT .            MUD/GEL:   Type fluid in hole
 DFD .                9.4:   Density
 DFV .                 37:   Viscosity
 DFPH.                 11:   pH
 TCS .HRS               4:   Time Circ. stopped
 LUN .               2958:   Logging unit number
 LUL .               CASP:   Logging unit location
 ENGI.             MILLER:   Recorded By
 WITN.           MCGINLEY:   Witnessed by
 ORIG.           5" PRINT:   Origin of data
 UWI .     49025106740000:   Unique Well ID
 DICO. A2D TECHNOLOGIES, INC.:   Digitizing Company
 DAPD.                 12:   Feet Above Permanent Datum
 BSD1.               3950:   Depth drilled with bit1
 MCSS.               CALC:   Source Rmc.
 TLI .F               230:   Top log interval
~OTHER INFORMATION
~A   DEPT       GRD      CALD       RHOB       CORR        SPR        ILD         SN   
# ...
 1745.0000   117.7100     7.7420     2.4920     0.2130   -42.7190     8.8350    11.2160
 1745.5000   117.7600     7.7460     2.4940     0.2130   -42.5500     8.8520    11.2560
 1746.0000   115.6090     7.7510     2.4990     0.2130   -42.3820     8.8700    11.2470
 1746.5000   114.1800     7.7550     2.5000     0.2130   -42.2140     8.8780    11.2300
 1747.0000   116.0060     7.7590     2.5010     0.2130   -42.0460     8.7970    11.2120
 1747.5000   118.6790     7.7630     2.5020     0.2130   -41.8720     8.8200    11.1940
 1748.0000   121.4780     7.7680     2.5020     0.2130   -41.8710     8.8400    11.1770
 1748.5000   122.9990     7.7720     2.4970     0.2130   -41.9230     8.8600    11.1590
 1749.0000   123.5730     7.7760     2.4930     0.2130   -41.9780     8.8750    11.1430
 1749.5000   125.1940     7.7800     2.4910     0.2130   -42.0320     8.8200    11.0380
 1750.0000   127.2290     7.7650     2.4930     0.2130   -42.0860     8.7680    10.9320
 1750.5000   128.9000     7.7490     2.4890     0.2130   -42.1400     8.7160    10.8270
 1751.0000   128.6590     7.7320     2.4880     0.2130   -42.1940     8.6640    10.7540
 1751.5000   125.2490     7.7220     2.4890     0.2120   -42.2480     8.6380    10.8420
 1752.0000   123.5430     7.7250     2.4900     0.2120   -42.3020     8.6450    10.9090
 1752.5000   121.9510     7.7280     2.4840     0.2120   -42.3560     8.7030    10.9760
 1753.0000   120.3970     7.7310     2.4840     0.2120   -42.4100     8.7600    11.0430
 1753.5000   118.8340     7.7340     2.4890     0.2110   -42.4650     8.8180    11.1100
 1754.0000   117.2440     7.7360     2.4890     0.2090   -42.5200     8.8780    11.1540
 1754.5000   116.8520     7.7390     2.4840     0.2080   -42.5650     8.8780    11.1370
 1755.0000   115.2320     7.7400     2.4840     0.2070   -42.4570     8.8780    11.1200
 1755.5000   113.4940     7.7380     2.4870     0.2070   -42.2270     8.8780    11.1020
 1756.0000   111.7130     7.7360     2.4870     0.2070   -42.0290     8.8780    11.0850
 1756.5000   112.0040     7.7330     2.4880     0.2070   -41.8790     8.8800    11.0670
 1757.0000   114.1860     7.7310     2.4880     0.2060   -41.7270     8.8780    10.9520
 1757.5000   116.4330     7.7290     2.4880     0.2060   -41.5750     8.7970    10.9030
 1758.0000   117.0650     7.7270     2.4840     0.2060   -41.4220     8.7230    10.8410
 1758.5000   118.4690     7.7250     2.4790     0.2050   -41.2670     8.6490    10.7790
 1759.0000   121.3260     7.7230     2.4760     0.2050   -41.2810     8.5600    10.7540
 1759.5000   124.1890     7.7210     2.4760     0.2040   -41.3310     8.5660    10.7420
 1760.0000   125.9680     7.7220     2.4760     0.2040   -41.3810     8.5740    10.7210
 1760.5000   126.1320     7.7240     2.4730     0.2040   -41.4320     8.5820    10.7010
 1761.0000   126.3270     7.7260     2.4690     0.2030   -41.4820     8.5890    10.6800
 1761.5000   126.9940     7.7280     2.4660     0.2030   -41.5320     8.5970    10.6600
 1762.0000   127.3840     7.7300     2.4670     0.2030   -41.5830     8.6050    10.6470
 1762.5000   127.7220     7.7320     2.4690     0.2030   -41.6330     8.6120    10.6370
 1763.0000   126.7640     7.7340     2.4720     0.2030   -41.6830     8.6200    10.6260
 1763.5000   125.7180     7.7350     2.4710     0.2050   -41.7340     8.6280    10.6150
 1764.0000   125.1110     7.7370     2.4670     0.2090   -41.7850     8.6360    10.6040
 1764.5000   125.9280     7.7390     2.4750     0.2120   -41.8270     8.6380    10.5930
 1765.0000   126.4570     7.7410     2.4830     0.2120   -41.7510     8.6310    10.5830
 1765.5000   125.7310     7.7440     2.4890     0.2120   -41.6760     8.6260    10.5670
 1766.0000   124.2710     7.7480     2.4870     0.2120   -41.6010     8.6210    10.5510
 1766.5000   122.9190     7.7530     2.4880     0.2110   -41.5260     8.6150    10.6530
 1767.0000   121.7670     7.7570     2.4910     0.2110   -41.4520     8.6100    10.6770
 1767.5000   121.1410     7.7610     2.4930     0.2110   -41.3770     8.6040    10.6980
 1768.0000   121.0170     7.7650     2.4960     0.2110   -41.3020     8.5990    10.7170
 1768.5000   120.8800     7.7690     2.4970     0.2110   -41.2270     8.5940    10.7370
 1769.0000   120.4560     7.7730     2.4980     0.2110   -41.1530     8.5880    10.7540
 1769.5000   119.2020     7.7770     2.4980     0.2120   -41.0780     8.5830    10.7550
 1770.0000   118.0120     7.7800     2.4960     0.2130   -41.0790     8.5770    10.7400
 1770.5000   115.7310     7.7810     2.4940     0.2130   -41.1490     8.5720    10.7140
 1771.0000   116.6910     7.7850     2.4950     0.2130   -41.2220     8.5660    10.6890
 1771.5000   117.9940     7.7880     2.4990     0.2120   -41.8090     8.5610    10.6630
 1772.0000   119.1410     7.7910     2.5030     0.2090   -42.0090     8.5600    10.5890
 1772.5000   120.2170     7.7950     2.5070     0.2060   -42.1780     8.5600    10.5010
 1773.0000   122.4590     7.7980     2.5040     0.2050   -42.3530     8.5600    10.4470
 1773.5000   124.7180     7.8010     2.4990     0.2050   -42.5300     8.5600    10.4040
 1774.0000   126.6980     7.8020     2.4920     0.2060   -42.7070     8.3960    10.3610
 1774.5000   127.5760     7.8040     2.4840     0.2060   -42.8200     8.2300    10.3180
 1775.0000   128.2430     7.8060     2.4770     0.2060   -42.8290     8.0630    10.2740
 1775.5000   128.9090     7.8080     2.4700     0.2080   -42.8390     7.8850    10.2740
 1776.0000   130.6920     7.8100     2.4680     0.2110   -42.8490     7.9720    10.2740
 1776.5000   132.5420     7.8120     2.4750     0.2110   -42.8580     8.1840    10.2870
 1777.0000   134.3800     7.8130     2.4810     0.2120   -42.8680     8.3960    10.3020
 1777.5000   136.5010     7.8150     2.4770     0.2120   -42.8780     8.5600    10.3170
 1778.0000   135.0800     7.8170     2.4750     0.2130   -42.8880     8.5490    10.3330
 1778.5000   130.9830     7.8190     2.4800     0.2130   -42.8980     8.5410    10.3480
 1779.0000   124.3740     7.8160     2.4850     0.2140   -42.9080     8.5320    10.3630
 1779.5000   121.4220     7.8070     2.4900     0.2140   -42.9180     8.5240    10.3690
 1780.0000   120.4260     7.7990     2.4910     0.2150   -42.9280     8.5150    10.3220
 1780.5000   121.4210     7.7910     2.4880     0.2150   -42.9380     8.5070    10.2680
 1781.0000   124.0610     7.7820     2.4860     0.2150   -42.9480     8.4980    10.2140
 1781.5000   124.4530     7.8050     2.4850     0.2150   -42.9570     8.4900    10.1600
 1782.0000   122.5820     7.8180     2.4930     0.2150   -42.9670     8.4820    10.0880
 1782.5000   120.7330     7.8010     2.4920     0.2150   -42.9770     8.4930    10.0920
 1783.0000   119.2640     7.7810     2.4900     0.2150   -42.9870     8.5060    10.0970
 1783.5000   118.4060     7.7610     2.4880     0.2150   -42.9970     8.5190    10.1030
 1784.0000   117.1280     7.7400     2.4860     0.2150   -43.0070     8.5320    10.1080
 1784.5000   117.1680     7.7200     2.4870     0.2150   -42.9970     8.5450    10.1130
 1785.0000   119.2570     7.7000     2.4860     0.2150   -42.9680     8.5580    10.1190
 1785.5000   122.0120     7.6820     2.4810     0.2140   -42.9390     8.5710    10.1240
 1786.0000   124.8310     7.6830     2.4820     0.2140   -42.9100     8.5840    10.1290
 1786.5000   126.2450     7.6850     2.4840     0.2130   -42.8800     8.5970    10.1340
 1787.0000   127.2480     7.6860     2.4870     0.2130   -42.8510     8.6090    10.1400
 1787.5000   127.0290     7.6880     2.4850     0.2120   -42.8220     8.6220    10.1450
 1788.0000   126.6370     7.6900     2.4840     0.2120   -42.7930     8.6350    10.1500
 1788.5000   127.2940     7.6910     2.4870     0.2140   -42.7640     8.7170    10.1560
 1789.0000   130.1620     7.6930     2.4900     0.2150   -42.7350     8.7290    10.1610
 1789.5000   132.9780     7.6940     2.4910     0.2150   -42.7060     8.7490    10.1660
 1790.0000   134.5310     7.6960     2.4910     0.2150   -42.6770     8.7690    10.1710
