~VERSION INFORMATION
 VERS.                2.0:   CWLS LOG ASCII STANDARD - VERSION 2.0
 WRAP.                 NO:   ONE LINE PER DEPTH STEP
~WELL INFORMATION
#MNEM.UNIT      DATA TYPE    INFORMATION
#----------   ------------   ------------------------------
 STRT.F          176.0000:   START DEPTH
 STOP.F         3400.0000:   STOP DEPTH
 STEP.F            0.5000:   STEP LENGTH
 NULL.          -999.2500:   NO VALUE
 COMP.    PENIX & SCISSON:   COMPANY
 WELL. FENIX NPR 3 "AX" #64-4:   WELL
 FLD .                NPR:   FIELD
 LOC .       S4 T38N R78W:   LOCATION
 CNTY.            NATRONA:   COUNTY
 STAT.            WYOMING:   STATE
 CTRY. UNITED STATES OF AMERICA:   COUNTRY
 SRVC.       SCHLUMBERGER:   SERVICE COMPANY
 DATE.        25-JAN-1981:   LOGDATE
 API .     49025108640000:   API NUMBER
~CURVE INFORMATION
#MNEM.UNIT       API CODE    CURVE DESCRIPTION
#----------   ------------   ------------------------------
 DEPT.F                  :   
 SPR .MV     07 010 01 00:   SPONTANEOUS POTENTIAL
 RFOC.OHMM   07 220 01 00:   RESISTIVITY FOCUSED LOG RES.
 ILD .OHMM   07 120 46 00:   DEEP INDUCTION RESISTIVITY
 TENR.LBS    07 635 01 00:   TENSION
 ILM .OHMM   07 120 44 00:   INDUCTION LOG MEDIUM RESISTIVITY
 GRD .GAPI   45 310 01 00:   GAMMA RAY FROM DENSITY LOG
 CALD.IN     45 280 60 00:   CALIPER FROM DENSITY LOG
 RHOB.G/C3   45 350 01 00:   BULK DENSITY
 TEND.LBS    45 635 01 00:   TENSION FROM DENSITY LOG
 CORR.G/C3   45 356 01 00:   DENSITY CORRECTION
~PARAMETER INFORMATION
#MNEM.UNIT          VALUE    DESCRIPTION
#----------   ------------   ------------------------------
 EKB .F         5257.0000:   Kelly bushing
 EGL .F         5247.0000:   Ground level
 EDF .F            0.0000:   Drilling floor
 TD  .F         3388.0000:   Total depth
 DATE.        25-JAN-1981:   Date logged
 CLNT.            A2DTECH:   Client Code
 SL  . 2289' FNL & 1495' FEL:   Surface Location
 PD  .                 GL:   Permanent Datum
 EPD .F              5247:   Elevation Permanent Datum
 LMF .                 KB:   Log Measured From
 DMF .                 KB:   Drilling Measured From
 DAPD.F                10:   Feet Above Permanent Datum
 DD  .F              3388:   Depth driller
 DL  .F              3386:   Depth logger
 BLI .F              3380:   Bottom log interval
 TLI .F               192:   Top log interval
 CS1 .IN            8.625:   Casing size
 CBD1.      8.625" @ 191':   Casing driller 1
 CBL1.F               192:   Casing logger 1
 BS1 .IN            7.875:   Bit size
 BSD1.F              3388:   Depth drilled with bit1
 DFT .                FGM:   Type fluid in hole
 DFD .                8.7:   Density
 DFV .                 32:   Viscosity
 DFPH.                9.5:   pH
 DFL .                 18:   Fluid loss
 MSS .           FLOWLINE:   Source of sample
 RMS .OHMM           1.60:   Rm
 MST .F                60:   Rm Meas. temp.
 RMF .OHMM           1.33:   Rmf
 MFST.F                60:   Rmf Meas. temp.
 MFSS.               MEAS:   Source Rmf.
 RMB .OHMM            .83:   Rm. at BHT
 BHT .F               115:   BHT.
 TCS .HRS            1700:   Time Circ. stopped
 TLAB.HRS            2200:   Time logger at bottom
 MRT .F               115:   Maximum recorded temp.
 LUN .               8039:   Logging unit number
 LUL .               CSPR:   Logging unit location
 ENGI.           C. PFARR:   Recorded By
 WITN.           L. FIVAS:   Witnessed by
 ORIG.           5" PRINT:   Origin of data
 UWI .     49025108640000:   Unique Well ID
 DICO. A2D TECHNOLOGIES, INC.:   Digitizing Company
~OTHER INFORMATION
~A   DEPT      SPR       RFOC        ILD       TENR        ILM         GRD      CALD         RHOB      TEND      CORR   
# ...
  611.5000   -17.0580     6.9630     6.1910   315.9170     6.0250   110.1990     9.4710     2.3510   526.9740     0.0840
  612.0000   -17.0960     7.4650     6.5370   316.2540     6.2940   109.3930     9.4500     2.3730   527.1920     0.0520
  612.5000   -17.1340     7.6610     6.8830   316.5900     6.5640   110.2040     9.4280     2.4350   527.4110     0.0290
  613.0000   -17.1710     7.8390     7.1950   316.9270     6.8080   110.7670     9.4090     2.4570   527.6300     0.0220
  613.5000   -17.2090     8.0360     7.0800   317.2630     6.6990   110.3660     9.3890     2.4740   527.8490     0.0220
  614.0000   -17.2460     7.8890     6.9740   317.5990     6.5990   109.9760     9.3680     2.4830   528.0670     0.0220
  614.5000   -17.2840     7.6020     6.8690   317.9360     6.5000   109.4240     9.3550     2.4780   528.2860     0.0220
  615.0000   -17.3210     7.3380     6.7640   318.2720     6.4000   109.7040     9.3620     2.4810   528.5050     0.0220
  615.5000   -17.3590     7.0740     6.6580   318.6090     6.3010   111.0070     9.3680     2.4910   528.7240     0.0450
  616.0000   -17.3960     6.8930     6.5530   318.9450     6.2010   112.4840     9.3750     2.5360   528.9430     0.0730
  616.5000   -17.4350     6.8060     6.4480   319.2810     6.1010   114.6050     9.3820     2.5310   529.1610     0.2090
  617.0000   -17.4700     6.7180     6.3430   319.6180     6.0020   114.3210     9.3890     2.5100   529.3800     0.2010
  617.5000   -17.5090     6.6300     6.2370   319.9540     5.9020   112.7730     9.3960     2.4750   529.5990     0.1720
  618.0000   -17.4350     6.5430     6.1320   320.2910     5.8020   111.8440     9.4030     2.4390   529.8180     0.1270
  618.5000   -17.3100     6.4420     6.0210   320.6270     5.6820   113.3370     9.4100     2.4270   530.0360     0.0180
  619.0000   -17.1870     6.3130     5.7230   320.9630     5.3400   115.6170     9.4150     2.4340   530.2550     0.0280
  619.5000   -17.0660     6.0290     5.4260   321.3000     4.9980   117.8700     9.4270     2.4540   530.4740     0.0330
  620.0000   -16.9440     5.6440     5.1280   321.6360     4.6570   118.3470     9.4290     2.5170   530.6930     0.1110
  620.5000   -16.8210     5.1200     4.8310   321.9730     4.3150   117.3390     9.5750     2.5100   530.9110     0.1770
  621.0000   -16.7020     4.5960     4.5330   322.3090     3.9740   115.0220     9.7810     2.4860   531.1300     0.2520
  621.5000   -16.5740     4.0730     4.0650   322.6460     3.5730   111.2560     9.9590     2.3300   531.3490     0.2470
  622.0000   -16.4580     3.2870     4.0920   322.9820     3.8300   108.3540    10.3740     2.0990   531.5680     0.2480
  622.5000   -16.3570     3.3760     4.1560   323.3180     4.1410   107.2590    10.9900     1.9670   531.7870     0.1890
  623.0000   -16.5440     4.4410     4.2200   323.6550     4.4510   107.4810    11.6910     1.9750   532.0050     0.1270
  623.5000   -16.7360     5.5060     4.2960   323.9910     4.7620   107.5430    11.2210     2.0220   532.2240     0.1070
  624.0000   -16.9320     6.5620     4.6860   324.3280     5.0720   105.3810     9.6810     2.1700   532.4430     0.1160
  624.5000   -17.1140     6.8080     5.1670   324.6640     5.3830   103.1580     9.2880     2.2850   532.6620     0.1210
  625.0000   -17.1030     7.0640     5.6490   325.0000     5.6940   101.4100     9.2400     2.3890   532.8800     0.0800
  625.5000   -17.0880     7.0490     6.1300   325.3370     6.0040   102.6000     9.1790     2.4600   533.0990     0.0370
  626.0000   -17.0630     7.0240     6.6110   325.6730     6.3150   104.0250     9.1070     2.5050   533.3180     0.0480
  626.5000   -17.0450     6.9990     6.8080   326.0100     6.4420   107.5300     9.0730     2.5500   533.5370     0.0960
  627.0000   -17.0240     6.9750     6.8290   326.3460     6.4640   112.1870     9.0790     2.5490   533.7560     0.1500
  627.5000   -17.0040     6.9350     6.8460   326.6820     6.4830   114.8080     9.0810     2.5370   533.9740     0.1360
  628.0000   -16.9840     7.0190     6.8630   327.0190     6.5020   114.0710     9.0850     2.5110   534.1930     0.1170
  628.5000   -16.9630     7.2410     6.8800   327.3550     6.5200   111.7000     9.0880     2.4900   534.4120     0.0250
  629.0000   -16.9430     7.4640     6.8970   327.6920     6.5390   109.0980     9.0910     2.4840   534.6310     0.0300
  629.5000   -16.9220     7.6860     6.9150   328.0280     6.5570   110.2360     9.0940     2.4770   534.8490     0.0180
  630.0000   -16.9020     7.9080     6.9320   328.3640     6.5830   113.7620     9.0970     2.4710   535.0680     0.0120
  630.5000   -16.8820     8.1570     6.9490   328.7010     6.6110   117.3060     9.1000     2.4720   535.2870     0.0160
  631.0000   -16.8610     8.1010     6.9660   329.0370     6.6390   118.2120     9.1040     2.4830   535.5060     0.0240
  631.5000   -16.8410     7.9890     6.9830   329.3740     6.6670   115.9970     9.1070     2.4920   535.7240     0.0230
  632.0000   -16.8210     7.8760     7.0010   329.7100     6.6950   114.7980     9.1100     2.5000   535.9430     0.0180
  632.5000   -16.8000     7.7640     7.0180   330.0460     6.7230   115.9240     9.1130     2.5060   536.1620     0.0200
  633.0000   -16.7800     7.6520     7.0350   330.3830     6.7500   117.3350     9.1160     2.5110   536.3810     0.0220
  633.5000   -16.7600     7.5400     7.0520   330.7190     6.7770   118.2470     9.1190     2.5160   536.6000     0.0270
  634.0000   -16.7390     7.4280     7.0690   331.0560     6.8070   117.6840     9.1220     2.5200   536.8180     0.0340
  634.5000   -16.7190     7.3160     7.0860   331.3920     6.7750   116.6440     9.1250     2.5250   537.0370     0.0550
  635.0000   -16.6990     7.1950     7.1040   331.7290     6.7410   117.5480     9.1290     2.5290   537.2560     0.0980
  635.5000   -16.6780     7.3430     7.1210   332.0650     6.7070   119.1260     9.1320     2.5330   537.4750     0.1480
  636.0000   -16.6580     7.5040     7.1380   332.4010     6.6740   120.6790     9.1350     2.5000   537.6930     0.1290
  636.5000   -16.6380     7.6650     7.1550   332.7380     6.6400   120.7020     9.1380     2.4700   537.9740     0.0740
  637.0000   -16.6170     7.8260     7.1730   333.0740     6.6060   120.8250     9.1410     2.4630   538.4030     0.0390
  637.5000   -16.5970     8.0360     7.1950   333.4110     6.5720   120.7970     9.1430     2.4650   538.8330     0.0200
  638.0000   -16.5770     7.9420     6.8870   333.7470     6.4420   123.3640     9.1490     2.4670   539.2630     0.0060
  638.5000   -16.5560     7.8070     6.4460   334.0830     6.3250   126.9290     9.1490     2.4570   539.6930     0.0000
  639.0000   -16.5360     7.6730     6.0050   334.4200     5.9510   128.7520     9.1490     2.4670   540.1230     0.0000
  639.5000   -16.5160     7.2130     5.5640   334.7560     5.5780   127.1580     9.2000     2.4450   540.5530     0.0280
  640.0000   -16.4950     6.4090     5.0700   335.0930     5.2050   123.8260     9.2160     2.4810   540.9820     0.1150
  640.5000   -16.4750     5.6050     5.1630   335.4290     4.7100   118.9120     9.6340     2.1060   541.4120     0.1760
  641.0000   -16.4550     4.3760     5.3560   335.7650     4.9650   114.1400    10.2970     2.0330   541.8420     0.1540
  641.5000   -16.4340     4.7880     5.4580   336.1020     5.2500   111.7310    10.7220     2.0020   542.2720     0.1160
  642.0000   -16.4140     5.6650     5.3320   336.4380     5.4580   113.6340    10.1180     2.0170   542.7020     0.0990
  642.5000   -16.3940     6.5430     5.1430   336.7750     5.2480   116.0150     9.6100     2.2190   543.1310     0.1370
  643.0000   -16.3730     7.3290     4.9550   337.1110     5.0040   118.0500     9.5170     2.3960   543.5610     0.2220
  643.5000   -16.3510     7.3290     4.7660   337.4470     4.7600   119.8380     9.3810     2.4310   543.9910     0.2180
  644.0000   -16.3370     7.1290     4.5820   337.7840     4.5170   120.8690     9.2420     2.4170   544.4210     0.1880
  644.5000   -16.3390     6.1310     4.4130   338.1200     4.2730   121.8600     9.1700     2.4370   544.8510     0.2090
