~VERSION INFORMATION
 VERS.                2.0:   CWLS LOG ASCII STANDARD - VERSION 2.0
 WRAP.                 NO:   ONE LINE PER DEPTH STEP
~WELL INFORMATION
#MNEM.UNIT      DATA TYPE    INFORMATION
#----------   ------------   ------------------------------
 STRT.F          176.5000:   START DEPTH
 STOP.F         3010.0000:   STOP DEPTH
 STEP.F            0.5000:   STEP LENGTH
 NULL.          -999.2500:   NO VALUE
 COMP.    FENIX & SCISSON:   COMPANY
 WELL.   FENIX "A" #36-28:   WELL
 FLD .              NPR 3:   FIELD
 LOC .      S28 T39N R78W:   LOCATION
 CNTY.            NATRONA:   COUNTY
 STAT.            WYOMING:   STATE
 CTRY. UNITED STATES OF AMERICA:   COUNTRY
 SRVC.       SCHLUMBERGER:   SERVICE COMPANY
 DATE.        19-AUG-1977:   LOGDATE
 API .     49025104150000:   API NUMBER
~CURVE INFORMATION
#MNEM.UNIT       API CODE    CURVE DESCRIPTION
#----------   ------------   ------------------------------
 DEPT.F                  :   
 SPR .MV     07 010 01 00:   SPONTANEOUS POTENTIAL
 ILM .OHMM   07 120 44 00:   INDUCTION LOG MEDIUM RESISTIVITY
 ILD .OHMM   07 120 46 00:   INDUCTION LOG DEEP RESISTIVITY
 LL8 .OHMM   07 220 08 00:   LATEROLOG-8 RESISTIVITY
 GRD .GAPI   45 310 01 00:   GAMMA RAY FROM DENSITY LOG
 CALD.IN     45 280 60 00:   CALIPER FROM DENSITY LOG
 RHOB.G/C3   45 350 01 00:   BULK DENSITY
 DCOR.G/C3   45 356 01 00:   DENSITY CORRECTION
~PARAMETER INFORMATION
#MNEM.UNIT          VALUE    DESCRIPTION
#----------   ------------   ------------------------------
 EKB .F         5107.0000:   Kelly bushing
 EGL .F         5097.0000:   Ground level
 EDF .F            0.0000:   Drilling floor
 TD  .F         3012.0000:   Total depth
 DATE.        19-AUG-1977:   Date logged
 CLNT.            A2DTECH:   Client Code
 SL  . 1650' FSL & 1650' FWL:   Surface Location
 PD  .                 GL:   Permanent Datum
 EPD .F              5097:   Elevation Permanent Datum
 LMF .                 KB:   Log Measured From
 DMF .                 KB:   Drilling Measured From
 DAPD.F                10:   Feet Above Permanent Datum
 DD  .F              3010:   Depth driller
 DL  .F              3011:   Depth logger
 BLI .F              3005:   Bottom log interval
 TLI .F               215:   Top log interval
 CS1 .IN            8.625:   Casing size
 CBD1.      8.625" @ 205':   Casing driller 1
 CBL1.F               215:   Casing logger 1
 BS1 .IN            7.875:   Bit size
 BSD1.F              3010:   Depth drilled with bit1
 DFT .                FGM:   Type fluid in hole
 DFD .                8.8:   Density
 DFV .                 33:   Viscosity
 DFPH.               10.5:   pH
 DFL .               10.6:   Fluid loss
 MSS .            MUD PIT:   Source of sample
 RMS .OHMM            .19:   Rm
 MST .F                76:   Rm Meas. temp.
 RMF .OHMM            .17:   Rmf
 MFST.F                78:   Rmf Meas. temp.
 MFSS.               MEAS:   Source Rmf.
 RMB .OHMM            .13:   Rm. at BHT
 BHT .F               112:   BHT.
 TCS .HRS            0700:   Time Circ. stopped
 TLAB.HRS            1400:   Time logger at bottom
 MRT .F               112:   Maximum recorded temp.
 LUN .               5642:   Logging unit number
 ENGI.          CHALUPSKY:   Recorded By
 WITN.     WES PETTINGILL:   Witnessed by
 ORIG.           5" PRINT:   Origin of data
 UWI .     49025104150000:   Unique Well ID
 DICO. A2D TECHNOLOGIES, INC.:   Digitizing Company
 LUL .               CSPR:   Logging unit location
~OTHER INFORMATION
~A   DEPT      SPR        ILM        ILD        LL8        GRD       CALD       RHOB       DCOR   
# ...
  217.0000    -8.3080    10.8510     5.3120     8.7440   101.6130     8.7040     2.6350  -999.2500
  217.5000   -13.3330     5.6660     2.7080     8.4300   107.8860     9.7550     2.2370  -999.2500
  218.0000   -18.3500     5.5980     3.8350     8.2760   111.9310     9.8640     2.3590     0.1680
  218.5000   -23.4210     5.5300     6.4810     9.3030   114.4310     9.9220     2.3540     0.1580
  219.0000   -26.9720     5.4810    12.5510    10.1010   115.1570     9.9770     2.3460     0.1490
  219.5000   -30.5290     6.1260    19.9370    10.8990   112.2410    10.0340     2.3540     0.1410
  220.0000   -34.1090     6.6730    14.5980    11.6970   109.8340    10.0910     2.3640     0.1300
  220.5000   -37.3170     6.4570    10.3860    12.4950   108.4470    10.1810     2.3760     0.1280
  221.0000   -38.3450     6.1700     6.1740    11.3270   107.6730    10.2690     2.3670     0.1220
  221.5000   -39.2620     5.9520     3.5640     9.0130   108.4170    10.3590     2.3750     0.1100
  222.0000   -38.7380     6.6140     4.0360     4.6910   107.6990    10.4880     2.3810     0.0960
  222.5000   -38.4110     7.1460     5.0170     6.1520   106.5360    10.7490     2.3260     0.1070
  223.0000   -38.8260     7.6780     6.2410     9.5290   107.1010    11.3520     2.1910     0.1210
  223.5000   -39.4900     8.2010     7.2970    12.8460   109.0890    12.2520     2.1640     0.1420
  224.0000   -40.2520     7.0190     8.2490    13.5710   111.5360    12.5960     2.1930     0.1020
  224.5000   -40.8900     7.1310     9.2030    12.3760   108.9530    12.2070     2.2800     0.0520
  225.0000   -39.8610     7.4070    10.1580    10.9940   105.1260    12.2270     2.3900     0.0860
  225.5000   -36.6440     7.6820    11.1120    11.0210   102.6630    12.2410     2.3810     0.0760
  226.0000   -37.0760     7.9510    12.2710    11.0670   101.0060    12.1970     2.4070     0.0710
  226.5000   -36.8730     8.1870    12.0000    11.1130    97.3620    12.2000     2.3930     0.0840
  227.0000   -34.7790     8.4290    11.5090    11.1590    95.8930    12.2180     2.3780     0.0730
  227.5000   -31.6520     8.2760    11.8930    11.3550    98.2700    12.2360     2.3940     0.0850
  228.0000   -29.2320     8.7170    12.8940    12.2780   103.4950    12.2370     2.3820     0.0780
  228.5000   -27.8000    11.8880    13.9940    14.7200   108.6270    12.2210     2.3980     0.0640
  229.0000   -26.3570    15.9050    15.1480    17.6340   103.5590    12.2080     2.3990     0.0840
  229.5000   -25.8650    21.6500    15.1480    20.5030    95.0740    12.2880     2.3910     0.0630
  230.0000   -25.4310    20.7980    17.3580    23.1090    86.8260    12.1780     2.3690     0.0880
  230.5000   -23.1070    19.7560    20.3270    24.8380    78.4190    11.9930     2.3350     0.0790
  231.0000   -21.3880    20.9320    23.5100    21.5370    73.5890    11.1080     2.3470     0.1450
  231.5000   -19.6310    19.4840    24.2530    18.8710    71.7020    10.3090     2.3260     0.1380
  232.0000   -17.8730    17.3040    22.0330    18.5290    70.4550    10.0950     2.3740     0.0760
  232.5000   -16.2930    14.0180    18.7700    14.0400    70.3670    10.0570     2.4320     0.1110
  233.0000   -15.4600    11.2710    15.5070     8.6640    71.1590    10.0660     2.4120     0.0870
  233.5000   -15.9930     8.5230    12.2440     8.2270    71.0680    10.0860     2.3900     0.0480
  234.0000   -17.3570     6.2030     9.5530     7.7440    70.0990    10.0380     2.3690     0.0770
  234.5000   -18.7590     5.1990     8.2340     6.6390    73.0560    10.1250     2.3410     0.0680
  235.0000   -19.3980     4.9930     7.2980     5.6850    68.1990    10.2250     2.2770     0.0410
  235.5000   -18.9690     4.8750     6.7710     6.0480    69.1910    10.2000     2.2880     0.0330
  236.0000   -20.1160     4.9310     6.5100     7.2140    70.5440    10.1930     2.2990     0.0540
  236.5000   -20.9110     5.0010     6.3250     7.0140    67.8260    10.2360     2.2760     0.0700
  237.0000   -21.9570     4.8750     6.2440     6.5850    67.2530    10.2790     2.2700     0.0590
  237.5000   -22.6840     4.7560     6.1640     6.1560    68.6500    10.3210     2.3200     0.0950
  238.0000   -23.1550     4.5630     6.0840     5.7260    74.4890    10.3620     2.3110     0.0850
  238.5000   -23.3520     4.2770     6.0070     5.2970    81.1310    10.3710     2.2950     0.0640
  239.0000   -23.7020     3.9910     5.8910     5.0470    83.6430    10.3800     2.2830     0.0610
  239.5000   -24.5720     3.7040     5.7800     5.0470    81.1540    10.3880     2.3170     0.0970
  240.0000   -25.4230     3.4360     5.6690     5.0470    76.9480    10.3970     2.2940     0.0880
  240.5000   -26.1810     3.4790     5.5770     5.0470    72.7500    10.4050     2.2750     0.0780
  241.0000   -26.5760     3.5840     5.5540     5.0470    69.4210    10.4130     2.2590     0.0830
  241.5000   -27.2360     3.6890     5.5310     5.0860    67.3440    10.4230     2.2740     0.0740
  242.0000   -27.9040     3.7940     5.6350     5.1250    65.0590    10.4550     2.2470     0.0820
  242.5000   -28.3200     3.8980     5.7390     5.1830    65.4030    10.4630     2.2210     0.0630
  243.0000   -27.5770     3.9550     5.8440     5.0960    67.1210    10.4660     2.2290     0.0560
  243.5000   -26.8730     3.9780     6.1910     4.8570    68.0340    10.4680     2.2210     0.0650
  244.0000   -26.6000     4.2530     6.5440     4.5640    67.0360    10.4710     2.2080     0.0480
  244.5000   -26.3410     4.5350     6.8980     5.3130    69.1550    10.4740     2.2510     0.0690
  245.0000   -26.0880     4.8160     7.2510     5.8900    71.8740    10.4760     2.2450     0.0850
  245.5000   -25.9530     5.0980     7.6040     6.1740    73.8790    10.4790     2.2310     0.0720
  246.0000   -27.0430     5.3790     8.1960     7.1890    74.2510    10.4990     2.2170     0.0520
  246.5000   -29.2420     5.6610     8.9830     8.7440    76.7140    10.5400     2.2350     0.0470
  247.0000   -30.2270     5.8980     9.7700     8.4280    79.5590    10.5800     2.2650     0.0650
  247.5000   -29.4860     6.0970    10.5570     7.8440    82.3030    10.6200     2.2560     0.0540
  248.0000   -28.8950     6.5260    11.3440     7.2140    83.2380    10.6540     2.2480     0.0380
  248.5000   -30.2770     7.4330    12.2420     7.0190    79.7400    10.6080     2.2840     0.0480
  249.0000   -32.0220     8.3400    13.2410     8.1060    77.8390    10.5610     2.2740     0.0630
  249.5000   -33.9410     9.2470    14.2410     9.9650    79.1210    10.5200     2.2550     0.0580
  250.0000   -35.8590    10.1540    15.3470    11.8240    81.3950    10.5100     2.2800     0.0770
  250.5000   -37.7750    11.0610    17.7230    13.2900    82.7740    10.5020     2.2940     0.0470
  251.0000   -39.4210    11.9680    20.5980    14.4690    82.0030    10.4930     2.2760     0.0450
  251.5000   -39.8640    12.8560    23.4740    15.3640    83.5290    10.4850     2.2970     0.0560
  252.0000   -38.6300    13.6970    26.9720    16.2180    84.6980    10.4970     2.3100     0.0450
  252.5000   -37.4420    14.5390    26.4910    16.9690    84.3880    10.5310     2.3040     0.0340
  253.0000   -36.4580    15.1480    25.4930    17.7210    82.8650    10.5330     2.2920     0.0440
  253.5000   -37.5110    14.7960    24.4940    18.8710    81.3440    10.5250     2.3150     0.0350
  254.0000   -36.5190    14.5200    23.3180    18.2690    80.1080    10.5160     2.3230     0.0470
  254.5000   -37.5100    14.2210    22.3930    16.9880    79.1890    10.5080     2.3330     0.0660
  255.0000   -38.8510    14.3130    22.0500    16.2990    80.4700    10.5020     2.3230     0.0580
  255.5000   -39.3080    14.4370    22.2530    17.4040    81.8850    10.5140     2.3140     0.0460
  256.0000   -38.6400    14.6030    21.4530    19.3970    82.8080    10.5260     2.3250     0.0390
  256.5000   -39.3120    14.4700    22.4580    19.0450    80.8570    10.5380     2.3050     0.0590
  257.0000   -40.9050    14.2650    21.8490    19.3500    82.2320    10.5500     2.3160     0.0450
