~VERSION INFORMATION
 VERS.                2.0:   CWLS LOG ASCII STANDARD - VERSION 2.0
 WRAP.                 NO:   ONE LINE PER DEPTH STEP
~WELL INFORMATION
#MNEM.UNIT      DATA TYPE    INFORMATION
#----------   ------------   ------------------------------
 STRT.F           40.0000:   START DEPTH
 STOP.F         3326.0000:   STOP DEPTH
 STEP.F            0.5000:   STEP LENGTH
 NULL.          -999.2500:   NO VALUE
 COMP.    FENIX & SCISSON:   COMPANY
 WELL.  FENIX "AX" #53-15:   WELL
 FLD .              NPR-3:   FIELD
 LOC .      S15 T38N R78W:   LOCATION
 CNTY.            NATRONA:   COUNTY
 STAT.            WYOMING:   STATE
 CTRY. UNITED STATES OF AMERICA:   COUNTRY
 SRVC.              WELEX:   SERVICE COMPANY
 DATE.        02-MAR-1977:   LOGDATE
 API .     49025102640000:   API NUMBER
~CURVE INFORMATION
#MNEM.UNIT       API CODE    CURVE DESCRIPTION
#----------   ------------   ------------------------------
 DEPT.F                  :   
 CALD.IN     42 280 60 00:   CALIPER
 TEND.LBS    42 635 01 00:   TENSION FROM NEUTRON POROSITY LOG
 GRD .GAPI   42 310 30 00:   GAMMA RAY
 NPHI.DEC    42 890 03 00:   NEUTRON POROSITY SANDSTONE
 DPHI.DEC    45 890 12 00:   DENSITY POROSITY SANDSTONE
 SPR .MV     07 010 01 00:   SPONTANEOUS POTENTIAL
 ILD .OHMM   07 120 46 00:   DEEP INDUCTION RESISTIVITY
 ILM .OHMM   07 120 44 00:   INDUCTION LOG MEDIUM RESISTIVITY
 SGRD.OHMM   07 220 05 00:   SHALLOW SHORT GUARD RESISTIVITY
~PARAMETER INFORMATION
#MNEM.UNIT          VALUE    DESCRIPTION
#----------   ------------   ------------------------------
 EKB .F            0.0000:   Kelly bushing
 EGL .F         5251.0000:   Ground level
 EDF .F            0.0000:   Drilling floor
 TD  .F          750.0000:   Total depth
 DATE.        02-MAR-1977:   Date logged
 CLNT.            A2DTECH:   Client Code
 SL  . 1650' FNL & 2360' FEL:   Surface Location
 PD  .                 GL:   Permanent Datum
 EPD .F              5253:   Elevation Permanent Datum
 LMF .                 GL:   Log Measured From
 DMF .                 GL:   Drilling Measured From
 DD  .F               750:   Depth driller
 DL  .F               747:   Depth logger
 BLI .F               745:   Bottom log interval
 CS1 .IN            8.625:   Casing size
 CBD1.       8.625" @ 40':   Casing driller 1
 CBL1.F                44:   Casing logger 1
 BS1 .IN            7.875:   Bit size
 BSD1.F               750:   Depth drilled with bit1
 DFT .           CHEM-GEL:   Type fluid in hole
 MSS .           FLOWLINE:   Source of sample
 RMS .OHMM          0.425:   Rm
 MST .F                56:   Rm Meas. temp.
 RMF .OHMM          0.466:   Rmf
 MFST.F                56:   Rmf Meas. temp.
 RMC .OHMM          0.712:   Rmc
 MCST.F                56:   Rmc Meas. temp.
 MFSS.               MEAS:   Source Rmf.
 MCSS.               MEAS:   Source Rmc.
 RMB .OHMM          0.350:   Rm. at BHT
 BHT .F                68:   BHT.
 TCS .HRS               2:   Time Circ. stopped
 MRT .F                68:   Maximum recorded temp.
 LUN .               8611:   Logging unit number
 LUL .            GILLETH:   Logging unit location
 ENGI.          D. LAWSON:   Recorded By
 WITN.           S. BURKL:   Witnessed by
 ORIG.           5" PRINT:   Origin of data
 UWI .     49025102640000:   Unique Well ID
 DICO. A2D TECHNOLOGIES, INC.:   Digitizing Company
~OTHER INFORMATION
~A   DEPT     CALD       TEND         GRD        NPHI     DPHI        SPR        ILD        ILM       SGRD   
# ...
  697.0000    12.4520    74.9250    80.8410     0.2450     0.0790   -21.0580    11.5630    11.5870    16.3270
  697.5000    12.4500    74.9250    78.2680     0.2540     0.0790   -21.0580    11.6940    11.5870    16.5710
  698.0000    12.4540    74.9250    81.7470     0.2600     0.0840   -21.0580    11.8020    12.8670    16.4560
  698.5000    12.4590    74.9250    85.7420     0.2540     0.0890   -21.0580    11.9580    13.9210    16.3310
  699.0000    12.4650    69.6070    84.1620     0.2510     0.0930   -21.0580    12.1760    14.1780    16.2700
  699.5000    12.4700    61.8920    86.3890     0.2570     0.0980   -21.0580    12.3950    14.3020    16.8400
  700.0000    12.4700    54.9450    77.8180     0.2620     0.0990   -21.0580    12.6130    14.7060    17.3490
  700.5000    12.4690    54.9450    77.6640     0.2710     0.0880   -21.0580    12.8310    15.1090    17.5090
  701.0000    12.4630    55.9710    84.0630     0.2710     0.0930   -21.0580    13.0500    15.3990    17.3580
  701.5000    12.4580    59.3140    85.4070     0.2650     0.0970   -21.0580    13.2680    15.3850    17.2190
  702.0000    12.4530    62.6570    84.2940     0.2690     0.0990   -21.0580    13.2970    15.3560    17.0340
  702.5000    12.4500    64.9350    84.3220     0.2700     0.0920   -21.0580    13.2970    15.3270    18.3450
  703.0000    12.4500    64.9350    83.0780     0.2710     0.0890   -21.0580    13.1880    15.2980    20.3370
  703.5000    12.4500    64.9350    84.9910     0.2680     0.0870   -21.0580    13.0610    15.2690    20.6530
  704.0000    12.4460    64.9350    88.1770     0.2620     0.0830   -21.0580    12.9340    15.2580    18.4070
  704.5000    12.4420    64.9350    86.1580     0.2600     0.0870   -21.0580    12.8060    16.2420    17.3490
  705.0000    12.4390    64.9350    90.0130     0.2730     0.0930   -21.0580    12.6790    16.8780    17.2650
  705.5000    12.4350    64.9350    84.7050     0.2810     0.0980   -21.0580    12.5520    16.4570    16.8600
  706.0000    12.4320    54.9450    83.4220     0.2910     0.1000   -21.0580    12.4250    15.7570    16.4550
  706.5000    12.4300    54.9450    90.0370     0.2980     0.0870   -21.0580    12.2970    15.0560    16.1210
  707.0000    12.4300    54.9450    92.1900     0.2950     0.0900   -21.0580    12.1540    14.3550    16.1210
  707.5000    12.4300    54.9450    89.9460     0.2860     0.1090   -21.0580    11.9980    13.9210    16.2900
  708.0000    12.4280    54.9450    90.0480     0.2890     0.1280   -21.0580    11.8420    13.7940    17.3490
  708.5000    12.4260    54.9450    97.6380     0.2950     0.1550   -21.0580    11.8020    13.9120    17.8330
  709.0000    12.4230    54.9450   105.3240     0.2990     0.1410   -21.0580    11.7140    14.0720    16.9470
  709.5000    12.4200    58.4270   103.4150     0.2830     0.0960   -21.0580    11.6210    14.2320    16.4200
  710.0000    12.4170    62.0090    94.4790     0.2690     0.0760   -21.0580    11.5280    14.3460    16.4200
  710.5000    12.4140    64.9350    85.1720     0.2610     0.0720   -21.0580    11.4810    14.6770    16.4200
  711.0000    12.4120    64.9350    85.9020     0.2570     0.0740   -21.0580    11.4810    14.8440    16.3060
  711.5000    12.4090    64.1280    84.0290     0.2470     0.0600   -21.0580    11.4810    13.8400    15.9170
  712.0000    12.4060    63.1040    89.7650     0.2440     0.0570   -21.0580    11.3710    12.9200    15.5280
  712.5000    12.4030    62.0810    93.6030     0.2550     0.0620   -21.0580    10.9680    12.2430    15.2720
  713.0000    12.4010    61.0570    88.8610     0.2590     0.0690   -21.0580    10.5650    12.4020    14.7950
  713.5000    12.3980    60.0340    88.0110     0.2590     0.0780   -21.0580    10.1620    12.5840    14.0490
  714.0000    12.3950    59.0100    90.7740     0.2620     0.0710   -21.0580    10.0980    12.5840    14.2280
  714.5000    12.3920    57.9870    87.5120     0.2680     0.0500   -21.0580    10.0980    12.5840    14.7080
  715.0000    12.3900    56.9630    85.8990     0.2690     0.0470   -21.0580    10.1380    12.3800    14.5610
  715.5000    12.3900    55.9400    86.4950     0.2700     0.0460   -21.0580    10.1910    12.1320    14.3810
  716.0000    12.3900    64.9350    84.5750     0.2680     0.0470   -21.0580    10.1910    11.8840    14.3090
  716.5000    12.3870    59.6310    83.6180     0.2540     0.0430   -21.0580    10.0660    11.6350    14.4410
  717.0000    12.3810    64.1900    85.6900     0.2450     0.0550   -21.0580     9.8550    11.4810    14.1190
  717.5000    12.3740    64.9350    84.1940     0.2500     0.0600   -21.0580     9.6450    11.5040    13.6170
  718.0000    12.3610    64.9350    91.5770     0.2590     0.0680   -21.0580     9.4340    11.5450    13.2970
  718.5000    12.3200    64.9350    84.4780     0.2700     0.0810   -21.0580     9.2970    11.5870    13.3840
  719.0000    12.2800    64.9350    85.9320     0.2670     0.0810   -21.0580     9.3830    11.5690    13.4190
  719.5000    12.2490    64.9350    86.7490     0.2570     0.0820   -21.0580     9.3830    11.5440    13.4190
  720.0000    12.2500    80.1510    84.2560     0.2500     0.0850   -21.0580     9.5570    11.5190    13.4190
  720.5000    12.2670   103.2970    88.6000     0.2440     0.0870   -21.0580     9.5700    11.4940    13.4500
  721.0000    12.2920   124.8750    86.3280     0.2410     0.0850   -21.0580     9.6140    11.4720    13.7340
  721.5000    12.3170   106.2080    89.0940     0.2400     0.0880   -21.0580     9.6450    11.4540    14.0490
  722.0000    12.3430    84.7150    92.8630     0.2400     0.0940   -21.0580     9.7340    11.4370    13.9340
  722.5000    12.3370    64.9350    89.9210     0.2310     0.0990   -21.0580     9.5610    11.4190    13.6970
  723.0000    12.3210    67.0050    89.4600     0.2320     0.0970   -21.0580     9.4020    11.4010    13.4600
  723.5000    12.3080    69.3560    86.8320     0.2360     0.0950   -21.0580     9.2430    11.3830    13.2230
  724.0000    12.3690    71.7060    87.4980     0.2410     0.0930   -21.0580     9.0830    11.3770    12.9860
  724.5000    12.3890    74.0570    87.9160     0.2460     0.0790   -21.0580     8.9240    10.9620    12.7490
  725.0000    12.3850    76.4080    85.8920     0.2530     0.0820   -21.0570     8.7640    10.4750    12.5120
  725.5000    12.3810    78.7590    85.2810     0.2490     0.0840   -21.1080     8.6390     9.9890    12.4700
  726.0000    12.3770    81.1100    85.4030     0.2570     0.0770   -21.1730     8.4790     9.5020    12.4270
  726.5000    12.3740    83.4600    86.0140     0.2530     0.0820   -21.2390     8.3210     9.0160    12.3570
  727.0000    12.3700    85.8110    89.4470     0.2470     0.0830   -21.3050     8.1630     8.4820    12.2860
  727.5000    12.3810    88.1620    90.1730     0.2550     0.0720   -21.3710     8.0050     8.5160    12.2430
  728.0000    12.3880    90.5130    84.2190     0.2660     0.0780   -21.4370     7.8470     8.6040    11.9790
  728.5000    12.4100    92.8630    84.5420     0.2820     0.0820   -21.5030     7.8100     8.6920    11.7080
  729.0000    12.4100    94.1720    85.6540     0.2880     0.0750   -21.5700     7.8000     8.7800    11.5870
  729.5000    12.4100    88.6000    86.0100     0.2910     0.0640   -21.6390     7.7710     8.8680    11.7470
  730.0000    12.4100    83.0280    86.1210     0.2860     0.0590   -21.6580     7.7410     8.9620    11.8500
  730.5000    12.4110    77.4560    85.4730     0.2830     0.0620   -21.8330     7.7120     8.5430    11.9110
  731.0000    12.4200    75.0500    83.5800     0.2890     0.0650   -22.2100     7.6830     8.0280    11.0420
  731.5000    12.4280    75.9000    83.7760     0.2940     0.0630   -22.5850     7.6680     8.0280     9.8290
  732.0000    12.4360    76.7500    85.9430     0.2810     0.0550   -22.9620     7.6680     8.3310     8.6170
  732.5000    12.4450    77.6000    86.3460     0.2670     0.0580   -23.3410     7.8120     8.7650    11.0800
  733.0000    12.4530    78.4500    81.8530     0.2700     0.0620   -23.7140     8.1090     9.1990    12.0950
