~VERSION INFORMATION
 VERS.                2.0:   CWLS LOG ASCII STANDARD - VERSION 2.0
 WRAP.                 NO:   ONE LINE PER DEPTH STEP
~WELL INFORMATION
#MNEM.UNIT      DATA TYPE    INFORMATION
#----------   ------------   ------------------------------
 STRT.F           90.0000:   START DEPTH
 STOP.F         3342.0000:   STOP DEPTH
 STEP.F            0.5000:   STEP LENGTH
 NULL.          -999.2500:   NO VALUE
 COMP. LAWRENCE ALLISON AND ASSOCIATES:   COMPANY
 WELL. LAWERNCE "X" #83-3:   WELL
 FLD .             NPR #3:   FIELD
 LOC .       S3 T38N R78W:   LOCATION
 CNTY.            NATRONA:   COUNTY
 STAT.            WYOMING:   STATE
 CTRY. UNITED STATES OF AMERICA:   COUNTRY
 SRVC.      DRESSER ATLAS:   SERVICE COMPANY
 DATE.        23-APR-1985:   LOGDATE
 API .     49025110210000:   API NUMBER
~CURVE INFORMATION
#MNEM.UNIT       API CODE    CURVE DESCRIPTION
#----------   ------------   ------------------------------
 DEPT.F                  :   
 TENR.LBS    07 635 01 00:   TENSION FROM RESISTIVITY
 CALR.IN     07 280 01 00:   CALIPER FROM RESISTIVITY
 SPR .MV     07 010 01 00:   SPONTANEOUS POTENTIAL
 GRR .GAPI   07 310 01 00:   GAMMA RAY FROM RESISTIVITY
 RFOC.OHMM   07 220 04 00:   RESISTIVITY FOCUSED LOG RES.
 RILD.OHMM   07 120 46 00:   DEEP INDUCTION RESISTIVITY
 RILM.OHMM   07 120 44 00:   INDUCTION LOG MEDIUM RESISTIVITY
 NPHI.DEC    42 890 03 00:   NEUTRON POROSITY SANDSTONE
 RHOB.G/C3   45 350 01 00:   BULK DENSITY
 TEND.LBS    45 635 01 00:   TENSION FROM DENSITY LOG
 CORR.G/C3   45 356 01 00:   DENSITY CORRECTION
~PARAMETER INFORMATION
#MNEM.UNIT          VALUE    DESCRIPTION
#----------   ------------   ------------------------------
 EKB .F         5125.0000:   Kelly bushing
 EGL .F         5112.0000:   Ground level
 EDF .F            0.0000:   Drilling floor
 TD  .F         3330.0000:   Total depth
 DATE.        23-APR-1985:   Date logged
 CLNT.            A2DTECH:   Client Code
 SL  . 1745' FNL & 612' FEL:   Surface Location
 PD  .                 GL:   Permanent Datum
 DD  .F              3330:   Depth driller
 DL  .F              3328:   Depth logger
 BLI .F              3326:   Bottom log interval
 CS1 .IN            8.625:   Casing size
 CBD1.      8.625" @ 526':   Casing driller 1
 CBL1.F               528:   Casing logger 1
 BS1 .IN            7.875:   Bit size
 DFT .            KCL-GEL:   Type fluid in hole
 DFD .                9.1:   Density
 DFV .                 43:   Viscosity
 DFPH.                  8:   pH
 DFL .                  8:   Fluid loss
 MSS .           FLOWLINE:   Source of sample
 RMS .OHMM          0.445:   Rm
 MST .F                72:   Rm Meas. temp.
 RMF .OHMM           0.36:   Rmf
 MFST.F                70:   Rmf Meas. temp.
 RMC .OHMM           0.55:   Rmc
 MCST.F                72:   Rmc Meas. temp.
 MFSS.               MEAS:   Source Rmf.
 RMB .OHMM          0.286:   Rm. at BHT
 BHT .F               116:   BHT.
 TCS .HRS               3:   Time Circ. stopped
 MRT .F               116:   Maximum recorded temp.
 LUN .               6274:   Logging unit number
 LUL .               GLTE:   Logging unit location
 ENGI.             RAUTIO:   Recorded By
 WITN.             STRONG:   Witnessed by
 ORIG.           5" PRINT:   Origin of data
 UWI .     49025110210000:   Unique Well ID
 DICO. A2D TECHNOLOGIES, INC.:   Digitizing Company
 DAPD.                 13:   Feet Above Permanent Datum
 BSD1.               3330:   Depth drilled with bit1
 MCSS.               CALC:   Source Rmc.
 EPD .               5112:   Elevation Permanent Datum
 LMF .                 KB:   Log Measured From
 DMF .                 KB:   Drilling Measured From
~OTHER INFORMATION
~A   DEPT     TENR       CALR        SPR         GRR      RFOC       RILD       RILM       NPHI       RHOB       TEND       CORR   
# ...
  913.5000   -75.0890    10.7100   -58.5800    92.0600     7.7960     8.3710     7.9960  -999.2500  -999.2500  -999.2500  -999.2500
  914.0000   -73.9050    10.7100   -58.8690    90.2590     7.6780     8.3220     7.9840  -999.2500  -999.2500  -999.2500  -999.2500
  914.5000   -72.7200    10.7100   -59.1600    88.2570     7.5600     8.2830     8.0400  -999.2500  -999.2500  -999.2500  -999.2500
  915.0000   -71.5350    10.7100   -59.4490    87.2790     7.4190     8.3500     8.1320  -999.2500  -999.2500  -999.2500  -999.2500
  915.5000   -70.3510    10.7100   -59.7390    89.4140     7.5460     8.4060     8.0980  -999.2500  -999.2500  -999.2500  -999.2500
  916.0000   -69.1660    10.7110   -60.0350    92.1870     7.7040     8.4620     7.9950  -999.2500  -999.2500  -999.2500  -999.2500
  916.5000   -67.9810    10.7110   -60.0980    95.0300     7.8630     8.5180     8.1030  -999.2500  -999.2500  -999.2500  -999.2500
  917.0000   -66.7970    10.7110   -60.1000    95.9830     7.9840     8.5740     8.2930  -999.2500  -999.2500  -999.2500  -999.2500
  917.5000   -65.6120    10.7110   -60.0990    94.8260     7.7600     8.6300     8.4360  -999.2500  -999.2500  -999.2500  -999.2500
  918.0000   -64.4270    10.7110   -60.0990    93.3350     7.6260     8.6720     8.4070  -999.2500  -999.2500  -999.2500  -999.2500
  918.5000   -63.2430    10.7120   -60.0990    92.7260     7.8520     8.6220     8.3790  -999.2500  -999.2500  -999.2500  -999.2500
  919.0000   -62.0580    10.7120   -60.0990    92.0930     8.0860     8.5160     8.3050  -999.2500  -999.2500  -999.2500  -999.2500
  919.5000   -60.8730    10.7120   -60.1000    92.2080     8.2830     8.4090     8.1100  -999.2500  -999.2500  -999.2500  -999.2500
  920.0000   -59.6890    10.7120   -60.0970    92.3670     7.6920     8.3020     7.9150  -999.2500  -999.2500  -999.2500  -999.2500
  920.5000   -58.5040    10.7120   -60.0790    91.7490     7.2170     8.2070     7.7210  -999.2500  -999.2500  -999.2500  -999.2500
  921.0000   -57.3190    10.7120   -60.2970    90.1010     7.2660     8.1610     7.5260  -999.2500  -999.2500  -999.2500  -999.2500
  921.5000   -56.1350    10.7130   -60.2940    89.3430     7.3190     8.1110     7.3310  -999.2500  -999.2500  -999.2500  -999.2500
  922.0000   -56.4990    10.7130   -60.2930    89.6590     7.3730     8.0610     7.0860  -999.2500  -999.2500  -999.2500  -999.2500
  922.5000   -59.2210    10.7130   -60.1850    91.4020     7.4190     8.0110     7.1190  -999.2500  -999.2500  -999.2500  -999.2500
  923.0000   -61.9430    10.7130   -60.0760    93.3860     7.3220     7.9600     7.1650  -999.2500  -999.2500  -999.2500  -999.2500
  923.5000   -64.6640    10.7130   -59.9680    94.6840     7.2170     7.9100     7.2100  -999.2500  -999.2500  -999.2500  -999.2500
  924.0000   -67.3860    10.7130   -59.8600    95.1900     7.4160     7.8390     7.2560  -999.2500  -999.2500  -999.2500  -999.2500
  924.5000   -70.1070    10.7100   -59.7520    95.6200     7.6260     7.8460     7.2810  -999.2500  -999.2500  -999.2500  -999.2500
  925.0000   -72.8290    10.7080   -59.6440    95.1710     7.4550     7.8640     7.2580  -999.2500  -999.2500  -999.2500  -999.2500
  925.5000   -75.5230    10.7060   -59.5330    94.8930     7.3120     7.8830     7.2390  -999.2500  -999.2500  -999.2500  -999.2500
  926.0000   -74.3930    10.7030   -59.5060    95.0880     7.1680     7.9010     7.2210  -999.2500  -999.2500  -999.2500  -999.2500
  926.5000   -73.2750    10.7010   -59.5390    95.3000     7.0860     7.9190     7.2020  -999.2500  -999.2500  -999.2500  -999.2500
  927.0000   -72.1560    10.6990   -59.6030    93.1270     7.2520     7.9380     7.1830  -999.2500  -999.2500  -999.2500  -999.2500
  927.5000   -71.0370    10.6960   -59.6670    90.2400     7.3870     7.9560     7.1650  -999.2500  -999.2500  -999.2500  -999.2500
  928.0000   -69.9180    10.6940   -59.7310    89.2210     7.4870     7.9740     7.1510  -999.2500  -999.2500  -999.2500  -999.2500
  928.5000   -68.7990    10.6910   -59.7960    91.6590     7.4330     7.9840     7.1910  -999.2500  -999.2500  -999.2500  -999.2500
  929.0000   -67.6800    10.6890   -59.8610    95.0260     7.3810     7.9650     7.2230  -999.2500  -999.2500  -999.2500  -999.2500
  929.5000   -66.5610    10.6870   -59.9680    98.3120     7.3300     7.9430     7.2550  -999.2500  -999.2500  -999.2500  -999.2500
  930.0000   -65.4430    10.6840   -60.1540    98.3160     7.2840     7.9200     7.2840  -999.2500  -999.2500  -999.2500  -999.2500
  930.5000   -64.3240    10.6820   -60.3390    95.3220     7.2650     7.8980     7.2840  -999.2500  -999.2500  -999.2500  -999.2500
  931.0000   -63.2050    10.6800   -60.5240    94.5040     7.2380     7.8760     7.2170  -999.2500  -999.2500  -999.2500  -999.2500
  931.5000   -62.0860    10.6770   -60.7100    96.3800     7.2110     7.8540     7.2170  -999.2500  -999.2500  -999.2500  -999.2500
  932.0000   -60.9670    10.6750   -60.8930    98.8020     7.1840     7.8390     7.2350  -999.2500  -999.2500  -999.2500  -999.2500
  932.5000   -59.8480    10.6720   -60.7210    97.6750     7.1510     7.8650     7.2890  -999.2500  -999.2500  -999.2500  -999.2500
  933.0000   -58.7290    10.6700   -60.5130    96.7360     7.2030     7.9140     7.3420  -999.2500  -999.2500  -999.2500  -999.2500
  933.5000   -57.6110    10.6680   -60.3040    96.5180     7.2960     7.9630     7.3960  -999.2500  -999.2500  -999.2500  -999.2500
  934.0000   -56.4920    10.6650   -60.0940    93.8460     7.3890     7.9840     7.4330  -999.2500  -999.2500  -999.2500  -999.2500
  934.5000   -55.5830    10.6630   -59.8860    90.0650     7.4820     7.9720     7.5160  -999.2500  -999.2500  -999.2500  -999.2500
  935.0000   -55.5830    10.6610   -59.6760    89.4070     7.5560     7.9610     7.5980  -999.2500  -999.2500  -999.2500  -999.2500
  935.5000   -55.5830    10.6580   -59.4670    93.0070     7.3980     7.9490     7.6960  -999.2500  -999.2500  -999.2500  -999.2500
  936.0000   -55.5830    10.6560   -59.2620    95.5360     7.2670     7.9370     7.6800  -999.2500  -999.2500  -999.2500  -999.2500
  936.5000   -61.3160    10.6540   -59.1860    94.7550     7.2170     7.9240     7.6600  -999.2500  -999.2500  -999.2500  -999.2500
  937.0000   -71.9340    10.6540   -59.5180    94.0280     7.1510     7.9110     7.6410  -999.2500  -999.2500  -999.2500  -999.2500
  937.5000   -82.0040    10.6540   -59.8380    93.1970     7.1510     7.9970     7.6260  -999.2500  -999.2500  -999.2500  -999.2500
  938.0000   -76.0930    10.6540   -60.1570    89.9150     7.3100     8.0250     7.8560  -999.2500  -999.2500  -999.2500  -999.2500
  938.5000   -65.3460    10.6540   -60.4750    84.0650     7.6700     8.0540     8.0410  -999.2500  -999.2500  -999.2500  -999.2500
  939.0000   -64.5720    10.6540   -60.6960    77.2500     8.0310     8.2640     8.2260  -999.2500  -999.2500  -999.2500  -999.2500
  939.5000   -63.7970    10.6540   -60.6900    79.2760     8.3590     8.5010     8.4110  -999.2500  -999.2500  -999.2500  -999.2500
  940.0000   -63.0220    10.6540   -60.4200    84.3970     7.9840     8.7380     8.5960  -999.2500  -999.2500  -999.2500  -999.2500
  940.5000   -62.2480    10.6540   -59.9290    89.2860     8.0550     8.9960     8.7810  -999.2500  -999.2500  -999.2500  -999.2500
  941.0000   -61.4730    10.6540   -59.4860    89.1650     8.1960     9.2480     8.9660  -999.2500  -999.2500  -999.2500  -999.2500
  941.5000   -60.6990    10.6550   -59.3120    89.0000     8.3370     9.5260     9.1630  -999.2500  -999.2500  -999.2500  -999.2500
  942.0000   -59.9240    10.6600   -59.1200    88.9950     8.5140     9.7930     9.2470  -999.2500  -999.2500  -999.2500  -999.2500
  942.5000   -59.1490    10.6640   -59.2830    92.7610     8.4370     9.9530     9.3610  -999.2500  -999.2500  -999.2500  -999.2500
  943.0000   -58.3750    10.6690   -59.4690    96.7740     8.3340     9.9750     9.4760  -999.2500  -999.2500  -999.2500  -999.2500
  943.5000   -57.6000    10.6740   -59.4840    98.8480     8.2070     9.9980     9.5940  -999.2500  -999.2500  -999.2500  -999.2500
