~VERSION INFORMATION
 VERS.                2.0:   CWLS LOG ASCII STANDARD - VERSION 2.0
 WRAP.                 NO:   ONE LINE PER DEPTH STEP
~WELL INFORMATION
#MNEM.UNIT      DATA TYPE    INFORMATION
#----------   ------------   ------------------------------
 STRT.F            0.0000:   START DEPTH
 STOP.F         5786.0000:   STOP DEPTH
 STEP.F            0.5000:   STEP LENGTH
 NULL.          -999.2500:   NO VALUE
 COMP. U.S. DEPARTMENT OF ENERGY:   COMPANY
 WELL. DEPARTMENT "X" #2-3:   WELL
 FLD .           N P R #3:   FIELD
 LOC .       S3 T38N R78W:   LOCATION
 CNTY.            NATRONA:   COUNTY
 STAT.            WYOMING:   STATE
 CTRY. UNITED STATES OF AMERICA:   COUNTRY
 SRVC.       BAKER HUHGES:   SERVICE COMPANY
 DATE.        14-JUL-2002:   LOGDATE
 API .     49025230540000:   API NUMBER
~CURVE INFORMATION
#MNEM.UNIT       API CODE    CURVE DESCRIPTION
#----------   ------------   ------------------------------
 DEPT.F                  :   
 TEND.LBS    45 635 01 00:   TENSION FROM DENSITY LOG
 CALD.IN     45 280 60 00:   CALIPER FROM DENSITY LOG
 ZCOR.G/C3   45 356 01 00:   DENSITY CORRECTION
 PE  .B/E    45 358 01 00:   PHOTOELECTRIC FACTOR
 ZDEN.G/C3   45 350 01 00:   BULK DENSITY
 CNCF.DEC    42 890 03 00:   NEUTRON POROSITY
 TENS.LBS    60 635 01 00:   TENSION FROM SONIC
 DT  .US/F   60 520 00 00:   DELTA TIME
 RD  .OHMM   11 220 10 00:   RESISTIVITY DEEP
 TENR.LBS    11 635 01 00:   TENSION FROM RES. LOG
 RS  .OHMM   11 220 09 00:   RESISTIVITY SHALLOW
 GRR .GAPI   11 310 01 00:   GAMMA RAY FROM RES.
 RMLL.OHMM   11 270 04 00:   MICRO LATEROLOG
 SPR .MV     11 010 01 00:   SPONTANEOUS POTENTIAL FROM RES.
~PARAMETER INFORMATION
#MNEM.UNIT          VALUE    DESCRIPTION
#----------   ------------   ------------------------------
 EKB .F         5164.7000:   Kelly bushing
 EGL .F         5154.7000:   Ground level
 EDF .F         5163.7000:   Drilling floor
 TD  .F         5773.0000:   Total depth
 DATE.        14-JUL-2002:   Date logged
 CLNT.            A2DTECH:   Client Code
 SL  . 838' FNL & 2128' FWL:   Surface Location
 PD  .                 GL:   Permanent Datum
 EPD .F            5154.7:   Elevation Permanent Datum
 LMF .                 KB:   Log Measured From
 DMF .                 KB:   Drilling Measured From
 DD  .F              5770:   Depth driller
 DL  .F              5773:   Depth logger
 BLI .F              5770:   Bottom log interval
 CS1 .IN            9.625:   Casing size
 CBD1.       9.625 @ 578':   Casing driller 1
 CBL1.F               578:   Casing logger 1
 BS1 .IN             8.75:   Bit size
 DFT .       GEL/CHEMICAL:   Type fluid in hole
 DFD .                  9:   Density
 DFV .                 45:   Viscosity
 DFPH.                8.5:   pH
 DFL .                9.6:   Fluid loss
 MSS .           FLOWLINE:   Source of sample
 RMS .OHMM          0.568:   Rm
 MST .F                91:   Rm Meas. temp.
 RMF .OHMM          0.490:   Rmf
 MFST.F                92:   Rmf Meas. temp.
 RMC .OHMM          1.072:   Rmc
 MCST.F                90:   Rmc Meas. temp.
 MFSS.               MEAS:   Source Rmf.
 RMB .OHMM          0.291:   Rm. at BHT
 BHT .F               184:   BHT.
 TCS .HRS               8:   Time Circ. stopped
 MRT .F               184:   Maximum recorded temp.
 LUN .            HL-6530:   Logging unit number
 LUL .             CASPER:   Logging unit location
 ENGI.           VERCIMAK:   Recorded By
 WITN.              HARDY:   Witnessed by
 ORIG.           5" PRINT:   Origin of data
 UWI .     49025230540000:   Unique Well ID
 DICO. A2D TECHNOLOGIES, INC.:   Digitizing Company
~OTHER INFORMATION
~A    DEPT    TEND       CALD       ZCOR         PE       ZDEN       CNCF       TENS         DT         RD       TENR         RS         GRR      RMLL        SPR   
# ...
  906.5000     5.0000    10.1130     0.0660     2.9810     2.5390     0.2640   -53.4820    90.4040     5.8780    -5.4890     6.9180    97.4310  -999.2500   -69.3980
  907.0000     5.0000    10.1070     0.0680     2.8480     2.5480     0.2660   -54.0360    90.2950     6.1270    -5.4890     6.8940   101.3850  -999.2500   -69.0620
  907.5000     5.0000    10.1030     0.0700     2.8380     2.5500     0.2750   -54.5900    90.4260     6.3100    -5.4890     6.8730   103.5230  -999.2500   -68.7410
  908.0000     5.0000    10.1080     0.0730     2.8730     2.5550     0.2820   -55.1450    90.9800     6.2690    -5.4890     6.8510   104.9020  -999.2500   -68.4170
  908.5000     5.0000    10.1130     0.0720     2.9080     2.5590     0.2830   -55.6990    91.3530     6.1020    -5.4890     6.8300   102.3100  -999.2500   -68.1060
  909.0000     5.0000    10.1180     0.0700     2.9430     2.5600     0.2760   -56.2540    91.3530     5.9710    -5.4890     6.8090    99.1240  -999.2500   -67.7920
  909.5000    -2.5800    10.1230     0.0680     2.9780     2.5570     0.2750   -56.8080    91.1790     6.0680    -5.4890     6.7920    96.3170  -999.2500   -67.4800
  910.0000   -12.4000    10.1280     0.0670     3.0130     2.5540     0.2760   -57.3630    90.9130     6.1870    -5.4890     6.8300    97.3360  -999.2500   -67.2630
  910.5000   -22.2200    10.1330     0.0710     3.0480     2.5510     0.2770   -57.9170    90.6470     6.3100    -5.7100     6.8700    98.3600  -999.2500   -67.2410
  911.0000   -32.0400    10.1380     0.0750     3.0500     2.5470     0.2760   -58.4710    90.3800     6.3330    -7.0370     6.9090    98.1550  -999.2500   -67.2150
  911.5000   -32.7130    10.1430     0.0740     3.0500     2.5440     0.2760   -59.0260    90.1140     6.3630    -8.3640     6.9480    98.7380  -999.2500   -67.1900
  912.0000   -29.4400    10.1480     0.0730     3.0500     2.5450     0.2840   -59.5800    89.8480     6.3920    -9.6910     6.9870   100.2120  -999.2500   -67.1650
  912.5000   -26.1670    10.1520     0.0620     3.0500     2.5490     0.2890   -60.1350    89.7760     6.4220   -11.0190     7.0260   101.5800  -999.2500   -67.1400
  913.0000   -23.8920    10.1570     0.0510     3.0500     2.5480     0.2810   -60.6890    89.8170     6.4520   -12.3460     7.0650   101.6240  -999.2500   -67.1150
  913.5000   -21.3740    10.1610     0.0470     3.0500     2.5480     0.2690   -61.2440    89.8580     6.4820   -13.6730     7.1020   101.5390  -999.2500   -67.0890
  914.0000   -18.8560    10.1600     0.0490     3.0500     2.5440     0.2650   -61.7980    89.8990     6.5120   -15.0000     7.1400    99.4130  -999.2500   -67.0250
  914.5000   -16.3380    10.1590     0.0510     3.0490     2.5370     0.2610   -62.3520    89.9410     6.5460   -11.8430     7.1770    97.2150  -999.2500   -66.7640
  915.0000   -13.8210    10.1570     0.0600     3.0440     2.5290     0.2550   -62.9070    90.2510     6.4890    -3.6590     7.1770    95.6450  -999.2500   -66.5040
  915.5000   -11.3030    10.1560     0.0740     3.0380     2.5230     0.2560   -63.4610    90.6380     6.3980     4.4910     7.1090    95.6820  -999.2500   -66.2470
  916.0000    -8.7850    10.1540     0.0900     3.0320     2.5160     0.2650   -64.0160    91.0250     6.3070     1.2640     7.0530    97.0480  -999.2500   -66.0690
  916.5000    -6.2670    10.1530     0.0870     3.0070     2.5110     0.2720   -64.5700    91.4120     6.2160    -6.9190     6.9980    99.0110  -999.2500   -66.0720
  917.0000    -5.0000    10.1510     0.0810     2.9220     2.5180     0.2740   -64.6290    91.6070     6.1250   -15.1030     6.9430   101.0420  -999.2500   -66.0720
  917.5000    -5.0000    10.1500     0.0640     2.8840     2.5310     0.2790   -64.6290    91.7790     6.0350   -23.2870     6.8540   101.8750  -999.2500   -66.0720
  918.0000    -5.0000    10.1480     0.0490     2.8620     2.5400     0.2840   -64.6290    91.9510     5.9440   -24.3600     6.7470   100.1020  -999.2500   -66.0710
  918.5000    -5.0000    10.1470     0.0490     2.8440     2.5440     0.2910   -64.6290    92.3420     5.8630   -22.3140     6.6640    97.2740  -999.2500   -65.9810
  919.0000    -5.0000    10.1460     0.0500     2.8440     2.5440     0.2960   -64.6290    92.8030     5.7560   -20.2680     6.5810    95.2940  -999.2500   -65.7730
  919.5000    -5.0000    10.1440     0.0480     2.9490     2.5380     0.2970   -64.6290    92.9130     5.6910   -18.2220     6.4980    96.2890  -999.2500   -65.5660
  920.0000    -5.0000    10.1430     0.0460     3.0990     2.5320     0.2980   -64.6290    93.0240     5.6190   -16.1760     6.4150    97.8570  -999.2500   -65.3580
  920.5000    -5.0000    10.1430     0.0460     3.1150     2.5260     0.3010   -64.6290    93.4680     5.5460   -15.4690     6.3320    99.6310  -999.2500   -65.2000
  921.0000   -19.8800    10.1520     0.0460     3.0930     2.5270     0.3000   -64.6290    94.1180     5.4740    -9.4340     6.2490   101.9440  -999.2500   -65.0700
  921.5000   -39.5200    10.1620     0.0470     3.0690     2.5290     0.2990   -64.6290    95.1500     5.4010    -3.6570     6.1660   104.6980  -999.2500   -64.8230
  922.0000   -59.1600    10.1710     0.0480     3.0450     2.5280     0.2990   -64.6290    96.0620     5.3290     2.1190     6.0820   104.8850  -999.2500   -64.5600
  922.5000   -78.8000    10.1800     0.0490     3.0210     2.5260     0.2990   -64.6290    95.4030     5.2500    -0.6160     6.0820   103.5540  -999.2500   -64.3000
  923.0000   -69.3200    10.1820     0.0460     2.9980     2.5260     0.2930   -64.6290    94.7260     5.2810    -9.2810     6.1510   102.4280  -999.2500   -64.2700
  923.5000   -46.4070    10.1820     0.0430     2.9730     2.5260     0.2880   -64.6290    94.0480     5.3070   -17.9460     6.1640   104.7360  -999.2500   -64.2590
  924.0000   -23.4930    10.1820     0.0400     2.9670     2.5230     0.2850   -64.6290    93.8580     5.3320   -25.4490     6.1760   105.4110  -999.2500   -64.0110
  924.5000   -19.1920    10.1820     0.0370     3.0690     2.5200     0.2900   -64.6290    94.2220     5.3580   -23.6630     6.1890   100.6940  -999.2500   -63.7630
  925.0000   -38.0770    10.1820     0.0390     3.1810     2.5190     0.3020   -64.6290    94.6090     5.3840   -21.2080     6.2520    97.2440  -999.2500   -63.5160
  925.5000   -56.9620    10.1810     0.0420     3.3130     2.5200     0.3020   -64.6290    94.7600     5.4470   -18.7520     6.2740   100.3430  -999.2500   -63.2720
  926.0000   -63.2670    10.1620     0.0450     3.2860     2.5230     0.2940   -64.6290    94.2980     5.4940   -16.2970     6.2970   101.7400  -999.2500   -63.0210
  926.5000   -58.5900    10.1420     0.0420     3.2610     2.5270     0.2920   -64.6790    93.8490     5.5380   -14.0590     6.3210   100.8660  -999.2500   -62.7960
  927.0000   -53.9140    10.1420     0.0390     3.2310     2.5310     0.2950   -64.7830    93.4000     5.5820   -10.9910     6.3450   100.0570  -999.2500   -62.5650
  927.5000   -49.2380    10.1410     0.0490     3.1970     2.5300     0.2950   -64.8870    92.9520     5.6250    -7.9220     6.4270   101.5780  -999.2500   -62.3270
  928.0000   -44.5620    10.1590     0.0550     3.1620     2.5280     0.2910   -64.9920    92.9060     5.6510    -5.4890     6.3730   102.9020  -999.2500   -62.3450
  928.5000   -39.8860    10.1820     0.0560     3.1300     2.5260     0.2900   -65.0960    93.7660     5.5020    -5.4890     6.2410   103.1760  -999.2500   -62.4980
  929.0000   -35.2100    10.2060     0.0560     3.1300     2.5190     0.2870   -65.2000    94.2950     5.3790    -5.4890     6.1090   104.2360  -999.2500   -62.6520
  929.5000   -30.5330    10.2610     0.0780     3.1300     2.5050     0.2790   -65.3040    94.3810     5.2500    -5.4890     5.9710   104.2930  -999.2500   -62.8110
  930.0000   -25.8570    10.3930     0.0890     3.1300     2.4950     0.2740   -65.4090    94.4590     5.2730    -5.4890     6.0340   104.1690  -999.2500   -62.7690
  930.5000   -22.4940    10.4300     0.0720     3.1360     2.4970     0.2720   -65.5130    93.8220     5.2970    -5.4890     6.0840   104.0800  -999.2500   -62.6190
