~VERSION INFORMATION
 VERS.                2.0:   CWLS LOG ASCII STANDARD - VERSION 2.0
 WRAP.                 NO:   ONE LINE PER DEPTH STEP
~WELL INFORMATION
#MNEM.UNIT      DATA TYPE    INFORMATION
#----------   ------------   ------------------------------
 STRT.F          250.5000:   START DEPTH
 STOP.F         2849.5000:   STOP DEPTH
 STEP.F            0.5000:   STEP LENGTH
 NULL.          -999.2500:   NO VALUE
 COMP. FENIX & SCISSON U.S. NAVY:   COMPANY
 WELL.   FENIX "A" #25-21:   WELL
 FLD .           N P R #3:   FIELD
 LOC .      S21 T39N R78W:   LOCATION
 CNTY.            NATRONA:   COUNTY
 STAT.            WYOMING:   STATE
 CTRY. UNITED STATES OF AMERICA:   COUNTRY
 SRVC.       SCHLUMBERGER:   SERVICE COMPANY
 DATE.        14-MAR-1977:   LOGDATE
 API .     49025103140000:   API NUMBER
~CURVE INFORMATION
#MNEM.UNIT       API CODE    CURVE DESCRIPTION
#----------   ------------   ------------------------------
 DEPT.F                  :   
 CALD.IN     45 280 60 00:   CALIPER FROM DENSITY LOG
 GRD .GAPI   45 310 01 00:   GAMMA RAY FROM DENSITY LOG
 RHOB.G/C3   45 350 01 00:   BULK DENSITY
 CORR.G/C3   45 356 01 00:   DENSITY CORRECTION
 SPR .MV     07 010 01 00:   SPONTANEOUS POTENTIAL
 LL8 .OHMM   07 220 08 00:   LATEROLOG-8 RES.
 ILM .OHMM   07 120 44 00:   INDUCTION LOG MEDIUM RESISTIVITY
 ILD .OHMM   07 120 46 00:   DEEP INDUCTION RESISTIVITY
~PARAMETER INFORMATION
#MNEM.UNIT          VALUE    DESCRIPTION
#----------   ------------   ------------------------------
 EKB .F         4963.0000:   Kelly bushing
 EGL .F         4953.0000:   Ground level
 EDF .F            0.0000:   Drilling floor
 TD  .F         2848.0000:   Total depth
 DATE.        14-MAR-1977:   Date logged
 CLNT.            A2DTECH:   Client Code
 SL  . 990' FWL & 2310' FSL:   Surface Location
 PD  .                 GL:   Permanent Datum
 DD  .F              2847:   Depth driller
 DL  .F              2848:   Depth logger
 BLI .F              2842:   Bottom log interval
 CS1 .IN            8.625:   Casing size
 CBD1.      8.625" @ 259':   Casing driller 1
 CBL1.F               261:   Casing logger 1
 BS1 .IN            7.875:   Bit size
 DFT .                KCL:   Type fluid in hole
 DFD .                9.2:   Density
 DFV .                 37:   Viscosity
 DFPH.                8.5:   pH
 DFL .                8.6:   Fluid loss
 MSS .           FLOWLINE:   Source of sample
 RMS .OHMM          0.226:   Rm
 MST .F                72:   Rm Meas. temp.
 RMF .OHMM          0.190:   Rmf
 MFST.F                72:   Rmf Meas. temp.
 MFSS.               MEAS:   Source Rmf.
 RMB .OHMM           .139:   Rm. at BHT
 BHT .F               117:   BHT.
 TCS .HRS            1800:   Time Circ. stopped
 MRT .F               117:   Maximum recorded temp.
 LUN .               5642:   Logging unit number
 LUL .               CSPR:   Logging unit location
 ENGI.         JIM MARTIN:   Recorded By
 WITN.               JAPP:   Witnessed by
 ORIG.           5" PRINT:   Origin of data
 UWI .     49025103140000:   Unique Well ID
 DICO. A2D TECHNOLOGIES, INC.:   Digitizing Company
 DAPD.                 10:   Feet Above Permanent Datum
 BSD1.               2847:   Depth drilled with bit1
 EPD .               4953:   Elevation Permanent Datum
 LMF .                 KB:   Log Measured From
 DMF .                 KB:   Drilling Measured From
 TLI .                261:   Top log interval
 TLAB.               2400:   Time logger at bottom
~OTHER INFORMATION
~A   DEPT     CALD         GRD      RHOB       CORR        SPR        LL8        ILM        ILD   
# ...
 2640.0000     9.5050   147.4160     2.5100     0.0100   -58.1210     5.0220     5.2530     5.9250
 2640.5000     9.4940   145.6330     2.4920     0.0050   -57.9910     4.9490     5.1730     5.9100
 2641.0000     9.4820   143.6470     2.5030     0.0070   -57.8600     4.8770     5.1240     5.8950
 2641.5000     9.4710   147.1830     2.5060     0.0130   -57.7300     4.8040     5.0770     5.8820
 2642.0000     9.4600   151.3830     2.5150     0.0200   -57.6000     4.7610     5.0500     5.8290
 2642.5000     9.4480   155.8400     2.5290     0.0310   -57.5410     4.7560     5.0220     5.6760
 2643.0000     9.4370   158.8270     2.5210     0.0240   -57.5780     4.7440     4.9950     5.5250
 2643.5000     9.4370   156.9820     2.5270     0.0310   -57.6150     4.7330     4.9390     5.3330
 2644.0000     9.4140   152.3590     2.5350     0.0440   -57.6510     4.7210     4.9670     5.4010
 2644.5000     9.4000   148.5190     2.5080     0.0270   -57.6870     4.7170     5.0010     5.5370
 2645.0000     9.3960   146.7820     2.4840     0.0120   -57.7290     4.7560     5.0350     5.6720
 2645.5000     9.3950   145.9610     2.4880     0.0050   -57.9140     4.7930     5.0690     5.8080
 2646.0000     9.3940   149.8460     2.4940     0.0070   -58.0950     4.8310     5.1030     5.8290
 2646.5000     9.3940   146.1960     2.4960     0.0020   -58.1130     4.8680     5.1370     5.8550
 2647.0000     9.3930   142.8460     2.4990     0.0010   -57.9750     4.9060     5.1710     5.9120
 2647.5000     9.3920   141.7290     2.5180     0.0150   -57.8380     4.9430     5.2050     5.9700
 2648.0000     9.3910   139.7190     2.5390     0.0320   -57.7020     4.9800     5.2390     6.0270
 2648.5000     9.3900   135.5750     2.5570     0.0350   -57.5640     5.0180     5.2730     6.0850
 2649.0000     9.3890   132.3970     2.5450     0.0330   -57.4440     5.0550     5.3070     6.1030
 2649.5000     9.3880   133.8870     2.5300     0.0220   -57.3250     5.0930     5.3410     6.0880
 2650.0000     9.3870   136.9910     2.5260     0.0100   -57.2060     5.1300     5.3650     6.0720
 2650.5000     9.3860   139.3000     2.5020     0.0000   -57.0880     5.1720     5.4370     6.0550
 2651.0000     9.3850   136.9070     2.4890     0.0080   -56.9700     5.2670     5.5400     6.0470
 2651.5000     9.3840   134.3410     2.4970     0.0000   -56.8510     5.3730     5.6430     6.1780
 2652.0000     9.3830   133.1960     2.5090     0.0050   -56.7330     5.4800     5.7450     6.3590
 2652.5000     9.3820   132.0530     2.5210     0.0080   -56.6170     5.5860     5.8480     6.5390
 2653.0000     9.3810   132.6610     2.5300    -0.0010   -56.5810     5.6920     5.9510     6.7190
 2653.5000     9.3800   135.9200     2.5340     0.0050   -56.7540     5.7220     6.1030     6.8540
 2654.0000     9.3790   140.3580     2.5380     0.0120   -56.9200     5.6310     6.0190     6.5400
 2654.5000     9.3780   145.9030     2.5300     0.0190   -57.0850     5.5090     5.8570     6.2740
 2655.0000     9.3770   151.6170     2.5130     0.0150   -57.2510     5.3860     5.6940     6.1590
 2655.5000     9.3770   156.1290     2.4950     0.0100   -57.4170     5.2640     5.5310     6.0000
 2656.0000     9.3810   159.0950     2.4810     0.0050   -57.5800     5.1420     5.3690     5.6810
 2656.5000     9.3910   157.8770     2.4840     0.0090   -57.7270     5.0190     5.2060     5.4650
 2657.0000     9.4000   150.0550     2.5150     0.0210   -57.5960     4.8970     5.0430     5.4770
 2657.5000     9.4090   142.1890     2.5010     0.0250   -57.3730     4.7740     4.8810     5.4890
 2658.0000     9.4190   134.2770     2.5070     0.0150   -57.1500     4.7170     4.8050     5.5020
 2658.5000     9.4280   128.5220     2.5180     0.0530   -56.9250     4.7170     4.7610     5.5160
 2659.0000     9.4340   126.7180     2.5660     0.0840   -56.7010     4.8980     4.7610     5.4650
 2659.5000     9.4630   130.0810     2.5350     0.0620   -56.4770     5.0910     4.7610     5.5050
 2660.0000     9.4750   130.8700     2.5010     0.0200   -56.3350     5.2840     4.8820     5.7170
 2660.5000     9.4750   123.9330     2.5090     0.0140   -56.3360     5.4780     5.1080     5.9900
 2661.0000     9.4750   123.2410     2.5260     0.0120   -56.3410     5.6710     5.3350     6.2620
 2661.5000     9.4750   119.8360     2.5340     0.0150   -56.5170     5.8640     5.5610     6.4780
 2662.0000     9.4750   116.1280     2.5170     0.0070   -56.7010     6.0580     5.7870     6.6730
 2662.5000     9.4750   112.5880     2.5110     0.0120   -56.8840     6.2510     6.0130     6.8780
 2663.0000     9.4750   112.1470     2.5240     0.0180   -57.0670     6.5410     6.1590     6.8780
 2663.5000     9.4750   112.4580     2.5370     0.0250   -57.2500     6.2160     6.0940     6.8780
 2664.0000     9.4750   117.5900     2.5440     0.0320   -57.4320     5.9570     5.9070     6.4970
 2664.5000     9.4750   123.2840     2.5280     0.0280   -57.6130     5.7940     5.7210     5.9910
 2665.0000     9.4750   126.0740     2.5140     0.0120   -57.7210     5.6180     5.5350     5.5670
 2665.5000     9.4750   131.4650     2.5030     0.0010   -57.6390     5.5160     5.3490     4.9820
 2666.0000     9.4750   139.5710     2.5190     0.0170   -57.4400     5.4150     5.1180     4.3740
 2666.5000     9.4750   149.4520     2.5270     0.0110   -57.2410     5.0320     4.6270     3.9750
 2667.0000     9.4750   162.2790     2.5030     0.0120   -57.0420     4.3870     4.1410     3.6220
 2667.5000     9.4750   179.8740     2.4830     0.0160   -56.8440     3.7420     3.6540     3.2690
 2668.0000     9.4750   197.5590     2.4630     0.0260   -56.6440     3.0970     3.1680     2.8320
 2668.5000     9.4750   200.6670     2.4680     0.0390   -56.4430     2.7410     2.7660     2.6910
 2669.0000     9.4750   172.7580     2.4750     0.0310   -56.2490     2.9530     2.8180     2.6910
 2669.5000     9.4750   137.3580     2.4820     0.0190   -55.9240     4.0150     3.2040     2.7660
 2670.0000     9.4750   119.4140     2.5050     0.0090   -56.0120     5.0780     3.6250     3.1000
 2670.5000     9.4750   110.6280     2.5280     0.0110   -56.0840     6.1590     4.0470     3.6770
 2671.0000     9.4750   111.6450     2.5470     0.0110   -56.1530     6.0290     4.4690     4.2550
 2671.5000     9.4710   113.9870     2.5680     0.0400   -56.2220     5.8070     4.8910     4.8320
 2672.0000     9.4540   116.2120     2.5530     0.0260   -56.2910     5.6700     5.3130     5.4090
 2672.5000     9.4380   116.9620     2.5430     0.0080   -56.3610     5.8310     5.7350     5.9920
 2673.0000     9.4210   119.3580     2.5360     0.0030   -56.4290     5.9950     5.9920     6.2150
 2673.5000     9.4040   121.3830     2.5430     0.0100   -56.4980     6.1590     5.9280     6.2740
 2674.0000     9.3880   124.3420     2.5430     0.0050   -56.4640     5.9880     5.8480     6.1480
 2674.5000     9.3710   127.8410     2.5320    -0.0030   -56.3220     5.8150     5.7680     6.0210
 2675.0000     9.3560   131.3390     2.5210    -0.0080   -56.1810     5.6420     5.6880     5.8950
 2675.5000     9.3510   134.8240     2.5100    -0.0020   -56.0390     5.4690     5.6090     5.7680
 2676.0000     9.3470   138.3060     2.5160     0.0090   -55.8970     5.3160     5.5290     5.6420
 2676.5000     9.3420   139.8590     2.5240     0.0210   -55.7550     5.3000     5.4650     5.5670
 2677.0000     9.3370   137.6740     2.5440     0.0310   -55.6130     5.2680     5.4650     5.5900
 2677.5000     9.3330   133.7210     2.5560     0.0360   -55.4420     5.3160     5.4650     5.6480
 2678.0000     9.3280   130.5130     2.5410     0.0220   -55.3480     5.2650     5.4650     5.7060
 2678.5000     9.3240   131.9510     2.5260     0.0100   -55.4560     5.2220     5.4650     5.7640
 2679.0000     9.3190   134.6550     2.5100     0.0020   -55.6580     5.1790     5.4650     5.8580
 2679.5000     9.3170   139.8400     2.5000     0.0030   -55.8620     5.0130     5.5160     5.9370
 2680.0000     9.3260   147.0840     2.4950    -0.0020   -56.0650     4.7560     5.2100     5.5940
