~VERSION INFORMATION
 VERS.                2.0:   CWLS LOG ASCII STANDARD - VERSION 2.0
 WRAP.                 NO:   ONE LINE PER DEPTH STEP
~WELL INFORMATION
#MNEM.UNIT      DATA TYPE    INFORMATION
#----------   ------------   ------------------------------
 STRT.F         2144.5000:   START DEPTH
 STOP.F         2870.0000:   STOP DEPTH
 STEP.F            0.5000:   STEP LENGTH
 NULL.          -999.2500:   NO VALUE
 COMP. LAWRENCE ALLISON & ASSOCIATES:   COMPANY
 WELL. LAWRENCE "X" #13-21:   WELL
 FLD .        TEAPOT DOME:   FIELD
 LOC .      S21 T39N R78W:   LOCATION
 CNTY.            NATRONA:   COUNTY
 STAT.            WYOMING:   STATE
 CTRY. UNITED STATES OF AMERICA:   COUNTRY
 SRVC.      DRESSER ATLAS:   SERVICE COMPANY
 DATE.        09-FEB-1987:   LOGDATE
 API .     49025111200000:   API NUMBER
~CURVE INFORMATION
#MNEM.UNIT       API CODE    CURVE DESCRIPTION
#----------   ------------   ------------------------------
 DEPT.F                  :   
 MCAL.IN     15 280 01 00:   CALIPER FROM MICRO LOG
 MTEN.LBS    15 635 01 00:   TENSION FROM MICRO LOG
 GRR .GAPI   05 310 01 00:   GAMMA RAY FROM RES.
 R2SL.OHMM   05 120 00 00:   RESISTIVITY
~PARAMETER INFORMATION
#MNEM.UNIT          VALUE    DESCRIPTION
#----------   ------------   ------------------------------
 EKB .F         4986.0000:   Kelly bushing
 EGL .F         4974.0000:   Ground level
 EDF .F            0.0000:   Drilling floor
 EPD .F         4974.0000:   Permanent datum
 TD  .F         2852.0000:   Total depth
 DATE.        09-FEB-1987:   Date logged
 CLNT.            A2DTECH:   Client Code
 SL  . 1962' FNL & 352' FWL:   Surface Location
 DAPD.F                12:   Feet Above Permanent Datum
 DD  .F              2850:   Depth driller
 DL  .F              2852:   Depth logger
 BLI .F              2846:   Bottom log interval
 TLI .F              2150:   Top log interval
 CS1 .IN            8.625:   Casing size
 CBD1.      8.625" @ 282':   Casing driller 1
 BS1 .IN            7.875:   Bit size
 BSD1.F              2850:   Depth drilled with bit1
 DFT .        KCL POLYMER:   Type fluid in hole
 DFD .                8.9:   Density
 DFV .                 40:   Viscosity
 DFPH.                9.7:   pH
 DFL .                8.6:   Fluid loss
 MSS .           FLOWLINE:   Source of sample
 RMS .OHMM          0.287:   Rm
 MST .F                60:   Rm Meas. temp.
 RMF .OHMM          0.203:   Rmf
 MFST.F                60:   Rmf Meas. temp.
 RMC .OHMM          0.358:   Rmc
 MCST.F                60:   Rmc Meas. temp.
 MFSS.               MEAS:   Source Rmf.
 MCSS.               CALC:   Source Rmc.
 RMB .OHMM          0.154:   Rm. at BHT
 BHT .F               112:   BHT.
 TCS .HRS               7:   Time Circ. stopped
 MRT .F               112:   Maximum recorded temp.
 LUN .            HL-6274:   Logging unit number
 LUL .           GILLETTE:   Logging unit location
 ENGI.             RAUTIO:   Recorded By
 WITN.             STRONG:   Witnessed by
 ORIG.           5" PRINT:   Origin of data
 UWI .     49025111200000:   Unique Well ID
 DICO. A2D TECHNOLOGIES, INC.:   Digitizing Company
~OTHER INFORMATION
~A  DEPT      MCAL       MTEN        GRR       R2SL   
# ...
 2436.5000     7.9760   -43.9220   121.1160     2.9070
 2437.0000     7.9770   -44.2150   124.4310     3.1160
 2437.5000     7.9790   -44.5080   127.0270     3.3250
 2438.0000     7.9800   -44.8010   127.0660     3.5340
 2438.5000     7.9820   -45.0940   126.5060     3.7440
 2439.0000     7.9840   -45.3870   124.3760     3.9530
 2439.5000     7.9850   -45.6800   121.5510     4.1330
 2440.0000     7.9870   -45.9730   118.7230     4.2770
 2440.5000     7.9880   -46.2660   115.8810     4.3830
 2441.0000     7.9900   -46.5580   112.9590     4.2650
 2441.5000     7.9920   -46.8510   112.7240     4.1720
 2442.0000     7.9930   -47.1440   115.8070     4.1070
 2442.5000     7.9940   -47.4370   119.1940     4.2890
 2443.0000     7.9940   -47.7300   122.5490     4.6210
 2443.5000     7.9930   -48.0230   122.9950     4.9540
 2444.0000     7.9930   -48.3160   122.4970     5.0380
 2444.5000     7.9930   -48.6090   121.4880     4.5590
 2445.0000     7.9920   -48.9020   120.5740     4.2050
 2445.5000     7.9920   -49.1950   119.6450     3.8510
 2446.0000     7.9920   -49.4880   119.9750     3.2970
 2446.5000     7.9910   -49.7810   123.3020     3.0420
 2447.0000     7.9910   -50.0730   126.4380     2.9440
 2447.5000     7.9910   -50.3660   127.1050     2.8800
 2448.0000     7.9910   -50.6590   127.4060     2.7710
 2448.5000     7.9900   -50.9520   128.7300     2.5210
 2449.0000     7.9900   -51.2450   129.8710     2.4420
 2449.5000     7.9900   -51.5380   129.2750     2.4420
 2450.0000     7.9890   -51.8310   128.6640     2.5510
 2450.5000     7.9890   -52.1240   128.0610     2.6510
 2451.0000     7.9890   -52.4170   127.4570     2.6790
 2451.5000     7.9890   -52.7100   126.8350     2.6130
 2452.0000     7.9880   -53.0030   126.9690     2.5420
 2452.5000     7.9880   -53.2960   127.2970     2.4420
 2453.0000     7.9880   -53.5880   127.2550     2.4610
 2453.5000     7.9870   -53.8810   126.6130     2.4940
 2454.0000     7.9870   -54.1740   125.9820     2.5270
 2454.5000     7.9870   -54.4670   125.5640     2.5580
 2455.0000     7.9860   -54.7600   125.9910     2.4650
 2455.5000     7.9860   -55.0530   127.9620     2.3310
 2456.0000     7.9860   -55.3460   129.8930     2.3450
 2456.5000     7.9860   -55.6390   131.7720     2.3750
 2457.0000     7.9850   -55.9320   130.2310     2.6710
 2457.5000     7.9850   -56.2250   125.8590     3.2970
 2458.0000     7.9850   -56.5180   121.6370     4.0180
 2458.5000     7.9840   -56.8100   117.5320     4.5210
 2459.0000     7.9840   -57.1030   115.5010     4.6650
 2459.5000     7.9840   -57.3960   115.0820     4.7150
 2460.0000     7.9840   -57.6890   115.9380     4.6910
 2460.5000     7.9830   -57.9820   116.9430     4.6430
 2461.0000     7.9830   -58.2750   117.9350     4.5950
 2461.5000     7.9830   -58.5680   118.2680     4.5470
 2462.0000     7.9820   -58.8610   117.1260     4.4990
 2462.5000     7.9820   -59.1540   115.6780     4.4650
 2463.0000     7.9820   -59.4470   114.7000     4.6240
 2463.5000     7.9810   -59.7400   114.0600     4.7460
 2464.0000     7.9810   -60.0330   113.4130     4.8990
 2464.5000     7.9810   -60.3250   112.7500     4.7780
 2465.0000     7.9810   -60.6180   112.9490     4.6160
 2465.5000     7.9800   -60.9110   114.5940     4.3700
 2466.0000     7.9800   -61.2040   116.6370     4.0690
 2466.5000     7.9800   -61.4970   119.6610     3.6750
 2467.0000     7.9790   -61.7900   122.6590     3.2850
 2467.5000     7.9790   -62.0830   126.7820     2.9600
 2468.0000     7.9790   -62.3760   131.3440     2.8330
 2468.5000     7.9790   -62.6690   131.8740     2.8240
 2469.0000     7.9780   -62.9620   130.0030     2.8160
 2469.5000     7.9780   -63.2550   127.2610     2.8070
 2470.0000     7.9780   -63.5470   124.4210     2.9550
 2470.5000     7.9770   -63.8400   121.5390     3.1670
 2471.0000     7.9770   -64.1330   124.4860     3.0310
 2471.5000     7.9770   -64.4260   131.2150     2.8590
 2472.0000     7.9760   -64.7190   139.4920     2.9850
 2472.5000     7.9760   -65.0120   133.7620     3.1970
 2473.0000     7.9760   -65.3050   125.3640     3.4090
 2473.5000     7.9760   -65.5980   119.9620     3.5270
 2474.0000     7.9750   -65.8910   119.3240     3.6270
 2474.5000     7.9750   -66.1840   115.0640     4.0520
 2475.0000     7.9750   -66.4770   107.5530     4.5260
 2475.5000     7.9740   -66.7700   102.9600     4.9410
 2476.0000     7.9740   -67.0620    99.9390     4.8990
 2476.5000     7.9740   -67.3550    99.1310     4.7030
 2477.0000     7.9740   -67.6480    99.5530     4.4920
 2477.5000     7.9730   -67.9410   100.1860     4.2810
 2478.0000     7.9730   -68.2340   100.8600     4.0690
 2478.5000     7.9730   -68.5270   100.2700     3.8280
 2479.0000     7.9720   -68.8200    99.5000     3.6320
 2479.5000     7.9720   -69.1130   102.6650     3.6060
 2480.0000     7.9720   -69.4060   106.3450     3.7120
 2480.5000     7.9710   -69.6990   108.6730     3.8360
 2481.0000     7.9710   -69.9920   110.9330     3.9610
 2481.5000     7.9710   -70.2840   110.3030     4.0850
 2482.0000     7.9710   -70.5770   107.8560     4.1710
 2482.5000     7.9700   -70.8700   104.2680     4.1940
 2483.0000     7.9700   -71.1630   101.0830     4.2120
 2483.5000     7.9700   -71.4560   102.0190     4.2230
 2484.0000     7.9690   -71.7490   104.6670     3.8610
 2484.5000     7.9690   -72.0420   112.0240     3.4880
 2485.0000     7.9690   -72.3350   117.6910     3.1960
 2485.5000     7.9690   -72.6280   119.1190     3.3270
 2486.0000     7.9680   -72.7170   114.3050     3.8890
 2486.5000     7.9680   -71.9540   107.7230     4.3020
 2487.0000     7.9680   -71.1900   103.3510     4.0500
 2487.5000     7.9670   -70.4270   106.9760     3.8510
 2488.0000     7.9670   -69.6630   112.4130     3.6740
 2488.5000     7.9670   -68.9000   113.8390     3.6740
 2489.0000     7.9660   -68.1360   114.5170     3.7250
 2489.5000     7.9660   -67.3730   114.2160     3.7790
 2490.0000     7.9660   -66.6090   113.7520     3.8340
 2490.5000     7.9660   -65.8460   113.2180     3.8880
 2491.0000     7.9650   -65.0820   112.5950     3.9570
 2491.5000     7.9650   -64.3190   109.8500     3.9430
 2492.0000     7.9650   -63.5550   107.0630     3.9320
 2492.5000     7.9640   -62.7920   108.7050     3.9210
 2493.0000     7.9640   -62.0280   110.6070     3.9530
 2493.5000     7.9640   -61.2650   109.7170     3.9910
 2494.0000     7.9640   -60.5010   108.3160     4.0310
 2494.5000     7.9630   -59.7370   106.9250     3.9260
 2495.0000     7.9630   -58.9740   105.8080     3.8100
 2495.5000     7.9630   -58.2100   106.4470     3.6950
 2496.0000     7.9620   -57.4470   110.8870     3.5210
 2496.5000     7.9620   -56.6830   115.2850     3.5740
 2497.0000     7.9620   -55.9200   113.9580     3.7490
 2497.5000     7.9610   -55.1560   111.4290     3.9210
 2498.0000     7.9610   -54.3930   109.3900     3.8600
 2498.5000     7.9610   -53.6290   109.7510     3.7170
 2499.0000     7.9610   -52.8660   110.0660     3.6400
 2499.5000     7.9600   -52.7640   110.3720     3.7870
 2500.0000     7.9600   -52.7640   110.5780     3.9440
 2500.5000     7.9600   -52.7640   109.4240     4.1020
 2501.0000     7.9590   -52.7640   108.2650     4.1540
 2501.5000     7.9590   -52.7640   107.2740     4.1650
 2502.0000     7.9590   -52.7640   106.2290     4.1770
 2502.5000     7.9590   -52.7640   104.8770     4.2390
 2503.0000     7.9580   -52.7640   103.4820     4.3830
 2503.5000     7.9580   -52.7640   102.0980     4.4650
 2504.0000     7.9580   -52.7640   100.9760     4.3750
 2504.5000     7.9570   -52.7640   101.0280     4.2120
 2505.0000     7.9570   -52.7640   100.2680     4.1450
 2505.5000     7.9570   -52.7640    99.4170     4.1940
 2506.0000     7.9560   -52.7640    98.5690     4.5050
 2506.5000     7.9560   -52.7640    97.7550     4.8850
 2507.0000     7.9560   -52.7640    94.2500     5.1320
 2507.5000     7.9560   -52.7640    90.2860     5.2500
 2508.0000     7.9550   -52.7640    88.9460     5.4260
 2508.5000     7.9550   -52.7640    91.5170     5.0420
 2509.0000     7.9550   -52.7640    94.8150     4.5560
