~VERSION INFORMATION
 VERS.                2.0:   CWLS LOG ASCII STANDARD - VERSION 2.0
 WRAP.                 NO:   ONE LINE PER DEPTH STEP
~WELL INFORMATION
#MNEM.UNIT      DATA TYPE    INFORMATION
#----------   ------------   ------------------------------
 STRT.F           63.5000:   START DEPTH
 STOP.F         4112.0000:   STOP DEPTH
 STEP.F            0.5000:   STEP LENGTH
 NULL.          -999.2500:   NO VALUE
 COMP. LAWRENCE-ALLISON & ASSOC:   COMPANY
 WELL. LAWRENCE "X" #34-34:   WELL
 FLD .           N.P.R.#3:   FIELD
 LOC .      S34 T39N R78W:   LOCATION
 CNTY.            NATRONA:   COUNTY
 STAT.            WYOMING:   STATE
 CTRY. UNITED STATES OF AMERICA:   COUNTRY
 SRVC.      DRESSER ATLAS:   SERVICE COMPANY
 DATE.        19-OCT-1983:   LOGDATE
 API .     49025109440000:   API NUMBER
~CURVE INFORMATION
#MNEM.UNIT       API CODE    CURVE DESCRIPTION
#----------   ------------   ------------------------------
 DEPT.F                  :   
 AC  .US/F   60 250 00 00:   ACCOUSTIC
 TENS.LBS    60 635 01 00:   TENSION FROM SONIC
 ILD .OHMM   07 120 46 00:   DEEP INDUCTION RESISTIVITY
 ILM .OHMM   07 120 44 00:   INDUCTION LOG MEDIUM RESISTIVITY
 RFOC.OHMM   07 220 04 00:   RESISTIVITY FOCUSED LOG RES.
 TENR.LBS    07 635 01 00:   TENSION FROM RESISTIVITY
 SPR .MV     07 010 01 00:   SPONTANEOUS POTENTIAL
 GRR .GAPI   07 310 01 00:   GAMMA RAY FROM RESISTIVITY
 CALD.IN     45 280 60 00:   CALIPER FROM DENSITY LOG
 RHOB.G/C3   45 350 01 00:   BULK DENSITY
 CORR.G/C3   45 356 01 00:   DENSITY CORRECTION
 TEND.LBS    45 635 01 00:   TENSION FROM DENSITY LOG
 NPHI.DEC    42 890 03 00:   NEUTRON POROSITY SANDSTONE
~PARAMETER INFORMATION
#MNEM.UNIT          VALUE    DESCRIPTION
#----------   ------------   ------------------------------
 EKB .F         5100.0000:   Kelly bushing
 EGL .F         5090.0000:   Ground level
 TD  .F         4107.0000:   Total depth
 DATE.        19-OCT-1983:   Date logged
 CLNT.            A2DTECH:   Client Code
 SL  . 1997' FNL & 1661' FWL:   Surface Location
 PD  .                 GL:   Permanent Datum
 EPD .F              5090:   Elevation Permanent Datum
 LMF .                 KB:   Log Measured From
 DMF .                 KB:   Drilling Measured From
 DAPD.F                10:   Feet Above Permanent Datum
 DD  .F              4107:   Depth driller
 DL  .F              4102:   Depth logger
 BLI .F              4100:   Bottom log interval
 CS1 .IN            9.625:   Casing size
 CBD1.      9.625" @ 695':   Casing driller 1
 CBL1.F               696:   Casing logger 1
 BS1 .IN            7.875:   Bit size
 BSD1.F              4107:   Depth drilled with bit1
 DFT .            GEL-KCL:   Type fluid in hole
 DFD .                  9:   Density
 DFV .                 43:   Viscosity
 DFPH.                  9:   pH
 DFL .                 11:   Fluid loss
 MSS .           FLOWLINE:   Source of sample
 RMS .OHMM          0.313:   Rm
 MST .F                72:   Rm Meas. temp.
 RMF .OHMM          0.265:   Rmf
 MFST.F                68:   Rmf Meas. temp.
 RMC .OHMM          0.598:   Rmc
 MCST.F                68:   Rmc Meas. temp.
 MFSS.               MEAS:   Source Rmf.
 MCSS.               MEAS:   Source Rmc.
 RMB .OHMM          0.173:   Rm. at BHT
 BHT .F               130:   BHT.
 TCS .HRS               4:   Time Circ. stopped
 MRT .F               130:   Maximum recorded temp.
 LUN .               6774:   Logging unit number
 LUL .               GLTE:   Logging unit location
 ENGI.           FAHLEING:   Recorded By
 WITN.           JENNINGS:   Witnessed by
 ORIG.           5" PRINT:   Origin of data
 UWI .     49025109440000:   Unique Well ID
 DICO. A2D TECHNOLOGIES, INC.:   Digitizing Company
~OTHER INFORMATION
~A   DEPT       AC       TENS        ILD        ILM       RFOC       TENR        SPR         GRR      CALD       RHOB       CORR       TEND       NPHI   
# ...
 2481.5000  -999.2500  -999.2500     6.2290     6.1740     6.8030   -45.7600   -69.9900   109.9110     9.2200     2.5640     0.0590   -32.1680     0.2340
 2482.0000  -999.2500  -999.2500     6.0890     6.1110     6.4550   -44.2610   -69.9900   109.7640     9.2160     2.5540     0.0570   -32.1680     0.2300
 2482.5000  -999.2500  -999.2500     5.9790     6.0480     6.0010   -42.7620   -70.3150   109.4900     9.2120     2.5510     0.0600   -32.1680     0.2200
 2483.0000  -999.2500  -999.2500     5.9160     5.9850     6.1610   -48.5220   -70.6830   109.1970     9.2070     2.5510     0.0710   -32.1680     0.2200
 2483.5000  -999.2500  -999.2500     5.8570     5.9210     6.4860   -57.5150   -70.4100   110.1410     9.2030     2.5510     0.0840   -32.1680     0.2240
 2484.0000  -999.2500  -999.2500     5.7810     5.8900     6.8110   -66.5090   -70.1430   111.1950     9.1980     2.5490     0.0890   -32.1680     0.2340
 2484.5000  -999.2500  -999.2500     6.2290     6.1260     7.0720   -70.8240   -69.9900   111.2050     9.1940     2.5450     0.0720   -32.1680     0.2310
 2485.0000  -999.2500  -999.2500     6.2180     6.2880     6.8320   -64.8280   -70.0140   112.3070     9.1900     2.5400     0.0550   -32.1680     0.2310
 2485.5000  -999.2500  -999.2500     6.2030     6.2580     6.5920   -58.8320   -70.0500   113.9960     9.1850     2.5360     0.0380   -32.1680     0.2320
 2486.0000  -999.2500  -999.2500     6.1880     6.2360     6.2290   -52.4320   -70.0870   113.4540     9.1810     2.5350     0.0330   -32.1680     0.2390
 2486.5000  -999.2500  -999.2500     6.1720     6.2130     6.3240   -51.4620   -70.1250   110.5450     9.1770     2.5340     0.0400   -32.1680     0.2350
 2487.0000  -999.2500  -999.2500     6.1180     6.1910     6.5000   -50.4220   -70.1620   108.0810     9.1720     2.5350     0.0470   -32.1680     0.2290
 2487.5000  -999.2500  -999.2500     6.0610     6.1690     6.6440   -49.3820   -70.1990   108.7860     9.1680     2.5410     0.0550   -32.1680     0.2260
 2488.0000  -999.2500  -999.2500     6.0040     6.1460     6.6080   -48.3420   -70.2360   109.7190     9.1630     2.5490     0.0680   -32.1680     0.2230
 2488.5000  -999.2500  -999.2500     5.9450     6.1140     6.5720   -47.3020   -70.2740   111.7190     9.1590     2.5570     0.0820   -32.1680     0.2200
 2489.0000  -999.2500  -999.2500     6.0230     6.1490     6.5350   -46.2620   -70.3110   114.9910     9.1550     2.5690     0.0940   -32.1680     0.2170
 2489.5000  -999.2500  -999.2500     6.1030     6.2100     6.3740   -45.2220   -70.3480   117.1870     9.1500     2.5780     0.1040   -44.4480     0.2150
 2490.0000  -999.2500  -999.2500     6.1840     6.2710     6.1720   -44.1820   -70.3860   118.0170     9.1460     2.5780     0.1130   -64.9950     0.2150
 2490.5000  -999.2500  -999.2500     6.2640     6.3320     6.3600   -43.1410   -70.3670   115.3480     9.1410     2.5770     0.1090   -72.0650     0.2160
 2491.0000  -999.2500  -999.2500     6.3450     6.3930     6.6000   -41.2190   -70.3160   110.3740     9.1380     2.5760     0.1040   -71.0580     0.2180
 2491.5000  -999.2500  -999.2500     6.4260     6.4540     6.8410   -35.5570   -70.2650   105.3560     9.1350     2.5770     0.1040   -70.0510     0.2110
 2492.0000  -999.2500  -999.2500     6.5060     6.5150     7.0360   -29.8940   -70.2140   100.8270     9.1320     2.5780     0.1070   -69.0440     0.2070
 2492.5000  -999.2500  -999.2500     6.5870     6.5770     7.0540   -24.2320   -70.2710   103.8050     9.1290     2.5790     0.1050   -68.0370     0.2110
 2493.0000  -999.2500  -999.2500     6.6500     6.6040     7.0710   -27.5430   -70.4030   106.3710     9.1260     2.5760     0.0860   -67.0290     0.2150
 2493.5000  -999.2500  -999.2500     6.5880     6.6230     7.0990   -36.5370   -70.5360   108.8570     9.1230     2.5700     0.0790   -66.0220     0.2200
 2494.0000  -999.2500  -999.2500     6.5360     6.6500     7.0740   -45.5300   -70.6700   110.0110     9.1200     2.5710     0.0760   -65.0150     0.2250
 2494.5000    80.4950   -81.6830     6.4850     6.5560     7.0160   -52.3550   -70.7990   111.7860     9.1170     2.5740     0.0750   -64.0080     0.2310
 2495.0000    80.4950   -81.6830     6.3930     6.3470     6.9580   -52.0230   -70.7690   112.3340     9.1130     2.5690     0.0860   -63.0010     0.2370
 2495.5000    81.8810   -81.6830     6.2780     6.2490     6.9030   -51.6920   -70.7280   112.9150     9.1100     2.5620     0.0770   -61.9940     0.2410
 2496.0000    82.7390   -81.6830     6.1640     6.1540     6.5840   -51.3610   -70.6880   113.4960     9.1070     2.5540     0.0640   -60.9870     0.2400
 2496.5000    83.7400   -81.6830     6.0490     6.0600     6.1140   -51.0290   -70.6470   114.1080     9.1040     2.5460     0.0590   -59.9790     0.2350
 2497.0000    84.4550   -81.6830     5.9340     5.9650     6.1390   -50.6980   -70.6070   115.8150     9.1000     2.5470     0.0700   -58.9720     0.2400
 2497.5000    84.2860   -81.6830     5.8190     5.8710     6.1940   -50.3670   -70.5660   118.9920     9.0750     2.5510     0.0800   -57.9650     0.2420
 2498.0000    84.1870   -81.6830     5.7040     5.7770     6.2490   -50.0360   -70.5260   119.3500     9.0500     2.5550     0.0910   -56.9580     0.2400
 2498.5000    83.9890   -81.6830     5.6220     5.7170     6.2880   -49.7040   -70.4860   119.2630     9.0240     2.5540     0.1020   -55.9510     0.2350
 2499.0000    83.8420   -81.6830     5.6440     5.6940     6.0570   -49.3730   -70.4450   117.1680     9.0000     2.5470     0.0960   -54.9440     0.2320
 2499.5000    83.7880   -81.6830     5.6620     5.6710     6.0420   -49.0420   -70.4050   115.8690     8.9860     2.5400     0.0880   -53.9360     0.2330
 2500.0000    83.7340   -81.6830     5.7160     5.6480     6.0280   -48.7110   -70.3640   114.2520     8.9730     2.5420     0.0800   -52.9290     0.2340
 2500.5000    83.6800   -81.6830     5.8580     5.6250     6.0130   -48.3790   -70.3240   112.1890     8.9600     2.5470     0.0820   -52.4320     0.2350
 2501.0000    83.3830   -81.6830     5.9990     5.6020     5.9780   -48.0480   -70.2840   110.1210     8.9470     2.5520     0.0930   -52.4320     0.2290
 2501.5000    82.9730   -81.6830     6.1400     5.5800     5.8080   -47.7170   -70.2430   108.4430     8.9330     2.5490     0.0920   -52.4320     0.2210
 2502.0000    82.5640   -81.6830     6.2210     5.5570     5.6380   -47.3850   -70.2030   107.8570     8.9200     2.5450     0.0890   -52.4320     0.2180
 2502.5000    82.2770   -81.6830     6.1510     5.5340     5.4660   -47.0540   -70.1620   108.7560     8.9070     2.5460     0.0810   -52.4320     0.2220
 2503.0000    82.3990   -81.6830     6.0960     5.5110     5.4660   -46.7230   -70.1220   109.5180     8.8900     2.5470     0.0820   -52.4320     0.2220
 2503.5000    82.8080   -81.6830     6.0410     5.4880     5.4540   -46.3920   -70.0820   107.8660     8.8660     2.5480     0.0900   -52.4320     0.2230
 2504.0000    83.4610   -81.6830     5.9860     5.4660     5.3990   -46.0600   -70.0410   107.2170     8.8420     2.5480     0.0990   -52.4320     0.2240
 2504.5000    84.0460   -81.6830     5.8960     5.4780     5.3160   -45.7290   -70.0010   109.1370     8.8180     2.5400     0.0830   -52.4320     0.2240
 2505.0000    84.6310   -81.6830     5.7030     5.4890     5.3710   -45.3980   -69.9600   111.5900     8.7930     2.5360     0.0640   -52.4320     0.2230
 2505.5000    84.8800   -81.6830     5.5100     5.5000     5.4880   -45.0670   -69.9200   113.4200     8.7690     2.5340     0.0530   -52.4320     0.2230
 2506.0000    84.2880   -81.6830     5.3170     5.5100     5.6050   -44.7350   -69.8790   114.4850     8.7450     2.5350     0.0500   -52.4320     0.2270
 2506.5000    83.6950   -81.6830     5.1240     5.5180     5.7220   -44.4040   -69.8390   114.7500     8.7270     2.5400     0.0580   -52.4320     0.2310
 2507.0000    83.3040   -81.6830     5.0300     5.3600     5.8390   -44.0730   -69.7990   113.3510     8.7120     2.5450     0.0730   -52.4320     0.2310
