~VERSION INFORMATION
 VERS.                2.0:   CWLS LOG ASCII STANDARD - VERSION 2.0
 WRAP.                 NO:   ONE LINE PER DEPTH STEP
~WELL INFORMATION
#MNEM.UNIT      DATA TYPE    INFORMATION
#----------   ------------   ------------------------------
 STRT.F          210.0000:   START DEPTH
 STOP.F         3128.0000:   STOP DEPTH
 STEP.F            0.5000:   STEP LENGTH
 NULL.          -999.2500:   NO VALUE
 COMP.    PENIX & SCISSON:   COMPANY
 WELL. FENIX NPR 3 "A" #14-27:   WELL
 FLD .                NPR:   FIELD
 LOC .      S27 T39N R78W:   LOCATION
 CNTY.            NATRONA:   COUNTY
 STAT.            WYOMING:   STATE
 CTRY. UNITED STATES OF AMERICA:   COUNTRY
 SRVC.      DRESSER ATLAS:   SERVICE COMPANY
 DATE.        31-AUG-1977:   LOGDATE
 API .     49025104280000:   API NUMBER
~CURVE INFORMATION
#MNEM.UNIT       API CODE    CURVE DESCRIPTION
#----------   ------------   ------------------------------
 DEPT.F                  :   
 GRD .GAPI   45 310 01 00:   GAMMA RAY FROM DENSITY LOG
 CALD.IN     45 280 60 00:   CALIPER FROM DENSITY LOG
 RHOB.G/C3   45 350 01 00:   BULK DENSITY
 CORR.G/C3   45 356 01 00:   DENSITY CORRECTION
 NPHI.DEC    42 890 03 00:   NEUTRON POROSITY SANDSTONE
 SPR .MV     11 010 01 00:   SPONTANEOUS POTENTIAL
 RXO .OHMM   11 220 01 00:   FLUSHED ZONE RESISTIVITY
 LLD .OHMM   11 220 10 00:   LATEROLOG LOG DEEP
 LLS .OHMM   11 220 09 00:   LATEROLOG LOG SHALLOW
 TENR.LBS    11 635 01 00:   TENSION FROM RESISTIVITY
 TEND.LBS    45 635 01 00:   TENSION FROM DENSITY LOG
~PARAMETER INFORMATION
#MNEM.UNIT          VALUE    DESCRIPTION
#----------   ------------   ------------------------------
 EKB .F         5046.0000:   Kelly bushing
 EGL .F         5036.0000:   Ground level
 TD  .F         3111.0000:   Total depth
 DATE.        31-AUG-1977:   Date logged
 CLNT.            A2DTECH:   Client Code
 SL  . 2310' FNL & 330' FWL:   Surface Location
 PD  .                 GL:   Permanent Datum
 EPD .F              5036:   Elevation Permanent Datum
 LMF .                 KB:   Log Measured From
 DMF .                 KB:   Drilling Measured From
 DAPD.F                10:   Feet Above Permanent Datum
 DD  .F              3109:   Depth driller
 DL  .F              3111:   Depth logger
 BLI .F              3109:   Bottom log interval
 TLI .F               217:   Top log interval
 CS1 .IN             8.75:   Casing size
 CBD1.       8.75" @ 215':   Casing driller 1
 CBL1.F               217:   Casing logger 1
 BS1 .IN            7.875:   Bit size
 BSD1.F              3109:   Depth drilled with bit1
 DFT .                GEL:   Type fluid in hole
 DFD .                8.8:   Density
 DFV .                 35:   Viscosity
 DFPH.                 10:   pH
 DFL .                8.8:   Fluid loss
 MSS .                PIT:   Source of sample
 RMS .OHMM            .36:   Rm
 MST .F                67:   Rm Meas. temp.
 RMF .OHMM            .24:   Rmf
 MFST.F                67:   Rmf Meas. temp.
 RMC .OHMM            .51:   Rmc
 MCST.F                67:   Rmc Meas. temp.
 MFSS.               MEAS:   Source Rmf.
 MCSS.               CALC:   Source Rmc.
 RMB .OHMM            .20:   Rm. at BHT
 BHT .F               121:   BHT.
 TCS .HRS               5:   Time Circ. stopped
 MRT .F               121:   Maximum recorded temp.
 LUN .               6080:   Logging unit number
 LUL .              WLSTN:   Logging unit location
 ENGI.               BALL:   Recorded By
 WITN.         PETTINGILL:   Witnessed by
 ORIG.      2.5" 5" PRINT:   Origin of data
 UWI .     49025104280000:   Unique Well ID
 DICO. A2D TECHNOLOGIES, INC.:   Digitizing Company
~OTHER INFORMATION
~A   DEPT      GRD         CALD     RHOB       CORR       NPHI        SPR        RXO        LLD        LLS        TENR      TEND   
# ...
  606.5000    88.7170    10.3362     2.4460    -0.0075     0.2744   -28.4505     5.6586     8.4839     7.5802    78.6694    87.4195
  607.0000    90.6988    10.3157     2.4530     0.0024     0.2720   -28.4552     5.6581     8.3295     7.5794    78.8207    87.4495
  607.5000    92.2823    10.2953     2.4599     0.0004     0.2700   -28.8584     5.6572     8.1784     7.3512    78.9721    87.5696
  608.0000    91.0773    10.2948     2.4668     0.0024     0.2708   -29.2632     5.6567     8.0287     7.3501    79.1234    87.6146
  608.5000    89.4740    10.2744     2.4698     0.0063     0.2708   -29.2680     5.5534     7.7396     7.3493    79.2747    91.6959
  609.0000    88.6653    10.2739     2.4708     0.0142     0.2736   -29.2711     5.5529     7.5988     7.3486    79.4261    91.7860
  609.5000    89.0558    10.2734     2.4727     0.0181     0.2712   -29.2759     5.5523     7.8802     7.4824    79.5774    83.8934
  610.0000    90.6392    10.2729     2.4668     0.0181     0.2677   -29.2791     5.4543     7.8794     7.4817    79.7287    87.9148
  610.5000    90.6293    10.2924     2.4608     0.0200     0.2673   -29.2839     5.3579     7.8782     7.2128    79.8801    88.0198
  611.0000    89.4223    10.2919     2.4617     0.0220     0.2693   -29.2871     5.2633     7.8774     7.0812    80.0314    92.0112
  611.5000    88.2173    10.3312     2.4617     0.0319     0.2756   -28.8918     5.1703     7.5938     6.5817    80.1828    92.1463
  612.0000    87.4107    10.3106     2.4687     0.0398     0.2784   -28.8950     5.0790     7.1882     6.4620    80.3341    92.1613
  612.5000    87.4007    10.3105     2.4965     0.0438     0.2772   -28.8998     4.9893     6.5600     6.0062    80.4854    88.3200
  613.0000    87.3908    10.3147     2.4796     0.0358     0.2740   -28.9030     4.9012     6.5594     5.8973    80.6368    92.3115
  613.5000    87.7792    10.3190     2.4746     0.0079     0.2729   -28.9078     4.7921     6.3232     5.7895    80.7881    96.4231
  614.0000    88.1676    10.3232     2.4775     0.0039     0.2717   -28.5109     4.7914     6.3226     5.7889    80.9394    92.4616
  614.5000    88.1577    10.3281     2.4785     0.0038     0.2705   -28.5157     4.9695     6.3216     5.7881    81.0908    92.5968
  615.0000    87.7494    10.3277     2.4745     0.0018     0.2742   -28.5189     5.0862     6.3210     5.8941    81.2421    88.9501
  615.5000    87.3411    10.2874     2.4586    -0.0062     0.2792   -28.9237     5.2056     6.6759     6.2252    81.3934    88.7703
  616.0000    86.5345    10.3068     2.4566    -0.0122     0.2788   -29.3268     5.3278     6.9235     6.6956    81.5448    88.8454
  616.5000    86.5246    10.3063     2.4625    -0.0103     0.2717   -29.7316     5.4529     7.7239     7.0713    81.6961    84.9438
  617.0000    86.9130    10.3257     2.4714    -0.0063     0.2666   -29.7348     5.5810     8.6169     7.4681    81.8474    85.0188
  617.5000    87.6997    10.3452     2.4804     0.0016     0.2618   -29.7396     5.7120     8.9365     7.8879    81.9988    85.0939
  618.0000    88.0882    10.3845     2.4863     0.0015     0.2599   -29.7428     5.8461     9.2674     8.1799    82.1501    85.1786
  618.5000    88.4766    10.4437     2.4883     0.0035     0.2563   -29.3475     5.9834     9.2665     8.1791    82.2702    89.2207
  619.0000    89.6617    10.5229     2.4872     0.0035     0.2535   -28.9507     6.1239     9.4357     8.4814    82.3326    81.8288
  619.5000    91.6435    10.5025     2.4753     0.0034     0.2539   -28.5555     6.2677     9.4348     8.4805    82.4575    81.4172
  620.0000    92.0319    10.4423     2.4743     0.0014     0.2531   -28.5587     6.4089     9.4333     8.6353    82.5111    81.4322
  620.5000    91.6237    10.3820     2.4762     0.0033     0.2512   -28.1635     6.4083     9.6061     8.7930    82.5199    85.5441
  621.0000    91.6137    10.3417     2.4623    -0.0007     0.2496   -28.1666     6.4073     9.4309     8.6336    82.6407    85.6294
  621.5000    92.4005    10.3611     2.4583    -0.0107     0.2559   -28.5714     6.4067     9.4299     8.4762    82.7072    85.6941
  622.0000    93.1873    10.3606     2.4742    -0.0027     0.2603   -28.9746     6.4057     9.4285     8.4749    82.6986    93.3992
  622.5000    93.1773    10.3601     2.4881     0.0012     0.2639   -29.3794     6.4051     9.4275     8.4740    82.6899    93.7981
  623.0000    92.3707    10.3795     2.4841     0.0011     0.2631   -29.7825     6.5222     9.4260     8.4727    82.6813    93.8846
  623.5000    91.1657    10.3989     2.4821     0.0011     0.2659   -29.7873     6.5215     9.4251     8.6278    82.6726    85.9943
  624.0000    89.9607    10.4184     2.4781     0.0011     0.2678   -29.7905     6.5205     9.4236     8.7854    82.6640    82.0323
  624.5000    89.5524    10.4776     2.4800     0.0010     0.2678   -29.7953     6.6401     9.5962     8.9462    82.6553    94.0985
  625.0000    90.3392    10.4772     2.4880     0.0049     0.2714   -28.9985     6.7614     9.5948     8.9449    82.6467    90.1365
  625.5000    89.9309    10.4730     2.4999     0.0129     0.2714   -28.6032     6.7608     9.5938     8.9439    82.6380    90.2716
  626.0000    90.3193    10.4687     2.5138     0.0208     0.2702   -28.6064     6.7598     9.5923     8.9430    82.6294    98.2408
  626.5000    89.5127    10.4644     2.5227     0.0247     0.2683   -28.6112     6.7591     9.5913     8.9421    82.6207    94.3989
  627.0000    90.2994    10.4601     2.5356     0.0267     0.2655   -28.6160     6.7581     9.4164     8.9403    82.6121    94.4863
  627.5000    89.4928    10.4545     2.5296     0.0246     0.2675   -28.6192     6.6351     9.5884     8.7778    82.6034    86.5947
  628.0000    89.4829    10.4741     2.5256     0.0166     0.2718   -28.6239     6.6341     9.4139     8.6177    82.5948    94.5641
  628.5000    89.4729    10.4736     2.5266     0.0166     0.2762   -28.6271     6.5134     9.2427     8.3085    82.5861    90.7220
  629.0000    89.4630    10.4731     2.5326     0.0205     0.2790   -28.6319     6.5124     9.0741     7.8644    82.5774    86.7598
  629.5000    89.4531    10.4727     2.5345     0.0225     0.2778   -28.6351     6.5117     9.0732     7.7214    82.5688    86.8949
  630.0000    89.4431    10.4722     2.5057     0.0225     0.2734   -28.6398     6.3929     9.0718     7.8624    82.5601    86.9249
  630.5000    89.4332    10.4717     2.4997     0.0065     0.2699   -28.6430     6.3923     9.0704     7.8616    82.5515    87.0450
  631.0000    89.8216    10.4712     2.4957     0.0104     0.2648   -28.6478     6.1621     9.0695     7.8604    82.5428    91.0122
  631.5000    90.6084    10.5105     2.4897     0.0104     0.2624   -28.6510     6.0497     9.0685     7.8592    82.5342    91.1725
  632.0000    92.5902    10.5698     2.4877     0.0104     0.2644   -28.6558     6.0491     8.9031     8.0027    82.5255    83.2328
  632.5000    92.5803    10.5693     2.4837     0.0063     0.2695   -28.6589     5.9764     8.7412     8.0019    82.5169    95.3002
  633.0000    91.7736    10.5488     2.4797     0.0043     0.2707   -28.6637     5.9758     8.5818     7.8564    82.5082    95.3152
  633.5000    90.5686    10.5483     2.4737     0.0043     0.2731   -28.6669     6.0849     8.5805     7.8552    82.4996    83.5179
  634.0000    89.3636    10.5279     2.4677     0.0003     0.2739   -28.6717     6.0843     8.5796     7.8544    82.4909    83.5329
  634.5000    87.3619    10.5075     2.4677     0.0022     0.2747   -28.6748     6.0834     8.8972     7.8532    82.4823    91.6231
  635.0000    86.1569    10.4871     2.4686     0.0002     0.2783   -28.6796     6.0828     9.0602     7.8524    82.4736    91.6381
  635.5000    86.5454    10.4667     2.4577    -0.0059     0.2798   -28.6828     6.0819     9.3956     7.9958    82.4650    87.7957
  636.0000    88.1288    10.4463     2.4557    -0.0059     0.2846   -28.6876     6.0813     9.3951     7.9950    82.4563    87.8107
  636.5000    90.5090    10.3661     2.4606    -0.0039     0.2878   -28.6908     6.3063     9.3932     7.9942    82.4476    87.9458
