~VERSION INFORMATION
 VERS.                2.0:   CWLS LOG ASCII STANDARD - VERSION 2.0
 WRAP.                 NO:   ONE LINE PER DEPTH STEP
~WELL INFORMATION
#MNEM.UNIT      DATA TYPE    INFORMATION
#----------   ------------   ------------------------------
 STRT.F          200.0000:   START DEPTH
 STOP.F         3120.0000:   STOP DEPTH
 STEP.F            0.5000:   STEP LENGTH
 NULL.          -999.2500:   NO VALUE
 COMP.    FENIX & SCISSON:   COMPANY
 WELL. FENIX NPR 3 "AX" #83-28:   WELL
 FLD .                NPR:   FIELD
 LOC .      S28 T39N R78W:   LOCATION
 CNTY.            NATRONA:   COUNTY
 STAT.            WYOMING:   STATE
 CTRY. UNITED STATES OF AMERICA:   COUNTRY
 SRVC.              WELEX:   SERVICE COMPANY
 DATE.        29-SEP-1977:   LOGDATE
 API .     49025104240000:   API NUMBER
~CURVE INFORMATION
#MNEM.UNIT       API CODE    CURVE DESCRIPTION
#----------   ------------   ------------------------------
 DEPT.F                  :   
 CALD.IN     45 280 60 00:   CALIPER FROM DENSITY LOG
 GRD .GAPI   45 310 01 00:   GAMMA RAY FROM DENSITY LOG
 RHOB.G/C3   45 350 01 00:   BULK DENSITY
 CORR.G/C3   45 356 01 00:   DENSITY CORRECTION
 SPR .MV     07 010 01 00:   SPONTANEOUS POTENTIAL
 SGRD.MV     07 220 05 00:   SHLLOW GUARD
 ILD .OHMM   07 120 46 00:   DEEP INDUCTION RESISTIVITY
 ILM .OHMM   07 120 44 00:   INDUCTION LOG MEDIUM RESISTIVITY
~PARAMETER INFORMATION
#MNEM.UNIT          VALUE    DESCRIPTION
#----------   ------------   ------------------------------
 EKB .F         5034.0000:   Kelly bushing
 EGL .F         5024.0000:   Ground level
 TD  .F         3110.0000:   Total depth
 DATE.        29-SEP-1977:   Date logged
 CLNT.            A2DTECH:   Client Code
 SL  . 1650' FNL & 330' FEL:   Surface Location
 PD  .                 GL:   Permanent Datum
 EPD .F              5024:   Elevation Permanent Datum
 LMF .                 KB:   Log Measured From
 DMF .                 KB:   Drilling Measured From
 DAPD.F                10:   Feet Above Permanent Datum
 DD  .F              3110:   Depth driller
 DL  .F              3110:   Depth logger
 BLI .F              3108:   Bottom log interval
 TLI .F               210:   Top log interval
 CS1 .IN            8.625:   Casing size
 CBD1.      8.625" @ 201':   Casing driller 1
 CBL1.F               210:   Casing logger 1
 BS1 .IN            7.875:   Bit size
 BSD1.F              3110:   Depth drilled with bit1
 DFT .          KCL/WATER:   Type fluid in hole
 DFD .                  9:   Density
 DFV .                 40:   Viscosity
 DFPH.                 11:   pH
 DFL .                6.4:   Fluid loss
 MSS .            MUD/PIT:   Source of sample
 RMS .OHMM            .56:   Rm
 MST .F                60:   Rm Meas. temp.
 RMF .OHMM            .34:   Rmf
 MFST.F                60:   Rmf Meas. temp.
 RMC .OHMM            .61:   Rmc
 MCST.F                60:   Rmc Meas. temp.
 MFSS.               MEAS:   Source Rmf.
 MCSS.               MEAS:   Source Rmc.
 RMB .OHMM            .28:   Rm. at BHT
 BHT .F               120:   BHT.
 TCS .HRS               3:   Time Circ. stopped
 MRT .F               120:   Maximum recorded temp.
 LUN .               9685:   Logging unit number
 LUL .             CASPER:   Logging unit location
 ENGI. G. BENTSEN/T. JOYNER:   Recorded By
 WITN.         PETTINGILL:   Witnessed by
 ORIG.   1" 2.5" 5" PRINT:   Origin of data
 UWI .     49025104240000:   Unique Well ID
 DICO. A2D TECHNOLOGIES, INC.:   Digitizing Company
~OTHER INFORMATION
~A   DEPT     CALD         GRD      RHOB       CORR        SPR       SGRD        ILD        ILM   
# ...
 1172.0000    10.4497    86.2022     2.4535     0.0489   -64.1211     8.2614     7.9627     8.7321
 1172.5000    10.4482    86.2123     2.4505     0.0490   -64.1178     8.2629     7.9642     8.7346
 1173.0000    10.4467    86.2191     2.4476     0.0451   -64.1138     8.2644     7.9656     8.7352
 1173.5000    10.4452    85.8259     2.4437     0.0412   -64.1105     8.3427     7.9670     8.8174
 1174.0000    10.4436    84.6588     2.4417     0.0333   -64.1072     8.4212     7.9684     8.9832
 1174.5000    10.4421    83.4917     2.4398     0.0334   -64.1039     8.4762     7.8975     9.2376
 1175.0000    10.4406    83.4988     2.4358     0.0334   -64.1006     8.6353     7.8981     9.4109
 1175.5000    10.4391    84.4273     2.4359     0.0335   -64.0966     8.7981     7.8995     9.5011
 1176.0000    10.4375    85.3559     2.4359     0.0375   -64.0933     8.9633     7.9009     9.5899
 1176.5000    10.4360    86.2845     2.4399     0.0416   -64.0900     9.1322     7.9023     9.7698
 1177.0000    10.4345    87.4581     2.4439     0.0456   -64.0867     9.1341     8.0514     9.8628
 1177.5000    10.4330    87.4649     2.4499     0.0457   -64.0834     9.1354     8.1275     9.8642
 1178.0000    10.4315    87.8749     2.4519     0.0497   -64.0801     8.9703     8.1286     9.8659
 1178.5000    10.4299    86.3104     2.4599     0.0537   -64.0761     8.8075     8.1301     9.6877
 1179.0000    10.4284    86.3206     2.4658     0.0538   -64.0728     8.4901     8.0577     9.4246
 1179.5000    10.4269    87.1129     2.4758     0.0538   -64.0695     8.4919     8.0586     9.0021
 1180.0000    10.4254    87.1230     2.4818     0.0579   -64.0662     8.4931     8.0603     8.7580
 1180.5000    10.4238    86.3442     2.4877     0.0619   -64.0629     8.2876     8.0617     8.7592
 1181.0000    10.4223    87.9253     2.4898     0.0620   -64.0589     8.2891     8.0632     8.6806
 1181.5000    10.4208    87.1466     2.4918     0.0660   -64.4558     8.2906     8.0646     8.6822
 1182.0000    10.4193    87.9421     2.4938     0.0621   -64.4538     8.2159     8.0660     8.6837
 1182.5000    10.4170    87.9488     2.4958     0.0622   -64.8494     8.2177     8.0677     8.6856
 1183.0000    10.4566    88.7442     2.4958     0.0582   -64.8462     8.2191     8.0692     8.6865
 1183.5000    10.4570    87.9656     2.4919     0.0544   -64.8429     8.0703     8.0706     8.6884
 1184.0000    10.4571    87.9756     2.4900     0.0584   -64.8396     8.2221     7.9251     8.6902
 1184.5000    10.4552    87.1971     2.4920     0.0545   -65.0365     8.2235     7.9259     8.6918
 1185.0000    10.4533    87.2072     2.4940     0.0545   -65.2327     8.2253     7.9276     8.6933
 1185.5000    10.4513    87.2139     2.4959     0.0546   -65.2294     8.3030     7.9287     8.6952
 1186.0000    10.4494    88.0091     2.4979     0.0547   -65.2262     8.2282     7.8573     8.6964
 1186.5000    10.4475    88.8009     2.5020     0.0547   -65.2222     8.3059     7.7863     8.6983
 1187.0000    10.4455    89.1927     2.5021     0.0627   -65.2190     8.3071     7.7167     8.6992
 1187.5000    10.4436    90.7643     2.5061     0.0628   -65.2164     8.3083     7.6473     8.7014
 1188.0000    10.4416    91.5678     2.5061     0.0628   -65.2124     8.2344     7.6489     8.6233
 1188.5000    10.4397    91.5744     2.5081     0.0669   -65.2098     8.0853     7.5797     8.4672
 1189.0000    10.4378    90.0143     2.5082     0.0669   -65.2053     7.9389     7.5117     8.3136
 1189.5000    10.4358    89.2360     2.5062     0.0631   -65.2020     7.7233     7.4441     8.1631
 1190.0000    10.4339    90.4309     2.5043     0.0591   -65.1994     7.6535     7.3765     8.0156
 1190.5000    10.4319    90.4375     2.5003     0.0592   -65.1961     7.6557     7.3781     8.0173
 1191.0000    10.4300    94.3717     2.4964     0.0593   -65.1922     7.6565     7.3119     8.0182
 1191.5000    10.4281    94.3782     2.4866     0.0593   -65.1889     7.8010     7.2461     8.2452
 1192.0000    10.4261    93.6032     2.4826     0.0554   -65.1850     7.8024     7.1816     8.4002
 1192.5000    10.4242    92.8249     2.4826     0.0595   -65.1817     7.7321     7.3847     8.2490
 1193.0000    10.4223    92.0467     2.4866     0.0635   -65.1784     7.7335     7.3852     8.2496
 1193.5000    10.4203    91.2686     2.4881     0.0715   -65.1752     7.8068     7.3863     8.1756
 1194.0000    10.4184    90.4972     2.4907     0.0755   -65.1719     7.8082     7.3200     8.1020
 1194.5000    10.4164    89.7191     2.4927     0.0795   -65.1680     7.5962     7.2541     8.0290
 1195.0000    10.4145    89.7291     2.4947     0.0835   -65.1647     7.5281     7.1890     8.0304
 1195.5000    10.4126    89.7358     2.4967     0.0915   -65.1614     7.4598     7.0589     8.0319
 1196.0000    10.4106    90.5303     2.4967     0.0916   -65.1582     7.4613     6.9953     7.9593
 1196.5000    10.4087    91.3214     2.4963     0.0916   -65.1549     7.3942     6.9965     7.9610
 1197.0000    10.4067    92.1125     2.4958     0.0838   -65.1516     7.3960     6.9980     7.8893
 1197.5000    10.4048    92.9068     2.4953     0.0799   -65.1477     7.3970     6.9988     7.8907
 1198.0000    10.4029    92.9133     2.4929     0.0760   -65.1444     7.3984     6.9998     7.8924
 1198.5000    10.4009    89.0012     2.4910     0.0761   -65.1412     7.3997     7.0015     7.8938
 1199.0000    10.3990    91.3610     2.4831     0.0761   -65.1379     7.4013     7.0028     7.8954
 1199.5000    10.3971    89.4055     2.4792     0.0762   -65.1346     7.4023     7.0045     7.8963
 1200.0000    10.4312    89.4134     2.4733     0.0763   -65.1307     7.4039     7.0058     7.7546
 1200.5000    10.4318    89.4213     2.4733     0.0763   -65.1273     7.4055     7.0072     7.7553
 1201.0000    10.4320    89.4287     2.4733     0.0763   -65.1218     7.4079     7.0087     7.8293
 1201.5000    10.4325    89.4360     2.4713     0.0763   -65.1173     7.4783     7.1415     7.9773
 1202.0000    10.4328    89.4434     2.4595     0.0764   -65.1128     7.5497     7.2761     8.2790
 1202.5000    10.4333    89.4500     2.4575     0.0724   -65.1084     8.0547     7.5510     8.5145
 1203.0000    10.4336    89.4564     2.4575     0.0724   -65.1030     8.1312     7.6934     8.5942
 1203.5000    10.3949    89.4659     2.4575     0.0685   -65.0985     8.1331     7.7668     8.5953
 1204.0000    10.3950    89.4722     2.4595     0.0646   -65.0941     8.2103     7.7686     8.5973
 1204.5000    10.3928    89.4817     2.4655     0.0646   -65.0896     8.2126     7.7708     8.6794
 1205.0000    10.3906    89.4880     2.4674     0.0606   -65.0851     8.2906     7.7726     8.7618
 1205.5000    10.3884    88.7132     2.4615     0.0567   -65.0807     8.2926     7.7744     8.7692
 1206.0000    10.3862    88.7195     2.4595     0.0528   -65.0753     8.3713     7.7762     8.7766
 1206.5000    10.3839    88.7290     2.4556     0.0528   -65.0709     8.2960     7.7780     8.7839
 1207.0000    10.3817    88.7353     2.4496     0.0528   -65.0664     8.2976     7.7798     8.7913
 1207.5000    10.3795    88.7448     2.4477     0.0488   -65.0619     8.3004     7.7820     8.7987
 1208.0000    10.3773    88.7511     2.4437     0.0489   -65.0575     8.3014     7.7838     8.8061
 1208.5000    10.3751    89.5449     2.4398     0.0489   -65.0530     8.3188     7.7856     8.8135
 1209.0000    10.3729    89.5512     2.4457     0.0489   -65.0477     8.3363     7.7874     8.8209
 1209.5000    10.3706    89.5607     2.4497     0.0489   -65.0432     8.3538     7.7892     8.8283
 1210.0000    10.3684    89.5702     2.4576     0.0489   -65.0387     8.3714     7.7910     8.8357
 1210.5000    10.3662    86.8362     2.4636     0.0490   -65.0316     8.3889     7.7932     8.8431
 1211.0000    10.3640    86.0614     2.4676     0.0490   -65.0298     8.4066     7.7950     8.8506
 1211.5000    10.3618    86.0678     2.4696     0.0530   -65.0245     8.4242     7.7968     8.8580
 1212.0000    10.3596    86.0772     2.4933     0.0530   -65.0200     8.4419     7.8720     8.8654
