~VERSION INFORMATION
 VERS.                2.0:   CWLS LOG ASCII STANDARD - VERSION 2.0
 WRAP.                 NO:   ONE LINE PER DEPTH STEP
~WELL INFORMATION
#MNEM.UNIT      DATA TYPE    INFORMATION
#----------   ------------   ------------------------------
 STRT.F          204.0000:   START DEPTH
 STOP.F         3024.0000:   STOP DEPTH
 STEP.F            0.5000:   STEP LENGTH
 NULL.          -999.2500:   NO VALUE
 COMP.    FENIX & SCISSON:   COMPANY
 WELL. FENIX NPR 3 "AX" #87-33:   WELL
 FLD .      NPR - WILDCAT:   FIELD
 LOC .      S33 T39N R78W:   LOCATION
 CNTY.            NATRONA:   COUNTY
 STAT.            WYOMING:   STATE
 CTRY. UNITED STATES OF AMERICA:   COUNTRY
 SRVC.              WELEX:   SERVICE COMPANY
 DATE.        20-JUN-1977:   LOGDATE
 API .     49025103840000:   API NUMBER
~CURVE INFORMATION
#MNEM.UNIT       API CODE    CURVE DESCRIPTION
#----------   ------------   ------------------------------
 DEPT.F                  :   
 SPR .MV     07 010 01 00:   SPONTANEOUS POTENTIAL
 ILD .OHMM   07 120 46 00:   DEEP INDUCTION RESISTIVITY
 ILM .OHMM   07 120 44 00:   INDUCTION LOG MEDIUM RESISTIVITY
 SGRD.OHMM   07 220 05 00:   SHALLOW SHORT GUARD RESISTIVITY
 CALD.IN     45 280 60 00:   CALIPER FROM DENSITY LOG
 GRD .GAPI   45 310 01 00:   GAMMA RAY FROM DENSITY LOG
 RHOB.G/C3   45 350 01 00:   BULK DENSITY
 CORR.G/C3   45 356 01 00:   DENSITY CORRECTION
~PARAMETER INFORMATION
#MNEM.UNIT          VALUE    DESCRIPTION
#----------   ------------   ------------------------------
 EKB .F         5170.0000:   Kelly bushing
 EGL .F         5160.0000:   Ground level
 TD  .F         3040.0000:   Total depth
 DATE.        20-JUN-1977:   Date logged
 CLNT.            A2DTECH:   Client Code
 SL  . 800' FSL & 100' FEL:   Surface Location
 PD  .                 GL:   Permanent Datum
 EPD .F              5160:   Elevation Permanent Datum
 LMF .                 KB:   Log Measured From
 DMF .                 KB:   Drilling Measured From
 DD  .F              3040:   Depth driller
 DL  .F              3027:   Depth logger
 BLI .F              3025:   Bottom log interval
 TLI .F               200:   Top log interval
 CS1 .IN            8.625:   Casing size
 CBD1.      8.625" @ 230':   Casing driller 1
 CBL1.F               210:   Casing logger 1
 BS1 .IN            7.875:   Bit size
 BSD1.F              3040:   Depth drilled with bit1
 DFT .                KCL:   Type fluid in hole
 DFD .                9.2:   Density
 DFV .                 38:   Viscosity
 DFPH.                7.5:   pH
 DFL .                5.4:   Fluid loss
 MSS .           FLOWLINE:   Source of sample
 RMS .OHMM            .60:   Rm
 MST .F                92:   Rm Meas. temp.
 RMF .OHMM            .29:   Rmf
 MFST.F                92:   Rmf Meas. temp.
 RMC .OHMM            .76:   Rmc
 MCST.F                92:   Rmc Meas. temp.
 MFSS.               MEAS:   Source Rmf.
 MCSS.               MEAS:   Source Rmc.
 RMB .OHMM            .49:   Rm. at BHT
 BHT .F               112:   BHT.
 TCS .HRS               2:   Time Circ. stopped
 MRT .F               112:   Maximum recorded temp.
 LUN .               8611:   Logging unit number
 LUL .           GILLETTE:   Logging unit location
 ENGI.            C. DOAK:   Recorded By
 WITN.      B. HARRINGTON:   Witnessed by
 ORIG.     2.5", 5" PRINT:   Origin of data
 UWI .     49025103840000:   Unique Well ID
 DICO. A2D TECHNOLOGIES, INC.:   Digitizing Company
~OTHER INFORMATION
~A   DEPT      SPR        ILD        ILM       SGRD         CALD       GRD        RHOB      CORR  
# ...
 1338.0000   -58.3650     8.0670     8.4090     8.8830    10.9300    97.0370     2.4610    -0.0100
 1338.5000   -58.4750     8.1020     8.4320     8.9410    10.8470    96.8180     2.4530    -0.0100
 1339.0000   -58.5840     8.1420     8.4550     8.9990    10.7650    96.0000     2.4510    -0.0080
 1339.5000   -58.6930     8.1830     8.4770     9.1740    10.6800    95.1390     2.4500    -0.0060
 1340.0000   -58.8020     8.2230     8.5000     9.4180    10.5820    94.2610     2.4560    -0.0040
 1340.5000   -58.9110     8.2640     8.5230     9.6980    10.4720    93.3410     2.4630    -0.0030
 1341.0000   -59.0200     8.3050     8.5440     9.6700    10.4220    93.1250     2.4700    -0.0020
 1341.5000   -59.1290     8.3450     8.5860     9.6360    10.3830    93.9240     2.4770    -0.0010
 1342.0000   -59.2380     8.3860     8.6250     9.6020    10.3430    94.6120     2.4860     0.0000
 1342.5000   -59.3470     8.4270     8.6640     9.5680    10.3070    93.7480     2.4940     0.0020
 1343.0000   -59.4550     8.4670     8.7000     9.5240    10.2710    93.3800     2.5050     0.0040
 1343.5000   -59.5650     8.5080     8.7390     9.5530    10.2360    94.6870     2.5160     0.0070
 1344.0000   -59.6730     8.5440     8.7740     9.6510    10.2000    95.8450     2.5290     0.0090
 1344.5000   -59.7810     8.5690     8.8090     9.7500    10.1640    95.3690     2.5320     0.0110
 1345.0000   -59.8990     8.5910     8.8440     9.8750    10.1430    94.6530     2.5240     0.0120
 1345.5000   -59.9670     8.6130     8.8790     9.8460    10.1230    94.7880     2.5150     0.0120
 1346.0000   -59.9590     8.6340     8.9150     9.7580    10.1030    95.8580     2.5090     0.0120
 1346.5000   -59.9610     8.6550     8.9500     9.6700    10.0830    96.9160     2.5150     0.0100
 1347.0000   -59.9610     8.6760     8.9850     9.5240    10.0860    96.9850     2.5110     0.0080
 1347.5000   -59.9610     8.6980     9.0220     9.5510    10.0910    95.8520     2.5050     0.0050
 1348.0000   -59.9610     8.7690     9.1860     9.6240    10.0970    95.0680     2.4990     0.0020
 1348.5000   -59.9610     8.8910     9.2520     9.6980    10.1020    95.6570     2.4940     0.0010
 1349.0000   -59.9610     9.0120     9.3370     9.7720    10.1070    96.4400     2.4950     0.0020
 1349.5000   -59.9610     9.1340     9.4230     9.8450    10.1110    97.2350     2.5010     0.0040
 1350.0000   -59.9610     9.2560     9.5090     9.8950    10.1160    96.9550     2.5080     0.0060
 1350.5000   -59.9610     9.3770     9.5950     9.9290    10.1210    96.2700     2.5140     0.0080
 1351.0000   -59.9610     9.4990     9.6800     9.9620    10.1460    95.5860     2.5090     0.0070
 1351.5000   -59.9610     9.5240     9.7150     9.9960    10.1740    94.8660     2.5040     0.0050
 1352.0000   -59.9610     9.5250     9.7360    10.0300    10.2010    94.1450     2.4990     0.0030
 1352.5000   -59.9610     9.5250     9.7570    10.0630    10.2290    93.4300     2.4960     0.0030
 1353.0000   -59.9610     9.5240     9.7780    10.0970    10.2580    93.0970     2.5000     0.0030
 1353.5000   -59.9600     9.5240     9.7990    10.1300    10.2770    94.4280     2.5040     0.0040
 1354.0000   -59.9620     9.5240     9.8200    10.1640    10.2960    96.8840     2.5000     0.0040
 1354.5000   -59.9600     9.5240     9.8410    10.1970    10.3160    99.2820     2.4950     0.0040
 1355.0000   -59.9550     9.5240     9.8750    10.2350    10.3350    97.5330     2.4920     0.0030
 1355.5000   -59.8860     9.5100     9.8620    10.2250    10.3540    95.5350     2.4970     0.0020
 1356.0000   -59.8280     9.4900     9.8240    10.2060    10.3740    94.0260     2.4980     0.0000
 1356.5000   -59.7650     9.4710     9.7860    10.1870    10.3930    93.4170     2.4920    -0.0020
 1357.0000   -59.7050     9.4510     9.7470    10.1680    10.4170    92.8010     2.4850    -0.0040
 1357.5000   -59.6440     9.4320     9.7090    10.1490    10.4420    92.3310     2.4830    -0.0050
 1358.0000   -59.5830     9.4130     9.6710    10.1300    10.4670    92.6550     2.4870    -0.0020
 1358.5000   -59.5220     9.3940     9.6330    10.1100    10.4920    92.9630     2.4940     0.0000
 1359.0000   -59.4600     9.3730     9.5950    10.0900    10.5180    93.2690     2.5090     0.0020
 1359.5000   -59.4000     9.3510     9.5580    10.0710    10.5430    93.5810     2.5210     0.0050
 1360.0000   -59.3380     9.2580     9.5240    10.0530    10.5690    93.8370     2.5240     0.0070
 1360.5000   -59.2770     9.1560     9.4680     9.8890    10.5950    92.9160     2.5250     0.0090
 1361.0000   -59.2200     9.0530     9.3900     9.7420    10.6210    91.9630     2.5280     0.0120
 1361.5000   -59.0840     8.9500     9.3110     9.5960    10.6460    91.0120     2.5300     0.0140
 1362.0000   -58.8360     8.8580     9.2330     9.4890    10.6720    90.0570     2.5300     0.0170
 1362.5000   -58.5940     8.8090     9.1550     9.4170    10.6980    90.1640     2.5300     0.0200
 1363.0000   -58.3500     8.7650     9.0370     9.3530    10.7240    90.6260     2.5270     0.0230
 1363.5000   -58.1020     8.7000     9.0820     9.5910    10.7490    91.3210     2.5190     0.0260
 1364.0000   -57.8680     8.8190     9.2910     9.8750    10.7790    92.0130     2.5120     0.0270
 1364.5000   -57.6160     9.1860     9.5240     9.8150    10.8090    92.7080     2.5090     0.0280
 1365.0000   -57.7630     9.1370     9.4140     9.7280    10.8380    93.3900     2.5090     0.0290
 1365.5000   -58.0430     9.0360     9.2880     9.6400    10.8680    92.9520     2.5120     0.0300
 1366.0000   -58.3110     8.9360     9.1630     9.5530    10.9040    92.3610     2.5160     0.0320
 1366.5000   -58.5780     8.8350     9.0210     9.5240    10.9290    92.1310     2.5220     0.0320
 1367.0000   -58.7930     8.7340     9.0210     9.5240    10.9190    91.9560     2.5280     0.0310
 1367.5000   -58.8860     8.7000     8.8590     9.5240    10.9060    91.3880     2.5360     0.0300
 1368.0000   -58.9680     8.7000     9.0490     9.5240    10.8660    90.6690     2.5480     0.0290
 1368.5000   -59.0500     8.8320     9.5240     9.6670    10.8250    90.6680     2.5490     0.0280
 1369.0000   -59.1310     9.0340     9.5240     9.8750    10.7850    91.3320     2.5430     0.0280
 1369.5000   -59.2120     9.1860     9.5240     9.7990    10.7430    91.9930     2.5370     0.0270
 1370.0000   -59.2930     9.1860     9.4870     9.7240    10.7170    93.3730     2.5330     0.0270
 1370.5000   -59.3750     9.0230     9.4030     9.6530    10.6960    95.3590     2.5260     0.0270
 1371.0000   -59.4570     8.8660     9.3180     9.5810    10.6740    97.4200     2.5140     0.0260
 1371.5000   -59.5350     8.7090     9.2340     9.5250    10.6520    99.7300     2.5020     0.0250
 1372.0000   -59.6170     8.5520     9.1570     9.5240    10.6300    99.7820     2.5040     0.0170
 1372.5000   -59.7010     8.3950     9.0900     9.5250    10.6090    98.1880     2.4980     0.0080
 1373.0000   -59.7820     8.2410     9.0230     9.5250    10.5870    96.5120     2.4910     0.0030
 1373.5000   -59.8630     8.2270     8.9560     9.5250    10.5650    95.7600     2.4900     0.0020
 1374.0000   -59.9450     8.2040     8.8890     9.5250    10.5440    97.6240     2.4880     0.0000
 1374.5000   -60.0260     8.1810     8.8210     9.5540    10.5220    99.4760     2.4850    -0.0020
 1375.0000   -60.1070     8.1580     8.7540     9.5820    10.5000   101.1070     2.4820    -0.0040
 1375.5000   -60.1900     8.1350     8.7000     9.6110    10.4860   102.5330     2.4830    -0.0040
 1376.0000   -60.2690     8.1120     8.7000     9.6410    10.4740   102.5800     2.4900    -0.0050
 1376.5000   -60.3470     8.0930     8.7000     9.6670    10.4620   102.0240     2.4980    -0.0060
 1377.0000   -60.3510     8.2140     8.7510     9.6910    10.4500   101.2030     2.4980    -0.0060
 1377.5000   -60.3530     8.3170     8.8590     9.5240    10.4370    99.0060     2.4920    -0.0070
 1378.0000   -60.3510     8.4190     8.9380     9.6070    10.4250    96.6730     2.4880    -0.0070
