~VERSION INFORMATION
 VERS.                2.0:   CWLS LOG ASCII STANDARD - VERSION 2.0
 WRAP.                 NO:   ONE LINE PER DEPTH STEP
~WELL INFORMATION
#MNEM.UNIT      DATA TYPE    INFORMATION
#----------   ------------   ------------------------------
 STRT.F          742.0000:   START DEPTH
 STOP.F         3406.0000:   STOP DEPTH
 STEP.F            0.5000:   STEP LENGTH
 NULL.          -999.2500:   NO VALUE
 COMP. FENIX & SCISSON - US NAVY:   COMPANY
 WELL.   FENIX "AX" #85-4:   WELL
 FLD .      NPR - WILDCAT:   FIELD
 LOC .       S4 T38N R78W:   LOCATION
 CNTY.            NATRONA:   COUNTY
 STAT.            WYOMING:   STATE
 CTRY. UNITED STATES OF AMERICA:   COUNTRY
 SRVC.              WELEX:   SERVICE COMPANY
 DATE.        03-MAY-1977:   LOGDATE
 API .     49025103520000:   API NUMBER
~CURVE INFORMATION
#MNEM.UNIT       API CODE    CURVE DESCRIPTION
#----------   ------------   ------------------------------
 DEPT.F                  :   
 SNP .DEC    41 890 00 00:   SIDEWALL NEUTRON POROSITY
 GR  .GAPI   30 310 01 00:   GAMMA RAY
 SPR .MV     07 010 01 00:   SPONTANEOUS POTENTIAL
 RXO .OHMM   11 220 01 00:   FLUSHED ZONE RESISTIVITY
 GURD.OHMM   07 220 05 00:   GUARD LOG RESISTIVITY
 CALD.IN     45 280 60 00:   CALIPER FROM DENSITY LOG
 RHOB.G/C3   45 350 01 00:   BULK DENSITY
 GRD .GAPI   45 310 01 00:   GAMMA RAY FROM DENSITY LOG
 CORR.G/C3   45 356 01 00:   DENSITY CORRECTION
~PARAMETER INFORMATION
#MNEM.UNIT          VALUE    DESCRIPTION
#----------   ------------   ------------------------------
 EKB .F         5254.0000:   Kelly bushing
 EGL .F         5240.0000:   Ground level
 EDF .F            0.0000:   Drilling floor
 TD  .F         3467.0000:   Total depth
 DATE.        03-MAY-1977:   Date logged
 CLNT.            A2DTECH:   Client Code
 SL  . 2200' FSL & 100' FEL:   Surface Location
 PD  .                 GL:   Permanent Datum
 EPD .F              5240:   Elevation Permanent Datum
 LMF .                 KB:   Log Measured From
 DMF .                 KB:   Drilling Measured From
 DAPD.F                14:   Feet Above Permanent Datum
 DD  .F              3647:   Depth driller
 DL  .F              3404:   Depth logger
 BLI .F              3402:   Bottom log interval
 TLI .F               720:   Top log interval
 CS1 .IN            8.625:   Casing size
 CBD1.      8.625" @ 720':   Casing driller 1
 CBL1.F               760:   Casing logger 1
 BS1 .IN            7.875:   Bit size
 BSD1.F              3467:   Depth drilled with bit1
 DFT .            KCL/MUD:   Type fluid in hole
 DFD .                9.1:   Density
 DFV .                 36:   Viscosity
 DFPH.                  8:   pH
 DFL .                  5:   Fluid loss
 MSS .           FLOWLINE:   Source of sample
 RMS .OHMM            .30:   Rm
 MST .F                66:   Rm Meas. temp.
 RMF .OHMM            .21:   Rmf
 MFST.F                66:   Rmf Meas. temp.
 RMC .OHMM            .49:   Rmc
 MCST.F                66:   Rmc Meas. temp.
 MFSS.               FANN:   Source Rmf.
 MCSS.                KIT:   Source Rmc.
 RMB .OHMM            .18:   Rm. at BHT
 BHT .F               107:   BHT.
 TCS .HRS             2.5:   Time Circ. stopped
 MRT .F               107:   Maximum recorded temp.
 LUN .               8611:   Logging unit number
 LUL .             CASPER:   Logging unit location
 ENGI.            C. DOAK:   Recorded By
 WITN.      B. HARRINGTON:   Witnessed by
 ORIG.     2.5", 5" PRINT:   Origin of data
 UWI .     49025103520000:   Unique Well ID
 DICO. A2D TECHNOLOGIES, INC.:   Digitizing Company
~OTHER INFORMATION
~A   DEPT        SNP       GR        SPR        RXO       GURD         CALD       RHOB       GRD       CORR  
# ...
 1618.0000     0.1890   111.5330   -32.7070     7.5770     6.2530     8.4380     2.6050    92.4520     0.0550
 1618.5000     0.1940   107.3380   -32.7650     7.1010     6.2090     8.4430     2.5940    93.7920     0.0600
 1619.0000     0.1980   106.1860   -32.8230     7.3640     6.1620     8.4470     2.5820    93.3940     0.0630
 1619.5000     0.1950   104.9970   -32.8820     7.0920     6.1160     8.4500     2.5700    92.9130     0.0690
 1620.0000     0.1950   102.3680   -32.9400     7.4990     6.0690     8.4560     2.5630    92.3770     0.0770
 1620.5000     0.1980   100.2720   -32.9990     6.8480     6.0300     8.4550     2.5650    91.8720     0.0840
 1621.0000     0.2010   103.3060   -33.0570     8.2950     6.2530     8.4910     2.5660    91.3680     0.0920
 1621.5000     0.2040   107.7740   -33.1150     9.3250     6.1470     8.5130     2.5700    90.8530     0.0990
 1622.0000     0.2100   111.3140   -33.1740     8.1730     6.0300     8.5380     2.5740    90.3040     0.1080
 1622.5000     0.2070   109.6400   -33.2320     7.0980     6.0300     8.5570     2.5780    90.4370     0.1090
 1623.0000     0.2050   107.2530   -33.2910     7.3200     6.2530     8.5800     2.5750    92.2470     0.1030
 1623.5000     0.2140   105.5340   -33.3490     7.7640     6.2260     8.6010     2.5660    93.9810     0.0930
 1624.0000     0.2200   103.4610   -33.4070     8.2120     6.1790     8.6230     2.5480    95.7550     0.0840
 1624.5000     0.2170   103.6760   -33.4660     7.4990     6.1320     8.6460     2.5310    97.6830     0.0760
 1625.0000     0.2040   104.9810   -33.5240     7.2310     6.0860     8.6580     2.5220    98.5140     0.0650
 1625.5000     0.2060   106.3740   -33.5820     7.1010     6.0300     8.6570     2.5260    97.8690     0.0600
 1626.0000     0.2120   109.2670   -33.6410     6.9730     6.0300     8.6310     2.5320    97.4010     0.0600
 1626.5000     0.2180   109.3710   -33.6990     6.8480     5.9080     8.6010     2.5370    96.8920     0.0570
 1627.0000     0.2230   108.6120   -33.7570     5.7780     5.7100     8.5450     2.5400    96.3700     0.0530
 1627.5000     0.2100   109.8950   -33.8160     4.6330     5.8150     8.5400     2.5420    95.8840     0.0430
 1628.0000     0.1980   113.0430   -33.8740     3.8990     5.8150     8.5370     2.5450    95.3350     0.0340
 1628.5000     0.1930   115.8350   -33.9330     3.6860     6.0990     8.5450     2.5460    94.8850     0.0250
 1629.0000     0.1900   116.1150   -33.9910     3.3720     6.3680     8.5010     2.5420    94.3830     0.0180
 1629.5000     0.1920   114.4320   -34.0490     3.1300     6.3680     8.4450     2.5370    95.9490     0.0110
 1630.0000     0.1960   111.8530   -34.1080     2.0270     6.1360     8.4620     2.5330    97.6990     0.0090
 1630.5000     0.1950   109.4020   -34.1660     8.2120     5.8150     8.5470     2.5300    99.2840     0.0100
 1631.0000     0.1910   109.5330   -34.2250     8.2120     6.0300     8.6190     2.5410    98.4910     0.0110
 1631.5000     0.1880   107.9950   -34.2820     7.5600     6.1410     8.6550     2.5440    97.7450     0.0120
 1632.0000     0.1880   104.7030   -34.3410     6.9730     6.2010     8.5720     2.5400    96.8500     0.0130
 1632.5000     0.1990   105.6640   -34.4020     8.0640     6.2530     8.4910     2.5370    96.0920     0.0140
 1633.0000     0.2000   108.9960   -34.4510     7.3640     6.1410     8.4610     2.5340    95.1640     0.0160
 1633.5000     0.2020   111.8220   -34.5240     7.9190     5.8580     8.4750     2.5340    95.3400     0.0170
 1634.0000     0.2120   114.6340   -34.5700     7.3550     5.5060     8.4860     2.5370    95.6570     0.0210
 1634.5000     0.2260   116.8500   -34.4940     6.6870     5.5350     8.4970     2.5410    95.9940     0.0260
 1635.0000     0.2240   116.6640   -34.1370     7.3640     5.5770     8.5090     2.5460    96.2420     0.0320
 1635.5000     0.2210   112.7260   -34.1390     7.1010     5.6070     8.5200     2.5500    95.8610     0.0370
 1636.0000     0.2180   109.7140   -34.0650     6.2530     5.6070     8.5320     2.5590    95.3250     0.0470
 1636.5000     0.2060   111.8380   -34.0150     7.6360     6.2530     8.5400     2.5680    94.7860     0.0560
 1637.0000     0.2030   112.5760   -33.9660     7.6360     6.2330     8.5350     2.5760    94.2570     0.0650
 1637.5000     0.2080   110.6100   -33.9090     7.1010     6.1930     8.5270     2.5790    93.7220     0.0740
 1638.0000     0.2130   109.8790   -33.8580     7.9190     6.1410     8.5190     2.5780    93.1900     0.0830
 1638.5000     0.2200   110.9830   -33.8050     6.4850     6.2530     8.5120     2.5730    92.6570     0.0910
 1639.0000     0.2240   112.4860   -33.7510     7.4990     6.3680     8.5010     2.5670    92.1250     0.1000
 1639.5000     0.2110   112.6740   -33.6990     7.4460     6.4850     8.5210     2.5610    91.5880     0.1090
 1640.0000     0.2150   111.3730   -33.6440     7.2800     6.4340     8.5590     2.5560    91.0620     0.1190
 1640.5000     0.2200   112.3680   -33.5940     7.1010     6.3380     8.5940     2.5580    90.5230     0.1280
 1641.0000     0.2160   115.2270   -33.5390     7.1010     6.2530     8.6290     2.5610    89.9780     0.1310
 1641.5000     0.2100   118.0700   -33.4830     7.2130     6.2530     8.6560     2.5550    89.7160     0.1320
 1642.0000     0.2150   120.9390   -33.4470     7.5520     6.4120     8.6240     2.5420    90.3310     0.1220
 1642.5000     0.2240   121.5300   -33.3560     7.7760     6.7110     8.5830     2.5310    90.9340     0.1090
 1643.0000     0.2160   120.3320   -33.7180     7.0800     6.8480     8.5400     2.5200    91.5670     0.0970
 1643.5000     0.2110   118.5440   -33.8380     6.3390     6.7240     8.4990     2.5080    92.1840     0.0850
 1644.0000     0.2110   116.7160   -33.8840     5.5990     6.3670     8.4570     2.5140    92.8060     0.0740
 1644.5000     0.2110   116.7530   -33.9110     5.0790     6.0100     8.4210     2.5230    93.4330     0.0830
 1645.0000     0.2130   117.4610   -33.9610     3.6850     5.7100     8.4480     2.5160    94.0410     0.0920
 1645.5000     0.2180   119.6810   -33.9980     3.9230     5.8910     8.5310     2.5030    94.6870     0.1010
 1646.0000     0.2120   122.4080   -34.0400     4.3990     6.1010     8.6200     2.4900    95.2870     0.0880
 1646.5000     0.2030   123.0280   -34.0810     7.3250     6.3110     8.6300     2.4850    95.7820     0.0640
 1647.0000     0.1910   122.5980   -34.1210     7.6170     6.4850     8.5430     2.5170    94.9990     0.0400
 1647.5000     0.1870   121.6140   -34.1620     7.5830     6.4480     8.5270     2.5450    94.2600     0.0280
 1648.0000     0.1800   120.6740   -34.2030     7.5140     6.3680     8.5110     2.5550    93.4560     0.0300
 1648.5000     0.1830   121.2980   -34.2440     7.7220     6.6610     8.4970     2.5670    92.6860     0.0310
 1649.0000     0.1840   122.3890   -34.2850     8.0050     6.9730     8.4820     2.5690    91.9220     0.0310
 1649.5000     0.1860   121.4740   -34.3250    12.7000     6.9730     8.4660     2.5710    91.1060     0.0320
 1650.0000     0.1870   118.9590   -34.3660     9.8230     6.8530     8.4600     2.5750    90.3790     0.0330
 1650.5000     0.1890   113.0470   -34.4070     5.0280     6.6520     8.4670     2.5790    89.6700     0.0340
 1651.0000     0.1920   111.8300   -34.4480     5.2140     6.4520     8.4740     2.5830    90.8470     0.0370
 1651.5000     0.1950   106.4050   -34.4890     4.3480     6.2530     8.4820     2.5820    92.0480     0.0360
 1652.0000     0.1980   104.9060   -34.5290     8.3620     6.2530     8.4890     2.5800    93.0230     0.0310
 1652.5000     0.1950   106.3990   -34.5680     7.8880     6.4460     8.4970     2.5790    92.1400     0.0250
 1653.0000     0.1840   107.7710   -34.5700     6.9730     6.7240     8.5040     2.5730    91.3890     0.0220
 1653.5000     0.1800   108.5570   -34.5710     7.1010     6.5340     8.5120     2.5630    90.5990     0.0190
 1654.0000     0.1750   111.4030   -34.5700     7.4240     6.3680     8.5190     2.5610    89.7770     0.0160
