~VERSION INFORMATION
 VERS.                2.0:   CWLS LOG ASCII STANDARD - VERSION 2.0
 WRAP.                 NO:   ONE LINE PER DEPTH STEP
~WELL INFORMATION
#MNEM.UNIT      DATA TYPE    INFORMATION
#----------   ------------   ------------------------------
 STRT.F          670.0000:   START DEPTH
 STOP.F         3440.0000:   STOP DEPTH
 STEP.F            0.5000:   STEP LENGTH
 NULL.          -999.2500:   NO VALUE
 COMP.    FENIX & SCISSON:   COMPANY
 WELL.   FENIX "A" #57-33:   WELL
 FLD .             NPR #3:   FIELD
 LOC .      S33 T39N R78W:   LOCATION
 CNTY.            NATRONA:   COUNTY
 STAT.            WYOMING:   STATE
 CTRY. UNITED STATES OF AMERICA:   COUNTRY
 SRVC.       SCHLUMBERGER:   SERVICE COMPANY
 DATE.        27-APR-1977:   LOGDATE
 API .     49025103600000:   API NUMBER
~CURVE INFORMATION
#MNEM.UNIT       API CODE    CURVE DESCRIPTION
#----------   ------------   ------------------------------
 DEPT.F                  :   
 SPR .MV     11 010 01 00:   SPONTANEOUS POTENTIAL FROM RES.
 MSFL.OHMM   11 270 04 00:   MICRO SPHERICALLY FOCUSED
 LLD .OHMM   11 220 10 00:   LATEROLOG LOG DEEP
 LLS .OHMM   11 220 09 00:   LATEROLOG LOG SHALLOW
 CALD.IN     45 280 60 00:   CALIPER FROM DENSITY LOG
 DRHO.G/C3   45 356 01 00:   DENSITY CORRECTION
 NPHI.DEC    42 890 03 00:   NEUTRON POROSITY SANDSTONE
 RHOB.G/C3   45 350 01 00:   BULK DENSITY
 GRD .GAPI   45 310 01 00:   GAMMA RAY FROM RESISTIVITY
~PARAMETER INFORMATION
#MNEM.UNIT          VALUE    DESCRIPTION
#----------   ------------   ------------------------------
 EKB .F         5183.0000:   Kelly bushing
 EGL .F         5172.0000:   Ground level
 EDF .F            0.0000:   Drilling floor
 TD  .F         3424.0000:   Total depth
 DATE.        27-APR-1977:   Date logged
 CLNT.            A2DTECH:   Client Code
 SL  . 990' FSL & 2310' FEL:   Surface Location
 PD  .                 GL:   Permanent Datum
 EPD .F              5172:   Elevation Permanent Datum
 LMF .                 KB:   Log Measured From
 DMF .                 KB:   Drilling Measured From
 DAPD.F                11:   Feet Above Permanent Datum
 DD  .F              3421:   Depth driller
 DL  .F              3424:   Depth logger
 BLI .F              3423:   Bottom log interval
 TLI .F               764:   Top log interval
 CS1 .IN            8.625:   Casing size
 CBD1.      8.625" @ 711':   Casing driller 1
 BS1 .IN            7.875:   Bit size
 BSD1.F              3421:   Depth drilled with bit1
 DFT .            KCL MUD:   Type fluid in hole
 DFD .                9.5:   Density
 DFV .                 41:   Viscosity
 DFPH.                  8:   pH
 DFL .               10.8:   Fluid loss
 MSS .            MUD PIT:   Source of sample
 RMS .OHMM           0.26:   Rm
 MST .F                74:   Rm Meas. temp.
 RMF .OHMM           0.21:   Rmf
 MFST.F                74:   Rmf Meas. temp.
 RMC .OHMM            .09:   Rmc
 MCST.F                74:   Rmc Meas. temp.
 MFSS.               MEAS:   Source Rmf.
 MCSS.               CALC:   Source Rmc.
 RMB .OHMM           0.15:   Rm. at BHT
 BHT .F               126:   BHT.
 TCS .HRS            0900:   Time Circ. stopped
 TLAB.HRS            1430:   Time logger at bottom
 MRT .F               126:   Maximum recorded temp.
 LUN .               7711:   Logging unit number
 LUL .               CSPR:   Logging unit location
 ENGI.             SAYLER:   Recorded By
 WITN.         PETTINGILL:   Witnessed by
 ORIG.           5" PRINT:   Origin of data
 UWI .     49025103600000:   Unique Well ID
 DICO. A2D TECHNOLOGIES, INC.:   Digitizing Company
~OTHER INFORMATION
~A   DEPT      SPR       MSFL        LLD        LLS         CALD      DRHO        NPHI       RHOB      GRD   
# ...
 1035.0000   -20.6470    10.1900     9.3530     9.6060     9.7410     0.0230     0.3120     2.5770   127.9110
 1035.5000   -20.7830    10.2530     9.3530     9.5990     9.7530     0.0150     0.3130     2.5700   129.7510
 1036.0000   -20.9200    10.2100     9.3430     9.5920     9.7650     0.0080     0.3160     2.5620   130.2890
 1036.5000   -21.0560    10.1740     9.3300     9.5850     9.7770     0.0170     0.3160     2.5550   131.3820
 1037.0000   -21.1930    10.1380     9.3170     9.5780     9.7890     0.0300     0.3130     2.5580   129.6430
 1037.5000   -21.3290    10.1030     9.3040     9.5700     9.8140     0.0420     0.3110     2.5720   125.5660
 1038.0000   -21.4660    10.0670     9.2910     9.5630     9.8530     0.0510     0.3130     2.5830   122.8200
 1038.5000   -21.5050    10.0660     9.2790     9.5560     9.8930     0.0370     0.3220     2.5580   122.9650
 1039.0000   -21.4660    10.0670     9.2680     9.5490     9.9330     0.0100     0.3050     2.5380   124.1380
 1039.5000   -21.4270    10.0660     9.4240     9.5420     9.9450     0.0210     0.3100     2.5590   123.6510
 1040.0000   -21.3870     9.9330     9.5800     9.5350     9.9570     0.0370     0.3140     2.5600   124.0950
 1040.5000   -21.3480     9.7440     9.7930     9.5280     9.9690     0.0590     0.3180     2.5740   125.3320
 1041.0000   -21.3080     9.5550     9.7270     9.3860     9.9740     0.0490     0.3230     2.5840   126.4880
 1041.5000   -21.2690     9.3660     9.5720     9.2170     9.9720     0.0200     0.3140     2.5560   126.8160
 1042.0000   -21.2290     9.1780     9.4160     9.0470     9.9690     0.0110     0.2990     2.5400   127.1910
 1042.5000   -21.1850     8.9890     9.2680     8.8770     9.9660     0.0120     0.2930     2.5590   128.0700
 1043.0000   -21.1500     8.8000     9.3530     8.7070     9.9640     0.0050     0.3010     2.5580   127.7640
 1043.5000   -20.9490     8.5310     9.0640     8.5380     9.9610     0.0050     0.3070     2.5590   126.2310
 1044.0000   -21.2480     8.2470     8.7210     8.3770     9.9580     0.0100     0.3130     2.5550   125.4560
 1044.5000   -21.5350     7.3060     8.3780     7.7970     9.9560     0.0150     0.3190     2.5530   123.7480
 1045.0000   -21.8170     5.1520     8.0360     7.2070     9.9620     0.0180     0.3260     2.5530   121.7850
 1045.5000   -22.0990     3.5640     7.7830     6.6160     9.9830     0.0420     0.3320     2.5620   118.8730
 1046.0000   -22.3810     5.0890     7.7830     6.5360    10.0030     0.0690     0.3380     2.5700   117.0240
 1046.5000   -22.5050     6.4910     7.9680     6.7240    10.0230     0.1060     0.3440     2.5760   115.5080
 1047.0000   -22.4570     7.8920     8.1820     7.4190    10.0560     0.0930     0.3430     2.5770   112.4930
 1047.5000   -22.4100     9.1830     8.3950     8.1130    10.1060     0.0680     0.3330     2.5380   110.3910
 1048.0000   -22.3630     9.3050     8.6080     8.7700    10.0870     0.0460     0.3160     2.5630   115.5670
 1048.5000   -22.3390     9.4860     8.8220     9.0160    10.0120     0.0550     0.2950     2.5770   119.8520
 1049.0000   -22.4940     9.6660     9.0160     9.1230    10.0140     0.0620     0.3040     2.5890   122.4950
 1049.5000   -22.6510     9.7930     9.0160     9.2440    10.0140     0.0510     0.3060     2.5710   124.7590
 1050.0000   -22.8050     9.6090     8.9820     9.4390    10.0130     0.0460     0.3070     2.5840   124.6030
 1050.5000   -22.8830     9.5220     8.9450     9.4010     9.9970     0.1030     0.3090     2.6220   123.4000
 1051.0000   -22.7400     9.4360     8.9080     9.3470     9.9820     0.0790     0.3110     2.6080   125.1440
 1051.5000   -22.6040     9.3490     8.8710     9.2930     9.9890     0.0490     0.3130     2.5790   127.4160
 1052.0000   -22.4680     9.2630     8.8340     9.2380    10.0190     0.0350     0.2950     2.5900   128.4540
 1052.5000   -22.3330     9.1770     8.7960     9.1840    10.0480     0.0250     0.3050     2.5630   130.9540
 1053.0000   -22.1970     9.0990     8.7700     9.1300    10.0770     0.0190     0.3130     2.5630   132.7550
 1053.5000   -22.0610     9.1420     8.7110     9.0750    10.1070     0.0120     0.3200     2.5600   132.7700
 1054.0000   -21.9250     9.2030     8.6450     9.0160    10.1330     0.0050     0.3270     2.5650   133.0420
 1054.5000   -21.7880     9.2640     8.5790     9.0160    10.0320    -0.0060     0.3350     2.5490   134.0420
 1055.0000   -21.6510     9.3250     8.5130     9.0160    10.0340    -0.0020     0.3340     2.5380   131.7260
 1055.5000   -21.5360     9.3860     8.3770     9.0160    10.0340     0.0040     0.3320     2.5510   129.3970
 1056.0000   -21.6990     9.4470     8.4550     9.0160    10.0380     0.0100     0.3190     2.5610   128.2370
 1056.5000   -21.8610     9.5270     8.5670     9.0160    10.0430     0.0160     0.3130     2.5730   128.1780
 1057.0000   -22.0220     9.4980     8.6900     9.0160    10.0260     0.0170     0.3110     2.5790   127.3380
 1057.5000   -22.1830     9.4400     8.5490     9.0160    10.0070     0.0130     0.3210     2.5790   125.8840
 1058.0000   -22.3430     9.3820     8.3770     9.0160     9.9880     0.0080     0.3260     2.5800   124.5000
 1058.5000   -22.5030     9.3530     8.7660     9.0900     9.9690     0.0080     0.3360     2.5770   124.3590
 1059.0000   -22.6690     9.7030     9.4390     9.1960     9.9500     0.0080     0.3330     2.5730   125.3770
 1059.5000   -22.7680     9.9880     9.0990     9.3020     9.9310     0.0050     0.3270     2.5640   125.0030
 1060.0000   -22.8450    10.0340     9.0990     9.4080     9.9140     0.0070     0.3280     2.5590   125.1420
 1060.5000   -22.9160    10.0660     9.2070     9.5700     9.8870     0.0260     0.3210     2.5800   126.0860
 1061.0000   -23.0380    10.2760     9.5680     9.8300     9.8560     0.0380     0.3130     2.6010   127.1330
 1061.5000   -23.1790    10.5090     9.9280    10.0900     9.8540     0.0320     0.3000     2.5920   126.0030
 1062.0000   -23.3220    10.7410    10.2530    10.3510     9.8550     0.0270     0.2930     2.5890   123.8490
 1062.5000   -23.4630    10.9740    10.4430    10.6370     9.8560     0.0210     0.2880     2.5870   122.5420
 1063.0000   -23.5940    11.1370    10.4250    10.5400     9.8610     0.0190     0.2860     2.5860   121.5890
 1063.5000   -23.5540    11.0800    10.3660    10.5630     9.8650     0.0190     0.2840     2.5890   121.4140
 1064.0000   -23.4240    11.0170    10.3070    10.5810     9.8700     0.0210     0.2820     2.5910   121.5490
 1064.5000   -23.3000    10.9540    10.1660    10.5990     9.8750     0.0190     0.2800     2.5860   120.4800
 1065.0000   -23.1740    10.8910    10.2020    10.6170     9.8800     0.0180     0.2910     2.5930   119.6730
 1065.5000   -23.0460    10.8340    10.2490    10.6370     9.8840     0.0260     0.3010     2.5970   121.9750
 1066.0000   -22.9190    11.0260    10.2960    10.6640     9.8890     0.0230     0.2790     2.5750   124.6830
 1066.5000   -22.7920    11.4100    10.3480    10.7190     9.8940     0.0230     0.2780     2.5830   125.1300
 1067.0000   -22.7210    11.9860    10.3480    10.7740     9.9080     0.0340     0.2810     2.5930   123.1840
 1067.5000   -22.8000    11.8170    10.3200    10.8340     9.9230     0.0310     0.2830     2.5940   122.3720
 1068.0000   -22.8790    11.4770    10.2960    10.7640     9.9380     0.0270     0.2860     2.5810   120.3450
 1068.5000   -22.9580    11.1370    10.2710    10.6870     9.9530     0.0250     0.2890     2.5850   116.9800
 1069.0000   -23.0370    10.9340    10.2460    10.6090     9.9680     0.0300     0.2910     2.5920   117.1190
 1069.5000   -23.1200    10.9890    10.2210    10.5400     9.9830     0.0360     0.2930     2.5990   118.7570
 1070.0000   -23.3270    11.0500    10.1970    10.5950     9.9950     0.0290     0.2930     2.5920   120.2720
 1070.5000   -23.5370    11.1110    10.1720    10.6560    10.0060     0.0180     0.2910     2.5780   121.8340
 1071.0000   -23.7440    11.1730    10.0660    10.7180    10.0170     0.0090     0.2870     2.5710   121.7170
