~VERSION INFORMATION
 VERS.                2.0:   CWLS LOG ASCII STANDARD - VERSION 2.0
 WRAP.                 NO:   ONE LINE PER DEPTH STEP
~WELL INFORMATION
#MNEM.UNIT      DATA TYPE    INFORMATION
#----------   ------------   ------------------------------
 STRT.F            0.0000:   START DEPTH
 STOP.F         1077.0000:   STOP DEPTH
 STEP.F            0.5000:   STEP LENGTH
 NULL.          -999.2500:   NO VALUE
 COMP.         JOHN BROWN:   COMPANY
 WELL.       JOHN X #66-2:   WELL
 FLD .                NPR:   FIELD
 LOC .       S2 T38N R78W:   LOCATION
 CNTY.            NATRONA:   COUNTY
 STAT.            WYOMING:   STATE
 CTRY. UNITED STATES OF AMERICA:   COUNTRY
 SRVC.     ATLAS WIRELINE:   SERVICE COMPANY
 DATE.        04-DEC-1991:   LOGDATE
 API .     49025224820000:   API NUMBER
~CURVE INFORMATION
#MNEM.UNIT       API CODE    CURVE DESCRIPTION
#----------   ------------   ------------------------------
 DEPT.F                  :   
 TENR.LBS    07 635 01 00:   TENSION
 RILD.OHMM   07 120 46 00:   INDUCTION LOG DEEP RESISTIVITY
 RILM.OHMM   07 120 44 00:   INDUCTION LOG MEDIUM RESISTIVITY
 GRR .GAPI   07 310 01 00:   GAMMA RAY FROM RESISTIVITY
~PARAMETER INFORMATION
#MNEM.UNIT          VALUE    DESCRIPTION
#----------   ------------   ------------------------------
 EKB .F         5189.0000:   Kelly bushing
 EGL .F         5179.0000:   Ground level
 EDF .F         5188.0000:   Drilling floor
 EPD .F         5179.0000:   Permanent datum
 TD  .F         1072.0000:   Total depth
 DATE.        04-DEC-1991:   Date logged
 CLNT.            A2DTECH:   Client Code
 SL  . 1893' FSL & 1937' FEL:   Surface Location
 PD  .                 GL:   Permanent Datum
 LMF .                 KB:   Log Measured From
 DMF .                 KB:   Drilling Measured From
 DAPD.F                10:   Feet Above Permanent Datum
 DD  .F              1072:   Depth driller
 DL  .F              1073:   Depth logger
 BLI .F              1071:   Bottom log interval
 CS1 .IN            9.625:   Casing size
 CBD1.       9.625" @ 40':   Casing driller 1
 CBL1.F                50:   Casing logger 1
 BS1 .IN            7.875:   Bit size
 BSD1.F              1072:   Depth drilled with bit1
 DFT .                AIR:   Type fluid in hole
 LUN .            HL 6387:   Logging unit number
 LUL .             CASPER:   Logging unit location
 WITN.        GARY STRONG:   Witnessed by
 ORIG.         2.5" PRINT:   Origin of data
 UWI .     49025224820000:   Unique Well ID
 DICO. A2D TECHNOLOGIES, INC.:   Digitizing Company
~OTHER INFORMATION
~A    DEPT    TENR       RILD       RILM         GRR  
# ...
  657.0000   -39.6410     7.5210     7.8620   150.3510
  657.5000   -39.5960     7.4470     7.8070   148.4150
  658.0000   -39.5500     7.3730     7.7190   146.2990
  658.5000   -39.5050     7.2980     7.6320   146.0560
  659.0000   -39.4590     7.2240     7.5450   146.8130
  659.5000   -39.4140     7.1500     7.4570   147.4460
  660.0000   -39.3680     7.0750     7.3700   148.1880
  660.5000   -39.3230     7.0010     7.2830   148.7320
  661.0000   -39.2770     6.9270     7.1950   150.9600
  661.5000   -39.2320     6.8520     7.1080   151.8680
  662.0000   -39.1860     6.7780     7.0210   149.7900
  662.5000   -39.1410     6.7040     6.9330   143.0330
  663.0000   -39.0950     6.6290     6.8460   144.3450
  663.5000   -39.0500     6.5550     6.7580   146.6730
  664.0000   -39.0040     6.4400     6.6710   150.3790
  664.5000   -38.9590     6.4690     6.5840   151.3130
  665.0000   -38.9130     6.5320     6.4960   148.9120
  665.5000   -38.8680     6.5960     6.4090   148.8260
  666.0000   -38.8220     6.6590     6.3220   149.2480
  666.5000   -38.7770     6.7220     6.2340   151.0890
  667.0000   -38.7310     6.7850     6.3110   151.3950
  667.5000   -38.6860     6.8490     6.4480   149.1260
  668.0000   -38.6400     6.9120     6.5850   145.6760
  668.5000   -38.5950     6.9750     6.7220   140.6620
  669.0000   -38.5490     7.0380     6.8590   139.8480
  669.5000   -38.5030     7.1020     6.9960   139.6920
  670.0000   -38.4580     7.1650     7.1330   140.9260
  670.5000   -38.4120     7.2280     7.2700   141.9920
  671.0000   -38.3670     7.3120     7.4070   143.2170
  671.5000   -38.3210     7.2990     7.5440   144.2660
  672.0000   -38.2760     7.2800     7.7090   146.1700
  672.5000   -38.2300     7.2610     7.6820   148.9230
  673.0000   -38.1850     7.2420     7.6270   150.9660
  673.5000   -38.1390     7.2230     7.5720   149.2540
  674.0000   -38.0940     7.2040     7.5180   143.6590
  674.5000   -38.0480     7.1860     7.4630   137.4810
  675.0000   -38.0030     7.1670     7.4090   136.7790
  675.5000   -37.9570     7.1480     7.3540   136.3080
  676.0000   -37.9120     7.1290     7.2910   136.6670
  676.5000   -37.8660     7.1100     7.2020   136.9430
  677.0000   -37.8210     7.0910     7.1130   136.9060
  677.5000   -37.7750     7.0730     7.0230   139.6000
  678.0000   -37.7300     7.0510     6.9250   145.4440
  678.5000   -37.6840     7.0840     6.9250   151.2070
  679.0000   -37.6390     7.1200     6.9850   151.5020
  679.5000   -37.5930     7.1570     7.1710   147.4750
  680.0000   -37.5480     7.1800     7.3560   139.9370
  680.5000   -37.5020     7.2880     7.5420   135.4540
  681.0000   -37.4570     7.4780     7.7280   134.4320
  681.5000   -37.4110     7.6680     7.9140   134.4900
  682.0000   -37.3660     7.8580     8.1000   135.5600
  682.5000   -37.3200     8.0470     8.2860   136.6350
  683.0000   -37.2750     8.2490     8.4710   137.6500
  683.5000   -37.2290     8.4650     8.6570   139.4670
  684.0000   -37.1830     8.6820     8.8430   135.9010
  684.5000   -37.1380     8.8980     9.0290   129.8080
  685.0000   -37.0920     9.0890     9.2150   124.9120
  685.5000   -37.0470     9.2230     9.4000   124.3900
  686.0000   -37.0010     9.3430     9.5860   127.6590
  686.5000   -36.9560     9.4640     9.7720   134.4680
  687.0000   -36.9100     9.5840     9.9580   139.3920
  687.5000   -36.8650     9.7040    10.1440   139.0380
  688.0000   -36.8190     9.8240    10.3300   137.2660
  688.5000   -36.7740     9.9440    10.5150   137.5730
  689.0000   -36.7280    10.0640    10.7010   138.3710
  689.5000   -36.6830    10.1840    10.8870   133.5130
  690.0000   -36.6370    10.3190    11.2980   125.8830
  690.5000   -36.5920    10.2610    11.2090   120.1790
  691.0000   -36.5460    10.1960    11.0260   119.4660
  691.5000   -36.5010    10.1300    10.8440   124.2980
  692.0000   -36.4550    10.0650    10.6610   130.0420
  692.5000   -36.4100     9.9990    10.5080   134.4930
  693.0000   -36.3640     9.9340    10.3860   132.9410
  693.5000   -36.3190     9.8680    10.2810   129.5100
  694.0000   -36.2730     9.8030    10.1760   124.3760
  694.5000   -36.2280     9.7370    10.0700   126.3890
  695.0000   -36.1820     9.6720     9.9650   131.6590
  695.5000   -36.1370     9.5970     9.8600   131.2710
  696.0000   -36.0910     9.5700     9.7550   126.7570
  696.5000   -36.0460     9.5390     9.5970   124.7370
  697.0000   -36.0000     9.5080     9.6220   127.6860
  697.5000   -35.9550     9.4770     9.6710   129.1440
  698.0000   -35.9090     9.4460     9.7210   127.8800
  698.5000   -35.8640     9.4150     9.7730   126.1620
  699.0000   -35.8180     9.3840     9.6540   128.3630
  699.5000   -35.7720     9.3530     9.5300   132.8940
  700.0000   -35.7270     9.3220     9.4060   131.4870
  700.5000   -35.6810     9.2920     9.2830   129.8460
  701.0000   -35.6360     9.2550     9.1590   128.8400
  701.5000   -35.5900     9.1630     9.0350   130.2390
  702.0000   -35.5450     9.0510     8.9110   131.6690
  702.5000   -35.4990     8.9380     8.7870   132.2320
  703.0000   -35.4540     8.8260     8.6630   129.9950
  703.5000   -35.4080     8.7130     8.5390   127.1000
  704.0000   -35.3630     8.6010     8.4150   124.3520
  704.5000   -35.3170     8.4880     8.2910   121.6500
  705.0000   -35.2720     8.3760     8.1520   120.0970
  705.5000   -35.2260     8.2640     8.1240   119.6950
  706.0000   -35.1810     8.1510     8.0920   122.5230
  706.5000   -35.1350     8.0390     8.0600   127.2850
  707.0000   -35.0900     7.9880     8.0280   128.6590
  707.5000   -35.0440     7.9630     7.9960   128.4280
  708.0000   -34.9990     7.9390     7.9640   128.3110
  708.5000   -34.9530     7.9140     7.9320   124.6320
  709.0000   -34.9080     7.8890     7.9000   120.1010
  709.5000   -34.8620     7.8640     7.8680   119.1130
  710.0000   -34.8170     7.8390     7.8350   121.6110
  710.5000   -34.7710     7.8150     7.8030   121.6700
  711.0000   -34.7260     7.7900     7.7710   119.5880
  711.5000   -34.6800     7.7650     7.7200   117.6780
  712.0000   -34.6350     7.7400     7.7490   117.8070
  712.5000   -34.5890     7.7200     7.8210   120.8120
  713.0000   -34.5440     7.8210     7.8940   124.1040
  713.5000   -34.4980     7.9040     7.9660   125.8470
  714.0000   -34.4520     7.9880     8.0390   126.2550
  714.5000   -34.4070     8.0720     8.1520   126.7040
  715.0000   -34.3610     8.1520     8.0030   123.4880
  715.5000   -34.3160     7.9310     7.6630   118.8120
  716.0000   -34.2700     7.7180     7.3220   118.6570
  716.5000   -34.2250     7.5060     6.9810   122.7110
  717.0000   -34.1790     7.2930     6.7740   126.8360
  717.5000   -34.1340     7.0800     6.7160   130.8670
  718.0000   -34.0880     6.8680     6.6590   135.1480
  718.5000   -34.0430     6.6550     6.6020   135.3190
  719.0000   -33.9970     6.4420     6.5450   130.8550
  719.5000   -33.9520     6.2110     6.4880   128.3470
  720.0000   -33.9060     6.2650     6.4310   128.8470
  720.5000   -33.8610     6.3250     6.3740   128.9700
  721.0000   -33.8150     6.3840     6.3250   129.1150
  721.5000   -33.7700     6.4430     6.6110   129.9440
  722.0000   -33.7240     6.5030     6.8630   132.1700
  722.5000   -33.6790     6.5620     6.9530   132.1220
  723.0000   -33.6330     6.6220     6.9900   128.6690
  723.5000   -33.5880     6.6810     7.0280   124.3270
  724.0000   -33.5420     6.7400     7.0650   126.3510
  724.5000   -33.4970     6.8000     7.1030   132.0390
  725.0000   -33.4510     6.8400     7.1400   134.9480
  725.5000   -33.4060     6.8800     7.1780   135.0420
  726.0000   -33.3600     6.9200     7.2150   133.3370
  726.5000   -33.3150     6.9600     7.2530   133.7000
  727.0000   -33.2690     7.0000     7.2900   134.2390
  727.5000   -33.2240     7.0390     7.3280   134.8910
  728.0000   -33.1780     7.0790     7.3650   135.5320
  728.5000   -33.1330     7.1200     7.4030   136.8830
  729.0000   -33.0870     7.1610     7.4460   138.7490
  729.5000   -33.0410     7.1820     7.4460   138.4150
