~VERSION INFORMATION
 VERS.                2.0:   CWLS LOG ASCII STANDARD - VERSION 2.0
 WRAP.                 NO:   ONE LINE PER DEPTH STEP
~WELL INFORMATION
#MNEM.UNIT      DATA TYPE    INFORMATION
#----------   ------------   ------------------------------
 STRT.F          200.0000:   START DEPTH
 STOP.F         3080.0000:   STOP DEPTH
 STEP.F            0.5000:   STEP LENGTH
 NULL.          -999.2500:   NO VALUE
 COMP.    FENIX & SCISSON:   COMPANY
 WELL. FENIX NPR 3 "AX" #55-33:   WELL
 FLD .        TEAPOT DOME:   FIELD
 LOC .      S33 T38N R78W:   LOCATION
 CNTY.            NATRONA:   COUNTY
 STAT.            WYOMING:   STATE
 CTRY. UNITED STATES OF AMERICA:   COUNTRY
 SRVC.           BIRDWELL:   SERVICE COMPANY
 DATE.        08-FEB-1978:   LOGDATE
 API .     49025105740000:   API NUMBER
~CURVE INFORMATION
#MNEM.UNIT       API CODE    CURVE DESCRIPTION
#----------   ------------   ------------------------------
 DEPT.F                  :   
 CALD.IN     45 280 60 00:   CALIPER FROM DENSITY LOG
 GRD .GAPI   45 310 01 00:   GAMMA RAY FROM DENSITY LOG
 RHOB.G/C3   45 350 01 00:   BULK DENSITY
 CORR.G/C3   45 356 01 00:   DENSITY CORRECTION
 NPOR.DEC    42 890 03 00:   ALPHA PROCESSED NEUTRON POROSITY
 SPR .MV     05 010 01 00:   SPONTANEOUS POTENTIAL
 SN  .OHMM   05 040 16 00:   SHORT NORMAL 16"
 ILD .OHMM   05 120 46 00:   DEEP INDUCTION RESISTIVITY
~PARAMETER INFORMATION
#MNEM.UNIT          VALUE    DESCRIPTION
#----------   ------------   ------------------------------
 EKB .F         5197.0000:   Kelly bushing
 EGL .F         5187.0000:   Ground level
 EDF .F            0.0000:   Drilling floor
 TD  .F         3084.0000:   Total depth
 DATE.        08-FEB-1978:   Date logged
 CLNT.            A2DTECH:   Client Code
 SL  . 2000' FSL & 2310' FEL:   Surface Location
 PD  .                 GL:   Permanent Datum
 EPD .F              5187:   Elevation Permanent Datum
 LMF .                 KB:   Log Measured From
 DMF .                 KB:   Drilling Measured From
 DAPD.F                10:   Feet Above Permanent Datum
 DD  .F              3084:   Depth driller
 DL  .F              3080:   Depth logger
 BLI .F              3074:   Bottom log interval
 TLI .F               200:   Top log interval
 CS1 .IN            8.625:   Casing size
 CBD1.      8.625" @ 229':   Casing driller 1
 CBL1.F               230:   Casing logger 1
 BS1 .IN            7.875:   Bit size
 BSD1.F              3084:   Depth drilled with bit1
 DFT .     LIGNOSULFONATE:   Type fluid in hole
 DFD .                9.2:   Density
 DFV .                 30:   Viscosity
 DFPH.                  9:   pH
 DFL .                  5:   Fluid loss
 MSS .           FLOWLINE:   Source of sample
 RMS .OHMM            1.5:   Rm
 MST .F                62:   Rm Meas. temp.
 RMF .OHMM            1.2:   Rmf
 MFST.F                66:   Rmf Meas. temp.
 RMC .OHMM            2.8:   Rmc
 MCST.F                65:   Rmc Meas. temp.
 MFSS.               MEAS:   Source Rmf.
 RMB .OHMM            .82:   Rm. at BHT
 BHT .F               114:   BHT.
 TCS .HRS               3:   Time Circ. stopped
 MRT .F               114:   Maximum recorded temp.
 LUN .               2958:   Logging unit number
 LUL .               CASP:   Logging unit location
 ENGI.            POINTER:   Recorded By
 WITN.         HARRINGTON:   Witnessed by
 ORIG.           5" PRINT:   Origin of data
 UWI .     49025105740000:   Unique Well ID
 DICO. A2D TECHNOLOGIES, INC.:   Digitizing Company
~OTHER INFORMATION
~A   DEPT       CALD      GRD       RHOB        CORR      NPOR        SPR         SN        ILD   
# ...
  240.5000     9.8754    84.8312     2.1357     0.2611  -999.2500   -59.9462     3.9657   295.5552
  241.0000    10.1925    83.6425     2.1084     0.2691  -999.2500   -54.9650     5.1637    56.1454
  241.5000    10.4502    83.6428     2.1384     0.2791  -999.2500   -38.8219     5.7741     1.4575
  242.0000    10.4304    82.4541     2.1723     0.2331  -999.2500   -36.6325     6.0249     2.1812
  242.5000    10.2719    79.0852     2.1933     0.2571  -999.2500   -36.8358     6.1575     1.8367
  243.0000    10.2323    77.8964     2.2403     0.2911  -999.2500   -37.4377     6.2507     1.7273
  243.5000    10.3117    78.8876     2.4292     0.2911  -999.2500   -38.8367     6.2117    56.3073
  244.0000     9.8361    80.4734     2.5572     0.2451  -999.2500   -40.0363     6.3067     6.5518
  244.5000     9.5587    81.4647     2.5672     0.1871  -999.2500   -40.0401     6.4455     5.2173
  245.0000     9.5191    82.2578     2.5002     0.1192  -999.2500   -39.6454     6.6331     5.3722
  245.5000     9.5191    82.6545     2.5002     0.1072  -999.2500   -39.4500     6.8273     5.7642
  246.0000     9.6579    81.2673     2.4982     0.1072  -999.2500   -39.4538     6.9775     6.4030
  246.5000     9.5787    76.7091     2.5013     0.1112  -999.2500   -39.6569     7.0819     7.1621
  247.0000     9.5787    68.1866     2.5052     0.1172  -999.2500   -40.0592     7.1878     8.2951
  247.5000     9.5787    62.2406     2.5358     0.1432  -999.2500   -40.2623     7.2450     8.4173
  248.0000     9.7175    58.6729     2.5642     0.0992  -999.2500   -41.6605     7.3027     7.9754
  248.5000     9.1626    60.4569     2.5032     0.1012  -999.2500   -43.0586     7.2584     7.8188
  249.0000     9.2815    66.9980     2.5002     0.1192  -999.2500   -51.8272     7.1671     7.8292
  249.5000     9.3609    76.5125     2.4893     0.1352  -999.2500   -52.6271     6.9796     8.2293
  250.0000     9.4799    79.8824     2.4793     0.1532  -999.2500   -46.4555     6.7947     7.3740
  250.5000     9.5592    83.2523     2.4723     0.1372  -999.2500   -47.4548     6.7547     6.6535
  251.0000     9.6583    82.8563     2.4713     0.1352  -999.2500   -48.0557     6.7638     6.3457
  251.5000     9.6981    82.4602     2.4703     0.1292  -999.2500   -48.6566     6.7706     6.1366
  252.0000     9.7774    80.0818     2.4653     0.1172  -999.2500   -49.2574     6.8245     6.0579
  252.5000     9.7774    79.8839     2.4633     0.1152  -999.2500   -49.4599     6.8313     6.0671
  253.0000     9.7577    80.8753     2.4633     0.1152  -999.2500   -49.4633     6.7899     6.1163
  253.5000     9.7181    82.4614     2.4613     0.1192  -999.2500   -49.4666     6.7508     6.2087
  254.0000     9.6983    83.4529     2.4673     0.1212  -999.2500   -49.8682     6.7101     6.3906
  254.5000     9.6785    84.4444     2.4663     0.1232  -999.2500   -50.0706     6.6705     6.5480
  255.0000     9.7975    85.0394     2.4743     0.1252  -999.2500   -50.2731     6.8196     6.8187
  255.5000     9.6587    86.2292     2.4873     0.1332  -999.2500   -50.2764     7.0668     7.0184
  256.0000     9.5795    87.2208     2.5023     0.1252  -999.2500   -50.4788     7.2725     7.2239
  256.5000     9.7183    85.2387     2.4823     0.0952  -999.2500   -50.2831     7.4337     7.3331
  257.0000     9.7779    81.6707     2.4693     0.0812  -999.2500   -50.2864     7.4412     7.2894
  257.5000     9.7779    79.4903     2.4703     0.0932  -999.2500   -50.4887     7.2957     7.2000
  258.0000     9.8176    75.5257     2.4793     0.0972  -999.2500   -50.8901     7.1518     7.1571
  258.5000     9.8176    75.3277     2.4663     0.0992  -999.2500   -50.8934     7.0131     7.0653
  259.0000     9.8573    76.5174     2.4683     0.1012  -999.2500   -50.8967     6.8759     6.9773
  259.5000     9.8772    79.6899     2.4733     0.1012  -999.2500   -51.4970     6.7426     6.8429
  260.0000     9.8574    77.5092     2.4803     0.0972  -999.2500   -51.6992     6.6107     6.7110
  260.5000     9.9169    76.5182     2.4533     0.0952  -999.2500   -51.7025     6.5253     6.6249
  261.0000     9.9170    75.9237     2.4463     0.0952  -999.2500   -51.9047     6.4421     6.5400
  261.5000     9.9171    75.9239     2.4353     0.0972  -999.2500   -51.9073     6.3600     6.4598
  262.0000     9.9171    76.7172     2.4483     0.1092  -999.2500   -51.7140     6.4127     6.5121
  262.5000     9.9171    77.9071     2.4573     0.1192  -999.2500   -52.1128     6.5538     6.6106
  263.0000     9.9370    79.8901     2.4643     0.1252  -999.2500   -52.5138     6.6519     6.7118
  263.5000     9.9371    80.8817     2.4703     0.1292  -999.2500   -52.5171     6.6586     6.7662
  264.0000     9.9371    80.2871     2.4773     0.1292  -999.2500   -52.5203     6.6653     6.7739
  264.5000     9.9967    76.7185     2.4883     0.1252  -999.2500   -52.7224     6.6720     6.7810
  265.0000     9.9571    78.8999     2.4793     0.1093  -999.2500   -52.9245     6.6798     6.7894
  265.5000     9.9373    81.2796     2.4514     0.1053  -999.2500   -53.3255     6.6857     6.7984
  266.0000     9.9373    80.2883     2.4514     0.0973  -999.2500   -53.3287     6.6926     6.8050
  266.5000     9.9770    79.6938     2.4634     0.1033  -999.2500   -53.1330     6.7000     6.8130
  267.0000     9.9374    78.9010     2.4644     0.1073  -999.2500   -53.1362     6.7079     6.8218
  267.5000     9.9375    78.5047     2.4684     0.1113  -999.2500   -53.1394     6.7147     6.8766
  268.0000     9.9375    79.0998     2.4774     0.1233  -999.2500   -53.1426     6.7681     6.9341
  268.5000     9.9376    80.6864     2.4774     0.1253  -999.2500   -52.9469     6.7749     6.9420
  269.0000     9.9178    83.2646     2.4784     0.1253  -999.2500   -53.1489     6.7818     6.9973
  269.5000     9.9575    83.0664     2.4834     0.1253  -999.2500   -52.9533     6.8357     7.0550
  270.0000     9.9377    77.7130     2.4764     0.1253  -999.2500   -52.7577     6.8913     7.1122
  270.5000     9.9576    79.1013     2.4774     0.1273  -999.2500   -52.5622     6.9944     7.1712
  271.0000     9.9775    80.0931     2.4824     0.1333  -999.2500   -52.5654     7.0500     7.1298
  271.5000     9.9973    77.5156     2.4874     0.1353  -999.2500   -52.7667     7.1061     7.1380
  272.0000    10.0172    79.1022     2.4924     0.1353  -999.2500   -52.5712     7.0631     7.0954
  272.5000    10.0173    80.2923     2.4974     0.1353  -999.2500   -52.5744     7.0238     7.0545
  273.0000     9.9777    81.0857     2.4944     0.1293  -999.2500   -52.5776     6.9812     6.9653
  273.5000    10.0174    81.0860     2.4904     0.1253  -999.2500   -52.7796     6.8933     6.8324
  274.0000    10.0373    78.9051     2.4894     0.1193  -999.2500   -52.5841     6.8515     6.7448
  274.5000    10.0373    78.3104     2.4904     0.1113  -999.2500   -52.3892     6.7642     6.6148
  275.0000    10.0373    78.9055     2.4944     0.1093  -999.2500   -52.5905     6.6330     6.5312
  275.5000    10.0572    79.6991     2.4944     0.1093  -999.2500   -52.3950     6.4595     6.4922
  276.0000    10.0573    83.8641     2.4884     0.1073  -999.2500   -52.1996     6.3332     6.4114
  276.5000    10.0573    85.2527     2.4824     0.1053  -999.2500   -52.0042     6.2524     6.4200
  277.0000    10.0375    79.5016     2.4764     0.1073  -999.2500   -52.0074     6.3022     6.5170
  277.5000    10.0574    78.1137     2.4754     0.1053  -999.2500   -51.8120     6.3523     6.5698
  278.0000    10.0773    80.4939     2.4604     0.1073  -999.2500   -51.4180     6.4484     6.6691
  278.5000    10.0773    80.4942     2.4704     0.1133  -999.2500   -51.2226     6.5144     6.7245
  279.0000    10.1171    80.4945     2.4774     0.1313  -999.2500   -50.8280     6.6244     6.7322
  279.5000    10.1369    81.0898     2.4894     0.1473  -999.2500   -50.8313     6.7421     6.7398
  280.0000    10.2163    82.6768     2.4974     0.1473  -999.2500   -50.8346     6.7958     6.7945
  280.5000    10.2362    84.8587     2.4984     0.1273  -999.2500   -50.8379     6.8038     6.8022
