~VERSION INFORMATION
 VERS.                2.0:   CWLS LOG ASCII STANDARD - VERSION 2.0
 WRAP.                 NO:   ONE LINE PER DEPTH STEP
~WELL INFORMATION
#MNEM.UNIT      DATA TYPE    INFORMATION
#----------   ------------   ------------------------------
 STRT.F          448.5000:   START DEPTH
 STOP.F         4490.5000:   STOP DEPTH
 STEP.F            0.5000:   STEP LENGTH
 NULL.          -999.2500:   NO VALUE
 COMP.  FENIX AND SCISSON:   COMPANY
 WELL. FENIX AND SCISSON NPR 3 #11-10:   WELL
 FLD .              NPR-3:   FIELD
 LOC .      S10 T38N R78W:   LOCATION
 CNTY.            NATRONA:   COUNTY
 STAT.            WYOMING:   STATE
 CTRY. UNITED STATES OF AMERICA:   COUNTRY
 SRVC.              WELEX:   SERVICE COMPANY
 DATE.        22-DEC-1978:   LOGDATE
 API .     49025107450000:   API NUMBER
~CURVE INFORMATION
#MNEM.UNIT       API CODE    CURVE DESCRIPTION
#----------   ------------   ------------------------------
 DEPT.F                  :   
 SPR .MV     07 010 01 00:   SPONTANEOUS POTENTIAL
 ILM .OHMM   07 120 44 00:   INDUCTION LOG MEDIUM
 ILD .OHMM   07 120 46 00:   DEEP RESISTIVITY
 SGRD.OHMM   07 220 01 00:   SHALLOW SHORT GUARD RESISTIVITY
 TENR.LBS    07 635 01 00:   TENSION FROM RESISTIVITY
 NPHI.DEC    42 890 03 00:   NEUTRON POROSITY SANDSTONE
 CALD.IN     45 280 60 00:   CALIPER FROM DENSITY LOG
 GRD .GAPI   45 310 01 00:   GAMMA RAY FROM DENSITY LOG
 RHOB.G/C3   45 350 01 00:   BULK DENSITY
 DRHO.G/C3   45 356 01 00:   DENSITY CORRECTION
 TEND.LBS    45 635 01 00:   TENSION FROM DENSITY
~PARAMETER INFORMATION
#MNEM.UNIT          VALUE    DESCRIPTION
#----------   ------------   ------------------------------
 EKB .F         5275.0000:   Kelly bushing
 EGL .F         5265.0000:   Ground level
 EDF .F            0.0000:   Drilling floor
 EPD .F         5265.0000:   Permanent datum
 TD  .F         4500.0000:   Total depth
 DATE.        22-DEC-1978:   Date logged
 CLNT.            A2DTECH:   Client Code
 SL  . 300' FNL & 500' FWL:   Surface Location
 DD  .F              4500:   Depth driller
 DL  .F              4481:   Depth logger
 BLI .F              4479:   Bottom log interval
 TLI .F               450:   Top log interval
 CS1 .IN            8.625:   Casing size
 CBD1.      8.625" @ 500':   Casing driller 1
 CBL1.F               473:   Casing logger 1
 BS1 .IN            7.875:   Bit size
 BSD1.F              4500:   Depth drilled with bit1
 DFT .               LSND:   Type fluid in hole
 DFD .                8.7:   Density
 DFV .                 49:   Viscosity
 DFPH.               11.0:   pH
 DFL .                7.6:   Fluid loss
 MSS .           FLOWLINE:   Source of sample
 RMS .OHMM            1.1:   Rm
 MST .F                86:   Rm Meas. temp.
 RMF .OHMM           0.73:   Rmf
 MFST.F                86:   Rmf Meas. temp.
 RMC .OHMM           1.68:   Rmc
 MCST.F                86:   Rmc Meas. temp.
 MFSS.               CALC:   Source Rmf.
 MCSS.               CALC:   Source Rmc.
 RMB .OHMM           0.72:   Rm. at BHT
 BHT .F               130:   BHT.
 TCS .HRS             3.5:   Time Circ. stopped
 MRT .F               130:   Maximum recorded temp.
 LUN .               9685:   Logging unit number
 LUL .             CASPER:   Logging unit location
 ENGI.            BENTSEN:   Recorded By
 WITN.           DINSMORE:   Witnessed by
 ORIG.           5" PRINT:   Origin of data
 UWI .     49025107450000:   Unique Well ID
 DICO. A2D TECHNOLOGIES, INC.:   Digitizing Company
~OTHER INFORMATION
~A  DEPTH      SPR        ILM        ILD       SGRD       TENR       NPHI       CALD        GRD       RHOB       DRHO       TEND
# ...
 1546.5000   -66.4151     6.7129     7.1745     7.3824   824.9518     0.3575    15.3999    85.6016     2.4474     0.1204  1092.2716
 1547.0000   -66.3111     6.7193     7.0879     7.3378   825.3994     0.3584    15.4015    84.3245     2.4355     0.1333  1092.5566
 1547.5000   -66.2963     6.6792     7.0439     7.3043   825.8470     0.3591    15.4030    83.7137     2.4047     0.1440  1092.8416
 1548.0000   -66.2815     6.6871     6.9878     7.2995   826.2946     0.3594    15.3716    83.4948     2.3785     0.1546  1093.1265
 1548.5000   -66.2667     6.6804     6.8948     7.2702   826.7421     0.3593    15.3418    83.4411     2.3680     0.1593  1093.4114
 1549.0000   -66.2518     6.6389     6.8348     7.2615   827.1897     0.3596    15.3120    83.6860     2.3666     0.1549  1093.6963
 1549.5000   -66.2370     6.6147     6.8059     7.2364   827.6373     0.3595    15.2780    84.1499     2.3742     0.1535  1093.9812
 1550.0000   -66.2512     6.5863     6.7176     7.2080   828.1206     0.3595    15.2461    84.8375     2.3864     0.1506  1094.3110
 1550.5000   -66.2815     6.5055     6.6225     7.1250   827.9871     0.3594    15.2436    87.0862     2.5084     0.0935  1095.2216
 1551.0000   -66.3118     6.4246     6.4927     7.0419   827.8419     0.3557    15.2411    87.9929     2.5334     0.1058  1096.3022
 1551.5000   -66.3717     6.4013     6.4987     6.9589   827.6968     0.3521    15.2375    88.4526     2.5297     0.1120  1097.3829
 1552.0000   -66.4652     6.4067     6.4600     6.8945   827.5517     0.3481    15.1959    88.2198     2.5065     0.1092  1098.4635
 1552.5000   -66.5043     6.3784     6.5109     6.8763   827.4066     0.3442    15.1982    87.9564     2.5021     0.1049  1099.5442
 1553.0000   -66.6447     6.3733     6.5187     6.8831   827.2615     0.3402    15.2036    87.4392     2.4999     0.1021  1100.6249
 1553.5000   -66.7215     6.3796     6.5718     6.8899   827.1163     0.3372    15.2216    86.6002     2.4948     0.1023  1101.7056
 1554.0000   -66.7081     6.3848     6.6254     6.8967   826.9712     0.3356    15.2448    85.5038     2.4919     0.1025  1102.7863
 1554.5000   -66.6948     6.4344     6.6794     6.9349   826.8261     0.3359    15.2724    84.5626     2.4950     0.1042  1103.8669
 1555.0000   -66.6815     6.4397     6.7260     6.9917   826.6810     0.3393    15.2904    83.6216     2.4989     0.1059  1104.9476
 1555.5000   -66.6681     6.4450     6.7419     7.0135   826.5358     0.3444    15.2920    82.6803     2.5013     0.1076  1106.0283
 1556.0000   -66.6548     6.4503     6.7968     7.0577   826.3907     0.3486    15.2873    81.8830     2.5021     0.1123  1107.1090
 1556.5000   -66.6415     6.4558     6.8395     7.0775   826.2456     0.3513    15.2692    81.3395     2.5007     0.1170  1108.1896
 1557.0000   -66.6281     6.4612     6.8604     7.0843   826.1005     0.3500    15.2395    81.0495     2.4971     0.1052  1109.2703
 1557.5000   -66.6148     6.4667     6.9163     7.0910   825.9553     0.3474    15.2045    81.4624     2.4949     0.0903  1110.3510
 1558.0000   -66.6015     6.4722     6.9549     7.0978   825.8102     0.3442    15.1767    82.3692     2.5078     0.0559  1111.4316
 1558.5000   -66.5856     6.4777     7.0005     7.1045   825.6651     0.3413    15.1489    83.2759     2.5177     0.0500  1112.5123
 1559.0000   -66.5728     6.4832     7.0654     7.1113   825.5200     0.3395    15.1359    83.9921     2.5133     0.0487  1113.5930
 1559.5000   -66.5599     6.4887     7.0952     7.1182   825.3749     0.3391    15.1230    84.6956     2.5150     0.0414  1114.6737
 1560.0000   -66.5471     6.5077     7.1037     7.1277   825.2297     0.3397    15.1272    85.1453     2.5316     0.0325  1115.7544
 1560.5000   -66.5342     6.5601     7.0860     7.1817   825.0846     0.3407    15.1451    85.3973     2.5558     0.0312  1116.8351
 1561.0000   -66.5214     6.6301     7.0928     7.2010   824.9395     0.3431    15.1592    85.7206     2.5634     0.0360  1117.9156
 1561.5000   -66.5081     6.7315     7.0703     7.3042   824.7944     0.3466    15.1613    86.1250     2.5658     0.0418  1118.9963
 1562.0000   -66.4948     6.8134     6.9962     7.3640   824.6492     0.3500    15.1633    86.3770     2.5720     0.0499  1120.0770
 1562.5000   -66.4828     6.8912     6.9354     7.4243   824.5041     0.3509    15.1586    86.5127     2.5751     0.0516  1121.1577
 1563.0000   -66.6373     6.9966     6.9936     7.4851   824.3590     0.3496    15.1448    86.3946     2.5759     0.0488  1122.2384
 1563.5000   -66.7534     7.0765     7.1740     7.5306   824.2139     0.3478    15.1398    86.0228     2.5791     0.0474  1123.3191
 1564.0000   -66.7378     7.1626     7.3107     7.5557   824.0687     0.3463    15.1419    85.3971     2.5807     0.0507  1124.3998
 1564.5000   -66.7621     7.2096     7.3937     7.5979   823.9236     0.3446    15.1440    83.8864     2.5800     0.0539  1125.4805
 1565.0000   -66.9025     7.2157     7.4006     7.6269   823.7785     0.3429    15.1577    83.0048     2.5786     0.0571  1126.5612
 1565.5000   -66.9941     7.2218     7.4075     7.6657   823.6334     0.3413    15.1633    82.7938     2.5765     0.0573  1127.6418
 1566.0000   -66.9807     7.2280     7.4145     7.6733   823.4883     0.3399    15.1653    83.2534     2.5646     0.0544  1128.7224
 1566.5000   -66.9674     7.1959     7.3703     7.6809   823.3431     0.3390    15.1673    84.4524     2.5572     0.0531  1129.8031
 1567.0000   -66.9541     7.1903     7.3772     7.6884   823.1980     0.3386    15.1543    85.5140     2.5603     0.0564  1130.8838
 1567.5000   -66.9407     7.1477     7.3841     7.6960   823.0529     0.3387    15.1565    83.0746     2.5634     0.0650  1131.9645
 1568.0000   -66.9274     7.0553     7.3947     7.7036   822.9078     0.3392    15.1586    81.9539     2.5613     0.0733  1133.0452
 1568.5000   -66.9141     6.9160     7.5119     7.7112   822.7626     0.3410    15.1604    81.1606     2.5561     0.0690  1134.1259
 1569.0000   -66.9007     6.7794     7.6768     7.7188   822.6175     0.3428    15.1433    80.7858     2.5532     0.0542  1135.2065
 1569.5000   -66.8874     6.7382     7.7948     7.7657   822.4724     0.3436    15.1350    80.6647     2.5525     0.0513  1136.2872
 1570.0000   -66.8741     6.6957     7.8964     7.7878   822.3273     0.3427    15.1306    80.7973     2.5595     0.0636  1137.3679
 1570.5000   -66.7564     6.6105     7.8608     7.7969   822.1821     0.3396    15.1243    81.1837     2.5633     0.0667  1138.4485
 1571.0000   -66.5894     6.6164     7.6590     7.8043   822.0370     0.3366    15.1264    81.6743     2.5597     0.0625  1139.5292
 1571.5000   -66.3069     6.6278     7.5175     7.8118   821.8919     0.3347    15.1285    82.4941     2.5530     0.0566  1140.6099
 1572.0000   -66.2258     6.6811     7.4333     7.8192   821.7468     0.3332    15.1409    83.6403     2.5524     0.0538  1141.6906
 1572.5000   -66.0648     6.7257     7.3875     7.8267   821.6016     0.3322    15.1475    84.3235     2.5465     0.0555  1142.7712
 1573.0000   -66.0519     6.7414     7.3606     7.8341   821.4565     0.3329    15.1649    84.1125     2.5383     0.0602  1143.8519
 1573.5000   -66.1872     6.7934     7.3678     7.8417   821.3114     0.3340    15.1668    83.2271     2.5422     0.0695  1144.9326
 1574.0000   -66.3225     6.8657     7.3749     7.8494   821.1663     0.3345    15.1688    82.5574     2.5558     0.0817  1146.0133
 1574.5000   -66.4578     6.9543     7.3583     7.8572   821.0212     0.3332    15.1711    82.3321     2.5642     0.0894  1147.0940
 1575.0000   -66.4450     7.0103     7.3130     7.8649   820.8760     0.3326    15.1878    82.1069     2.5689     0.0941  1148.1746
 1575.5000   -66.7284     7.0667     7.2948     7.8727   820.7309     0.3354    15.1899    81.8817     2.5682     0.0973  1149.2552
 1576.0000   -66.7141     7.1236     7.2733     7.8790   820.5858     0.3392    15.1920    81.7332     2.5631     0.0975  1150.3359
 1576.5000   -66.7007     7.1569     7.2888     7.8338   820.4407     0.3416    15.1940    81.7466     2.5579     0.0962  1151.0128
