~VERSION INFORMATION
 VERS.                2.0:   CWLS LOG ASCII STANDARD - VERSION 2.0
 WRAP.                 NO:   ONE LINE PER DEPTH STEP
~WELL INFORMATION
#MNEM.UNIT      DATA TYPE    INFORMATION
#----------   ------------   ------------------------------
 STRT.F           14.0000:   START DEPTH
 STOP.F         3246.0000:   STOP DEPTH
 STEP.F            0.5000:   STEP LENGTH
 NULL.          -999.2500:   NO VALUE
 COMP.   LAWRENCE ALLISON:   COMPANY
 WELL. LAWRENCE "34X" #11:   WELL
 FLD .             N.P.R.:   FIELD
 LOC .      S34 T38N R78W:   LOCATION
 CNTY.            NATRONA:   COUNTY
 STAT.            WYOMING:   STATE
 CTRY. UNITED STATES OF AMERICA:   COUNTRY
 SRVC.      DRESSER ATLAS:   SERVICE COMPANY
 DATE.        02-MAY-1985:   LOGDATE
 API .     49025110530001:   API NUMBER
~CURVE INFORMATION
#MNEM.UNIT       API CODE    CURVE DESCRIPTION
#----------   ------------   ------------------------------
 DEPT.F                  :   
 CNC .DEC    42 890 03 00:   NEUTRON POROSITY
 CALD.IN     45 280 60 00:   CALIPER FROM DENSITY LOG
 CORR.G/C3   45 356 01 00:   DENSITY CORRECTION
 RHOB.G/C3   45 350 01 00:   BULK DENSITY
 GRR .GAPI   07 310 01 00:   GAMMA RAY FROM RESISTIVITY
 SPR .MV     07 010 01 00:   SPONTANEOUS POTENTIAL FROM RES.
 TENR.LBS    06 635 01 00:   TENSION FROM RESISTIVITY
 RILD.OHMM   07 120 46 00:   DEEP INDUCTION RESISTIVITY
 RILM.OHMM   07 120 44 00:   INDUCTION LOG MEDIUM RESISTIVITY
 RFOC.OHMM   07 220 04 00:   RESISTIVITY FOCUSED LOG RES.
~PARAMETER INFORMATION
#MNEM.UNIT          VALUE    DESCRIPTION
#----------   ------------   ------------------------------
 EKB .F         5099.0000:   Kelly bushing
 TD  .F         3239.0000:   Total depth
 CLNT.            A2DTECH:   Client Code
 PD  .                 GL:   Permanent Datum
 EPD .F              5087:   Elevation Permanent Datum
 LMF .                 KB:   Log Measured From
 DMF .                 KB:   Drilling Measured From
 DAPD.F                12:   Feet Above Permanent Datum
 DATE.        02-MAY-1985:   Date Logged [DD-MMM-YYYY]
 DD  .F              3239:   Depth driller
 DL  .F              3242:   Depth logger
 BLI .F              3294:   Bottom log interval
 CS1 .IN            8.625:   Casing size
 CBD1.      8.625" @ 487':   Casing driller 1
 CBL1.F               487:   Casing logger 1
 BS1 .IN            7.875:   Bit size
 BSD1.F              3239:   Depth drilled with bit1
 DFT .            KCL GEL:   Type fluid in hole
 DFD .                9.1:   Density
 DFV .                 35:   Viscosity
 DFPH.                  8:   pH
 DFL .                9.8:   Fluid loss
 MSS .           FLOWLINE:   Source of sample
 RMS .OHMM           0.27:   Rm
 MST .F                68:   Rm Meas. temp.
 RMF .OHMM           0.20:   Rmf
 MFST.F                68:   Rmf Meas. temp.
 MFSS.               MEAS:   Source Rmf.
 RMC .OHMM           0.34:   Rmc
 MCST.F                68:   Rmc Meas. temp.
 MCSS.               CALC:   Source Rmc.
 RMB .OHMM           0.15:   Rm. at BHT
 BHT .F               126:   BHT.
 TCS .HRS               3:   Time Circ. stopped
 MRT .F               126:   Maximum recorded temp.
 LUN .               6274:   Logging unit number
 LUL .               GLTE:   Logging unit location
 ENGI.       MACK/EDWARDS:   Recorded By
 WITN.             STRONG:   Witnessed by
 ORIG.           5" PRINT:   Origin of data
 UWI .     49025110260000:   Unique Well ID
 DICO. A2D TECHNOLOGIES, INC.:   Digitizing Company
~OTHER INFORMATION
~A   DEPT      CNC       CALD       CORR       RHOB        GRR        SPR       TENR       RILD       RILM       RFOC   
# ...
 2459.5000     0.2723     9.9601    -0.0115     2.5357    83.7783   -58.1334   -71.6598     7.2663     6.5611     7.0324
 2460.0000     0.2682     9.9612     0.0054     2.5335    82.0203   -58.2628   -65.4092     7.3773     6.5690     7.1885
 2460.5000     0.2616     9.9623     0.0430     2.5336    81.1287   -58.2425   -67.0520     7.4382     6.3528     7.3481
 2461.0000     0.2595     9.9634     0.0641     2.5360    82.0956   -58.3719   -60.8015     7.2960     6.1446     7.4058
 2461.5000     0.2552     9.9645     0.0508     2.5391    84.2112   -58.4963   -62.1153     6.9589     6.1538     7.0176
 2462.0000     0.2528     9.9656     0.0151     2.5392    87.5535   -58.3263   -47.9722     6.6835     6.1612     6.4215
 2462.5000     0.2536     9.9667    -0.0056     2.5385    90.0557   -58.4608   -41.7217     6.5087     6.1243     6.0813
 2463.0000     0.2542     9.9678    -0.0054     2.5401    90.5399   -58.5903   -43.3644     6.5168     6.0492     5.9652
 2463.5000     0.2520     9.9689     0.0158     2.5432    88.3335   -58.8643   -44.7048     6.4797     6.0145     6.1419
 2464.0000     0.2499     9.9699     0.0495     2.5478    83.8849   -58.8440   -46.3203     6.3370     5.8566     6.7281
 2464.5000     0.2495     9.9710     0.0671     2.5495    84.3692   -58.8234   -47.6347     5.8966     5.4059     7.0705
 2465.0000     0.2728     9.9721     0.0448     2.5458    85.5714   -58.9532   -48.9485     5.7009     5.0775     6.2500
 2465.5000     0.2880     9.9732     0.0256     2.5421    88.0371   -59.0776   -50.1513     5.7097     5.0851     5.6795
 2466.0000     0.2901     9.9743     0.0198     2.5445    90.3150   -59.2121   -51.5761     5.7168     5.0912     6.0146
 2466.5000     0.2897     9.9759     0.0290     2.5484    91.2477   -59.3415   -52.8744     5.6451     5.1328     6.3619
 2467.0000     0.2768     9.9624     0.0397     2.5485    91.2834   -59.1664   -54.2359     5.5742     5.1389     5.9027
 2467.5000     0.2677     9.9493     0.0444     2.5448    93.3371   -58.8468   -55.5979     5.5425     5.0389     5.4389
 2468.0000     0.2635     9.9362     0.0401     2.5374    96.5119   -58.6767   -57.1609     5.7073     4.9077     5.0814
 2468.5000     0.2616     9.9087     0.0174     2.5308    96.1972   -58.5060   -58.4747     5.9160     5.0882     5.2666
 2469.0000     0.2600     9.8659    -0.0043     2.5249    90.9870   -58.4815   -59.7884     6.0900     5.4593     5.7295
 2469.5000     0.2555     9.8231    -0.0131     2.5220    87.4354   -58.3115   -61.1022     6.3127     5.8171     6.3650
 2470.0000     0.2495     9.7956    -0.0084     2.5245    84.7806   -58.2912   -54.8411     6.5891     6.1131     6.4160
 2470.5000     0.2467     9.7821     0.0067     2.5299    82.7984   -58.4257   -41.0376     6.8300     6.3360     6.4254
 2471.0000     0.2470     9.7690     0.0069     2.5321    81.7131   -58.5509   -34.7871     7.0368     6.5216     6.6136
 2471.5000     0.2481     9.7558     0.0041     2.5292    81.0762   -58.6796   -36.4298     7.1898     6.3074     7.1453
 2472.0000     0.2462     9.7432     0.0074     2.5278    80.4393   -58.6587   -37.7436     7.1490     6.1445     7.5090
 2472.5000     0.2432     9.7301     0.0076     2.5286    80.9919   -58.6339   -39.0574     7.1062     6.2809     7.3128
 2473.0000     0.2479     9.7170    -0.0254     2.5250    83.6589   -58.6136   -40.3712     7.0658     6.4649     7.1208
 2473.5000     0.2497     9.7187    -0.0324     2.5221    84.1341   -58.5933   -41.6850     6.9793     6.5177     6.9838
 2474.0000     0.2475     9.6908    -0.0232     2.5222    82.1609   -58.4234   -43.0407     6.8916     6.4805     6.9943
 2474.5000     0.2451     9.6632    -0.0065     2.5262    78.6092   -58.4031   -36.7489     6.7581     6.3550     7.0027
 2475.0000     0.2441     9.6353     0.0266     2.5394    80.2145   -58.2331   -38.3910     6.7197     6.3626     7.0111
 2475.5000     0.2459     9.5925     0.0387     2.5555    83.6135   -58.3625   -39.7054     6.6816     6.2846     7.0196
 2476.0000     0.2575     9.5641     0.0449     2.5638    85.0191   -58.1875   -41.0192     6.6919     6.2469     6.9314
 2476.5000     0.2694     9.5510     0.0407     2.5654    86.3846   -58.0175   -42.3330     6.7468     6.2563     6.8919
 2477.0000     0.2697     9.5379     0.0259     2.5595    86.8688   -57.8475   -43.6468     6.8022     6.3073     6.8526
 2477.5000     0.2614     9.5401     0.0185     2.5551    87.3530   -57.6776   -45.0078     6.9539     6.4029     6.8629
 2478.0000     0.2438     9.5418     0.0143     2.5530    86.7161   -57.5076   -46.6033     7.0648     6.5906     6.9189
 2478.5000     0.2359     9.5139     0.0206     2.5523    85.1824   -57.4873   -47.9171     7.1694     6.7452     7.1217
 2479.0000     0.2329     9.5008     0.0253     2.5539    82.9760   -57.1676   -41.3383     7.3802     6.8411     7.2798
 2479.5000     0.2310     9.4733     0.0224     2.5565    79.6070   -57.1467   -50.5454     7.4926     6.9448     7.4931
 2480.0000     0.2309     9.4597     0.0152     2.5579    77.6753   -57.1220   -51.8592     7.6067     7.0014     7.6067
 2480.5000     0.2361     9.4318     0.0094     2.5505    77.0295   -57.1018   -53.1769     7.6161     7.0098     7.7759
 2481.0000     0.2434     9.4187     0.0066     2.5424    79.9890   -57.0815   -54.5386     7.5727     7.0183     7.7873
 2481.5000     0.2383     9.4056     0.0053     2.5433    81.5943   -57.0612   -56.1295     7.3656     7.0268     7.5838
 2482.0000     0.2334     9.3929     0.0085     2.5478    80.9574   -57.0409   -57.4433     7.0362     6.8927     7.4886
 2482.5000     0.2436     9.3798     0.0135     2.5524    78.5268   -57.1707   -50.8645     6.8500     6.5293     7.2929
 2483.0000     0.2498     9.3667     0.0150     2.5540    78.5628   -57.5992   -52.5072     6.6709     6.4009     7.0534
 2483.5000     0.2503     9.3685     0.0062     2.5496    80.3106   -57.8733   -46.2181     6.4984     6.4106     6.8217
 2484.0000     0.2491     9.3706    -0.0056     2.5421    86.0422   -58.3021   -40.0062     6.4169     6.3721     6.6435
 2484.5000     0.2472     9.3813    -0.0069     2.5394    88.5443   -58.7309   -33.7557     6.3362     6.3377     6.6056
 2485.0000     0.2445     9.3889     0.0143     2.5440    87.2348   -58.8603   -20.2698     6.3443     6.3453     6.6615
 2485.5000     0.2423     9.3754     0.0369     2.5516    85.0284   -59.1445   -21.5836     6.3540     6.3091     6.8094
 2486.0000     0.2489     9.3775     0.0403     2.5577    83.9431   -59.2695   -22.8974     6.3619     6.2318     6.8629
 2486.5000     0.2639     9.3757     0.0253     2.5592    83.7545   -59.3983   -24.2119     6.3698     6.0271     6.5030
 2487.0000     0.2655     9.3662     0.0104     2.5541    83.5663   -59.6774   -33.0900     6.3316     5.8696     6.2895
 2487.5000     0.2508     9.3680     0.0019     2.5467    84.0594   -59.8069   -41.9680     6.2109     5.7959     6.1676
 2488.0000     0.2363     9.3697    -0.0009     2.5356    84.9920   -59.7815   -28.1532     6.2186     5.7229     6.1769
 2488.5000     0.2351     9.3569    -0.0022     2.5320    85.2431   -59.6115   -14.6674     6.2033     5.7301     6.2273
 2489.0000     0.2431     9.3587    -0.0005     2.5359    84.6151   -59.4416     7.0400     6.1909     5.7386     6.4991
 2489.5000     0.2476     9.3556     0.0072     2.5382    83.5298   -59.2716    13.2905     6.1557     5.7455     6.6434
 2490.0000     0.2388     9.3469     0.0164     2.5390    81.7719   -59.1016    27.1053     6.1208     5.7524     6.6514
 2490.5000     0.2367     9.3490     0.0211     2.5369    81.5835   -58.9311    25.4626     6.0879     5.7594     6.5226
 2491.0000     0.2381     9.3508     0.0198     2.5355    82.3008   -58.7566    24.1302     6.0954     5.7663     6.2984
 2491.5000     0.2407     9.3377     0.0138     2.5348    83.2334   -58.5866    22.5061     6.0607     5.6156     6.0191
 2492.0000     0.2449     9.3547     0.0068     2.5327    84.1661   -58.4167    13.6280     5.9434     5.4675     5.9418
 2492.5000     0.2637     9.3564     0.0025     2.5268    85.0987   -58.3964    12.3142     5.7897     5.3260     5.9920
