~VERSION INFORMATION
 VERS.                2.0:   CWLS LOG ASCII STANDARD - VERSION 2.0
 WRAP.                 NO:   ONE LINE PER DEPTH STEP
~WELL INFORMATION
#MNEM.UNIT      DATA TYPE    INFORMATION
#----------   ------------   ------------------------------
 STRT.F          748.0000:   START DEPTH
 STOP.F         2734.0000:   STOP DEPTH
 STEP.F            0.5000:   STEP LENGTH
 NULL.          -999.2500:   NO VALUE
 COMP.    FENIX & SCISSON:   COMPANY
 WELL. FENIX NPR 3 "SHX" #84-4:   WELL
 FLD .             TEAPOT:   FIELD
 LOC .       S4 T38N R78W:   LOCATION
 CNTY.            NATRONA:   COUNTY
 STAT.            WYOMING:   STATE
 CTRY. UNITED STATES OF AMERICA:   COUNTRY
 SRVC.              WELEX:   SERVICE COMPANY
 DATE.        08-MAY-1980:   LOGDATE
 API .     49025108050000:   API NUMBER
~CURVE INFORMATION
#MNEM.UNIT       API CODE    CURVE DESCRIPTION
#----------   ------------   ------------------------------
 DEPT.F                  :   
 CALD.IN     45 280 60 00:   CALIPER FROM DENSITY LOG
 GRD .GAPI   45 310 01 00:   GAMMA RAY FROM DENSITY LOG
 RHOB.G/C3   45 350 01 00:   BULK DENSITY
 CORR.G/C3   45 356 01 00:   DENSITY CORRECTION
~PARAMETER INFORMATION
#MNEM.UNIT          VALUE    DESCRIPTION
#----------   ------------   ------------------------------
 EKB .F         5244.0000:   Kelly bushing
 EGL .F         5234.0000:   Ground level
 EDF .F            0.0000:   Drilling floor
 TD  .F         2733.0000:   Total depth
 DATE.        08-MAY-1980:   Date logged
 CLNT.            A2DTECH:   Client Code
 SL  . 7461' FNL & 383' FEL:   Surface Location
 PD  .                 GL:   Permanent Datum
 EPD .F              5234:   Elevation Permanent Datum
 LMF .                 KB:   Log Measured From
 DMF .                 KB:   Drilling Measured From
 DAPD.F                10:   Feet Above Permanent Datum
 DD  .F              2700:   Depth driller
 DL  .F              2733:   Depth logger
 BLI .F              2731:   Bottom log interval
 TLI .F               752:   Top log interval
 CS1 .IN            9.625:   Casing size
 CBD1.      9.625" @ 260':   Casing driller 1
 BS1 .IN              8.5:   Bit size
 BSD1.F              2700:   Depth drilled with bit1
 DFT .                AIR:   Type fluid in hole
 MRT .F               118:   Maximum recorded temp.
 LUN .                  2:   Logging unit number
 ENGI.           TORTILLE:   Recorded By
 WITN.              AMEND:   Witnessed by
 ORIG.           5" PRINT:   Origin of data
 UWI .     49025108050000:   Unique Well ID
 DICO. A2D TECHNOLOGIES, INC.:   Digitizing Company
~OTHER INFORMATION
~A   DEPT       CALD       GRD        RHOB       CORR 
# ...
 1405.0000     8.9720    80.9390     2.4660     0.0630
 1405.5000     8.9750    81.0910     2.4730     0.0490
 1406.0000     8.9770    81.2770     2.4700     0.0440
 1406.5000     8.9800    81.0450     2.4800     0.0520
 1407.0000     8.9850    80.7240     2.4960     0.0710
 1407.5000     8.9900    80.3980     2.5110     0.0890
 1408.0000     8.9950    80.0800     2.5140     0.0840
 1408.5000     9.0000    79.7540     2.5000     0.0730
 1409.0000     9.0050    79.5030     2.5090     0.0850
 1409.5000     9.0100    79.5430     2.5250     0.0980
 1410.0000     9.0150    79.6440     2.5250     0.0860
 1410.5000     9.0190    79.7490     2.5170     0.0810
 1411.0000     9.0160    79.8520     2.5150     0.0910
 1411.5000     9.0120    79.9550     2.5280     0.1010
 1412.0000     9.0080    80.0590     2.5410     0.1060
 1412.5000     9.0040    80.1620     2.5450     0.1010
 1413.0000     9.0000    80.2660     2.5280     0.0900
 1413.5000     8.9960    80.3690     2.5070     0.0780
 1414.0000     8.9920    80.4720     2.4860     0.0680
 1414.5000     8.9880    80.5760     2.4640     0.0440
 1415.0000     8.9840    80.6790     2.4470     0.0280
 1415.5000     8.9800    80.7830     2.4340     0.0220
 1416.0000     8.9790    80.8860     2.4290     0.0220
 1416.5000     8.9780    80.9900     2.4400     0.0370
 1417.0000     8.9770    81.0930     2.4480     0.0400
 1417.5000     8.9760    81.1970     2.4430     0.0320
 1418.0000     8.9750    81.3000     2.4370     0.0360
 1418.5000     8.9740    81.4030     2.4450     0.0420
 1419.0000     8.9730    81.5080     2.4540     0.0470
 1419.5000     8.9720    81.6060     2.4600     0.0530
 1420.0000     8.9710    81.7180     2.4750     0.0580
 1420.5000     8.9690    81.8150     2.4770     0.0640
 1421.0000     8.9680    81.8660     2.4800     0.0660
 1421.5000     8.9670    81.4950     2.4900     0.0660
 1422.0000     8.9660    81.1850     2.5060     0.0870
 1422.5000     8.9650    80.8460     2.5030     0.0840
 1423.0000     8.9640    80.5220     2.4960     0.0800
 1423.5000     8.9630    80.1940     2.4890     0.0740
 1424.0000     8.9620    79.8650     2.4810     0.0680
 1424.5000     8.9610    79.5370     2.4800     0.0650
 1425.0000     8.9600    79.2110     2.4840     0.0650
 1425.5000     8.9590    78.8800     2.4880     0.0670
 1426.0000     8.9580    78.5540     2.4930     0.0690
 1426.5000     8.9570    78.2290     2.4990     0.0720
 1427.0000     8.9560    77.8790     2.5040     0.0730
 1427.5000     8.9550    77.6780     2.5100     0.0960
 1428.0000     8.9540    77.7620     2.5090     0.0900
 1428.5000     8.9530    77.8670     2.4870     0.0790
 1429.0000     8.9520    77.9690     2.4790     0.0690
 1429.5000     8.9510    78.0730     2.5010     0.0770
 1430.0000     8.9490    78.1760     2.4880     0.0810
 1430.5000     8.9480    78.2800     2.4840     0.0750
 1431.0000     8.9470    78.3830     2.4790     0.0660
 1431.5000     8.9460    78.4860     2.4740     0.0580
 1432.0000     8.9450    78.5930     2.4640     0.0490
 1432.5000     8.9440    78.6890     2.4540     0.0420
 1433.0000     8.9430    78.8020     2.4590     0.0430
 1433.5000     8.9420    78.9250     2.4860     0.0680
 1434.0000     8.9410    79.4500     2.5140     0.0840
 1434.5000     8.9400    79.9880     2.5070     0.0800
 1435.0000     8.9410    80.5330     2.4950     0.0740
 1435.5000     8.9420    81.0920     2.4870     0.0740
 1436.0000     8.9440    81.3160     2.4940     0.0830
 1436.5000     8.9450    81.2960     2.5000     0.0930
 1437.0000     8.9460    81.2990     2.5010     0.1010
 1437.5000     8.9470    81.3010     2.5010     0.0970
 1438.0000     8.9490    81.2990     2.4950     0.0850
 1438.5000     8.9500    81.3000     2.4860     0.0730
 1439.0000     8.9510    81.3000     2.4810     0.0690
 1439.5000     8.9520    81.3000     2.4920     0.0770
 1440.0000     8.9530    81.3000     2.4970     0.0800
 1440.5000     8.9550    81.3000     2.4820     0.0620
 1441.0000     8.9560    81.3000     2.4660     0.0580
 1441.5000     8.9570    81.3020     2.4820     0.0750
 1442.0000     8.9580    81.2940     2.5050     0.0890
 1442.5000     8.9600    81.3710     2.5190     0.1010
 1443.0000     8.9610    81.5650     2.5120     0.1000
 1443.5000     8.9620    81.7500     2.4970     0.0890
 1444.0000     8.9630    81.9370     2.4840     0.0790
 1444.5000     8.9650    82.1250     2.4800     0.0690
 1445.0000     8.9660    82.3120     2.4810     0.0690
 1445.5000     8.9670    82.5000     2.4830     0.0660
 1446.0000     8.9680    82.6870     2.4840     0.0610
 1446.5000     8.9690    82.8750     2.4790     0.0570
 1447.0000     8.9710    83.0620     2.4710     0.0530
 1447.5000     8.9720    83.2500     2.4700     0.0530
 1448.0000     8.9730    83.4360     2.4780     0.0540
 1448.5000     8.9740    83.6260     2.4860     0.0620
 1449.0000     8.9760    83.8120     2.4940     0.0690
 1449.5000     8.9770    83.9960     2.5020     0.0760
 1450.0000     8.9780    84.2040     2.5110     0.0840
 1450.5000     8.9790    84.2470     2.5160     0.0850
 1451.0000     8.9800    84.0590     2.5150     0.0830
 1451.5000     8.9820    83.9090     2.5050     0.0790
 1452.0000     8.9830    83.7060     2.4960     0.0750
 1452.5000     8.9840    83.8420     2.4870     0.0710
 1453.0000     8.9850    84.2280     2.4770     0.0670
 1453.5000     8.9870    84.6020     2.4700     0.0650
 1454.0000     8.9880    84.9670     2.4910     0.0700
 1454.5000     8.9890    85.3670     2.5070     0.0930
 1455.0000     8.9900    85.4160     2.4980     0.1020
 1455.5000     8.9920    85.2120     2.4920     0.0900
 1456.0000     8.9930    85.0400     2.4940     0.0820
 1456.5000     8.9940    84.8710     2.5020     0.0820
 1457.0000     8.9950    84.6770     2.5040     0.1000
 1457.5000     8.9960    84.5300     2.4890     0.0910
 1458.0000     8.9980    84.3260     2.4820     0.0780
 1458.5000     8.9990    84.9520     2.4870     0.0640
 1459.0000     9.0000    85.7750     2.4760     0.0500
 1459.5000     9.0010    86.5600     2.4540     0.0410
 1460.0000     9.0030    87.5140     2.4530     0.0480
 1460.5000     9.0040    87.4460     2.4700     0.0540
 1461.0000     9.0050    87.0380     2.4720     0.0530
 1461.5000     9.0060    86.8070     2.4720     0.0500
 1462.0000     9.0070    86.5850     2.4760     0.0510
 1462.5000     9.0090    86.3240     2.5060     0.0650
 1463.0000     9.0100    86.0930     2.5300     0.0930
 1463.5000     9.0110    85.8480     2.5240     0.1100
 1464.0000     9.0120    85.6060     2.5170     0.1060
 1464.5000     9.0140    85.3650     2.5170     0.0980
 1465.0000     9.0150    85.1230     2.5250     0.1060
 1465.5000     9.0160    84.8810     2.5370     0.1210
 1466.0000     9.0170    84.6390     2.5310     0.1260
 1466.5000     9.0180    84.3970     2.5040     0.1060
 1467.0000     9.0200    84.1550     2.4800     0.0750
 1467.5000     9.0200    83.9130     2.4510     0.0460
 1468.0000     9.0200    83.6710     2.4550     0.0340
 1468.5000     9.0200    83.4290     2.4670     0.0450
 1469.0000     9.0200    83.1870     2.4770     0.0490
 1469.5000     9.0200    82.9450     2.4860     0.0470
 1470.0000     9.0200    82.7030     2.4810     0.0440
 1470.5000     9.0200    82.4620     2.4740     0.0420
 1471.0000     9.0200    82.2190     2.4720     0.0390
 1471.5000     9.0200    81.9780     2.4720     0.0370
 1472.0000     9.0200    81.7380     2.4900     0.0340
 1472.5000     9.0200    81.4870     2.5020     0.0530
 1473.0000     9.0200    81.3090     2.4930     0.0560
 1473.5000     9.0200    81.3280     2.4820     0.0470
 1474.0000     9.0200    81.7190     2.4700     0.0370
 1474.5000     9.0200    82.1300     2.4660     0.0410
 1475.0000     9.0200    82.5530     2.4670     0.0540
 1475.5000     9.0200    82.9580     2.4680     0.0560
 1476.0000     9.0200    83.4030     2.4570     0.0450
 1476.5000     9.0200    83.7670     2.4420     0.0380
 1477.0000     9.0200    84.2530     2.4390     0.0470
 1477.5000     9.0200    83.5070     2.4570     0.0600
