~VERSION INFORMATION
 VERS.                2.0:   CWLS LOG ASCII STANDARD - VERSION 2.0
 WRAP.                 NO:   ONE LINE PER DEPTH STEP
~WELL INFORMATION
#MNEM.UNIT      DATA TYPE    INFORMATION
#----------   ------------   ------------------------------
 STRT.F           40.0000:   START DEPTH
 STOP.F         3032.5000:   STOP DEPTH
 STEP.F            0.5000:   STEP LENGTH
 NULL.          -999.2500:   NO VALUE
 COMP.   TESORO PETROLEUM:   COMPANY
 WELL. TESORO NPR 3 "AX" #51-15:   WELL
 FLD .        TEAPOT DOME:   FIELD
 LOC .      S15 T38N R78W:   LOCATION
 CNTY.            NATRONA:   COUNTY
 STAT.            WYOMING:   STATE
 CTRY. UNITED STATES OF AMERICA:   COUNTRY
 SRVC.       SCHLUMBERGER:   SERVICE COMPANY
 DATE.        21-JUL-1969:   LOGDATE
 API .     49025100240000:   API NUMBER
~CURVE INFORMATION
#MNEM.UNIT       API CODE    CURVE DESCRIPTION
#----------   ------------   ------------------------------
 DEPT.F                  :   
 CALD.IN     45 280 60 00:   CALIPER FROM DENSITY LOG
 GRD .GAPI   45 310 01 00:   GAMMA RAY FROM DENSITY LOG
 RHOB.G/C3   45 350 01 00:   BULK DENSITY
 CORR.G/C3   45 356 01 00:   DENSITY CORRECTION
 GR  .GAPI   35 310 01 00:   GAMMA RAY FROM GAMMA RAY LOG
 SPR .MV     05 010 01 00:   SPONTANEOUS POTENTIAL
 ASN .OHMM   05 041 16 00:   AMPLIFIED SHORT NORMAL 16"
 ILD .OHMM   05 120 46 00:   DEEP INDUCTION RESISTIVITY
~PARAMETER INFORMATION
#MNEM.UNIT          VALUE    DESCRIPTION
#----------   ------------   ------------------------------
 EKB .F         5235.0000:   Kelly bushing
 EGL .F         5222.0000:   Ground level
 EDF .F            0.0000:   Drilling floor
 TD  .F         3027.0000:   Total depth
 DATE.        21-JUL-1969:   Date logged
 CLNT.            A2DTECH:   Client Code
 SL  . 2000' FEL & 660' FNL:   Surface Location
 PD  .                 GL:   Permanent Datum
 EPD .F              5222:   Elevation Permanent Datum
 LMF .                 KB:   Log Measured From
 DMF .                 KB:   Drilling Measured From
 DAPD.F                13:   Feet Above Permanent Datum
 DD  .F              3027:   Depth driller
 DL  .F              3025:   Depth logger
 BLI .F              3024:   Bottom log interval
 TLI .F              2604:   Top log interval
 CS1 .IN            10.75:   Casing size
 CBD1.      10.75" @ 622':   Casing driller 1
 BS1 .IN                9:   Bit size
 BSD1.F              3027:   Depth drilled with bit1
 DFT .          FRESH/GEL:   Type fluid in hole
 DFD .                9.7:   Density
 DFV .                 65:   Viscosity
 DFPH.                9.5:   pH
 DFL .                  7:   Fluid loss
 MSS .           FLOWLINE:   Source of sample
 RMS .OHMM           2.48:   Rm
 MST .F                80:   Rm Meas. temp.
 RMF .OHMM           2.80:   Rmf
 MFST.F                80:   Rmf Meas. temp.
 MFSS.               MEAS:   Source Rmf.
 RMB .OHMM           2.20:   Rm. at BHT
 BHT .F               106:   BHT.
 TCS .HRS               1:   Time Circ. stopped
 MRT .F               106:   Maximum recorded temp.
 LUN .               4507:   Logging unit number
 LUL .               CSPR:   Logging unit location
 ENGI.           CHAMPLIN:   Recorded By
 WITN.                MAY:   Witnessed by
 ORIG.           5" PRINT:   Origin of data
 UWI .     49025100240000:   Unique Well ID
 DICO. A2D TECHNOLOGIES, INC.:   Digitizing Company
~OTHER INFORMATION
~A   DEPT     CALD        GRD       RHOB       CORR         GR        SPR        ASN          ILD 
# ...
 2429.5000     9.4130   121.3890     2.5700     0.1610  -999.2500   -19.8780     4.9830     4.3090
 2430.0000     9.4190   119.5870     2.5250     0.0520  -999.2500   -19.8830     4.9310     4.3210
 2430.5000     9.4240   113.2520     2.5710     0.0560  -999.2500   -19.8810     5.0140     4.4040
 2431.0000     9.4320   109.1300     2.5530     0.1330  -999.2500   -19.8810     5.1160     4.4800
 2431.5000     9.4230   106.0160     2.5590     0.1260  -999.2500   -19.8820     5.1930     4.5570
 2432.0000     9.3970   103.0160     2.5680     0.0800  -999.2500   -19.8810     5.2630     4.6350
 2432.5000     9.3730   102.2060     2.5740     0.0550  -999.2500   -19.8820     5.3830     4.7120
 2433.0000     9.3490   102.6560     2.5690     0.0470  -999.2500   -19.8810     5.5390     4.7890
 2433.5000     9.3250   104.4760     2.5640     0.0570  -999.2500   -19.8820     5.6790     4.8670
 2434.0000     9.3010   106.1520     2.5620     0.0610  -999.2500   -19.8790     5.8420     4.9440
 2434.5000     9.2770   105.9330     2.5770     0.0490  -999.2500   -19.8820     5.9420     5.0220
 2435.0000     9.2530   105.4900     2.5950     0.0430  -999.2500   -19.8780     5.9380     5.0990
 2435.5000     9.2330   104.8510     2.6100     0.0430  -999.2500   -19.8640     5.9530     5.1770
 2436.0000     9.2280   101.8380     2.6370     0.0440  -999.2500   -19.5910     5.9640     5.2550
 2436.5000     9.2240    99.1840     2.6250     0.0400  -999.2500   -19.2850     5.9670     5.3330
 2437.0000     9.2200    98.4750     2.6060     0.1000  -999.2500   -18.9740     6.0250     5.4100
 2437.5000     9.2160    98.3850     2.5850     0.0900  -999.2500   -18.6700     6.1340     5.5210
 2438.0000     9.2120    99.7930     2.5610     0.0560  -999.2500   -18.3210     6.2470     5.6820
 2438.5000     9.2080   103.2640     2.5650     0.0450  -999.2500   -17.7940     6.4770     5.8420
 2439.0000     9.2040   107.0140     2.5780     0.0450  -999.2500   -17.1450     6.7600     6.0040
 2439.5000     9.2000   111.8150     2.6050     0.0370  -999.2500   -16.5260     7.0420     6.1650
 2440.0000     9.1950   114.4450     2.5850     0.0210  -999.2500   -15.8600     7.2840     6.3260
 2440.5000     9.2020   113.0700     2.5600     0.0580  -999.2500   -15.4670     7.4410     6.4860
 2441.0000     9.2400   109.1480     2.5570     0.0500  -999.2500   -15.3910     7.5980     6.6490
 2441.5000     9.2760   106.3920     2.5700     0.0320  -999.2500   -15.2230     7.7540     6.8060
 2442.0000     9.3140   107.0000     2.5680     0.0150  -999.2500   -15.1610     7.8730     6.9770
 2442.5000     9.3510   107.7710     2.5760     0.0110  -999.2500   -15.2580     7.9550     7.0330
 2443.0000     9.3890   107.5140     2.5680     0.0220  -999.2500   -16.3440     7.9810     6.9920
 2443.5000     9.4250   105.9520     2.5650     0.0200  -999.2500   -16.9320     8.0070     6.9640
 2444.0000     9.4630   106.0570     2.5620     0.0310  -999.2500   -17.2620     8.0220     6.9340
 2444.5000     9.4720   107.9380     2.5660     0.0250  -999.2500   -17.6330     8.1050     6.8990
 2445.0000     9.4670   106.1230     2.5650     0.0160  -999.2500   -18.1390     8.2350     6.8720
 2445.5000     9.4640   100.8650     2.5600     0.0150  -999.2500   -18.6720     8.3570     6.8570
 2446.0000     9.4610   100.8550     2.5690     0.0180  -999.2500   -19.6260     8.4660     7.0990
 2446.5000     9.4570   105.3850     2.5790     0.0210  -999.2500   -20.4970     8.6100     7.3960
 2447.0000     9.4530   109.3920     2.5910     0.0210  -999.2500   -20.8860     8.6780     7.6940
 2447.5000     9.4500   113.2400     2.5850     0.0390  -999.2500   -21.4310     9.1300     7.9850
 2448.0000     9.4460   117.2670     2.5500     0.0300  -999.2500   -21.9520    10.1160     8.2860
 2448.5000     9.4420   110.7610     2.5670     0.0180  -999.2500   -23.3730    12.1660     8.5790
 2449.0000     9.4390   100.6710     2.5780     0.0040  -999.2500   -24.6750    13.7890     8.8210
 2449.5000     9.4340    89.9460     2.6010    -0.0080  -999.2500   -26.0130    15.4500     8.8240
 2450.0000     9.4410    80.9630     2.6300    -0.0080  -999.2500   -27.3940    15.4500     8.7930
 2450.5000     9.4550    70.7130     2.6450     0.0020  -999.2500   -28.2820    13.3630     8.4190
 2451.0000     9.4680    89.4990     2.6370     0.0130  -999.2500   -27.3920    11.5850     8.1000
 2451.5000     9.4820   100.1140     2.6330     0.0230  -999.2500   -25.9820    10.3950     7.7630
 2452.0000     9.4950   111.2990     2.6150     0.0360  -999.2500   -24.9350    10.0340     7.4180
 2452.5000     9.5090   114.2250     2.5860     0.0480  -999.2500   -24.5990     8.2710     7.1740
 2453.0000     9.5150   114.9660     2.5700     0.0590  -999.2500   -24.2520     8.1410     7.0680
 2453.5000     9.5070   113.0300     2.5600     0.0590  -999.2500   -24.0360     8.0480     6.9370
 2454.0000     9.4880   106.7290     2.5700     0.0580  -999.2500   -23.5890     8.1140     6.8120
 2454.5000     9.4690   107.9930     2.5860     0.0470  -999.2500   -23.1750     8.1440     6.6960
 2455.0000     9.4510   110.6520     2.5900     0.0540  -999.2500   -23.0250     8.1490     6.5640
 2455.5000     9.4320   113.3950     2.5820     0.0590  -999.2500   -23.0220     8.1610     6.4160
 2456.0000     9.4140   116.3260     2.5720     0.0490  -999.2500   -23.0720     8.0730     6.2900
 2456.5000     9.3950   121.1280     2.5550     0.0410  -999.2500   -22.6380     7.7490     6.1350
 2457.0000     9.3770   125.7620     2.5790     0.0430  -999.2500   -21.7590     7.4380     6.0410
 2457.5000     9.3580   129.1920     2.5760     0.0480  -999.2500   -20.9140     7.1110     6.1000
 2458.0000     9.3400   133.0430     2.5750     0.0410  -999.2500   -20.6650     7.0220     6.3280
 2458.5000     9.3210   135.8300     2.5870     0.0370  -999.2500   -20.6850     7.4610     6.3840
 2459.0000     9.3110   131.6940     2.5990     0.0420  -999.2500   -21.2570     7.9520     6.5610
 2459.5000     9.3340   113.7600     2.5540     0.0630  -999.2500   -22.0930     8.4370     6.8620
 2460.0000     9.3900    99.4470     2.5600     0.0960  -999.2500   -22.8780     8.9450     7.1660
 2460.5000     9.4430    99.7860     2.5810     0.0730  -999.2500   -23.7640     9.1570     7.4760
 2461.0000     9.4970    99.1170     2.6190     0.0350  -999.2500   -24.2510     9.0740     7.7860
 2461.5000     9.5520    98.5760     2.6120     0.0540  -999.2500   -24.1970     9.0210     8.0130
 2462.0000     9.5930    98.8690     2.5960     0.0500  -999.2500   -24.2480     8.9840     7.8860
 2462.5000     9.5940    99.4620     2.5930     0.0510  -999.2500   -24.8350     8.9600     7.7760
 2463.0000     9.5930    99.7750     2.6190     0.0510  -999.2500   -25.4250     8.9080     7.6490
 2463.5000     9.5740    99.5740     2.6130     0.0510  -999.2500   -26.1180     8.8320     7.5340
 2464.0000     9.5580   100.9130     2.6010     0.0510  -999.2500   -26.1820     8.8000     7.4130
 2464.5000     9.5410   103.3630     2.5880     0.0480  -999.2500   -26.0390     8.5240     7.2940
 2465.0000     9.5240   105.5310     2.5770     0.0390  -999.2500   -25.3990     8.2750     7.1760
 2465.5000     9.5070   107.8670     2.5890     0.0350  -999.2500   -24.8030     8.2630     7.0550
 2466.0000     9.4910   108.9010     2.5670     0.0370  -999.2500   -24.2910     8.2410     6.9340
 2466.5000     9.4750   106.8000     2.5600     0.0380  -999.2500   -24.8510     8.2790     6.8540
 2467.0000     9.4740   100.8230     2.5670     0.0420  -999.2500   -25.3590     8.3120     6.9830
 2467.5000     9.4740   100.7080     2.5740     0.0280  -999.2500   -25.3940     8.3130     7.1400
 2468.0000     9.4740   108.1790     2.5810     0.0120  -999.2500   -25.3700     8.3430     7.2990
 2468.5000     9.4730   113.0030     2.5880     0.0170  -999.2500   -24.8050     8.5730     7.4550
 2469.0000     9.4690   108.6540     2.5930     0.0260  -999.2500   -24.8530     8.9720     7.6140
 2469.5000     9.4660   101.3790     2.5870     0.0340  -999.2500   -25.4640     9.5430     7.7670
