~VERSION INFORMATION
 VERS.                2.0:   CWLS LOG ASCII STANDARD - VERSION 2.0
 WRAP.                 NO:   ONE LINE PER DEPTH STEP
~WELL INFORMATION
#MNEM.UNIT      DATA TYPE    INFORMATION
#----------   ------------   ------------------------------
 STRT.F          200.0000:   START DEPTH
 STOP.F         3058.0000:   STOP DEPTH
 STEP.F            0.5000:   STEP LENGTH
 NULL.          -999.2500:   NO VALUE
 COMP.    FENIX & SCISSON:   COMPANY
 WELL. FENIX & SCISSON "A" #45-34:   WELL
 FLD .              N P R:   FIELD
 LOC .      S34 T39N R78W:   LOCATION
 CNTY.            NATRONA:   COUNTY
 STAT.            WYOMING:   STATE
 CTRY. UNITED STATES OF AMERICA:   COUNTRY
 SRVC.              WELEX:   SERVICE COMPANY
 DATE.        11-MAY-1977:   LOGDATE
 API .     49025103760000:   API NUMBER
~CURVE INFORMATION
#MNEM.UNIT       API CODE    CURVE DESCRIPTION
#----------   ------------   ------------------------------
 DEPT.F                  :   
 GRD .GAPI   45 310 01 00:   GAMMA RAY FROM DENSITY LOG
 CALD.IN     45 280 60 00:   CALIPER FROM DENSITY LOG
 RHOB.G/C3   45 350 01 00:   BULK DENSITY
 CORR.G/C3   45 356 01 00:   DENSITY CORRECTION
 SPR .MV     07 010 01 00:   SPONTANEOUS POTENTIAL
 ILD .OHMM   07 120 46 00:   DEEP INDUCTION RESISTIVITY
 ILM .OHMM   07 120 44 00:   INDUCTION LOG MEDIUM RESISTIVITY
 GURD.OHMM   07 220 05 00:   GUARD LOG RESISTIVITY
~PARAMETER INFORMATION
#MNEM.UNIT          VALUE    DESCRIPTION
#----------   ------------   ------------------------------
 EKB .F         5123.0000:   Kelly bushing
 EGL .F         5113.0000:   Ground level
 EDF .F            0.0000:   Drilling floor
 EPD .F            0.0000:   Permanent datum
 TD  .F         3060.0000:   Total depth
 DATE.        11-MAY-1977:   Date logged
 CLNT.            A2DTECH:   Client Code
 SL  . 2310' FSL & 2310' FWL:   Surface Location
 PD  .                 GL:   Permanent Datum
 DD  .F              3060:   Depth driller
 DL  .F              3060:   Depth logger
 BLI .F              3058:   Bottom log interval
 CS1 .IN            8.625:   Casing size
 CBD1.      8.625" @ 205':   Casing driller 1
 CBL1.F               214:   Casing logger 1
 BS1 .IN            7.875:   Bit size
 DFT .            KCL/MUD:   Type fluid in hole
 DFD .                8.8:   Density
 DFV .                 45:   Viscosity
 MSS .           FLOWLINE:   Source of sample
 RMS .OHMM            3.2:   Rm
 MST .F                85:   Rm Meas. temp.
 RMF .OHMM            2.7:   Rmf
 MFST.F                85:   Rmf Meas. temp.
 RMC .OHMM            3.6:   Rmc
 MCST.F                85:   Rmc Meas. temp.
 MFSS.               CALC:   Source Rmf.
 RMB .OHMM           2.44:   Rm. at BHT
 BHT .F               112:   BHT.
 TCS .HRS             2.5:   Time Circ. stopped
 MRT .F               112:   Maximum recorded temp.
 LUN .               8611:   Logging unit number
 LUL .           GILLETTE:   Logging unit location
 ENGI.            C. DOAK:   Recorded By
 WITN.      B. HARRINGTON:   Witnessed by
 ORIG.           5" PRINT:   Origin of data
 UWI .     49025103760000:   Unique Well ID
 DICO. A2D TECHNOLOGIES, INC.:   Digitizing Company
 DAPD.F                10:   Feet Above Permanent Datum
 BSD1.F              3060:   Depth drilled with bit1
 MCSS.               CALC:   Source Rmc.
 TLI .F               200:   Top log interval
~OTHER INFORMATION
~A   DEPT       GRD      CALD         RHOB      CORR       SPR        ILD        ILM       GURD   
# ...
 1334.0000   111.5680    15.0120     2.3440     0.0310   -45.7510     6.5170     6.9610     8.0090
 1334.5000   112.4000    11.6580     2.4410     0.0340   -45.0990     6.6800     7.1160     9.2820
 1335.0000   110.5430    10.4540     2.4330     0.0290   -44.1790     6.8420     7.2710     9.9460
 1335.5000   108.9920    10.2920     2.4300     0.0240   -44.1320     7.0040     7.4260     9.9460
 1336.0000   107.1610    10.2520     2.4220     0.0190   -44.1040     7.1670     7.5820     9.9460
 1336.5000   107.0880    10.1820     2.4170     0.0140   -44.1250     7.4110     7.7370     9.9460
 1337.0000   107.0670    10.1630     2.4110     0.0100   -44.1150     7.4060     7.8920     9.9460
 1337.5000   107.7790    10.1500     2.4150     0.0070   -44.1170     7.3950     8.0470     9.9150
 1338.0000   108.5390    10.1360     2.4200     0.0150   -44.1180     7.3840     8.1250     9.8870
 1338.5000   109.3190    10.1300     2.4250     0.0200   -44.1170     7.3730     8.0980     9.8590
 1339.0000   110.2140    10.1340     2.4240     0.0260   -44.1180     7.3620     8.0730     9.8300
 1339.5000   111.5350    10.1390     2.4210     0.0300   -44.1180     7.3510     8.0490     9.8020
 1340.0000   113.2200    10.1440     2.4190     0.0350   -44.1180     7.3400     8.0240     9.7740
 1340.5000   113.1960    10.1480     2.4250     0.0390   -44.1180     7.3290     8.0000     9.7460
 1341.0000   112.9370    10.1540     2.4320     0.0420   -44.1170     7.3180     7.9750     9.7180
 1341.5000   112.6290    10.1590     2.4390     0.0460   -44.1180     7.3070     7.9500     9.6900
 1342.0000   112.3680    10.1620     2.4460     0.0480   -44.1180     7.2970     7.9260     9.6620
 1342.5000   112.0830    10.1720     2.4530     0.0520   -44.1540     7.2850     7.9010     9.6330
 1343.0000   111.8040    10.1380     2.4600     0.0550   -44.2020     7.2760     7.8770     9.5890
 1343.5000   111.5280    10.1180     2.4680     0.0590   -44.2490     7.2510     7.8520     9.5970
 1344.0000   111.2450    10.1020     2.4750     0.0630   -44.2950     7.2150     7.8310     9.6320
 1344.5000   110.9710    10.0890     2.4810     0.0660   -44.3420     7.1800     7.7420     9.6660
 1345.0000   110.6890    10.0730     2.4880     0.0700   -44.3880     7.1450     7.6650     9.6990
 1345.5000   110.3990    10.0580     2.4930     0.0740   -44.4350     7.1100     7.5870     9.7320
 1346.0000   110.3270    10.0430     2.4980     0.0750   -44.4830     7.0750     7.5100     9.7650
 1346.5000   110.8460    10.0280     2.4750     0.0740   -44.5310     7.0400     7.4330     9.7980
 1347.0000   111.3560    10.0130     2.4430     0.0640   -44.5780     7.0050     7.3550     9.8310
 1347.5000   111.8780     9.9990     2.4330     0.0550   -44.6280     6.9700     7.2760     9.8650
 1348.0000   112.4020     9.9830     2.4340     0.0450   -44.6760     6.9350     7.2630     9.9000
 1348.5000   112.9300     9.9680     2.4420     0.0350   -44.7260     6.8860     7.2490     9.9460
 1349.0000   113.2560     9.9550     2.4490     0.0310   -44.7740     6.9000     7.2350     9.8810
 1349.5000   112.9510     9.9350     2.4490     0.0310   -44.8220     6.9250     7.2210     9.7700
 1350.0000   112.6540     9.9730     2.4490     0.0310   -44.8790     6.9490     7.2080     9.6590
 1350.5000   112.3420    10.0550     2.4600     0.0310   -44.8560     6.9740     7.1940     9.5490
 1351.0000   112.0290    10.1300     2.4710     0.0300   -44.7190     7.0140     7.1800     9.4380
 1351.5000   111.7220    10.2040     2.4550     0.0240   -44.5910     6.9690     7.1660     9.3270
 1352.0000   111.4320    10.2820     2.4340     0.0190   -44.4620     6.8500     7.1520     9.2170
 1352.5000   111.0490    10.3540     2.4120     0.0140   -44.3330     6.7310     7.1030     9.1060
 1353.0000   111.5020    10.4380     2.4050     0.0080   -44.1940     6.6120     6.9920     8.9950
 1353.5000   112.5540    10.4510     2.4080     0.0070   -44.1030     6.4930     6.8810     8.8850
 1354.0000   113.5530    10.4000     2.4110     0.0070   -44.0890     6.3740     6.7700     8.7720
 1354.5000   114.4710    10.3020     2.4100     0.0070   -44.0640     6.2550     6.6590     8.8290
 1355.0000   115.5900    10.2170     2.4040     0.0070   -44.0410     6.0540     6.5280     8.9440
 1355.5000   115.4180    10.1250     2.4100     0.0070   -44.0200     6.0770     6.5540     9.0590
 1356.0000   115.1110    10.0850     2.4160     0.0070   -43.9970     6.1480     6.6050     9.1740
 1356.5000   114.7650    10.0460     2.4240     0.0070   -43.9740     6.2190     6.6570     9.2890
 1357.0000   114.4450    10.0110     2.4260     0.0130   -43.9510     6.2900     6.7090     9.4040
 1357.5000   114.1150     9.9740     2.4270     0.0190   -43.9290     6.3600     6.7610     9.5190
 1358.0000   113.8140     9.9730     2.4290     0.0250   -43.9060     6.4430     6.8130     9.6340
 1358.5000   113.3940     9.9690     2.4390     0.0310   -43.8840     6.5390     6.8650     9.7650
 1359.0000   114.0300     9.9670     2.4480     0.0340   -43.8610     6.6340     6.9170     9.8130
 1359.5000   115.4300     9.9630     2.4560     0.0370   -43.8380     6.7290     6.9680     9.8700
 1360.0000   116.7670     9.9600     2.4670     0.0400   -43.8160     6.8250     7.0200     9.9270
 1360.5000   117.9770     9.9570     2.4790     0.0430   -43.7930     6.9200     7.0720     9.9840
 1361.0000   119.4950     9.9540     2.4920     0.0450   -43.7700     7.0140     7.1440    10.0400
 1361.5000   119.1920     9.9510     2.4990     0.0480   -43.7480     6.9810     7.1310    10.1300
 1362.0000   118.7370     9.9480     2.5000     0.0510   -43.7280     6.9480     7.1100    10.0910
 1362.5000   117.3240     9.9440     2.4940     0.0540   -43.7550     6.9160     7.0900     9.9940
 1363.0000   116.2150     9.9410     2.4830     0.0570   -43.7830     6.8840     7.0690     9.8980
 1363.5000   114.9200     9.9380     2.4720     0.0620   -43.8130     6.8520     7.0480     9.8020
 1364.0000   113.7890     9.9340     2.4600     0.0620   -43.8410     6.8200     7.0270     9.7060
 1364.5000   112.7140     9.9440     2.4500     0.0540   -43.8700     6.7880     7.0070     9.6090
 1365.0000   114.3470     9.9740     2.4370     0.0460   -43.8990     6.7550     6.9860     9.4870
 1365.5000   116.0520    10.0020     2.4390     0.0390   -43.9280     6.7230     6.9660     9.3560
 1366.0000   117.8280    10.0320     2.4420     0.0310   -43.9570     6.6910     6.9450     9.2250
 1366.5000   119.6910    10.0610     2.4400     0.0240   -43.9860     6.6590     6.9240     9.0950
 1367.0000   120.1740    10.0900     2.4330     0.0160   -44.0150     6.6160     6.9040     8.9640
 1367.5000   119.5480    10.1190     2.4350     0.0190   -44.0430     6.5530     6.8830     8.8330
 1368.0000   118.1820    10.1300     2.4380     0.0180   -44.0720     6.4900     6.8620     8.7020
 1368.5000   116.8150    10.1150     2.4380     0.0180   -44.1010     6.4270     6.8420     8.5850
 1369.0000   115.7720    10.1030     2.4380     0.0170   -44.1300     6.3640     6.8210     8.6900
 1369.5000   116.6370    10.0910     2.4420     0.0160   -44.1590     6.3010     6.8010     8.7840
 1370.0000   117.3080    10.0780     2.4470     0.0160   -44.1880     6.2040     6.7800     8.8780
 1370.5000   118.1310    10.0670     2.4520     0.0150   -44.2170     6.0540     6.7610     8.9730
 1371.0000   118.8330    10.0520     2.4560     0.0150   -44.2460     6.1270     6.8370     9.0670
 1371.5000   119.4950    10.0530     2.4520     0.0170   -44.2750     6.2350     6.9090     9.1610
 1372.0000   118.4190    10.0560     2.4470     0.0200   -44.3030     6.3430     6.9810     9.2560
 1372.5000   117.2650    10.0600     2.4430     0.0230   -44.3320     6.4510     7.0530     9.3500
 1373.0000   116.0740    10.0640     2.4470     0.0250   -44.3610     6.5600     7.1250     9.4440
 1373.5000   114.9540    10.0670     2.4520     0.0280   -44.3900     6.6680     7.1960     9.5390
 1374.0000   114.5840    10.0710     2.4500     0.0310   -44.4190     6.7760     7.2680     9.6330
