~VERSION INFORMATION
 VERS.                2.0:   CWLS LOG ASCII STANDARD - VERSION 2.0
 WRAP.                 NO:   ONE LINE PER DEPTH STEP
~WELL INFORMATION
#MNEM.UNIT      DATA TYPE    INFORMATION
#----------   ------------   ------------------------------
 STRT.F            5.5000:   START DEPTH
 STOP.F         3006.0000:   STOP DEPTH
 STEP.F            0.5000:   STEP LENGTH
 NULL.          -999.2500:   NO VALUE
 COMP.    FENIX & SCISSON:   COMPANY
 WELL.  FENIX "AX" #28-28:   WELL
 FLD .  TEAPOT DOME NPR-3:   FIELD
 LOC .      S28 T39N R78W:   LOCATION
 CNTY.            NATRONA:   COUNTY
 STAT.            WYOMING:   STATE
 CTRY. UNITED STATES OF AMERICA:   COUNTRY
 SRVC.           BIRDWELL:   SERVICE COMPANY
 DATE.        23-JAN-1980:   LOGDATE
 API .     49025107960000:   API NUMBER
~CURVE INFORMATION
#MNEM.UNIT       API CODE    CURVE DESCRIPTION
#----------   ------------   ------------------------------
 DEPT.F                  :   
 GRD .GAPI   45 310 01 00:   GAMMA RAY FROM DENSITY LOG
 CALD.IN     45 280 60 00:   CALIPER FROM DENSITY LOG
 DPHI.DEC    45 890 12 00:   DENSITY POROSITY SANDSTONE
 NPHI.DEC    42 890 03 00:   NEUTRON POROSITY SANDSTONE
 CORR.G/C3   45 356 01 00:   DENSITY CORRECTION
 SPR .MV     05 010 01 00:   SPONTANEOUS POTENTIAL FROM RES.
 ILD .OHMM   05 120 40 00:   INDUCTION LOG DEEP RESISTIVITY
 SN  .OHMM   05 040 16 00:   SHORT NORMAL 16"
~PARAMETER INFORMATION
#MNEM.UNIT          VALUE    DESCRIPTION
#----------   ------------   ------------------------------
 EKB .F         5120.0000:   Kelly bushing
 EGL .F         5110.0000:   Ground level
 EDF .F         5119.0000:   Drilling floor
 EPD .F         5110.0000:   Permanent datum
 TD  .F         3006.0000:   Total depth
 CLNT.            A2DTECH:   Client Code
 SL  . 600' FSL & 1300' FWL:   Surface Location
 PD  .                 GL:   Permanent Datum
 DAPD.F                 9:   Feet Above Permanent Datum
 DATE.        23-JAN-1980:   Date Logged [DD-MMM-YYYY]
 DD  .F              3006:   Depth driller
 DL  .F              3006:   Depth logger
 BLI .F              3006:   Bottom log interval
 TLI .F                10:   Top log interval
 CS1 .IN            8.625:   Casing size
 CBD1.      8.625" @ 440':   Casing driller 1
 CBL1.F               460:   Casing logger 1
 BS1 .IN            7.875:   Bit size
 BSD1.F              3006:   Depth drilled with bit1
 DFT .       GEL MUD FULL:   Type fluid in hole
 DFD .                  9:   Density
 DFV .                 46:   Viscosity
 DFPH.                 11:   pH
 DFL .               17.2:   Fluid loss
 MSS .           MUD TANK:   Source of sample
 RMS .OHMM            1.9:   Rm
 MST .F                60:   Rm Meas. temp.
 RMF .OHMM            .73:   Rmf
 MFST.F                62:   Rmf Meas. temp.
 MFSS.               MEAS:   Source Rmf.
 RMC .OHMM            .95:   Rmc
 MCST.F                62:   Rmc Meas. temp.
 TCS .HRS               5:   Time Circ. stopped
 MRT .F               110:   Maximum recorded temp.
 LUN .               3029:   Logging unit number
 LUL .             CASPER:   Logging unit location
 ENGI.           T. WOLFF:   Recorded By
 WITN.           DINSMORE:   Witnessed by
 ORIG.           5" PRINT:   Origin of data
 UWI .     49025107960000:   Unique Well ID
 DICO. A2D TECHNOLOGIES, INC.:   Digitizing Company
~OTHER INFORMATION
~A    DEPT      GRD      CALD       DPHI         NPHI     CORR        SPR        ILD         SN   
# ...
  451.0000    75.2323  -999.2500  -999.2500     0.1861  -999.2500  -999.2500  -999.2500  -999.2500
  451.5000    76.7355  -999.2500  -999.2500     0.1752  -999.2500  -999.2500  -999.2500  -999.2500
  452.0000    75.1276  -999.2500  -999.2500     0.1607  -999.2500  -999.2500  -999.2500  -999.2500
  452.5000    66.2604  -999.2500  -999.2500     0.1587  -999.2500  -999.2500  -999.2500  -999.2500
  453.0000    64.6518  -999.2500  -999.2500     0.1643  -999.2500  -999.2500  -999.2500  -999.2500
  453.5000    65.5632  -999.2500  -999.2500     0.2080  -999.2500  -999.2500  -999.2500  -999.2500
  454.0000    68.9394  -999.2500  -999.2500     0.2631  -999.2500  -999.2500  -999.2500  -999.2500
  454.5000    81.4389  -999.2500  -999.2500     0.2519  -999.2500  -999.2500  -999.2500  -999.2500
  455.0000    88.4486  -999.2500  -999.2500     0.2399  -999.2500  -999.2500  -999.2500  -999.2500
  455.5000    86.6926  -999.2500  -999.2500     0.3136  -999.2500  -999.2500  -999.2500  -999.2500
  456.0000    87.6032  -999.2500  -999.2500     0.3453  -999.2500  -999.2500  -999.2500  -999.2500
  456.5000    90.2916  -999.2500  -999.2500     0.3369  -999.2500  -999.2500  -999.2500  -999.2500
  457.0000    91.9375  -999.2500  -999.2500     0.3350  -999.2500  -999.2500  -999.2500  -999.2500
  457.5000    93.1499  -999.2500  -999.2500     0.3412  -999.2500  -999.2500  -999.2500  -999.2500
  458.0000    95.5420  -999.2500  -999.2500     0.3586  -999.2500  -999.2500  -999.2500  -999.2500
  458.5000    96.1087  -999.2500  -999.2500     0.3753  -999.2500  -999.2500  -999.2500  -999.2500
  459.0000    96.3262  -999.2500  -999.2500     0.3849  -999.2500  -999.2500  -999.2500  -999.2500
  459.5000    97.2562  -999.2500  -999.2500     0.3911  -999.2500  -999.2500     2.7250     8.3992
  460.0000    96.7655     9.1100     0.3245     0.3935     0.0188   -73.8308  2000.0000     7.9456
  460.5000    92.1005     9.1119     0.3235     0.4090     0.0220   -74.8385    26.9869     9.3858
  461.0000    91.9687     9.2177     0.2854     0.4512     0.0343   -75.1167    13.9896    11.0870
  461.5000    91.1069     9.4570     0.1936     0.5530     0.0706   -73.6022    11.3001    12.4755
  462.0000    88.4620     9.5326     0.1723     0.6989     0.1129   -69.8684    10.3404    13.1878
  462.5000    86.8487     9.2382     0.1684     0.6989     0.0911   -65.8378     9.7958     7.7818
  463.0000    87.3203     9.2100     0.1683     0.6510     0.0663   -63.5855     9.2179     9.7172
  463.5000    87.9346     9.1382     0.1737     0.5232     0.0445   -49.8596     9.0363    12.3892
  464.0000    90.7712     9.1104     0.1895     0.2931    -0.0245   -41.7220     9.0524    10.8585
  464.5000    90.2003     9.1123     0.2226     0.1727    -0.0032   -38.1365     9.1276     8.6357
  465.0000    87.9998     9.1291     0.2270     0.1112     0.0211   -34.9961     9.3339    13.8443
  465.5000    91.3180     9.1310     0.2273     0.1020     0.0318   -34.0812     9.3464     8.3992
  466.0000    91.0117     9.1180     0.2299     0.0972     0.0471   -33.6114     9.3589    11.1642
  466.5000    89.2502     9.1204     0.2334     0.0924     0.0578   -34.3286     9.3047    12.3892
  467.0000    90.4626     9.1223     0.2388     0.0911     0.0535   -37.2713    10.1897     8.1206
  467.5000    92.5584     9.1386     0.2412     0.0917     0.0508   -40.3624     9.1417    11.3991
  468.0000    95.5431     9.1256     0.2381     0.0940     0.0480   -41.3763     8.1914     9.0029
  468.5000    94.3796     9.0979     0.2303     0.1033     0.0375   -41.6484     9.7561     7.9551
  469.0000    94.4013     9.1002     0.2237     0.1059     0.0304   -41.9204    13.4372    12.3035
  469.5000    94.5712     9.0868     0.2212     0.0960     0.0367   -41.8947    11.4740    13.1878
  470.0000    94.1485     9.0892     0.2197     0.0912     0.0519   -42.1617     9.5287     9.2564
  470.5000    91.1796     9.0911     0.2194     0.0999     0.0416   -42.2915     8.4791     6.9158
  471.0000    89.5994     9.1079     0.2196     0.1150     0.0418   -42.1123     8.4490     6.2628
  471.5000    91.8488     9.1098     0.2217     0.1261     0.0421   -41.7909     8.3474     5.9716
  472.0000    95.1298     9.1710     0.2347     0.1620     0.0453   -41.4695     8.1309     5.4555
  472.5000    95.4478     9.2471     0.2549     0.1799     0.0696   -41.0059     7.9750     5.3428
  473.0000    98.1362     9.4419     0.2627     0.1829     0.1612   -41.7169     6.6547     7.1645
  473.5000   100.5283     9.6812     0.2611     0.1987     0.2775   -41.6922     5.8579     8.5085
  474.0000    94.4760    10.2002     0.2835     0.2886     0.2131   -40.6290     4.5351     8.6987
  474.5000    84.2755    11.2418     0.3228     0.4332     0.1857   -40.9120     3.7706     6.5230
  475.0000    78.9639    14.6870     0.3486     0.4688     0.1489   -41.1731     3.2488     3.3851
  475.5000    78.3926    11.5880     0.3497     0.4676     0.0610   -41.4390     2.9849     2.4434
  476.0000    83.1752     9.2160     0.3227     0.2701    -0.0046   -42.1624     2.9875     2.7078
  476.5000    89.6143     9.1586     0.2628     0.1622     0.0188   -42.1315     2.9689     3.5535
  477.0000    93.4212     9.1160     0.2441     0.1016     0.0460   -41.9585     2.9716     4.3734
  477.5000    92.4059     9.1197     0.2506     0.1064     0.0372   -41.3404     2.9955     4.7338
  478.0000    94.6553     9.1347     0.2644     0.1012     0.0329   -40.7222     3.1669     5.0153
  478.5000    96.0103     9.1518     0.2668     0.0979     0.0362   -41.7361     3.6651     5.9138
  479.0000    94.8469     9.1686     0.2649     0.0999     0.0349   -42.6017     4.6091     6.5864
  479.5000    95.1649     9.1705     0.2565     0.0990     0.0291   -43.0223     5.9216     6.5910
  480.0000    97.2607     9.1724     0.2550     0.0888     0.0398   -42.9970     7.3413     6.7866
  480.5000    99.8010     9.1743     0.2594     0.0857     0.0416   -42.8002     8.1196     7.0380
  481.0000   100.1190     9.1312     0.2594     0.0864     0.0370   -42.0579     8.3620     7.6179
  481.5000   100.2889     9.1484     0.2582     0.0916     0.0285   -42.9173     8.3694     8.1870
  482.0000   100.9313     9.1503     0.2524     0.1051     0.0167   -43.4861     8.1411     8.5511
  482.5000   102.7081     9.1522     0.2395     0.1017     0.0320   -43.7643     7.9190     8.9313
  483.0000   104.5022     9.1541     0.2388     0.0915     0.0367   -43.4367     7.7565     9.1964
  483.5000   103.0479     9.1412     0.2454     0.0962     0.0339   -42.6702     7.7092     9.2029
  484.0000   102.1807     9.1579     0.2491     0.0956     0.0372   -42.9423     7.7713     9.2095
  484.5000   100.4247     9.1598     0.2507     0.0908     0.0449   -43.3818     7.8363     9.2818
  485.0000   100.4464     9.1617     0.2462     0.0913     0.0541   -42.5962     7.9536     9.2223
  485.5000   101.3571     9.1637     0.2339     0.0919     0.0619   -42.2748     7.9643     9.2304
  486.0000   101.8232     9.1656     0.2332     0.0912     0.0696   -42.3985     8.0249     9.3696
  486.5000   101.2524     9.1675     0.2434     0.0918     0.0774   -42.2193     8.0910     9.3762
  487.0000    99.6445     9.1545     0.2434     0.0917     0.0806   -42.1947     8.1561     9.6544
  487.5000    98.7773     9.1717     0.2379     0.0863     0.0764   -42.3184     8.2217     9.1252
  488.0000   101.2475     9.1736     0.2355     0.0913     0.0480   -42.1453     8.1687     8.8732
  488.5000   104.0114     9.2645     0.2373     0.0766     0.0783   -41.6756     8.1777     9.1381
  489.0000   103.5887     9.3258     0.2396     0.0658     0.0695   -41.6509     8.1849     9.2100
  489.5000   101.8327     9.3574     0.2402     0.0831     0.0637   -43.1099     8.1922     8.8935
  490.0000    99.4840     9.3889     0.2659     0.0807     0.0684   -43.5312     8.1393     8.8997
  490.5000    98.9077     9.4205     0.2701     0.0680     0.0777   -43.2089     8.1483     8.9765
  491.0000    99.8238     9.4224     0.2700     0.0602     0.0839   -42.5836     8.1555     8.7235
