~VERSION INFORMATION
 VERS.                2.0:   CWLS LOG ASCII STANDARD - VERSION 2.0
 WRAP.                 NO:   ONE LINE PER DEPTH STEP
~WELL INFORMATION
#MNEM.UNIT      DATA TYPE    INFORMATION
#----------   ------------   ------------------------------
 STRT.F           16.0000:   START DEPTH
 STOP.F         2834.0000:   STOP DEPTH
 STEP.F            0.5000:   STEP LENGTH
 NULL.          -999.2500:   NO VALUE
 COMP.    FENIX & SCISSON:   COMPANY
 WELL. FENIX NPR 3 "AX" #14-21:   WELL
 FLD .              N P R:   FIELD
 LOC .      S21 T39N R78W:   LOCATION
 CNTY.            NATRONA:   COUNTY
 STAT.            WYOMING:   STATE
 CTRY. UNITED STATES OF AMERICA:   COUNTRY
 SRVC.           BIRDWELL:   SERVICE COMPANY
 DATE.        26-JUL-1978:   LOGDATE
 API .     49025106740000:   API NUMBER
~CURVE INFORMATION
#MNEM.UNIT       API CODE    CURVE DESCRIPTION
#----------   ------------   ------------------------------
 DEPT.F                  :   
 GRD .GAPI   45 310 01 00:   GAMMA RAY FROM DENSITY LOG
 CALD.IN     45 280 60 00:   CALIPER FROM DENSITY LOG
 RHOB.G/C3   45 350 01 00:   BULK DENSITY
 CORR.G/C3   45 356 01 00:   DENSITY CORRECTION
 SPR .MV     05 010 01 00:   SPONTANEOUS POTENTIAL
 ILD .OHMM   05 120 46 00:   DEEP INDUCTION RESISTIVITY
 SN  .OHMM   05 040 00 00:   SHORT NORMAL
~PARAMETER INFORMATION
#MNEM.UNIT          VALUE    DESCRIPTION
#----------   ------------   ------------------------------
 EKB .F         4998.0000:   Kelly bushing
 EGL .F         4988.0000:   Ground level
 EDF .F            0.0000:   Drilling floor
 EPD .F            0.0000:   Permanent datum
 TD  .F         2850.0000:   Total depth
 DATE.        26-JUL-1978:   Date logged
 CLNT.            A2DTECH:   Client Code
 SL  . 2640' FNL & 500' FWL:   Surface Location
 PD  .                 GL:   Permanent Datum
 DD  .F              2850:   Depth driller
 DL  .F              2838:   Depth logger
 BLI .F              2832:   Bottom log interval
 CS1 .IN            8.625:   Casing size
 CBD1.      8.625" @ 208':   Casing driller 1
 BS1 .IN            7.875:   Bit size
 DFT .            MUD/GEL:   Type fluid in hole
 DFD .                9.4:   Density
 DFV .                 37:   Viscosity
 DFPH.                 11:   pH
 TCS .HRS               4:   Time Circ. stopped
 LUN .               2958:   Logging unit number
 LUL .               CASP:   Logging unit location
 ENGI.             MILLER:   Recorded By
 WITN.           MCGINLEY:   Witnessed by
 ORIG.           5" PRINT:   Origin of data
 UWI .     49025106740000:   Unique Well ID
 DICO. A2D TECHNOLOGIES, INC.:   Digitizing Company
 DAPD.                 12:   Feet Above Permanent Datum
 BSD1.               3950:   Depth drilled with bit1
 MCSS.               CALC:   Source Rmc.
 TLI .F               230:   Top log interval
~OTHER INFORMATION
~A   DEPT       GRD      CALD       RHOB       CORR        SPR        ILD         SN   
# ...
  880.5000    86.8350     9.7050     2.5060     0.2140   -38.2480     8.6130     9.2300
  881.0000    87.4110     9.6730     2.5030     0.2120   -38.3990     8.7970     9.3210
  881.5000    89.9190     9.6360     2.4990     0.2120   -38.5500     8.9160     9.4120
  882.0000    92.3710     9.5980     2.4960     0.2120   -38.7000     8.9950     9.5040
  882.5000    94.7870     9.5880     2.4980     0.2120   -38.8490     9.0740     9.6380
  883.0000    94.4850     9.5870     2.5000     0.2120   -38.9990     9.1530     9.7870
  883.5000    92.9290     9.5870     2.5010     0.2120   -39.0670     9.2080     9.8540
  884.0000    90.0930     9.5870     2.5050     0.2120   -39.0530     9.2080     9.9210
  884.5000    87.3260     9.5870     2.5150     0.2120   -39.0400     9.2080     9.9880
  885.0000    85.4460     9.5880     2.5170     0.2170   -39.0250     9.2080    10.0550
  885.5000    87.0860     9.6020     2.5200     0.2210   -39.0110     9.2090    10.1230
  886.0000    89.3670     9.6180     2.5270     0.2260   -38.9970     9.2160    10.1780
  886.5000    91.6400     9.6340     2.5270     0.2280   -38.9830     9.2230    10.1520
  887.0000    92.4840     9.6500     2.5230     0.2310   -38.9690     9.2290    10.1260
  887.5000    92.1410     9.6660     2.5240     0.2340   -38.9550     9.2360    10.1000
  888.0000    90.9900     9.6820     2.5370     0.2370   -38.9400     9.2430    10.0750
  888.5000    89.2270     9.6930     2.5320     0.2390   -38.9260     9.2500    10.0490
  889.0000    86.5520     9.7050     2.5190     0.2430   -38.9120     9.2560    10.0230
  889.5000    83.8410     9.7170     2.5070     0.2470   -38.8980     9.2630     9.9970
  890.0000    83.1210     9.7250     2.4940     0.2510   -38.8840     9.2700    10.1810
  890.5000    83.9150     9.7240     2.4930     0.2560   -38.9300     9.2770    10.1080
  891.0000    84.7850     9.7230     2.4950     0.2610   -39.0170     9.2830     9.9820
  891.5000    85.6090     9.7210     2.4930     0.2630   -39.1030     9.2900     9.9060
  892.0000    85.3380     9.7200     2.4810     0.2670   -39.1910     9.3250     9.9060
  892.5000    83.6830     9.7190     2.4760     0.2730   -39.2780     9.4850     9.9440
  893.0000    82.7920     9.7180     2.4760     0.2740   -39.3660     9.6450     9.9820
  893.5000    84.2100     9.7170     2.4750     0.2750   -39.4530     9.8050    10.0200
  894.0000    85.7760     9.7160     2.4760     0.2750   -39.5400     9.9660    10.0570
  894.5000    87.0610     9.7140     2.4770     0.2750   -39.6280    10.0880    10.0950
  895.0000    86.2270     9.7130     2.4780     0.2750   -39.7150    10.1810    10.1330
  895.5000    84.8800     9.7120     2.4770     0.2750   -39.8030    10.1810    10.1710
  896.0000    83.8680     9.7110     2.4740     0.2750   -39.8900    10.0990    10.2090
  896.5000    84.6260     9.7100     2.4720     0.2730   -39.9780     9.9730    10.2460
  897.0000    85.2500     9.7090     2.4730     0.2720   -40.0560     9.8470    10.2740
  897.5000    85.5940     9.7070     2.4730     0.2700   -40.0190     9.7200    10.0870
  898.0000    85.1980     9.7060     2.4730     0.2680   -39.9790     9.5940     9.9780
  898.5000    84.4420     9.7050     2.4720     0.2670   -39.9400     9.4680     9.8690
  899.0000    84.4540     9.7080     2.4730     0.2670   -39.9010     9.3780     9.7600
  899.5000    84.3290     9.7110     2.4790     0.2660   -39.8630     9.3620     9.6510
  900.0000    83.5730     9.7140     2.4840     0.2660   -39.8240     9.3090     9.5420
  900.5000    82.7080     9.7170     2.4860     0.2660   -39.7850     9.2560     9.4330
  901.0000    82.2300     9.7200     2.4830     0.2660   -39.7460     9.2030     9.3240
  901.5000    82.0560     9.7220     2.4860     0.2650   -39.7070     9.1500     9.2930
  902.0000    82.4800     9.7240     2.4850     0.2620   -39.6670     9.1120     9.3490
  902.5000    84.6100     9.7130     2.4790     0.2560   -39.6900     9.0870     9.4110
  903.0000    86.6670     9.7020     2.4750     0.2560   -39.7180     9.0630     9.4640
  903.5000    88.7250     9.6910     2.4760     0.2550   -39.7450     9.0390     9.4620
  904.0000    90.7660     9.6800     2.4770     0.2550   -39.7730     9.0140     9.4610
  904.5000    92.7550     9.6700     2.4740     0.2540   -39.8000     8.9900     9.4590
  905.0000    93.1440     9.6430     2.4820     0.2540   -39.8280     8.9650     9.4570
  905.5000    93.2140     9.6380     2.4770     0.2540   -39.8550     8.9600     9.4560
  906.0000    93.2830     9.6320     2.4720     0.2540   -39.8830     8.9600     9.4540
  906.5000    92.9170     9.6260     2.4730     0.2540   -39.9100     8.9600     9.4520
  907.0000    90.6470     9.6210     2.4740     0.2540   -39.9380     8.9600     9.4510
  907.5000    88.3810     9.6150     2.4750     0.2540   -39.9650     8.9600     9.4490
  908.0000    86.1120     9.6090     2.4770     0.2540   -39.9920     8.9590     9.4470
  908.5000    83.8870     9.6050     2.4840     0.2540   -40.0200     8.9600     9.4460
  909.0000    83.8940     9.6000     2.4920     0.2540   -40.0470     8.9250     9.4440
  909.5000    86.1380     9.5960     2.4990     0.2540   -40.0750     8.8680     9.4430
  910.0000    88.3930     9.5920     2.4970     0.2530   -40.1020     8.8110     9.4410
  910.5000    89.8830     9.5880     2.5000     0.2500   -40.1300     8.7530     9.4390
  911.0000    88.5520     9.5840     2.5050     0.2500   -40.1570     8.6960     9.4380
  911.5000    86.8570     9.5790     2.5040     0.2500   -40.1850     8.6390     9.4360
  912.0000    85.2610     9.5750     2.5010     0.2490   -40.2120     8.5820     9.4340
  912.5000    85.3270     9.5710     2.5010     0.2470   -40.2390     8.5250     9.4330
  913.0000    87.8140     9.5670     2.5020     0.2430   -40.2560     8.4820     9.4310
  913.5000    90.2100     9.5390     2.5030     0.2420   -40.2560     8.4050     9.4290
  914.0000    91.0250     9.5120     2.5040     0.2400   -40.2560     8.4220     9.4280
  914.5000    89.8760     9.4840     2.5040     0.2370   -40.2560     8.4380     9.4260
  915.0000    88.6450     9.4570     2.5050     0.2340   -40.2560     8.4540     9.4250
  915.5000    88.0050     9.4300     2.4990     0.2310   -40.3040     8.4690     9.4230
  916.0000    87.8020     9.4100     2.4940     0.2320   -40.4310     8.4850     9.4210
  916.5000    86.8330     9.4110     2.4860     0.2330   -40.3840     8.5010     9.4200
  917.0000    86.4550     9.4110     2.4810     0.2360   -40.3380     8.5170     9.4180
  917.5000    87.0690     9.4110     2.4890     0.2350   -40.2940     8.5330     9.4160
  918.0000    87.7670     9.4110     2.4990     0.2340   -40.3720     8.5490     9.4150
  918.5000    89.7560     9.4110     2.5010     0.2330   -40.9050     8.5600     9.4130
  919.0000    92.1880     9.4110     2.5030     0.2320   -41.4290     8.5440     9.4110
  919.5000    94.6230     9.4110     2.5040     0.2330   -41.9630     8.5270     9.4100
  920.0000    96.4070     9.4110     2.5060     0.2330   -41.4960     8.5090     9.4080
  920.5000    96.8340     9.4110     2.5050     0.2340   -41.3090     8.4920     9.4070
  921.0000    96.5820     9.4110     2.5030     0.2350   -42.4130     8.4750     9.4050
  921.5000    95.0500     9.4110     2.5010     0.2360   -43.2520     8.4570     9.4030
  922.0000    93.5050     9.4110     2.4990     0.2360   -41.8580     8.4400     9.4020
  922.5000    92.5100     9.4050     2.4970     0.2370   -40.1090     8.4230     9.4000
  923.0000    92.6450     9.3670     2.5000     0.2380   -40.7550     8.4050     9.3980
  923.5000    93.9570     9.3300     2.5040     0.2380   -41.4670     8.4050     9.3970
  924.0000    96.0860     9.2930     2.5060     0.2390   -40.7530     8.4050     9.3950
  924.5000    98.0860     9.2560     2.5050     0.2400   -39.8440     8.4050     9.3940
  925.0000   100.1440     9.2340     2.5050     0.2400   -39.9160     8.4050     9.3920
  925.5000   102.0550     9.2390     2.5040     0.2410   -39.9740     8.4050     9.3900
