~VERSION INFORMATION
 VERS.                2.0:   CWLS LOG ASCII STANDARD - VERSION 2.0
 WRAP.                 NO:   ONE LINE PER DEPTH STEP
~WELL INFORMATION
#MNEM.UNIT      DATA TYPE    INFORMATION
#----------   ------------   ------------------------------
 STRT.F          494.0000:   START DEPTH
 STOP.F         4999.5000:   STOP DEPTH
 STEP.F            0.5000:   STEP LENGTH
 NULL.          -999.2500:   NO VALUE
 COMP.    FENIX & SCISSON:   COMPANY
 WELL.  FENIX "LX" #26-23:   WELL
 FLD . MPR #3 (TEAPOT DOME):   FIELD
 LOC .      S23 T38N R78W:   LOCATION
 CNTY.            NATRONA:   COUNTY
 STAT.            WYOMING:   STATE
 CTRY. UNITED STATES OF AMERICA:   COUNTRY
 SRVC.       SCHLUMBERGER:   SERVICE COMPANY
 DATE.        11-AUG-1978:   LOGDATE
 API .     49025107340000:   API NUMBER
~CURVE INFORMATION
#MNEM.UNIT       API CODE    CURVE DESCRIPTION
#----------   ------------   ------------------------------
 DEPT.F                  :   
 NPHI.DEC    42 890 03 00:   NEUTRON POROSITY SANDSTONE
 TEND.LBS    45 635 01 00:   TENSION FORM DENSITY LOG
 GRD .GAPI   45 310 01 00:   GAMMA RAY FROM DENSITY LOG
 CALD.IN     45 280 60 00:   CALIPER FROM DENSITY LOG
 DRHO.G/C3   45 356 01 00:   DENSITY CORRECTION
 RHOB.G/C3   45 350 01 00:   BULK DENSITY
 SPR .MV     07 010 01 00:   SPONTANEOUS POTENTIAL
 TENR.LBS    07 635 01 00:   TENSION FROM RESISTIVITY LOG
 ILD .OHMM   07 120 46 00:   INDUCTION LOG DEEP RESISTIVITY
 ILM .OHMM   07 120 44 00:   INDUCTION LOG MEDIUM RESISTIVITY
 SFL .OHMM   07 220 01 00:   SPHERICALLY FOCUSED LOG RESISITIVITY
~PARAMETER INFORMATION
#MNEM.UNIT          VALUE    DESCRIPTION
#----------   ------------   ------------------------------
 EKB .F         5335.0000:   Kelly bushing
 EGL .F         5325.0000:   Ground level
 EDF .F            0.0000:   Drilling floor
 EPD .F         5325.0000:   Permanent datum
 TD  .F         5000.0000:   Total depth
 CLNT.            A2DTECH:   Client Code
 SL  . 1600' FSL & 903' FWL:   Surface Location
 PD  .                 GL:   Permanent Datum
 LMF .                 KB:   Log Measured From
 DMF .                 KB:   Drilling Measured From
 DAPD.F                10:   Feet Above Permanent Datum
 DATE.        11-AUG-1978:   Date Logged [DD-MMM-YYYY]
 DD  .F              5000:   Depth driller
 DL  .F              4998:   Depth logger
 BLI .F              4992:   Bottom log interval
 TLI .F               525:   Top log interval
 CS1 .IN            9.625:   Casing size
 CBD1.      9.625" @ 521':   Casing driller 1
 CBL1.F               521:   Casing logger 1
 BS1 .IN             8.75:   Bit size
 BSD1.F              5000:   Depth drilled with bit1
 DFD .                9.1:   Density
 MSS .            MUD PIT:   Source of sample
 RMS .OHMM          0.897:   Rm
 MST .F                64:   Rm Meas. temp.
 RMF .OHMM          0.821:   Rmf
 MFST.F                64:   Rmf Meas. temp.
 MFSS.               MEAS:   Source Rmf.
 BHT .F               135:   BHT.
 TCS .HRS              03:   00:   Time Circ. stopped
 TLAB.HRS              09:   00:   Time logger at bottom
 MRT .F               135:   Maximum recorded temp.
 LUL .               CSPR:   Logging unit location
 ENGI.              CRAIG:   Recorded By
 ORIG.           5" PRINT:   Origin of data
 UWI .     49025107340000:   Unique Well ID
 DICO. A2D TECHNOLOGIES, INC.:   Digitizing Company
 DFV .                 40:   Viscosity
 DFPH.                 12:   pH
 DFL .                  4:   Fluid loss
~OTHER INFORMATION
~A  DEPTH     NPHI       TEND        GRD       CALD       DRHO       RHOB        SPR       TENR        ILD        ILM        SFL
# ...
 1409.0000     0.3057  1190.6912   105.6979    11.3815     0.0562     2.5509   -25.7868   795.8021     6.4855     6.1597     6.0323
 1409.5000     0.3112  1190.8331   106.0060    11.3969     0.0623     2.5370   -25.6246   796.7017     6.3081     6.1167     5.9910
 1410.0000     0.3036  1206.0150   106.3141    11.4122     0.0265     2.5042   -25.7674   797.6012     6.0094     5.9847     5.9090
 1410.5000     0.2982  1221.2278   106.6222    11.4578     0.0128     2.4869   -25.9054   798.5007     5.6461     5.6662     5.6609
 1411.0000     0.2885  1236.4073   107.5524    11.5337     0.0295     2.4959   -26.1957   799.4003     5.4917     5.2131     5.2891
 1411.5000     0.2825  1236.5493   108.1716    11.7308     0.0681     2.4899   -26.4837   800.2999     5.4161     4.5371     4.7339
 1412.0000     0.2780  1236.6918   107.8569    11.9431     0.0871     2.4349   -26.7741   801.1994     5.4917     4.0319     4.1211
 1412.5000     0.2768  1236.8688   104.7428    12.0190     0.0628     2.3671   -27.7761   802.0989     5.6853     4.4123     4.0085
 1413.0000     0.2958  1221.9376   101.3184    11.9585     0.0241     2.3656   -28.0678   802.9985     5.9679     5.3583     4.8681
 1413.5000     0.3320  1222.1151   100.6934    11.8981     0.0074     2.4393   -28.3537   803.8980     6.3081     5.9047     5.4864
 1414.0000     0.3743  1222.2571   100.6904    11.8376    -0.0003     2.5048   -28.6425   804.7975     6.6217     6.3287     6.0786
 1414.5000     0.3453  1222.4346   100.6868    11.7468    -0.0018     2.5109   -28.7811   805.6971     6.9509     6.8303     6.5610
 1415.0000     0.3109  1222.5564   100.0618    11.6409    -0.0033     2.5071   -28.3163   806.5966     7.2964     7.1203     6.9357
 1415.5000     0.3000  1222.7185   101.6141    11.5350    -0.0026     2.5018   -28.1547   807.4962     7.4497     7.4743     7.2813
 1416.0000     0.2836  1207.8196   102.5443    11.4897     0.0027     2.4988   -28.4434   808.3958     7.5015     7.7376     7.4866
 1416.5000     0.2825  1207.9700   102.5412    11.4444     0.0057     2.4987   -28.5850   809.2953     7.5536     7.9000     7.5917
 1417.0000     0.2834  1193.1047   101.2935    11.3840    -0.0004     2.5025   -28.7207   810.1948     7.5536     8.0655     7.5923
 1417.5000     0.2849  1193.2467    97.5581    11.3538    -0.0050     2.5047   -28.7064   811.0944     7.5536     8.0650     7.5162
 1418.0000     0.2861  1193.3887    95.9999    11.3540    -0.0065     2.5017   -28.6949   811.9939     7.5536     7.8983     7.4745
 1418.5000     0.2876  1193.5338    95.3749    11.3693    -0.0012     2.5062   -28.6834   812.8934     7.5015     7.6815     7.3860
 1419.0000     0.2876  1193.7081    98.4817    11.3846     0.0056     2.5235   -28.3715   813.7930     7.5015     7.5226     7.3865
 1419.5000     0.2816  1193.8501   101.2781    11.4150     0.0116     2.5408   -28.2099   814.6925     7.3471     7.4701     7.2853
 1420.0000     0.2746  1193.9850   102.5194    11.4152     0.0162     2.5431   -28.0381   815.5920     7.2964     7.4179     7.1854
 1420.5000     0.2683  1194.1354   102.5163    11.4304     0.0146     2.5348   -27.7336   816.4916     7.2964     7.4174     7.1362
 1421.0000     0.2680  1192.2319   104.3790    11.4306     0.0093     2.5069   -27.5719   817.3912     7.3471     7.4686     7.1367
 1421.5000     0.2734  1179.3805   106.2431    11.4308     0.0054     2.4978   -27.5604   818.2907     7.4497     7.4681     7.1869
 1422.0000     0.2798  1179.5579   104.9952    11.4309     0.0054     2.4971   -27.7019   819.1903     7.5015     7.4675     7.1874
 1422.5000     0.2807  1179.6998   102.7837    11.4311     0.0054     2.5016   -27.9878   820.0898     7.5015     7.3640     7.2379
 1423.0000     0.2786  1179.8773   101.5672    11.4767     0.0077     2.5076   -27.9763   820.9894     7.5015     7.2620     7.1884
 1423.5000     0.2716  1164.9817   101.2532    11.4769     0.0115     2.5181   -28.2871   821.8890     7.5536     7.1119     7.1890
 1424.0000     0.2665  1165.1128   101.2503    11.4770     0.0213     2.5362   -28.5539   822.7885     7.6591     7.0622     7.1397
 1424.5000     0.2632  1165.2656   101.2473    11.4771     0.0296     2.5437   -28.5396   823.7621     7.7123     6.9567     7.0418
 1425.0000     0.2701  1165.4431   101.2437    11.4772     0.0326     2.5437   -28.8312   823.4965     7.6062     6.8203     6.9453
 1425.5000     0.2683  1165.5851   101.5525    11.4850     0.0272     2.5278   -28.8153   823.2070     7.5015     6.6793     6.8740
 1426.0000     0.2665  1180.7646   101.2378    11.4928     0.0204     2.5120   -28.2019   822.9177     7.2964     6.4960     6.7525
 1426.5000     0.2637  1180.9066   100.5899    11.5081     0.0128     2.5097   -27.8901   822.6282     7.0969     6.1876     6.5719
 1427.0000     0.2598  1196.0903    99.3650    11.5233     0.0067     2.5074   -27.7284   822.3388     6.9029     5.8093     6.1746
 1427.5000     0.2571  1196.2637    99.3621    11.5387     0.0028     2.5007   -27.7169   822.0494     6.7141     5.2738     5.7215
 1428.0000     0.2568  1196.4056    99.9819    11.5388    -0.0001     2.4992   -27.5552   821.7599     6.4407     5.0584     5.2649
 1428.5000     0.2598  1196.5477    98.6973    11.5390    -0.0009     2.5037   -27.6939   821.4705     5.8451     4.8517     4.9467
 1429.0000     0.2704  1196.6918    96.8642    11.5391    -0.0002     2.5067   -27.5294   821.1811     4.9495     4.6213     4.6342
 1429.5000     0.2755  1196.8422    97.4841    11.5696     0.0022     2.4953   -27.5179   820.8917     4.3994     4.3112     4.1025
 1430.0000     0.2792  1197.0090   101.8350    11.5697     0.0127     2.4886   -27.5064   820.6023     3.5984     3.8740     3.3787
 1430.5000     0.2798  1197.1511   104.3349    11.5850     0.0384     2.4931   -27.4949   820.3129     2.8039     3.0466     2.9413
 1431.0000     0.2798  1197.2933   102.7615    11.6003     0.0908     2.5530   -27.4834   820.3898     2.2462     2.2137     2.3075
 1431.5000     0.2906  1197.4705    98.0927    11.7217     0.2500     2.5728   -27.3213   821.2893     1.8245     1.6538     1.8742
 1432.0000     0.2994  1197.6125    92.4910    11.8431     0.2500     2.5239   -27.1572   822.1889     1.8245     1.4097     1.3236
 1432.5000     0.3670  1197.7545    88.7556    12.0553     0.2500     2.2455   -26.8454   823.0884     1.8245     1.5215     1.2728
 1433.0000     0.4736  1197.8965    81.5987    12.2827     0.1916     1.9152   -26.6837   823.9880     1.8629     1.6688     1.2194
 1433.5000     0.5276  1213.1115    73.5080    13.2072     0.0952     1.6180   -26.5221   824.8876     1.9827     1.8604     1.3816
 1434.0000     0.5657  1213.2535    74.7492    16.0103     0.0231     1.4711   -26.5105   825.7871     2.3415     2.1823     1.8262
 1434.5000     0.5645  1213.3955    79.4119    15.9802    -0.0224     1.5386   -26.4962   826.6866     3.0260     2.5246     2.4744
 1435.0000     0.5165  1213.5375    83.7636    13.1470    -0.0445     1.8148   -26.7878   827.5862     3.3575     3.2635     2.8428
 1435.5000     0.4334  1213.6843    90.2918    11.9653    -0.0316     2.1028   -27.0766   828.4858     4.1334     4.0467     3.8043
 1436.0000     0.3323  1213.8347    93.7103    11.4351    -0.0058     2.3762   -27.3626   829.3853     5.3415     4.7996     4.5025
 1436.5000     0.2918  1218.5725    96.1957    11.4353     0.0101     2.4951   -27.6517   830.2849     6.1783     5.3039     5.0214
 1437.0000     0.2780  1229.1730    98.6811    11.4658     0.0184     2.5034   -28.2404   831.1844     6.5306     5.6064     5.2715
 1437.5000     0.2755  1229.3234   102.0997    11.4962     0.0229     2.5117   -28.5264   830.9720     6.7141     5.8041     5.4579
 1438.0000     0.2709  1229.4738    99.9187    11.5418     0.0244     2.5245   -28.8168   830.2797     6.6678     6.0085     5.6118
 1438.5000     0.2683  1229.6399    97.4274    11.5723     0.0244     2.5214   -29.2541   829.5872     6.5306     6.1778     5.8102
 1439.0000     0.2849  1229.7819    98.9797    11.6028     0.0229     2.5033   -29.6931   828.8948     6.4407     6.3068     5.8511
