~VERSION INFORMATION
 VERS.                2.0:   CWLS LOG ASCII STANDARD - VERSION 2.0
 WRAP.                 NO:   ONE LINE PER DEPTH STEP
~WELL INFORMATION
#MNEM.UNIT      DATA TYPE    INFORMATION
#----------   ------------   ------------------------------
 STRT.F           48.5000:   START DEPTH
 STOP.F         3509.0000:   STOP DEPTH
 STEP.F            0.5000:   STEP LENGTH
 NULL.          -999.2500:   NO VALUE
 COMP.   TESORO PETROLEUM:   COMPANY
 WELL. TESORO "TX" #45-33:   WELL
 FLD .        TEAPOT DOME:   FIELD
 LOC .      S33 T39N R78W:   LOCATION
 CNTY.            NATRONA:   COUNTY
 STAT.            WYOMING:   STATE
 CTRY. UNITED STATES OF AMERICA:   COUNTRY
 SRVC.      DRESSER ATLAS:   SERVICE COMPANY
 DATE.        03-OCT-1976:   LOGDATE
 API .     49025102700000:   API NUMBER
~CURVE INFORMATION
#MNEM.UNIT       API CODE    CURVE DESCRIPTION
#----------   ------------   ------------------------------
 DEPT.F                  :   
 SPR .MV     07 010 01 00:   SPONTANEOUS POTENTIAL
 TENR.LBS    07 635 01 00:   TENSION FROM RESISTIVITY
 SFL .OHMM   07 220 01 00:   SHALLOW FOCUSED LOG RESISTIVITY
 ILM .OHMM   07 120 44 00:   INDUCTION LOG MEDIUM RESISTIVITY
 ILD .OHMM   07 120 46 00:   DEEP INDUCTION RESISTIVITY
 GRD .GAPI   45 310 01 00:   GAMMA RAY FROM DENSITY LOG
 CALD.IN     45 280 60 00:   CALIPER FROM DENSITY LOG
 NPHI.DEC    42 890 03 00:   NEUTRON POROSITY SANDSTONE
 DPHI.DEC    45 890 12 00:   DENSITY POROSITY SANDSTONE
 TEND.LBS    45 635 01 00:   TENSION FROM DENSITY LOG
~PARAMETER INFORMATION
#MNEM.UNIT          VALUE    DESCRIPTION
#----------   ------------   ------------------------------
 EKB .F         5217.0000:   Kelly bushing
 EGL .F         5206.0000:   Ground level
 EDF .F         5216.0000:   Drilling floor
 EPD .F         5206.0000:   Permanent datum
 TD  .F         3491.0000:   Total depth
 DATE.        03-OCT-1976:   Date logged
 CLNT.            A2DTECH:   Client Code
 SL  . 2030' FWL & 2145' FSL:   Surface Location
 PD  .                 GL:   Permanent Datum
 DD  .F              3491:   Depth driller
 DL  .F              3487:   Depth logger
 BLI .F              3485:   Bottom log interval
 TLI .F               813:   Top log interval
 CS1 .IN            8.625:   Casing size
 CBD1.      8.625" @ 823':   Casing driller 1
 CBL1.F               819:   Casing logger 1
 BS1 .IN            7.875:   Bit size
 BSD1.F              3491:   Depth drilled with bit1
 DFT .           CHEM GEL:   Type fluid in hole
 DFD .                9.4:   Density
 DFV .                 47:   Viscosity
 DFPH.                 10:   pH
 DFL .                5.8:   Fluid loss
 MSS .           FLOWLINE:   Source of sample
 RMS .OHMM           1.09:   Rm
 MST .F                68:   Rm Meas. temp.
 RMF .OHMM              1:   Rmf
 MFST.F                68:   Rmf Meas. temp.
 RMC .OHMM           1.24:   Rmc
 MCST.F                68:   Rmc Meas. temp.
 MFSS.               MEAS:   Source Rmf.
 MCSS.               MEAS:   Source Rmc.
 RMB .OHMM            .62:   Rm. at BHT
 BHT .F               119:   BHT.
 TCS .HRS              12:   Time Circ. stopped
 MRT .F               119:   Maximum recorded temp.
 LUN .               6134:   Logging unit number
 LUL .              GLTTE:   Logging unit location
 ENGI.            VAUGHIN:   Recorded By
 WITN.        WOLF-CARTER:   Witnessed by
 ORIG.     2.5", 5" PRINT:   Origin of data
 UWI .     49025102700000:   Unique Well ID
 DICO. A2D TECHNOLOGIES, INC.:   Digitizing Company
 DAPD.                 11:   Feet Above Permanent Datum
~OTHER INFORMATION
~A   DEPT      SPR        TENR       SFL        ILM        ILD        GRD       CALD       NPHI       DPHI       TEND   
# ...
 3465.5000   -20.6820  -999.2500     4.0670     4.0880     3.8710   163.4390     8.2050     0.2310     0.0530   495.7360
 3466.0000   -20.6180  -999.2500     4.0560     4.0810     3.8750   164.5360     8.2050     0.2340     0.0510   500.2250
 3466.5000   -20.6630  -999.2500     4.0440     4.0750     3.8800   165.5800     8.2110     0.2380     0.0540   506.4630
 3467.0000   -20.8080  -999.2500     4.0330     4.0690     3.8840   164.7920     8.2160     0.2430     0.0570   512.7000
 3467.5000   -20.9380  -999.2500     4.0220     4.0630     3.8890   163.8900     8.2220     0.2480     0.0580   518.9380
 3468.0000   -21.0730  -999.2500     4.0110     4.0570     3.8940   163.5240     8.2280     0.2530     0.0530   525.0000
 3468.5000   -21.2050  -999.2500     4.0000     4.0510     3.8980   163.1990     8.2330     0.2510     0.0490   539.6570
 3469.0000   -21.3430  -999.2500     3.9880     4.0450     3.9020   163.8520     8.2390     0.2480     0.0520   553.9140
 3469.5000   -21.4040  -999.2500     3.9770     4.0390     3.9070   165.1760     8.2420     0.2460     0.0580   568.1710
 3470.0000   -21.3980  -999.2500     3.9670     4.0330     3.9110   166.4910     8.2320     0.2460     0.0620   582.4290
 3470.5000   -21.3950  -999.2500     3.9560     4.0260     3.9160   167.4870     8.2230     0.2460     0.0590   586.2030
 3471.0000   -21.4080  -999.2500     3.9420     4.0210     3.9200   168.5120     8.2130     0.2430     0.0520   587.6710
 3471.5000   -21.3000  -999.2500     3.9960     4.0170     3.9250   169.5460     8.2030     0.2400     0.0450   589.1380
 3472.0000   -21.0960  -999.2500     4.0640     4.0570     3.9290   170.5850     8.2000     0.2360     0.0390   590.6060
 3472.5000   -20.9080  -999.2500     4.1320     4.0980     3.9340   171.2660     8.1970     0.2330     0.0400   592.0740
 3473.0000   -20.7180  -999.2500     4.2000     4.1400     3.9380   172.0720     8.1940     0.2290     0.0400   593.5410
 3473.5000   -20.5250  -999.2500     4.2680     4.1810     3.9560   172.8920     8.1910     0.2300     0.0410   595.0000
 3474.0000   -20.3360  -999.2500     4.3220     4.2200     3.9940   172.7150     8.1880     0.2320     0.0420   600.7920
 3474.5000   -20.1440  -999.2500     4.2740     4.2590     4.0310   172.3260     8.1850     0.2350     0.0470   606.5500
 3475.0000   -19.9510  -999.2500     4.2330     4.3220     4.0890   172.2870     8.1820     0.2400     0.0520   612.3080
 3475.5000   -19.8050  -999.2500     4.1930     4.2870     4.0680   172.8250     8.1790     0.2450     0.0570   618.0650
 3476.0000  -999.2500  -999.2500     4.1520     4.1980     4.0140   173.3530     8.1760     0.2510     0.0620   623.8230
 3476.5000  -999.2500  -999.2500     4.1120     4.1090     3.9600   173.5450     8.1730     0.2480     0.0620   639.8880
 3477.0000  -999.2500  -999.2500     4.0710     4.0210     3.9060   173.2070     8.1700     0.2460     0.0620   658.6000
 3477.5000  -999.2500  -999.2500     4.0310     3.9320     3.8520   172.8740     8.1670     0.2470     0.0660   677.3130
 3478.0000  -999.2500  -999.2500     3.9900     3.8430     3.7980   172.5390     8.1640     0.2450     0.0600   686.3230
 3478.5000  -999.2500  -999.2500     3.9500     3.7550     3.7440   172.1970     8.1460     0.2440     0.0560   689.7250
 3479.0000  -999.2500  -999.2500     3.9090     3.6660     3.6900   172.2870     8.1190     0.2430     0.0620   693.1270
 3479.5000  -999.2500  -999.2500     3.8690     3.5770     3.6360   172.6330     8.0920     0.2410     0.0670   696.5300
 3480.0000  -999.2500  -999.2500     3.9000     3.4890     3.5820   173.0050     8.0650     0.2440     0.0690   699.9320
 3480.5000  -999.2500  -999.2500     3.9310     3.4000     3.5280   172.2500     8.0380     0.2470     0.0720   703.3340
 3481.0000  -999.2500  -999.2500     3.9630     3.4000     3.6150   171.3060     8.0130     0.2500     0.0680   706.7360
 3481.5000  -999.2500  -999.2500     3.9940  -999.2500     3.7020   170.3560     7.9930     0.2530     0.0640   710.1390
 3482.0000  -999.2500  -999.2500     4.0250  -999.2500     3.7890   169.4130     7.9720     0.2550     0.0620   713.5410
 3482.5000  -999.2500  -999.2500     4.0560  -999.2500     3.8760   169.1110     7.9510     0.2530     0.0630   726.8750
 3483.0000  -999.2500  -999.2500     4.0870  -999.2500     3.9620   169.6880     7.9300     0.2520     0.0640   747.6670
 3483.5000  -999.2500  -999.2500     4.1180  -999.2500  -999.2500   169.9290     7.9090     0.2510     0.0630   768.4580
 3484.0000  -999.2500  -999.2500     4.1500  -999.2500  -999.2500   168.8570     7.9110     0.2510     0.0560   789.2500
 3484.5000  -999.2500  -999.2500     4.1810  -999.2500  -999.2500   167.8040     7.9250     0.2520     0.0520   810.0420
 3485.0000  -999.2500  -999.2500     4.2120  -999.2500  -999.2500   166.7150     7.9390     0.2520     0.0610   826.5290
 3485.5000  -999.2500  -999.2500     4.2430  -999.2500  -999.2500   167.9650     7.9540     0.2530     0.0690   847.0760
 3486.0000  -999.2500  -999.2500  -999.2500  -999.2500  -999.2500   169.5600     7.9680     0.2530     0.0770   867.6240
 3486.5000  -999.2500  -999.2500  -999.2500  -999.2500  -999.2500   171.1890     7.9820     0.2500     0.0790   885.0000
 3487.0000  -999.2500  -999.2500  -999.2500  -999.2500  -999.2500   172.1170     7.9750     0.2480     0.0770   831.7330
 3487.5000  -999.2500  -999.2500  -999.2500  -999.2500  -999.2500   172.7040     7.9670     0.2450     0.0770   761.0420
 3488.0000  -999.2500  -999.2500  -999.2500  -999.2500  -999.2500   173.2770     7.9590     0.2420     0.0830   690.3500
 3488.5000  -999.2500  -999.2500  -999.2500  -999.2500  -999.2500   172.0590     7.9500     0.2400     0.0860   619.6580
 3489.0000  -999.2500  -999.2500  -999.2500  -999.2500  -999.2500   170.5380     7.9420     0.2380     0.0830   548.9670
 3489.5000  -999.2500  -999.2500  -999.2500  -999.2500  -999.2500   169.0190     7.9340     0.2370     0.0790   478.2750
 3490.0000  -999.2500  -999.2500  -999.2500  -999.2500  -999.2500   167.8880     7.9260     0.2360     0.0750   407.5830
 3490.5000  -999.2500  -999.2500  -999.2500  -999.2500  -999.2500   168.7010     7.9230     0.2400     0.0710   374.1330
 3491.0000  -999.2500  -999.2500  -999.2500  -999.2500  -999.2500   169.4830     7.9270     0.2410     0.0700   372.5250
 3491.5000  -999.2500  -999.2500  -999.2500  -999.2500  -999.2500   170.2590     7.9300     0.2420     0.0700   370.9170
 3492.0000  -999.2500  -999.2500  -999.2500  -999.2500  -999.2500   171.0380     7.9330     0.2440     0.0700   369.3090
 3492.5000  -999.2500  -999.2500  -999.2500  -999.2500  -999.2500   171.7080     7.9370     0.2480     0.0690   367.7010
 3493.0000  -999.2500  -999.2500  -999.2500  -999.2500  -999.2500   170.9560     7.9400     0.2520     0.0680   366.0930
 3493.5000  -999.2500  -999.2500  -999.2500  -999.2500  -999.2500   170.2000     7.9440     0.2550     0.0680   364.4850
 3494.0000  -999.2500  -999.2500  -999.2500  -999.2500  -999.2500   169.4570     7.9470     0.2520     0.0700   362.8770
 3494.5000  -999.2500  -999.2500  -999.2500  -999.2500  -999.2500   168.3530     7.9500     0.2480     0.0730   361.2700
 3495.0000  -999.2500  -999.2500  -999.2500  -999.2500  -999.2500   168.4790     7.9540     0.2490     0.0770   359.6620
 3495.5000  -999.2500  -999.2500  -999.2500  -999.2500  -999.2500   168.7830     7.9570     0.2500     0.0800   358.0540
 3496.0000  -999.2500  -999.2500  -999.2500  -999.2500  -999.2500   169.0920     7.9610     0.2510     0.0830   356.4460
 3496.5000  -999.2500  -999.2500  -999.2500  -999.2500  -999.2500   169.4260     7.9600     0.2480     0.0810   354.8380
 3497.0000  -999.2500  -999.2500  -999.2500  -999.2500  -999.2500   168.9440     7.9590     0.2430     0.0790   353.2300
 3497.5000  -999.2500  -999.2500  -999.2500  -999.2500  -999.2500   168.7810     7.9570     0.2470     0.0770   351.6220
 3498.0000  -999.2500  -999.2500  -999.2500  -999.2500  -999.2500   169.2770     7.9550     0.2530     0.0730   350.0140
 3498.5000  -999.2500  -999.2500  -999.2500  -999.2500  -999.2500   169.7610     7.9530     0.2480     0.0670   348.4060
