~VERSION INFORMATION
 VERS.                2.0:   CWLS LOG ASCII STANDARD - VERSION 2.0
 WRAP.                 NO:   ONE LINE PER DEPTH STEP
~WELL INFORMATION
#MNEM.UNIT      DATA TYPE    INFORMATION
#----------   ------------   ------------------------------
 STRT.F            0.0000:   START DEPTH
 STOP.F         3964.0000:   STOP DEPTH
 STEP.F            0.5000:   STEP LENGTH
 NULL.          -999.2500:   NO VALUE
 COMP. LAWRENCE ALLISON & ASSOCIATES:   COMPANY
 WELL. LAWRENCE NPR 3 "X" #43-10:   WELL
 FLD .              N P R:   FIELD
 LOC .      S10 T38N R78W:   LOCATION
 CNTY.            NATRONA:   COUNTY
 STAT.            WYOMING:   STATE
 CTRY. UNITED STATES OF AMERICA:   COUNTRY
 SRVC.      DRESSER ATLAS:   SERVICE COMPANY
 DATE.        07-AUG-1985:   LOGDATE
 API .     49025111390000:   API NUMBER
~CURVE INFORMATION
#MNEM.UNIT       API CODE    CURVE DESCRIPTION
#----------   ------------   ------------------------------
 DEPT.F                  :   
 CNC .DEC    42 890 03 00:   NEUTRON PORISITY SANDSTONE
 RHOB.G/C3   45 350 01 00:   BULK DENSITY
 CORR.G/C3   45 356 01 00:   DENSITY CORRECTION
 TEND.LBS    45 635 01 00:   TENSION FROM DENSITY LOG
 GRR .GAPI   07 310 01 00:   GAMMA RAY FROM RESISTIVITY
 CALR.IN     07 280 01 00:   CALIPER FROM RESISTIVITY
 SPR .MV     07 010 01 00:   SPONTANEOUS POTENTIAL
 TENR.LBS    07 635 01 00:   TENSION FROM RESISTIVITY
 RILD.OHMM   07 120 46 00:   DEEP INDUCTION RESISTIVITY
 RILM.OHMM   07 120 44 00:   INDUCTION LOG MEDIUM RESISTIVITY
 RFOC.OHMM   07 220 04 00:   RESISTIVITY FOCUSED LOG RES.
 DT  .US/F   60 520 00 00:   DELTA TIME
 TENS.LBS    60 635 01 00:   TENSION FROM SONIC
~PARAMETER INFORMATION
#MNEM.UNIT          VALUE    DESCRIPTION
#----------   ------------   ------------------------------
 EKB .F         5223.0000:   Kelly bushing
 EGL .F         5211.0000:   Ground level
 EDF .F            0.0000:   Drilling floor
 EPD .F         5211.0000:   Permanent datum
 TD  .F         3950.0000:   Total depth
 DATE.        07-AUG-1985:   Date logged
 CLNT.            A2DTECH:   Client Code
 SL  . 2016' FNL & 2230' FWL:   Surface Location
 PD  .                 GL:   Permanent Datum
 DD  .F              3950:   Depth driller
 DL  .F              3950:   Depth logger
 BLI .F              3948:   Bottom log interval
 CS1 .IN            8.625:   Casing size
 CBD1.      8.625" @ 518':   Casing driller 1
 CBL1.F               520:   Casing logger 1
 BS1 .IN            7.875:   Bit size
 DFT .            KCL-GEL:   Type fluid in hole
 DFD .                8.9:   Density
 DFV .                 40:   Viscosity
 DFPH.                  9:   pH
 DFL .                 12:   Fluid loss
 MSS .           FLOWLINE:   Source of sample
 RMS .OHMM           .318:   Rm
 MST .F                82:   Rm Meas. temp.
 RMF .OHMM            .24:   Rmf
 MFST.F                82:   Rmf Meas. temp.
 RMC .OHMM            .40:   Rmc
 MCST.F                82:   Rmc Meas. temp.
 MFSS.               CALC:   Source Rmf.
 RMB .OHMM            .19:   Rm. at BHT
 BHT .F               140:   BHT.
 TCS .HRS               4:   Time Circ. stopped
 MRT .F               140:   Maximum recorded temp.
 LUN .               6264:   Logging unit number
 LUL .               GLTE:   Logging unit location
 ENGI.           FAHLSING:   Recorded By
 WITN.             STRONG:   Witnessed by
 ORIG.           5" PRINT:   Origin of data
 UWI .     49025111390000:   Unique Well ID
 DICO. A2D TECHNOLOGIES, INC.:   Digitizing Company
 DAPD.                 12:   Feet Above Permanent Datum
 BSD1.               3950:   Depth drilled with bit1
 MCSS.               CALC:   Source Rmc.
~OTHER INFORMATION
~A    DEPT     CNC       RHOB       CORR       TEND         GRR      CALR        SPR       TENR       RILD       RILM       RFOC         DT       TENS   
# ...
  520.0000  -999.2500  -999.2500  -999.2500  -999.2500    73.8800     9.9390   -24.0560   -17.0680    39.9470  1569.0601     0.3180  -999.2500  -999.2500
  520.5000  -999.2500  -999.2500  -999.2500  -999.2500    78.8160    10.1750   -32.5900   -17.5680    14.5830   811.7040     0.9840  -999.2500  -999.2500
  521.0000  -999.2500  -999.2500  -999.2500  -999.2500    81.5140    10.2260   -38.2650   -17.9680     9.8960    20.2770     1.5180  -999.2500  -999.2500
  521.5000  -999.2500  -999.2500  -999.2500  -999.2500    83.3080    10.3840   -43.7470   -18.4680     5.8020     6.1540     2.2120  -999.2500  -999.2500
  522.0000  -999.2500  -999.2500  -999.2500  -999.2500    84.0320    10.7880   -48.9250   -18.9680     3.1900     4.6860     5.7960  -999.2500  -999.2500
  522.5000  -999.2500  -999.2500  -999.2500  -999.2500    82.1040    11.2160   -53.5450   -19.4680     4.4610    11.7860     9.5360  -999.2500  -999.2500
  523.0000  -999.2500  -999.2500  -999.2500  -999.2500    81.4690    11.6670   -58.0400   -19.9680     5.2300    17.8900    13.2760  -999.2500  -999.2500
  523.5000  -999.2500  -999.2500  -999.2500  -999.2500    83.7730    12.0200   -61.6560   -20.4680     5.0420    20.4630    14.8530  -999.2500  -999.2500
  524.0000  -999.2500  -999.2500  -999.2500  -999.2500    86.0200    12.2840   -64.2590   -20.9680     5.0420    17.4510    12.9160  -999.2500  -999.2500
  524.5000  -999.2500  -999.2500  -999.2500  -999.2500    88.1890    11.7900   -66.7190   -21.4680     5.0420    14.9010    10.4420  -999.2500  -999.2500
  525.0000  -999.2500  -999.2500  -999.2500  -999.2500    90.1890    11.0940   -69.1020   -21.9680     5.0420    12.3500     7.9690  -999.2500  -999.2500
  525.5000  -999.2500  -999.2500  -999.2500  -999.2500    92.2010    10.6560   -71.5080   -22.4680     5.1350     9.8000     6.9570  -999.2500  -999.2500
  526.0000  -999.2500  -999.2500  -999.2500  -999.2500    91.9300    10.3460   -73.4360   -22.9680     4.8530     7.2490     5.9450  -999.2500  -999.2500
  526.5000  -999.2500  -999.2500  -999.2500  -999.2500    88.7990    10.2940   -75.4330   -23.4680     3.9530     4.6990     4.9510  -999.2500  -999.2500
  527.0000  -999.2500  -999.2500  -999.2500  -999.2500    85.6750    10.3140   -75.7450   -23.9680     3.1930     3.7240     4.7290  -999.2500  -999.2500
  527.5000  -999.2500  -999.2500  -999.2500  -999.2500    80.3190    10.3520   -75.7410   -24.4680     2.6260     3.0980     4.5180  -999.2500  -999.2500
  528.0000  -999.2500  -999.2500  -999.2500  -999.2500    75.0910    10.3700   -75.3310   -24.9680     2.1920     2.5660     3.8270  -999.2500  -999.2500
  528.5000  -999.2500  -999.2500  -999.2500  -999.2500    73.6890    10.3520   -74.5480   -25.4680     2.1520     2.3800     3.1570  -999.2500  -999.2500
  529.0000  -999.2500  -999.2500  -999.2500  -999.2500    88.8030    10.3110   -73.9870   -25.9680     2.1840     2.6020     2.4870  -999.2500  -999.2500
  529.5000  -999.2500  -999.2500  -999.2500  -999.2500    83.4570    10.1860   -73.4510   -26.4680     2.6370     2.9460     2.2530  -999.2500  -999.2500
  530.0000  -999.2500  -999.2500  -999.2500  -999.2500    79.0870    10.0560   -72.8850   -26.9680     3.1620     3.2910     2.8990  -999.2500  -999.2500
  530.5000  -999.2500  -999.2500  -999.2500  -999.2500    82.4090    10.0400   -72.3160   -27.4680     3.8910     3.6350     3.5120  -999.2500  -999.2500
  531.0000  -999.2500  -999.2500  -999.2500  -999.2500    87.8610    10.1080   -71.8530   -27.9680     4.7250     3.9800     4.4340  -999.2500  -999.2500
  531.5000  -999.2500  -999.2500  -999.2500  -999.2500    93.4470    10.1450   -71.3830   -28.4680     5.3760     4.5260     5.1830  -999.2500  -999.2500
  532.0000  -999.2500  -999.2500  -999.2500  -999.2500    94.8810    10.1560   -70.8250   -28.9680     5.8910     5.0910     5.3560  -999.2500  -999.2500
  532.5000  -999.2500  -999.2500  -999.2500  -999.2500    95.1160    10.1270   -70.1790   -29.4680     6.2850     5.5580     5.5290  -999.2500  -999.2500
  533.0000  -999.2500  -999.2500  -999.2500  -999.2500    95.4630    10.1020   -69.5330   -29.9680     6.6490     6.0260     5.7020  -999.2500  -999.2500
  533.5000  -999.2500  -999.2500  -999.2500  -999.2500    95.2490    10.0790   -68.8870   -30.4680     6.8380     6.2770     5.8910  -999.2500  -999.2500
  534.0000  -999.2500  -999.2500  -999.2500  -999.2500    94.4380    10.0550   -68.2760   -30.9680     6.9520     6.4330     5.8980  -999.2500  -999.2500
  534.5000  -999.2500  -999.2500  -999.2500  -999.2500    96.3290    10.0370   -68.7970   -31.4680     7.0750     6.5900     5.9630  -999.2500  -999.2500
  535.0000  -999.2500  -999.2500  -999.2500  -999.2500    99.0960    10.0370   -69.5090   -31.9680     7.2400     6.7590     6.0270  -999.2500  -999.2500
  535.5000  -999.2500  -999.2500  -999.2500  -999.2500    99.9630    10.0370   -70.2320   -32.4680     7.4200     6.8200     6.0910  -999.2500  -999.2500
  536.0000  -999.2500  -999.2500  -999.2500  -999.2500    99.3920    10.0370   -70.9540   -32.9680     7.6130     6.8870     6.1560  -999.2500  -999.2500
  536.5000  -999.2500  -999.2500  -999.2500  -999.2500    98.6990    10.0370   -71.6020   -33.4680     7.6340     6.9540     6.2240  -999.2500  -999.2500
  537.0000  -999.2500  -999.2500  -999.2500  -999.2500    96.0600    10.0410   -71.5430   -33.9680     7.6830     7.0140     6.2990  -999.2500  -999.2500
  537.5000  -999.2500  -999.2500  -999.2500  -999.2500    95.2470    10.0480   -71.4730   -34.4680     7.6140     7.0350     6.3800  -999.2500  -999.2500
  538.0000  -999.2500  -999.2500  -999.2500  -999.2500    98.1920    10.0560   -71.4580   -34.9680     7.5210     7.0570     6.4600  -999.2500  -999.2500
  538.5000  -999.2500  -999.2500  -999.2500  -999.2500    96.4460    10.0630   -71.8700   -35.4680     7.4290     7.0750     6.5750  -999.2500  -999.2500
  539.0000  -999.2500  -999.2500  -999.2500  -999.2500    94.4210    10.0700   -72.2990   -35.9680     7.3360     6.9590     6.5340  -999.2500  -999.2500
  539.5000  -999.2500  -999.2500  -999.2500  -999.2500    94.5730    10.0810   -72.3950   -36.4680     7.2440     6.8580     6.4610  -999.2500  -999.2500
  540.0000  -999.2500  -999.2500  -999.2500  -999.2500    99.2930    10.1160   -72.4000   -36.9680     7.1510     6.7580     6.3880  -999.2500  -999.2500
  540.5000  -999.2500  -999.2500  -999.2500  -999.2500   102.7890    10.1510   -72.5890   -37.4680     7.0590     6.6570     6.3150  -999.2500  -999.2500
  541.0000  -999.2500  -999.2500  -999.2500  -999.2500    99.6590    10.1870   -73.1700   -37.9680     6.9660     6.5570     6.2420  -999.2500  -999.2500
  541.5000  -999.2500  -999.2500  -999.2500  -999.2500    96.6180    10.2000   -73.8410   -38.4680     6.9470     6.4560     6.1690  -999.2500  -999.2500
  542.0000  -999.2500  -999.2500  -999.2500  -999.2500    94.8800    10.2100   -74.4330   -38.9680     6.9470     6.4190     6.1110  -999.2500  -999.2500
  542.5000  -999.2500  -999.2500  -999.2500  -999.2500    95.7140    10.2200   -74.8030   -39.4680     6.9470     6.3830     6.1110  -999.2500  -999.2500
  543.0000  -999.2500  -999.2500  -999.2500  -999.2500    97.1180    10.2300   -75.1610   -39.9680     6.9470     6.3460     6.1110  -999.2500  -999.2500
  543.5000  -999.2500  -999.2500  -999.2500  -999.2500    98.5390    10.2430   -75.5210   -40.4680     6.9470     6.3190     6.1110  -999.2500  -999.2500
  544.0000  -999.2500  -999.2500  -999.2500  -999.2500    99.9610    10.2590   -75.8880   -40.9680     6.9470     6.2950     6.1120  -999.2500  -999.2500
  544.5000  -999.2500  -999.2500  -999.2500  -999.2500   100.7010    10.2750   -76.2650   -41.4680     6.9460     6.2810     6.1110  -999.2500  -999.2500
  545.0000  -999.2500  -999.2500  -999.2500  -999.2500    97.8850    10.2910   -76.6430   -41.9680     6.9770     6.4650     6.1110  -999.2500  -999.2500
  545.5000  -999.2500  -999.2500  -999.2500  -999.2500    95.0100    10.3070   -77.0190   -42.4680     7.0130     6.6150     6.3880  -999.2500  -999.2500
