~VERSION INFORMATION
 VERS.                2.0:   CWLS LOG ASCII STANDARD - VERSION 2.0
 WRAP.                 NO:   ONE LINE PER DEPTH STEP
~WELL INFORMATION
#MNEM.UNIT      DATA TYPE    INFORMATION
#----------   ------------   ------------------------------
 STRT.F          484.0000:   START DEPTH
 STOP.F         4334.0000:   STOP DEPTH
 STEP.F            0.5000:   STEP LENGTH
 NULL.          -999.2500:   NO VALUE
 COMP.    FENIX & SCISSON:   COMPANY
 WELL. FENIX NPR 3 "JX" #46-27:   WELL
 FLD .              N P R:   FIELD
 LOC .      S27 T39N R78W:   LOCATION
 CNTY.            NATRONA:   COUNTY
 STAT.            WYOMING:   STATE
 CTRY. UNITED STATES OF AMERICA:   COUNTRY
 SRVC.       SCHLUMBERGER:   SERVICE COMPANY
 DATE.        01-MAR-1979:   LOGDATE
 API .     49025107660000:   API NUMBER
~CURVE INFORMATION
#MNEM.UNIT       API CODE    CURVE DESCRIPTION
#----------   ------------   ------------------------------
 DEPT.F                  :   
 TENR.LBS    07 635 01 00:   TENSION FROM RESISTIVITY
 SPR .MV     07 010 01 00:   SPONTANEOUS POTENTIAL
 SFL .OHMM   07 220 01 00:   SHALLOW FOCUSED LOG RESISTIVITY
 ILD .OHMM   07 120 46 00:   DEEP INDUCTION RESISTIVITY
 ILM .OHMM   07 120 44 00:   INDUCTION LOG MEDIUM RESISTIVITY
 TEND.LBS    42 635 01 00:   TENSION FROM COMPENSATE NEUTRON
 GRD .GAPI   45 310 01 00:   GAMMA RAY FROM DENSITY LOG
 CALD.IN     45 280 60 00:   CALIPER FROM DENSITY LOG
 RHOB.G/C3   45 350 01 00:   BULK DENSITY
 CORR.G/C3   45 356 01 00:   DENSITY CORRECTION
 NPHI.DEC    42 890 03 00:   NEUTRON POROSITY SANDSTONE
~PARAMETER INFORMATION
#MNEM.UNIT          VALUE    DESCRIPTION
#----------   ------------   ------------------------------
 EKB .F         5059.0000:   Kelly bushing
 EGL .F         5049.0000:   Ground level
 EDF .F            0.0000:   Drilling floor
 TD  .F         4320.0000:   Total depth
 DATE.        01-MAR-1979:   Date logged
 CLNT.            A2DTECH:   Client Code
 SL  . 1625' FSL & 2281' FWL:   Surface Location
 PD  .                 GL:   Permanent Datum
 DD  .F              4320:   Depth driller
 DL  .F              4319:   Depth logger
 BLI .F              4316:   Bottom log interval
 CS1 .IN            8.625:   Casing size
 CBD1.      8.625" @ 505':   Casing driller 1
 CBL1.F               500:   Casing logger 1
 BS1 .IN            7.875:   Bit size
 DFT .                FGM:   Type fluid in hole
 DFD .                9.1:   Density
 DFV .                 40:   Viscosity
 DFPH.               11.7:   pH
 DFL .                6.5:   Fluid loss
 MSS .               TANK:   Source of sample
 RMS .OHMM           .901:   Rm
 MST .F                65:   Rm Meas. temp.
 RMF .OHMM           .852:   Rmf
 MFST.F                65:   Rmf Meas. temp.
 MFSS.               MEAS:   Source Rmf.
 RMB .OHMM            .39:   Rm. at BHT
 BHT .F               151:   BHT.
 TCS .HRS            1200:   Time Circ. stopped
 MRT .F               151:   Maximum recorded temp.
 LUN .               8043:   Logging unit number
 LUL .               CSPR:   Logging unit location
 ENGI.              PFARR:   Recorded By
 WITN.              AMENO:   Witnessed by
 ORIG.         2.5" PRINT:   Origin of data
 UWI .     49025107660000:   Unique Well ID
 DICO. A2D TECHNOLOGIES, INC.:   Digitizing Company
 DAPD.                 10:   Feet Above Permanent Datum
 BSD1.F              4320:   Depth drilled with bit1
 EPD .F              5049:   Elevation Permanent Datum
 LMF .                 KB:   Log Measured From
 DMF .                 KB:   Drilling Measured From
 TLI .F               500:   Top log interval
 TLAB.HRS            1900:   Time logger at bottom
~OTHER INFORMATION
~A   DEPT     TENR        SPR        SFL        ILD        ILM       TEND         GRD      CALD       RHOB       CORR         NPHI 
# ...
 3015.5000   972.2220   -38.9010     6.3030     4.8830     5.0930  1329.3650   122.0170     8.3770     2.5070     0.0040     0.2820
 3016.0000   972.2220   -39.0240     5.8690     4.8130     5.0560  1329.3650   122.0840     8.3920     2.5000     0.0040     0.2810
 3016.5000   972.2220   -39.1520     5.4340     4.7430     5.0200  1329.3650   124.4080     8.4150     2.4990     0.0060     0.2860
 3017.0000   972.2220   -39.2780     4.7820     4.6780     4.9830  1329.3650   127.6610     8.4360     2.5040     0.0130     0.2980
 3017.5000   972.2220   -39.4050     4.8040     4.5930     4.9420  1329.3650   130.7190     8.4570     2.5110     0.0270     0.3050
 3018.0000   972.2220   -39.5310     5.2880     4.5930     4.9650  1329.3650   132.7920     8.4790     2.5120     0.0390     0.3240
 3018.5000   972.2220   -39.6580     5.7720     4.6090     4.9910  1329.3650   128.4780     8.4980     2.4990     0.0280     0.3190
 3019.0000   972.2220   -39.7840     6.2550     4.6690     5.0180  1329.3650   124.9540     8.4960     2.4860     0.0170     0.3100
 3019.5000   972.2220   -39.9100     6.6200     4.7290     5.0450  1329.3650   120.9930     8.4540     2.4920     0.0050     0.2930
 3020.0000   972.2220   -40.0380     6.3770     4.7890     5.0710  1329.3650   117.7190     8.4190     2.5060     0.0040     0.2870
 3020.5000   972.2220   -40.1630     6.0420     4.8500     5.0980  1329.3650   116.2970     8.3820     2.5140     0.0040     0.2900
 3021.0000   972.2220   -40.2740     6.0420     4.9100     5.1250  1329.3650   116.7490     8.3830     2.5100     0.0040     0.2920
 3021.5000   972.2220   -40.2770     6.1580     4.9700     5.1510  1329.3650   120.2340     8.3890     2.5050     0.0070     0.2920
 3022.0000   972.2220   -40.2770     6.3830     5.0300     5.1780  1329.3650   123.0760     8.3950     2.5120     0.0130     0.2860
 3022.5000   972.2220   -40.2860     6.3670     5.0910     5.2050  1329.3650   127.1550     8.4000     2.5380     0.0190     0.2760
 3023.0000   972.2220   -40.1780     6.2960     5.1260     5.2200  1329.3650   125.5300     8.4060     2.5460     0.0180     0.2710
 3023.5000   972.2220   -39.9120     6.2240     5.2010     5.2970  1329.3650   121.0900     8.4110     2.5330     0.0100     0.2680
 3024.0000   972.2220   -39.6840     6.1540     5.2760     5.3730  1329.3650   117.9650     8.4170     2.5220     0.0080     0.2650
 3024.5000   972.2220   -39.4360     6.1540     5.3500     5.4490  1329.3650   116.9710     8.4220     2.5150     0.0070     0.2690
 3025.0000   972.2220   -39.1050     6.3220     5.4250     5.5250  1329.3650   116.0600     8.4280     2.5210     0.0120     0.2720
 3025.5000   972.2220   -38.6350     6.5310     5.4990     5.6010  1329.3650   115.0330     8.4330     2.5270     0.0180     0.2750
 3026.0000   972.2220   -38.8100     6.7420     5.5150     5.6160  1329.3650   115.8580     8.4390     2.5220     0.0160     0.2740
 3026.5000   972.2220   -39.0760     6.7420     5.3770     5.4760  1329.3650   118.0300     8.4440     2.5110     0.0040     0.2700
 3027.0000   972.2220   -39.3560     6.4540     5.1430     5.2380  1329.3650   119.5730     8.4500     2.5070    -0.0010     0.2670
 3027.5000   972.2220   -39.5850     6.1540     4.9100     5.0000  1329.3650   119.2080     8.4560     2.5110     0.0040     0.2630
 3028.0000   972.2220   -39.8100     5.6590     4.6780     4.7640  1329.3650   119.0930     8.4600     2.5200     0.0070     0.2620
 3028.5000   972.2220   -39.7080     5.2190     4.4290     4.3920  1329.3650   119.0570     8.4640     2.5240     0.0110     0.2670
 3029.0000   972.2220   -39.2550     4.7560     4.1920     4.0110  1329.3650   122.1550     8.4690     2.5290     0.0150     0.2730
 3029.5000   972.2220   -39.1500     4.2520     3.8240     3.6300  1329.3650   125.7240     8.4740     2.5330     0.0200     0.2780
 3030.0000   972.2220   -39.3550     3.7480     3.4440     3.2490  1329.3650   129.1130     8.4790     2.5370     0.0440     0.2830
 3030.5000   972.2220   -39.5170     3.2440     3.0640     2.8670  1329.3650   137.5890     8.4840     2.5180     0.0640     0.3170
 3031.0000   972.2220   -39.6920     2.7400     2.6840     2.4680  1329.3650   144.9870     8.4890     2.4670     0.0860     0.3520
 3031.5000   972.2220   -39.8670     2.4680     2.5130     2.3790  1329.3650   152.6520     8.4940     2.4140     0.1040     0.3880
 3032.0000   972.2220   -40.0340     3.3510     2.9370     2.8410  1329.3650   154.9870     8.5000     2.3320     0.0830     0.4240
 3032.5000   972.2220   -40.2220     4.5340     3.3060     3.2440  1329.3650   142.5220     8.4950     2.3020     0.0510     0.4070
 3033.0000   972.2220   -40.2020     5.7160     3.6750     3.6460  1329.3650   134.2860     8.4800     2.3800     0.0170     0.3640
 3033.5000   972.2220   -40.0380     6.2670     4.0440     4.0480  1329.3650   121.8470     8.4660     2.4450    -0.0020     0.2960
 3034.0000   972.2220   -39.8930     5.9330     4.4130     4.4500  1329.3650   113.8490     8.4510     2.5180     0.0030     0.2820
 3034.5000   972.2220   -39.7480     6.1090     4.7820     4.8530  1329.3650   107.6660     8.4380     2.5370     0.0120     0.2690
 3035.0000   972.2220   -39.5980     6.4450     5.1260     5.2200  1329.3650   106.7840     8.4210     2.5530     0.0210     0.2620
 3035.5000   972.2220   -39.4520     6.7420     5.2200     5.3170  1329.3650   106.7240     8.4200     2.5580     0.0300     0.2570
 3036.0000   972.2220   -39.3060     6.5850     5.1800     5.2760  1329.3650   107.1510     8.4250     2.5640     0.0390     0.2510
 3036.5000   972.2220   -39.1570     6.3640     5.1440     5.2390  1329.3650   108.7290     8.4360     2.5710     0.0380     0.2460
 3037.0000   972.2220   -39.0340     6.1440     5.1080     5.2030  1329.3650   111.4870     8.4460     2.5670     0.0330     0.2450
 3037.5000   972.2220   -38.9410     5.9240     5.0730     5.1660  1329.3650   114.6910     8.4560     2.5630     0.0240     0.2470
 3038.0000   972.2220   -38.8360     5.7030     5.0330     5.1260  1329.3650   117.8370     8.4660     2.5710     0.0150     0.2490
 3038.5000   972.2220   -38.7440     5.4830     5.0330     5.1260  1329.3650   120.9200     8.4760     2.5740     0.0190     0.2560
 3039.0000   972.2220   -38.7040     5.4150     4.9420     5.0330  1329.3650   124.3510     8.4880     2.5720     0.0190     0.2640
 3039.5000   972.2220   -39.0820     5.6240     4.9420     5.2200  1329.3650   125.8370     8.4920     2.5610     0.0160     0.2720
 3040.0000   972.2220   -39.4300     5.8600     4.9120     5.1180  1329.3650   125.5220     8.5330     2.5560     0.0150     0.2800
 3040.5000   972.2220   -39.7450     6.0960     4.8840     4.9680  1329.3650   124.4830     8.5430     2.5540     0.0190     0.2810
 3041.0000   972.2220   -40.2380     6.3830     4.8520     4.8180  1329.3650   122.3610     8.5470     2.5510     0.0220     0.2740
 3041.5000   972.2220   -39.6180     6.2210     4.8520     4.6780  1329.3650   120.4430     8.5490     2.5510     0.0210     0.2600
 3042.0000   972.2220   -39.7730     5.8770     4.6780     4.4210  1329.3650   118.7920     8.5530     2.5440     0.0200     0.2510
 3042.5000   972.2220   -40.6150     5.5320     4.5240     4.1800  1329.3650   121.2860     8.5570     2.5370     0.0160     0.2530
 3043.0000   972.2220   -41.0990     4.9980     4.1910     3.9390  1329.3650   124.1690     8.5600     2.5230     0.0110     0.2600
 3043.5000   972.2220   -40.4490     4.3660     3.8580     3.6980  1329.3650   132.0190     8.5640     2.5100     0.0070     0.2650
 3044.0000   972.2220   -39.8850     3.7340     3.5250     3.4570  1329.3650   138.6030     8.5670     2.4950     0.0010     0.2690
 3044.5000   972.2220   -39.2530     3.0730     3.1920     3.2160  1329.3650   145.5180     8.5700     2.4820     0.0140     0.2920
 3045.0000   972.2220   -39.2030     3.1520     3.0730     3.1290  1329.3650   152.5080     8.5750     2.4680     0.0420     0.3040
 3045.5000   972.2220   -39.4010     3.7100     3.2990     3.3590  1329.3650   159.2240     8.5770     2.4540     0.0680     0.3750
