~VERSION INFORMATION
 VERS.                2.0:   CWLS LOG ASCII STANDARD - VERSION 2.0
 WRAP.                 NO:   ONE LINE PER DEPTH STEP
~WELL INFORMATION
#MNEM.UNIT      DATA TYPE    INFORMATION
#----------   ------------   ------------------------------
 STRT.F           53.0000:   START DEPTH
 STOP.F         3110.0000:   STOP DEPTH
 STEP.F            0.5000:   STEP LENGTH
 NULL.          -999.2500:   NO VALUE
 COMP. LAWRENCE ALLISON & ASSOCIATES W:   COMPANY
 WELL. LAWRENCE NPR 3 "AX" #31-34:   WELL
 FLD .      NPR - WILDCAT:   FIELD
 LOC .      S34 T39N R78W:   LOCATION
 CNTY.            NATRONA:   COUNTY
 STAT.            WYOMING:   STATE
 CTRY. UNITED STATES OF AMERICA:   COUNTRY
 SRVC.      DRESSER ATLAS:   SERVICE COMPANY
 DATE.        11-JUL-1986:   LOGDATE
 API .     49025111020000:   API NUMBER
~CURVE INFORMATION
#MNEM.UNIT       API CODE    CURVE DESCRIPTION
#----------   ------------   ------------------------------
 DEPT.F                  :   
 DEN .G/C3   45 350 01 00:   BULK DENSITY
 TEND.LBS    45 635 01 00:   TENSION FROM DENSITY LOG
 CORR.G/C3   45 356 01 00:   DENSITY CORRECTION
 NPHI.DEC    42 890 03 00:   NEUTRON POROSITY SANDSTONE
 SPR .MV     07 010 01 00:   SPONTANEOUS POTENTIAL
 RILM.OHMM   07 120 44 00:   INDUCTION LOG MEDIUM RESISTIVITY
 RILD.OHMM   07 120 46 00:   DEEP INDUCTION RESISTIVITY
 RFOC.OHMM   07 220 04 00:   RESISTIVITY FOCUSED LOG RES.
 TENR.LBS    07 635 01 00:   TENSION FROM RESISTIVITY
 GRR .GAPI   07 310 01 00:   GAMMA RAY FROM RESISTIVITY
 CALR.IN     07 280 01 00:   CALIPER FROM RESISTIVITY
~PARAMETER INFORMATION
#MNEM.UNIT          VALUE    DESCRIPTION
#----------   ------------   ------------------------------
 EKB .F          5074.800:   Kelly bushing
 EGL .F          5063.000:   Ground level
 EDF .F            0.0000:   Drilling floor
 EPD .F            0.0000:   Permanent datum
 TD  .F         3108.0000:   Total depth
 DATE.        11-JUL-1986:   Date logged
 CLNT.            A2DTECH:   Client Code
 SL  . 1796' FWL & 318' FNL:   Surface Location
 PD  .                 GL:   Permanent Datum
 DAPD.F                11:   Feet Above Permanent Datum
 DD  .F              3103:   Depth driller
 DL  .F              3108:   Depth logger
 BLI .F              3106:   Bottom log interval
 CS1 .IN            8.625:   Casing size
 CBD1.      8.625" @ 602':   Casing driller 1
 CBL1.F               596:   Casing logger 1
 BS1 .IN            7.875:   Bit size
 BSD1.F              3103:   Depth drilled with bit1
 DFT .            KCL/GEL:   Type fluid in hole
 DFD .                  9:   Density
 DFV .                 42:   Viscosity
 MSS .           MUD/TANK:   Source of sample
 RMS .OHMM           .352:   Rm
 MST .F                82:   Rm Meas. temp.
 RMF .OHMM           .264:   Rmf
 MFST.F                82:   Rmf Meas. temp.
 RMC .OHMM            .44:   Rmc
 MCST.F                82:   Rmc Meas. temp.
 MFSS.               CALC:   Source Rmf.
 MCSS.               CALC:   Source Rmc.
 RMB .OHMM            .23:   Rm. at BHT
 BHT .F               115:   BHT.
 TCS .HRS               3:   Time Circ. stopped
 MRT .F               115:   Maximum recorded temp.
 LUN .            HL-6264:   Logging unit number
 LUL .           GILLETTE:   Logging unit location
 ENGI.     P. M. FASHSING:   Recorded By
 WITN.             STRONG:   Witnessed by
 ORIG.           5" PRINT:   Origin of data
 UWI .     49025111020000:   Unique Well ID
 DICO. A2D TECHNOLOGIES, INC.:   Digitizing Company
~OTHER INFORMATION
~A   DEPT      DEN       TEND       CORR       NPHI        SPR       RILM       RILD       RFOC       TENR         GRR      CALR   
# ...
 1578.0000  -999.2500  -999.2500  -999.2500  -999.2500   -89.2930     5.1760     5.6740     6.1120   -98.7240    93.9840    11.1530
 1578.5000  -999.2500  -999.2500  -999.2500  -999.2500   -89.5260     5.1720     5.6690     6.1000   -98.7240    93.1190    11.1540
 1579.0000  -999.2500  -999.2500  -999.2500  -999.2500   -89.7600     5.1680     5.6630     6.0870   -98.7240    93.6840    11.1550
 1579.5000  -999.2500  -999.2500  -999.2500  -999.2500   -90.0020     5.1640     5.6560     6.0750   -98.7240    94.5070    11.1560
 1580.0000  -999.2500  -999.2500  -999.2500  -999.2500   -90.0600     5.1580     5.6640     6.0630   -98.7240    94.0980    11.1570
 1580.5000  -999.2500  -999.2500  -999.2500  -999.2500   -90.0610     5.2070     5.6810     6.0500   -98.7240    93.5250    11.1580
 1581.0000  -999.2500  -999.2500  -999.2500  -999.2500   -90.0600     5.3020     5.6980     6.0380   -98.7240    93.1310    11.1590
 1581.5000  -999.2500  -999.2500  -999.2500  -999.2500   -90.0220     5.3980     5.7150     6.0330   -98.7240    96.3440    11.1600
 1582.0000  -999.2500  -999.2500  -999.2500  -999.2500   -89.9350     5.4510     5.7320     6.1230   -98.7240    98.3280    11.1610
 1582.5000  -999.2500  -999.2500  -999.2500  -999.2500   -89.8490     5.4510     5.7490     6.1980   -98.7240    98.8290    11.1620
 1583.0000  -999.2500  -999.2500  -999.2500  -999.2500   -89.7630     5.4510     5.7800     6.2730   -98.7240    98.5590    11.1630
 1583.5000  -999.2500  -999.2500  -999.2500  -999.2500   -89.6770     5.4690     5.8390     6.3470   -98.7240    98.3350    11.1640
 1584.0000  -999.2500  -999.2500  -999.2500  -999.2500   -89.5910     5.5030     5.8980     6.4350   -98.7240    96.3490    11.1650
 1584.5000  -999.2500  -999.2500  -999.2500  -999.2500   -89.5040     5.5360     5.9560     6.3930   -98.7240    95.9970    11.1660
 1585.0000  -999.2500  -999.2500  -999.2500  -999.2500   -89.4180     5.5690     6.0150     6.3760   -92.6240    95.7980    11.1670
 1585.5000  -999.2500  -999.2500  -999.2500  -999.2500   -89.3320     5.6030     6.0740     6.3760   -79.2040    95.1940    11.1680
 1586.0000  -999.2500  -999.2500  -999.2500  -999.2500   -89.2460     5.6360     6.0890     6.3760   -85.5810    93.2770    11.1690
 1586.5000  -999.2500  -999.2500  -999.2500  -999.2500   -89.1600     5.6560     6.0890     6.4040   -92.3470    93.7120    11.1700
 1587.0000  -999.2500  -999.2500  -999.2500  -999.2500   -89.0730     5.6530     6.0890     6.4510   -98.7240    95.1890    11.1670
 1587.5000  -999.2500  -999.2500  -999.2500  -999.2500   -88.9870     5.6500     6.0890     6.4940   -84.0840    95.2480    11.1600
 1588.0000  -999.2500  -999.2500  -999.2500  -999.2500   -88.9040     5.6480     6.0890     6.4940   -79.4120    94.3260    11.1540
 1588.5000  -999.2500  -999.2500  -999.2500  -999.2500   -88.9840     5.6460     6.0890     6.4950   -79.8110    94.4720    11.1480
 1589.0000  -999.2500  -999.2500  -999.2500  -999.2500   -89.2610     5.6440     6.0890     6.4940   -80.2110    94.7880    11.1420
 1589.5000  -999.2500  -999.2500  -999.2500  -999.2500   -89.5370     5.6420     6.0890     6.4950   -80.6110    94.9490    11.1350
 1590.0000  -999.2500  -999.2500  -999.2500  -999.2500   -89.8160     5.6400     6.0890     6.4460   -81.0100    94.8010    11.1290
 1590.5000  -999.2500  -999.2500  -999.2500  -999.2500   -89.8620     5.6370     6.0890     6.3760   -81.4100    94.6230    11.1230
 1591.0000  -999.2500  -999.2500  -999.2500  -999.2500   -89.7920     5.6350     6.0890     6.3940   -81.8090    96.2860    11.1160
 1591.5000  -999.2500  -999.2500  -999.2500  -999.2500   -89.7130     5.6330     6.0890     6.4260   -82.2090    98.6680    11.1100
 1592.0000  -999.2500  -999.2500  -999.2500  -999.2500   -89.6350     5.6310     6.0890     6.4590   -82.6090    98.6010    11.1140
 1592.5000  -999.2500  -999.2500  -999.2500  -999.2500   -89.5570     5.6290     6.0890     6.4940   -83.0080    97.1960    11.1190
 1593.0000  -999.2500  -999.2500  -999.2500  -999.2500   -89.4790     5.6270     6.0890     6.4940   -83.4080    94.1740    11.1230
 1593.5000  -999.2500  -999.2500  -999.2500  -999.2500   -89.4000     5.6250     6.0890     6.4950   -83.8070    91.6890    11.1280
 1594.0000  -999.2500  -999.2500  -999.2500  -999.2500   -89.3220     5.6220     6.0880     6.4940   -84.2070    90.4510    11.1320
 1594.5000  -999.2500  -999.2500  -999.2500  -999.2500   -89.2440     5.6200     6.0890     6.4920   -84.6070    90.3550    11.1370
 1595.0000  -999.2500  -999.2500  -999.2500  -999.2500   -89.1660     5.6180     6.0880     6.7380   -85.0060    91.2310    11.1420
 1595.5000  -999.2500  -999.2500  -999.2500  -999.2500   -89.0870     5.6160     6.1430     6.6510   -85.4060    92.9480    11.1460
 1596.0000  -999.2500  -999.2500  -999.2500  -999.2500   -89.0090     5.6140     6.1930     6.5720   -85.8050    93.7820    11.1510
 1596.5000  -999.2500  -999.2500  -999.2500  -999.2500   -88.9290     5.6120     6.2430     6.4940   -86.2050    93.8090    11.1550
 1597.0000  -999.2500  -999.2500  -999.2500  -999.2500   -88.8640     5.6090     6.2930     6.4350   -86.6050    93.8610    11.1600
 1597.5000  -999.2500  -999.2500  -999.2500  -999.2500   -89.0510     5.6080     6.3420     6.4850   -87.0040    91.6330    11.1640
 1598.0000  -999.2500  -999.2500  -999.2500  -999.2500   -89.2430     5.6060     6.3920     6.5330   -87.4040    89.0900    11.1690
 1598.5000  -999.2500  -999.2500  -999.2500  -999.2500   -89.4340     5.6030     6.4420     6.5810   -87.8040    87.7810    11.1720
 1599.0000  -999.2500  -999.2500  -999.2500  -999.2500   -89.6240     5.7730     6.4920     6.6290   -88.2030    90.2700    11.1750
 1599.5000  -999.2500  -999.2500  -999.2500  -999.2500   -89.8150     5.8970     6.5420     6.6770   -88.6030    92.6150    11.1770
 1600.0000  -999.2500  -999.2500  -999.2500  -999.2500   -90.0160     6.0330     6.5910     6.7250   -88.9640    94.3410    11.1800
 1600.5000  -999.2500  -999.2500  -999.2500  -999.2500   -89.9410     6.0150     6.6270     6.8080   -75.0310    95.5140    11.1820
 1601.0000  -999.2500  -999.2500  -999.2500  -999.2500   -89.7750     5.9960     6.6490     6.8590   -72.3270    92.9720    11.1850
 1601.5000  -999.2500  -999.2500  -999.2500  -999.2500   -89.6060     5.9770     6.6710     6.9100   -80.1500    90.7300    11.1880
 1602.0000  -999.2500  -999.2500  -999.2500  -999.2500   -89.4380     5.9580     6.6930     6.9610   -87.9730    89.5870    11.1900
 1602.5000  -999.2500  -999.2500  -999.2500  -999.2500   -89.2650     5.9380     6.7150     7.0130   -98.7240    88.4270    11.1930
 1603.0000  -999.2500  -999.2500  -999.2500  -999.2500   -89.2240     5.9190     6.7380     7.0560   -98.7240    87.2360    11.1950
 1603.5000  -999.2500  -999.2500  -999.2500  -999.2500   -89.1910     5.9000     6.6800     6.9770   -98.7240    87.4310    11.1980
 1604.0000  -999.2500  -999.2500  -999.2500  -999.2500   -89.1570     5.8810     6.6030     6.8940   -98.7240    89.9790    11.2010
 1604.5000  -999.2500  -999.2500  -999.2500  -999.2500   -89.1230     5.8620     6.5260     6.8120   -98.7240    92.0040    11.2030
 1605.0000  -999.2500  -999.2500  -999.2500  -999.2500   -89.0880     5.8420     6.4490     6.7380   -98.7240    93.4050    11.2060
 1605.5000  -999.2500  -999.2500  -999.2500  -999.2500   -89.0540     5.8230     6.3720     6.6620   -98.7240    98.6890    11.2080
 1606.0000  -999.2500  -999.2500  -999.2500  -999.2500   -89.0200     5.8040     6.2950     6.5780   -98.7240   102.1650    11.2090
 1606.5000  -999.2500  -999.2500  -999.2500  -999.2500   -88.9860     5.7850     6.2180     6.4950   -98.7240   102.3240    11.2000
 1607.0000  -999.2500  -999.2500  -999.2500  -999.2500   -88.9510     5.7650     6.1410     6.4350   -98.7240    99.5770    11.1910
 1607.5000  -999.2500  -999.2500  -999.2500  -999.2500   -88.9160     5.7460     6.0890     6.6090   -98.7240    94.4370    11.1830
 1608.0000  -999.2500  -999.2500  -999.2500  -999.2500   -88.8820     5.7270     6.1080     6.7450   -98.7240    92.7040    11.1750
