~VERSION INFORMATION
 VERS.                2.0:   CWLS LOG ASCII STANDARD - VERSION 2.0
 WRAP.                 NO:   ONE LINE PER DEPTH STEP
~WELL INFORMATION
#MNEM.UNIT      DATA TYPE    INFORMATION
#----------   ------------   ------------------------------
 STRT.F          397.0000:   START DEPTH
 STOP.F         5516.0000:   STOP DEPTH
 STEP.F            0.5000:   STEP LENGTH
 NULL.          -999.2500:   NO VALUE
 COMP.  FENIX AND SCISSON:   COMPANY
 WELL.   FENIX TPX #54-10:   WELL
 FLD . NAVAL PETROLEUM RESERVE=3:   FIELD
 LOC .      S10 T38N R78W:   LOCATION
 CNTY.            NATRONA:   COUNTY
 STAT.            WYOMING:   STATE
 CTRY. UNITED STATES OF AMERICA:   COUNTRY
 SRVC.       SCHLUMBERGER:   SERVICE COMPANY
 DATE.        03-APR-1981:   LOGDATE
 API .     49025108690000:   API NUMBER
~CURVE INFORMATION
#MNEM.UNIT       API CODE    CURVE DESCRIPTION
#----------   ------------   ------------------------------
 DEPT.F                  :   
 SPR .MV     11 010 01 00:   SPONTANEOUS POTENTIAL FROM RES.
 TENR.LBS    11 635 01 00:   TENSION FROM RES.
 LLD .OHMM   11 220 10 00:   LATEROLOG DEEP
 LLS .OHMM   11 220 09 00:   LATEROLOG LOG SHALLOW
 TEND.LBS    45 635 01 00:   TENSION FORM DENSITY LOG
 GRD .GAPI   45 310 01 00:   GAMMA RAY FROM DENSITY LOG
 NPHI.DEC    42 890 03 00:   NEUTRON POROSITY SANDSTONE
 CALD.IN     45 280 60 00:   CALIPER FROM DENSITY LOG
 CORR.G/C3   45 356 01 00:   DENSITY CORRECTION
 RHOB.G/C3   45 350 01 00:   BULK DENSITY
~PARAMETER INFORMATION
#MNEM.UNIT          VALUE    DESCRIPTION
#----------   ------------   ------------------------------
 EKB .F         5206.0000:   Kelly bushing
 EGL .F         5196.0000:   Ground level
 EDF .F            0.0000:   Drilling floor
 TD  .F         5498.0000:   Total depth
 CLNT.            A2DTECH:   Client Code
 SL  . 2080' FNL & 2150' FEL:   Surface Location
 PD  .                 GL:   Permanent Datum
 EPD .F              5196:   Elevation Permanent Datum
 LMF .                 KB:   Log Measured From
 DMF .                 KB:   Drilling Measured From
 DAPD.F                10:   Feet Above Permanent Datum
 DATE.         3-APR-1981:   Date Logged [DD-MMM-YYYY]
 DD  .F              5485:   Depth driller
 DL  .F              5498:   Depth logger
 BLI .F              5496:   Bottom log interval
 TLI .F               397:   Top log interval
 CS1 .IN                7:   Casing size
 CBD1.         7" @ 3891':   Casing driller 1
 CBL1.F              3889:   Casing logger 1
 BS1 .IN            6.125:   Bit size
 BSD1.F              5485:   Depth drilled with bit1
 DFT .           CHEM GEL:   Type fluid in hole
 DFD .                9.1:   Density
 DFV .                 42:   Viscosity
 DFPH.                9.0:   pH
 DFL .                5.0:   Fluid loss
 MSS .           MUD TANK:   Source of sample
 RMS .OHMM           0.81:   Rm
 MST .F                62:   Rm Meas. temp.
 RMF .OHMM           0.64:   Rmf
 MFST.F                62:   Rmf Meas. temp.
 MFSS.               MEAS:   Source Rmf.
 RMB .OHMM          0.031:   Rm. at BHT
 BHT .F               174:   BHT.
 TCS .HRS            0830:   Time Circ. stopped
 TLAB.HRS            2130:   Time logger at bottom
 MRT .F               174:   Maximum recorded temp.
 LUN .               8035:   Logging unit number
 LUL .               CSPR:   Logging unit location
 ENGI.             BEATIE:   Recorded By
 WITN.              FIVAS:   Witnessed by
 ORIG.           5" PRINT:   Origin of data
 UWI .     49025108690000:   Unique Well ID
 DICO. A2D TECHNOLOGIES, INC:   Digitizing Company
~OTHER INFORMATION
~A   DEPT      SPR       TENR        LLD        LLS       TEND         GRD        NPHI     CALD       CORR       RHOB   
# ...
 4082.0000   -20.5167  1436.8278     4.0269     3.8488  1514.2424    84.1199     0.4861     9.2235     0.0797     2.7426
 4082.5000   -20.6687  1436.7886     6.8178     6.4046  1515.7437    80.1810     0.3618     7.6363     0.0925     2.8754
 4083.0000   -20.8207  1436.7495    10.4607    10.6922  1516.9650    75.8218     0.3050     7.2024     0.1300     2.9639
 4083.5000   -20.8207  1436.7104    12.9112    14.4579  1518.1855    71.0918     0.1746     7.0979     0.1660     3.0473
 4084.0000   -20.8207  1436.6714    15.8242    16.9871  1519.4062    66.8507     0.1511     7.0982     0.2103     3.1028
 4084.5000   -20.8207  1437.1602    16.7544    17.2212  1536.0835    67.4435     0.1463     7.1135     0.2433     3.1824
 4085.0000   -20.9726  1438.0664    16.2700    15.6008  1521.8475    70.4631     0.1537     7.1288     0.2447     3.3374
 4085.5000   -20.9726  1438.9728    12.7239    13.0831  1508.2218    72.2545     0.2124     7.1440     0.2447     3.3813
 4086.0000   -20.9726  1439.8792     8.7696     9.2693  1493.9858    71.6359     0.2523     7.1443     0.2447     3.2694
 4086.5000   -21.1246  1440.7855     7.9476     7.6649  1480.3607    70.7181     0.2426     7.0698     0.2432     3.0396
 4087.0000   -21.1246  1441.6918     8.0587     8.0476  1497.0381    69.1961     0.1903     6.9785     0.1756     3.0179
 4087.5000   -21.1246  1442.5981     9.8078     9.5893  1558.8647    66.6914     0.1572     6.9206     0.1695     3.0081
 4088.0000   -21.1246  1443.5045    12.8046    11.7519  1575.2369    63.7323     0.1515     6.9059     0.1680     3.0231
 4088.5000   -21.1246  1444.4109    13.8307    13.1452  1561.2878    62.5124     0.1497     6.9120     0.1654     3.0260
 4089.0000   -21.1246  1444.9055    13.7191    13.2330  1532.2236    61.2924     0.1488     6.9216     0.1597     3.0178
 4089.5000   -21.1246  1445.2513    12.5323    12.7703  1533.7500    61.8927     0.1488     6.9519     0.1529     3.0087
 4090.0000   -21.2766  1445.5972    12.2695    12.6763  1534.9706    65.4963     0.1491     6.9521     0.1499     3.0065
 4090.5000   -21.4286  1445.9429    12.2680    12.6716  1536.1913    70.0166     0.1512     6.9524     0.1521     3.0094
 4091.0000   -21.7325  1446.2887    12.1427    12.5783  1537.4244    70.9143     0.1600     6.9527     0.1806     3.0364
 4091.5000   -21.8845  1446.6345    12.0009    12.3898  1538.9377    69.6916     0.1650     6.9530     0.1979     3.0574
 4092.0000   -22.0365  1446.9803    11.5684    11.7979  1540.1583    70.8886     0.1727     6.9683     0.2084     3.0755
 4092.5000   -22.0365  1447.3260    10.9583    11.2276  1541.3796    71.1792     0.1763     6.9686     0.2053     3.0904
 4093.0000   -22.0365  1447.6719    10.6265    10.7602  1542.6002    66.6332     0.1776     6.9689     0.1986     3.0559
 4093.5000   -22.0365  1448.0177    10.5729    10.7562  1543.8638    55.4435     0.1758     6.9692     0.1978     3.0393
 4094.0000   -22.0365  1448.3634    10.6506    10.6769  1530.1952    47.2650     0.1710     6.9695     0.2143     3.0356
 4094.5000   -21.9504  1448.7092    10.8755    10.6721  1531.4159    42.4268     0.1673     6.9698     0.2383     3.0813
 4095.0000   -21.7325  1449.0551    11.2625    10.7444  1532.6365    39.9984     0.1619     6.9701     0.2480     3.1106
 4095.5000   -21.7325  1449.4009    11.9259    10.9060  1549.0149    39.9870     0.1523     6.9704     0.2341     3.1218
 4096.0000   -21.4286  1449.7466    12.5979    11.1193  1535.0784    41.4861     0.1378     6.9707     0.2247     3.1165
 4096.5000   -21.4286  1450.0924    12.8643    11.5927  1521.0460    44.9374     0.1360     6.9710     0.2262     3.1158
 4097.0000   -21.4286  1450.4382    12.5941    12.8764  1522.5762    51.7322     0.1463     6.9713     0.2351     3.1413
 4097.5000   -21.4286  1450.7839    11.5751    11.2632  1508.9462    61.0863     0.1635     6.9565     0.2404     3.1525
 4098.0000   -21.4286  1451.1298    10.5641     9.3794  1510.1667    64.0960     0.1821     6.9419     0.2445     3.1517
 4098.5000   -21.2439  1451.4756     9.7019     8.8014  1526.2344    57.1297     0.1865     6.9572     0.2471     3.1976
 4099.0000   -21.0300  1451.8214     9.2422     8.8595  1512.5753    49.5688     0.1816     6.9575     0.2485     3.2425
 4099.5000   -20.9726  1452.1671     9.3716     9.1728  1513.8640    47.1404     0.1675     6.9578     0.2478     3.2343
 4100.0000   -20.8207  1452.5129     9.5698     9.4756  1515.3551    45.9205     0.1617     6.9431     0.2477     3.1418
 4100.5000   -20.8670  1452.8588     9.9331     9.9155  1501.4242    46.5136     0.1621     6.9584     0.1892     3.0488
 4101.0000   -20.9069  1453.2046    10.4208    10.4041  1502.6448    47.7435     0.1630     6.9587     0.1741     3.0398
 4101.5000   -20.9469  1453.5503    10.7781    10.8406  1503.8655    51.3214     0.1645     6.9590     0.1771     3.0976
 4102.0000   -20.8334  1453.8961    11.0836    11.1454  1505.0004    56.7508     0.1660     6.9593     0.1868     3.1396
 4102.5000   -20.9878  1453.4066    11.3180    11.3000  1475.5634    70.0282     0.1691     6.9596     0.2056     3.1839
 4103.0000   -20.9911  1452.6912    11.5573    11.4547  1461.8180    77.2675     0.1718     6.9599     0.2288     3.2124
 4103.5000   -20.8419  1451.9757    11.7192    11.6125  1464.2097    80.5792     0.1737     6.9602     0.2449     3.2409
 4104.0000   -20.8450  1451.2603    11.8833    11.7714  1509.9049    80.8986     0.1755     6.9605     0.2483     3.2454
 4104.5000   -20.8485  1450.5448    11.6337    11.6847  1511.0587    79.6495     0.1767     6.9608     0.2483     3.2161
 4105.0000   -20.5474  1449.8293    11.3101    11.3568  1527.0750    79.0312     0.1770     6.9611     0.2483     3.1824
 4105.5000   -20.4872  1449.1139    11.0729    11.1158  1513.3333    78.4155     0.1734     6.9614     0.2483     3.1756
 4106.0000   -20.2492  1448.3984    10.9940    11.1261  1514.5452    78.4040     0.1685     6.9617     0.2460     3.2004
 4106.5000   -19.9481  1447.6830    11.1542    11.4232  1515.9631    76.8819     0.1665     6.9470     0.2475     3.2319
 4107.0000   -19.7994  1446.9675    11.7915    11.9106  1532.2686    75.0054     0.1650     6.9323     0.2459     3.2251
 4107.5000   -19.8026  1446.2521    12.5616    12.4188  1533.5183    72.0221     0.1641     6.9027     0.2331     3.1981
 4108.0000   -19.8055  1445.5366    13.1773    13.0480  1534.5762    70.5000     0.1638     6.8730     0.2241     3.1861
 4108.5000   -19.9611  1444.8212    13.9281    13.8848  1537.1855    72.9054     0.1645     6.8434     0.2354     3.2041
 4109.0000   -20.1159  1444.1057    14.4170    14.4773  1552.1207    78.3320     0.1669     6.8437     0.2451     3.2611
 4109.5000   -20.2708  1443.3903    14.5101    14.5754  1538.0377    84.4046     0.1799     6.8441     0.2481     3.3099
 4110.0000   -20.5776  1442.6749    13.2932    13.8695  1539.4807    86.4660     0.1887     6.8443     0.2481     3.3175
 4110.5000   -20.7470  1441.9595    11.4134    12.4440  1540.6345    77.0861     0.1932     6.8446     0.2481     3.2629
 4111.0000   -21.0400  1441.2440    10.3388    10.6859  1541.8180    63.1773     0.1922     6.8299     0.2482     3.2326
 4111.5000   -21.4988  1440.5286     9.5647     9.8876  1527.7908    54.4044     0.1824     6.8153     0.2482     3.2258
 4112.0000   -21.8056  1439.8131     9.1006     9.6778  1529.2336    46.1713     0.1679     6.8156     0.2482     3.2686
 4112.5000   -21.9605  1439.0977     9.2344     9.8112  1530.3875    43.8045     0.1565     6.8159     0.2482     3.3106
 4113.0000   -22.1161  1438.3822    10.0269    10.3289  1531.5414    45.0014     0.1504     6.8162     0.2482     3.3024
 4113.5000   -22.1185  1437.5906    10.7496    11.2030  1532.7272    46.1984     0.1468     6.8165     0.2482     3.2633
 4114.0000   -22.1561  1438.2737    11.6056    11.9298  1533.9391    47.6974     0.1481     6.8168     0.2483     3.2340
 4114.5000   -22.2767  1439.0382    12.1828    12.5266  1535.2920    50.1362     0.1484     6.8139     0.2483     3.2198
 4115.0000   -22.1715  1439.8026    12.5311    12.7887  1536.4458    54.0159     0.1475     6.8024     0.2483     3.2145
