~VERSION INFORMATION
 VERS.                2.0:   CWLS LOG ASCII STANDARD - VERSION 2.0
 WRAP.                 NO:   ONE LINE PER DEPTH STEP
~WELL INFORMATION
#MNEM.UNIT      DATA TYPE    INFORMATION
#----------   ------------   ------------------------------
 STRT.F          210.0000:   START DEPTH
 STOP.F         2998.0000:   STOP DEPTH
 STEP.F            0.5000:   STEP LENGTH
 NULL.          -999.2500:   NO VALUE
 COMP.    FENIX & SCISSON:   COMPANY
 WELL. FENIX & SCISSON "A" #41-28:   WELL
 FLD .          N.P.R. #3:   FIELD
 LOC .      S28 T39N R78W:   LOCATION
 CNTY.            NATRONA:   COUNTY
 STAT.            WYOMING:   STATE
 CTRY. UNITED STATES OF AMERICA:   COUNTRY
 SRVC.       SCHLUMBERGER:   SERVICE COMPANY
 DATE.        08-MAY-1977:   LOGDATE
 API .     49025103670000:   API NUMBER
~CURVE INFORMATION
#MNEM.UNIT       API CODE    CURVE DESCRIPTION
#----------   ------------   ------------------------------
 DEPT.F                  :   
 CALD.IN     45 280 60 00:   CALIPER FROM DENSITY LOG
 GRD .GAPI   45 310 01 00:   GAMMA RAY FROM DENSITY LOG
 CORR.G/C3   45 356 01 00:   DENSITY CORRECTION
 RHOB.G/C3   45 350 01 00:   BULK DENSITY
 SPR .MV     07 010 01 00:   SPONTANEOUS POTENTIAL
 LL8 .OHMM   07 220 08 00:   LATEROLOG-8 RES.
 ILM .OHMM   07 120 44 00:   INDUCTION LOG MEDIUM RESISTIVITY
 ILD .OHMM   07 120 46 00:   DEEP INDUCTION RESISTIVITY
~PARAMETER INFORMATION
#MNEM.UNIT          VALUE    DESCRIPTION
#----------   ------------   ------------------------------
 EKB .F         5012.0000:   Kelly bushing
 EGL .F         5002.0000:   Ground level
 TD  .F         3000.0000:   Total depth
 CLNT.            A2DTECH:   Client Code
 SL  . 330' FNL & 2310' FWL:   Surface Location
 DATE.        08-MAY-1977:   Date Logged [DD-MMM-YYYY]
 DD  .F              3000:   Depth driller
 DL  .F              2999:   Depth logger
 BLI .F              2993:   Bottom log interval
 TLI .F               222:   Top log interval
 CS1 .              8.625:   Casing size
 CBD1.      8.625" @ 112':   Casing driller 1
 CBL1.IN              222:   Casing logger 1
 BS1 .IN            7.875:   Bit size
 BSD1.F              3000:   Depth drilled with bit1
 DFT .                KCL:   Type fluid in hole
 DFD .                8.8:   Density
 DFV .                 32:   Viscosity
 DFPH.                8.0:   pH
 DFL .                8.8:   Fluid loss
 MSS .           FLOWLINE:   Source of sample
 RMS .OHMM          0.124:   Rm
 MST .F                80:   Rm Meas. temp.
 RMF .OHMM          0.117:   Rmf
 MFST.F                80:   Rmf Meas. temp.
 MFSS.               MEAS:   Source Rmf.
 RMB .OHMM         0.0886:   Rm. at BHT
 BHT .F               112:   BHT.
 TCS .HRS            0200:   Time Circ. stopped
 TLAB.HRS            0515:   Time logger at bottom
 MRT .F               112:   Maximum recorded temp.
 LUN .               5642:   Logging unit number
 LUL .               CSPR:   Logging unit location
 ENGI.            MARATIN:   Recorded By
 WITN.         PETTINGILL:   Witnessed by
 ORIG.      2.5" 5" PRINT:   Origin of data
 UWI .     49025103670000:   Unique Well ID
 DICO. A2D TECHNOLOGIES, INC.:   Digitizing Company
 PD  .                 GL:   Permanent Datum
 EPD .               5002:   Elevation Permanent Datum
 LMF .                 KB:   Log Measured From
 DMF .                 KB:   Drilling Measured From
 DAPD.                 10:   Feet Above Permanent Datum
~OTHER INFORMATION
~A   DEPT     CALD         GRD      CORR       RHOB        SPR        LL8        ILM        ILD   
# ...
  574.5000     9.0058   109.5566     0.1083     2.5159   -87.2014    11.2548    10.8704    10.7427
  575.0000     9.0077   110.1190     0.1113     2.5234   -87.2427    11.2572    11.0289    10.7442
  575.5000     9.0097   109.5050     0.1143     2.5246   -87.4915    11.2596    11.0312    10.8951
  576.0000     9.0116   110.5179     0.1143     2.5073   -87.7909    11.2620    11.0336    10.8966
  576.5000     9.0285   112.6287     0.1136     2.5045   -87.7809    11.1047    11.1944    10.8981
  577.0000     9.0304   114.7115     0.1091     2.5038   -87.4630    10.7943    11.1968    10.8996
  577.5000     9.0324   115.8929     0.1055     2.5057   -87.1451    10.1972    11.1992    10.9011
  578.0000     9.0343   115.4701     0.1055     2.5130   -86.8271    10.4949    11.2016    10.9026
  578.5000     9.0213   117.1329     0.1079     2.5257   -86.5092    10.8013    11.2040    10.9041
  579.0000     9.0079   119.5358     0.1116     2.5174   -86.1481    11.1165    11.2063    10.9056
  579.5000     9.0103   120.6014     0.1147     2.5186   -85.5649    11.4410    11.3697    10.9071
  580.0000     8.9973   119.7325     0.1103     2.5274   -85.2057    11.7750    11.5354    10.9086
  580.5000     8.9690   115.2922     0.1089     2.5125   -84.6204    12.1187    11.7035    11.0618
  581.0000     8.9714   115.4650     0.1096     2.4953   -84.3025    12.2957    12.0446    11.3731
  581.5000     8.9733   115.0425     0.1120     2.4991   -83.9465    12.4752    12.2202    11.5329
  582.0000     8.9753   110.0069     0.1180     2.5097   -83.6666    12.6573    12.5764    11.5344
  582.5000     8.9772   108.3929     0.1226     2.5254   -83.6574    12.8421    12.5790    11.5360
  583.0000     8.9643   109.4596     0.1189     2.5210   -83.6482    13.0295    12.7624    11.3794
  583.5000     8.9662   110.8228     0.1152     2.5046   -83.6728    13.2198    12.7651    11.3810
  584.0000     8.9827   111.5908     0.1115     2.5107   -83.9712    13.2226    12.7678    11.2263
  584.5000     8.9846   111.3171     0.1071     2.5234   -84.5782    13.0379    12.7706    10.9221
  585.0000     8.9866   110.5970     0.1049     2.5302   -85.1852    12.8558    12.7733    10.7738
  585.5000     8.9885   109.7281     0.1094     2.5206   -85.4542    12.6760    12.5951    10.7753
  586.0000     8.9905   106.7759     0.1185     2.5214   -85.7535    12.3220    12.5978    10.6289
  586.5000     8.9924   107.5439     0.1170     2.4990   -85.7438    12.1497    12.4221    10.3409
  587.0000     8.9943   109.9488     0.1104     2.5005   -85.7346    11.9800    12.2489    10.3423
  587.5000     8.9962   112.2049     0.1006     2.5096   -85.4167    11.8127    12.2515    10.2019
  588.0000     8.9982   112.5205     0.1037     2.5238   -85.0741    11.4827    12.2541    10.2033
  588.5000     9.0001   109.7230     0.1098     2.5134   -84.7571    11.0035    12.0830    10.3466
  589.0000     9.0021   109.5922     0.1166     2.5322   -84.4403    10.3948    11.9145    10.3480
  589.5000     8.9891   109.0269     0.1174     2.5210   -84.1235    10.5466    11.5822    10.3494
  590.0000     8.9910   108.7472     0.1123     2.5129   -83.4979    10.7006    10.9425    10.4948
  590.5000     8.9930   109.8188     0.1003     2.5092   -83.2006    11.0129    10.9250    10.4962
  591.0000     8.9949   110.4380     0.0951     2.5152   -83.1728    11.3344    10.9472    10.3536
  591.5000     8.9820   111.2060     0.0951     2.5243   -82.8734    11.4999    11.4280    10.3551
  592.0000     8.9690   110.6347     0.0990     2.5356   -82.8642    11.8356    11.5946    10.3566
  592.5000     8.9859   104.7063     0.1065     2.5401   -82.8550    12.0083    11.9325    10.2160
  593.0000     8.9729   101.0100     0.1104     2.5409   -82.8312    12.0109    12.2803    10.2174
  593.5000     8.9898   102.3732     0.1044     2.5335   -82.5278    12.0135    12.1090    10.2188
  594.0000     8.9917   107.0103     0.1113     2.5036   -82.8273    12.0160    11.9401    10.0799
  594.5000     8.9937   109.5640     0.0917     2.4887   -82.8179    12.0186    11.7736    10.0814
  595.0000     8.9956   111.6713     0.0904     2.5030   -83.1174    12.0212    11.4451     9.8081
  595.5000     8.9976   109.4631     0.1046     2.5188   -83.4168    11.8532    11.2853     9.6750
  596.0000     8.9995   106.9513     0.1115     2.5121   -83.7162    11.6877    10.9705     9.2836
  596.5000     9.0014   108.2643     0.0905     2.5077   -84.0155    11.3611    10.9729     9.2849
  597.0000     9.0034   114.1366     0.0966     2.5100   -84.3149    11.0436    10.8198     9.0332
  597.5000     9.0053   119.5929     0.1088     2.5198   -84.6194    10.8893    10.6689     8.9106
  598.0000     9.0073   121.4961     0.1156     2.5213   -85.2223    10.7372    10.5202     8.7896
  598.5000     8.9943   120.2635     0.1119     2.5094   -85.5217    10.7395    10.3734     8.6703
  599.0000     9.0112   119.2973     0.0970     2.4982   -85.2037    10.7418    10.3756     8.6715
  599.5000     8.9977   120.3666     0.0940     2.4923   -85.1934    10.5918    10.2309     8.6726
  600.0000     9.0002   121.1310     0.0964     2.4931   -84.5679    10.5940    10.0883     8.5549
  600.5000     8.9907   115.5052     0.1033     2.5111   -84.1071    10.4461     9.9476     8.5525
  601.0000     8.9744   111.8118     0.1124     2.5299   -83.8115    10.4483     9.8088     8.5502
  601.5000     8.9623   112.2850     0.1004     2.5233   -83.3091    10.4505     9.8109     8.5478
  602.0000     8.9646   112.3118     0.0975     2.5114   -82.9928    10.3046     9.8130     8.5455
  602.5000     8.9513   112.0342     0.1164     2.5062   -82.6765    10.3068     9.8151     8.5431
  603.0000     8.9237   114.5975     0.1104     2.5198   -81.7430    10.3090     9.8228     8.5408
  603.5000     8.9265   117.1540     0.1090     2.5266   -81.1180    10.3112     9.9604     8.5383
  604.0000     8.9288   118.9665     0.1219     2.5132   -80.4931    10.3076     9.9625     8.5360
  604.5000     8.9310   121.0766     0.1129     2.5141   -80.1768    10.1693    10.1077     8.5336
  605.0000     8.9178   122.4427     0.1040     2.5201   -79.8605    10.1716    10.1099     8.5313
  605.5000     8.9206   123.5112     0.1169     2.5307   -79.5443    10.1738    10.1120     8.5772
  606.0000     8.9228   116.5439     0.1146     2.5323   -79.8452    10.1759    10.1142     8.6451
  606.5000     8.9400   114.3385     0.1005     2.5271   -81.0722    10.1781    10.1164     8.6428
  607.0000     8.9422   114.2098     0.0990     2.5130   -81.9904    10.1803    10.1185     8.6404
  607.5000     8.9445   113.6481     0.1164     2.4981   -82.6001    10.1825    10.1207     8.6380
  608.0000     8.9467   112.0379     0.1150     2.5057   -82.9011    10.1498    10.0668     8.4151
  608.5000     8.9185   112.0647     0.0979     2.4975   -83.2022    10.1498     9.7427     8.2321
  609.0000     8.8909   112.9844     0.0971     2.4964   -83.1944     9.8640     9.3338     7.9555
  609.5000     8.8782   114.3504     0.1048     2.5053   -83.4954     9.5863     9.2009     7.8335
  610.0000     8.8806   115.7165     0.1116     2.4955   -83.4773     9.3164     8.8148     7.7239
  610.5000     8.8828   116.7783     0.1131     2.4904   -83.1713     9.0541     8.6892     7.6159
  611.0000     8.8851   114.7284     0.1042     2.4875   -83.1635     8.9257     8.4441     7.3576
  611.5000     8.8872   115.3504     0.1035     2.4890   -83.1286     8.5514     8.2764     7.2541
  612.0000     8.8745   117.0141     0.1081     2.4914   -82.8395     8.5514     8.1599     7.0045
  612.5000     8.8918   118.8266     0.1135     2.4959   -82.7932     8.4302     8.1605     6.9546
  613.0000     8.8940   120.3415     0.1189     2.5050   -82.5155     8.3090     8.0455     6.8099
  613.5000     8.8963   119.6243     0.1166     2.5140   -82.1991     8.1897     7.9321     6.6675
  614.0000     8.8835   120.8415     0.1085     2.4939   -81.8827     8.0767     7.8204     6.6208
  614.5000     8.8708   122.2076     0.1055     2.4792   -81.8750     8.0706     7.8210     6.5712
