~VERSION INFORMATION
 VERS.                2.0:   CWLS LOG ASCII STANDARD - VERSION 2.0
 WRAP.                 NO:   ONE LINE PER DEPTH STEP
~WELL INFORMATION
#MNEM.UNIT      DATA TYPE    INFORMATION
#----------   ------------   ------------------------------
 STRT.F         2676.0000:   START DEPTH
 STOP.F         3016.0000:   STOP DEPTH
 STEP.F            0.5000:   STEP LENGTH
 NULL.          -999.2500:   NO VALUE
 COMP.    FENIX & SCISSON:   COMPANY
 WELL.  FENIX "TX" #56-20:   WELL
 FLD .             NPR #3:   FIELD
 LOC .      S20 T39N R78W:   LOCATION
 CNTY.            NATRONA:   COUNTY
 STAT.            WYOMING:   STATE
 CTRY. UNITED STATES OF AMERICA:   COUNTRY
 SRVC.              WELEX:   SERVICE COMPANY
 DATE.        13-OCT-1980:   LOGDATE
 API .     49025108540000:   API NUMBER
~CURVE INFORMATION
#MNEM.UNIT       API CODE    CURVE DESCRIPTION
#----------   ------------   ------------------------------
 DEPT.F                  :   
 GRD .GAPI   45 310 01 00:   GAMMA RAY FROM DENSITY LOG
 CALD.IN     45 280 60 00:   CALIPER FROM DENSITY LOG
 RHOB.G/C3   45 350 01 00:   BULK DENSITY
 DRHO.G/C3   45 356 01 00:   DENSITY CORRECTION
 SPR .MV     07 010 01 00:   SPONTANEOUS POTENTIAL
 SGRD.OHMM   07 220 05 00:   SHALLOW GUARD
 ILM .OHMM   07 120 44 00:   INDUCTION LOG MEDIUM RESISTIVITY
 ILD .OHMM   07 120 46 00:   DEEP INDUCTION RESISTIVITY
~PARAMETER INFORMATION
#MNEM.UNIT          VALUE    DESCRIPTION
#----------   ------------   ------------------------------
 EKB .F         5035.0000:   Kelly bushing
 EGL .F         5030.0000:   Ground level
 EDF .F            0.0000:   Drilling floor
 TD  .F         3012.0000:   Total depth
 DATE.        13-OCT-1980:   Date logged
 CLNT.            A2DTECH:   Client Code
 PD  .                 GL:   Permanent Datum
 EPD .F              5030:   Elevation Permanent Datum
 LMF .                 KB:   Log Measured From
 DMF .                 KB:   Drilling Measured From
 DD  .F              3012:   Depth driller
 DL  .F              3010:   Depth logger
 BLI .F              3012:   Bottom log interval
 TLI .F              2688:   Top log interval
 CS1 .IN                7:   Casing size
 CBD1.         7" @ 2689':   Casing driller 1
 CBL1.F              2687:   Casing logger 1
 BS1 .IN             6.25:   Bit size
 BSD1.F              3012:   Depth drilled with bit1
 DFT .        FRESH WATER:   Type fluid in hole
 MSS .           FLOWLINE:   Source of sample
 RMS .OHMM           2.86:   Rm
 MST .F                50:   Rm Meas. temp.
 RMF .OHMM           2.29:   Rmf
 MFST.F                50:   Rmf Meas. temp.
 RMC .OHMM           3.43:   Rmc
 MCST.F                50:   Rmc Meas. temp.
 MFSS.               MEAS:   Source Rmf.
 MCSS.               MEAS:   Source Rmc.
 RMB .OHMM           1.21:   Rm. at BHT
 BHT .F               118:   BHT.
 TCS .HRS               5:   Time Circ. stopped
 MRT .F               118:   Maximum recorded temp.
 LUN .               1892:   Logging unit number
 LUL .             CASPER:   Logging unit location
 ENGI.           PERIMMER:   Recorded By
 WITN.              SCOTT:   Witnessed by
 ORIG.           5" PRINT:   Origin of data
 UWI .     49025108540000:   Unique Well ID
 DICO. A2D TECHNOLOGIES, INC.:   Digitizing Company
~OTHER INFORMATION
~A  DEPT        GRD        CALD       RHOB       DRHO      SPR       SGRD        ILM        ILD   
# ...
 2878.5000    92.6140     7.0320     2.5240     0.0620   -26.3750     7.2170     5.1580     3.1240
 2879.0000    91.8610     7.0720     2.5150     0.0600   -26.8260     6.3390     5.0440     3.0250
 2879.5000    90.9510     7.0770     2.5050     0.0600   -27.0110     5.7760     4.9200     2.9260
 2880.0000    89.9640     7.0570     2.5010     0.0510   -26.8630     5.4120     4.7970     2.8320
 2880.5000    88.9120     7.0420     2.5120     0.0540   -26.6710     5.2820     4.6730     2.7430
 2881.0000    87.8600     7.0260     2.5180     0.0610   -26.5650     5.5300     4.5490     2.6530
 2881.5000    86.8070     7.0100     2.5110     0.0670   -26.3170     5.2490     4.4250     2.5570
 2882.0000    85.7530     6.9950     2.5080     0.0690   -26.3900     5.1380     4.3150     2.5430
 2882.5000    85.0220     6.9790     2.5270     0.0680   -25.7010     5.0910     4.3920     2.5100
 2883.0000    84.2790     6.9670     2.5170     0.0630   -26.1280     5.3300     4.4760     2.5850
 2883.5000    84.0400     6.9560     2.5080     0.0510   -26.4380     5.2330     4.6340     2.6900
 2884.0000    83.8220     6.9460     2.5030     0.0420   -25.9520     5.9450     4.8660     2.7960
 2884.5000    83.6850     6.9360     2.5230     0.0400   -26.2560     7.0860     5.0980     2.9010
 2885.0000    83.8570     6.9260     2.5340     0.0570   -25.8380     7.1970     5.3300     3.0300
 2885.5000    85.2310     6.9150     2.5320     0.0660   -26.0340     7.9670     5.6840     3.1690
 2886.0000    85.7130     6.9050     2.5300     0.0660   -26.4860     8.9960     5.6320     3.3080
 2886.5000    85.4340     6.8950     2.5290     0.0610   -26.5860     7.9110     5.6320     3.4470
 2887.0000    86.0880     6.8850     2.5300     0.0610   -26.5030     7.2610     5.5300     3.5470
 2887.5000    86.9970     6.8770     2.5370     0.0620   -26.4900     6.5240     5.4290     3.5910
 2888.0000    87.4090     6.8290     2.5530     0.0750   -26.2120     6.9570     5.2820     3.5660
 2888.5000    86.8180     6.8530     2.5680     0.0920   -26.4540     6.4050     5.2820     3.5430
 2889.0000    86.2390     6.8800     2.5640     0.0940   -26.4580     5.9510     5.2330     3.5190
 2889.5000    85.7160     6.9040     2.5550     0.0940   -26.6740     6.0620     5.1850     3.4950
 2890.0000    84.8850     6.8660     2.5470     0.0960   -26.8880     6.7060     5.3790     3.4710
 2890.5000    84.6020     6.8710     2.5510     0.1020   -26.8720     8.5930     5.2820     3.4360
 2891.0000    85.4010     6.8920     2.5460     0.0980   -27.1140     7.5820     5.3300     3.3730
 2891.5000    86.2770     6.9270     2.5390     0.0930   -26.7010     6.7500     5.2820     3.2500
 2892.0000    87.1560     6.9660     2.5260     0.0860   -26.8530     6.3910     5.2410     3.1260
 2892.5000    87.4560     6.9910     2.5140     0.0840   -26.5430     6.4150     5.1380     3.0030
 2893.0000    87.3350     6.9840     2.5180     0.0880   -26.1820     6.0500     5.1850     2.8870
 2893.5000    87.1980     6.9760     2.5230     0.0930   -26.2300     5.7370     4.7310     2.7710
 2894.0000    86.6480     6.9720     2.5170     0.0970   -26.1290     5.7900     4.6180     2.6540
 2894.5000    86.1130     6.9720     2.5080     0.0900   -26.0930     5.4330     4.4630     2.5740
 2895.0000    85.5740     6.9720     2.5130     0.0940   -25.7640     5.0450     4.3080     2.4870
 2895.5000    84.7840     6.9670     2.5180     0.0920   -26.2780     5.1380     4.1540     2.4530
 2896.0000    82.7970     6.9530     2.5230     0.0850   -25.9500     4.8680     4.0470     2.4420
 2896.5000    81.2640     6.9400     2.5390     0.0780   -26.2990     4.5180     4.5440     2.5100
 2897.0000    78.8920     6.9260     2.5540     0.0770   -26.2520     7.0210     4.9080     2.6570
 2897.5000    77.6590     6.9130     2.5700     0.0890   -26.2730     6.8170     4.9980     2.8130
 2898.0000    76.8040     6.8990     2.5820     0.0940   -26.2340     6.4050     5.2330     2.9700
 2898.5000    77.5700     6.8860     2.5950     0.0970   -26.1470     8.3590     5.3300     3.2160
 2899.0000    78.8250     6.8720     2.6010     0.0990   -26.3290     7.7670     5.8860     3.5470
 2899.5000    78.5930     6.8590     2.6060     0.1020   -26.6060     7.4190     6.2310     3.8770
 2900.0000    77.7480     6.8450     2.6070     0.1010   -27.0490    10.2310     6.1740     4.2070
 2900.5000    78.1350     6.8330     2.5850     0.0890   -26.5050     9.1630     6.2880     4.5370
 2901.0000    79.4880     6.8170     2.5790     0.0800   -26.7250     9.0410     6.5860     4.8380
 2901.5000    80.5880     6.8010     2.5760     0.0780   -26.8990     8.9140     6.8500     5.0640
 2902.0000    82.0240     6.7840     2.5570     0.0750   -25.7760    10.0160     7.1510     5.2010
 2902.5000    83.4760     6.7670     2.5370     0.0670   -26.8580    11.9590     6.9320     5.2330
 2903.0000    84.9360     6.7580     2.5170     0.0590   -27.6090    10.6130     6.5240     5.1760
 2903.5000    86.3950     6.7850     2.5020     0.0510   -26.6700     8.2070     6.5240     5.1370
 2904.0000    86.8220     6.8110     2.4960     0.0470   -26.8790     7.4650     6.4420     5.0980
 2904.5000    87.7210     6.8370     2.4980     0.0540   -25.9460     7.2840     6.3410     4.9010
 2905.0000    88.6420     6.8630     2.5090     0.0610   -25.8780     7.6830     6.2400     4.6680
 2905.5000    89.3970     6.8890     2.5160     0.0680   -26.1100     8.6700     6.1390     4.4360
 2906.0000    92.5700     6.9150     2.5060     0.0780   -27.7080     9.1630     5.9450     4.2040
 2906.5000    95.9060     6.9330     2.4930     0.0700   -26.1900     7.8200     5.6490     3.9710
 2907.0000    96.2850     6.9320     2.4860     0.0620   -26.4580     6.4500     5.4790     3.7390
 2907.5000    96.6190     6.9320     2.4880     0.0540   -26.5470     6.1170     5.2820     3.5060
 2908.0000    97.5000     6.9290     2.4910     0.0590   -27.0000     6.5840     5.3300     3.2960
 2908.5000    98.4950     6.9260     2.4940     0.0630   -25.7570     6.4640     5.2330     3.2180
 2909.0000    99.0550     6.9230     2.4960     0.0640   -26.8260     6.2310     5.1380     3.1410
 2909.5000    99.1290     6.9200     2.4990     0.0730   -27.5230     6.1170     5.2330     3.0720
 2910.0000   100.2680     6.9170     2.5020     0.0770   -26.8970     5.7500     4.8630     2.9490
 2910.5000   101.7870     6.9140     2.5040     0.0760   -26.8100     5.5300     4.9980     2.8290
 2911.0000   101.3020     6.9110     2.5060     0.0750   -27.0270     5.2280     5.0910     2.8320
 2911.5000   100.7870     6.9080     2.5090     0.0710   -26.9510     4.9080     5.1380     2.8370
 2912.0000   100.3160     6.9060     2.5110     0.0790   -26.7580     6.8300     5.1260     2.8410
 2912.5000   101.5480     6.9030     2.5080     0.0910   -26.6300     6.6120     5.1000     2.8460
 2913.0000   103.1530     6.9000     2.5050     0.0940   -26.5560     6.3460     5.0750     2.8510
 2913.5000   104.7680     6.8970     2.5070     0.0870   -26.5030     6.2400     5.0490     2.8810
 2914.0000   105.9000     6.8940     2.5080     0.0880   -26.3850     5.8590     4.9630     2.8420
 2914.5000   106.3450     6.8910     2.5110     0.1000   -26.0980     5.6320     4.8320     2.7490
 2915.0000   107.9740     6.8880     2.5010     0.1020   -25.8580     5.3300     4.7010     2.6560
 2915.5000   109.5870     6.8860     2.4950     0.0990   -26.0510     5.3300     4.5700     2.5630
 2916.0000   110.8630     6.8830     2.4930     0.0990   -25.9570     5.0830     4.4360     2.4750
 2916.5000   111.7320     6.8800     2.4970     0.1020   -25.9120     4.8320     4.2920     2.3870
 2917.0000   112.9140     6.8770     2.4810     0.1050   -26.0620     4.6440     4.1860     2.2980
 2917.5000   114.0460     6.8740     2.4770     0.1060   -26.0500     5.0910     4.0840     2.2100
 2918.0000   115.8570     6.8740     2.4790     0.1170   -26.4950     4.4770     4.0260     2.1210
 2918.5000   117.8770     6.8780     2.4760     0.1340   -26.3450     4.7310     3.9130     2.0330
