~VERSION INFORMATION
 VERS.                2.0:   CWLS LOG ASCII STANDARD - VERSION 2.0
 WRAP.                 NO:   ONE LINE PER DEPTH STEP
~WELL INFORMATION
#MNEM.UNIT      DATA TYPE    INFORMATION
#----------   ------------   ------------------------------
 STRT.F           40.0000:   START DEPTH
 STOP.F         1336.0000:   STOP DEPTH
 STEP.F            0.5000:   STEP LENGTH
 NULL.          -999.2500:   NO VALUE
 COMP. LAWRENCE - ALLISON WEST:   COMPANY
 WELL. LAWRENCE NPR 3 "AX" #54-23:   WELL
 FLD .              N P R:   FIELD
 LOC .      S23 T38N R78W:   LOCATION
 CNTY.            NATRONA:   COUNTY
 STAT.            WYOMING:   STATE
 CTRY. UNITED STATES OF AMERICA:   COUNTRY
 SRVC.       SCHLUMBERGER:   SERVICE COMPANY
 DATE.        13-MAY-1982:   LOGDATE
 API .     49025108880000:   API NUMBER
~CURVE INFORMATION
#MNEM.UNIT       API CODE    CURVE DESCRIPTION
#----------   ------------   ------------------------------
 DEPT.F                  :   
 NPOR.DEC    42 890 03 00:   ALPHA PROCESSED NEUTRON POROSITY
 TEND.LBS    45 635 01 00:   TENSION FROM DENSITY LOG
 CORR.G/C3   45 356 01 00:   DENSITY CORRECTION
 RHOB.G/C3   45 350 01 00:   BULK DENSITY
 GRD .GAPI   45 310 01 00:   GAMMA RAY FROM DENSITY LOG
 CALD.IN     45 280 60 00:   CALIPER FROM DENSITY LOG
 SPR .MV     07 010 01 00:   SPONTANEOUS POTENTIAL
 TENR.LBS    07 635 01 00:   TENSION
 ILD .OHMM   07 120 46 00:   DEEP INDUCTION RESISTIVITY
 ILM .OHMM   07 120 44 00:   INDUCTION LOG MEDIUM RESISTIVITY
 SFL .OHMM   07 220 01 00:   SHALLOW FOCUSED LOG RESISTIVITY
~PARAMETER INFORMATION
#MNEM.UNIT          VALUE    DESCRIPTION
#----------   ------------   ------------------------------
 EKB .F         5342.0000:   Kelly bushing
 EGL .F         5332.0000:   Ground level
 EDF .F            0.0000:   Drilling floor
 TD  .F         1325.0000:   Total depth
 DATE.        13-MAY-1982:   Date logged
 CLNT.            A2DTECH:   Client Code
 SL  . 2278' FSL & 2665' FWL:   Surface Location
 PD  .                 GL:   Permanent Datum
 DD  .F              1325:   Depth driller
 DL  .F              1314:   Depth logger
 BLI .F              1308:   Bottom log interval
 CS1 .IN             15.5:   Casing size
 CBD1.        15.5" @ 40':   Casing driller 1
 CBL1.F                54:   Casing logger 1
 BS1 .IN            12.25:   Bit size
 DFT .             LT/GEL:   Type fluid in hole
 DFD .                8.9:   Density
 DFV .                 33:   Viscosity
 DFPH.                8.8:   pH
 DFL .                 16:   Fluid loss
 MSS .                PIT:   Source of sample
 RMS .OHMM           2.47:   Rm
 MST .F                61:   Rm Meas. temp.
 RMF .OHMM           2.12:   Rmf
 MFST.F                62:   Rmf Meas. temp.
 MFSS.               MEAS:   Source Rmf.
 RMB .OHMM           1.73:   Rm. at BHT
 BHT .F                87:   BHT.
 TCS .HRS            2300:   Time Circ. stopped
 MRT .F                87:   Maximum recorded temp.
 LUN .               8043:   Logging unit number
 LUL .               CSPR:   Logging unit location
 ENGI.        WAGNER/CSPR:   Recorded By
 WITN.           JENNINGS:   Witnessed by
 ORIG.           5" PRINT:   Origin of data
 UWI .     49025108880000:   Unique Well ID
 DICO. A2D TECHNOLOGIES, INC.:   Digitizing Company
 BSD1.F              1325:   Depth drilled with bit1
 EPD .F              5332:   Elevation Permanent Datum
 LMF .                 KB:   Log Measured From
 DMF .                 KB:   Drilling Measured From
 TLI .F                54:   Top log interval
 DAPD.F                10:   Feet Above Permanent Datum
~OTHER INFORMATION
~A   DEPT     NPOR       TEND       CORR       RHOB        GRD       CALD        SPR       TENR        ILD        ILM        SFL   
# ...
  955.0000     0.1600   233.7070    -0.0060     2.4760   144.4830    12.8640   -28.0630    87.4230     8.1240     7.7840     7.4990
  955.5000     0.1560   233.7070    -0.0030     2.4830   151.0870    12.8640   -28.4960    87.4230     8.2300     7.9110     7.6380
  956.0000     0.1540   233.7070    -0.0020     2.4830   152.6120    12.8640   -27.3670    87.4230     8.3360     8.0370     7.7990
  956.5000     0.1540   233.7070    -0.0020     2.4750   152.8920    12.8640   -26.4060    87.4230     8.4420     8.1640     7.8630
  957.0000     0.1540   233.7070    -0.0030     2.4650   151.5530    12.8640   -25.6330    87.4230     8.5480     8.2900     8.0050
  957.5000     0.1480   233.7070    -0.0070     2.4520   147.8140    12.8640   -25.2580    87.4230     8.6540     8.4090     8.1470
  958.0000     0.1380   233.7070    -0.0110     2.4480   143.0310    12.8640   -25.8190    87.4230     8.7380     8.4600     8.2780
  958.5000     0.1350   233.7070    -0.0060     2.4570   134.9910    12.8640   -26.7030    87.4230     8.7630     8.5070     8.3770
  959.0000     0.1400   233.7070     0.0030     2.4680   133.5950    12.8640   -27.2720    87.4230     8.7870     8.5550     8.4090
  959.5000     0.1460   233.7070     0.0120     2.4790   136.6650    12.8640   -27.0480    87.4230     8.8120     8.6030     8.3970
  960.0000     0.1490   233.7070     0.0210     2.4860   139.8190    12.8650   -26.6560    87.4230     8.8360     8.6500     8.3730
  960.5000     0.1450   233.7070     0.0290     2.4930   137.9290    12.8570   -26.1610    87.4230     8.8610     8.7220     8.3480
  961.0000     0.1400   233.7070     0.0350     2.5010   134.9630    12.8470   -26.6380    87.4230     8.8980     8.7040     8.3240
  961.5000     0.1390   233.7070     0.0360     2.5070   135.3430    12.8370   -27.7740    87.4230     8.8400     8.6050     8.2990
  962.0000     0.1450   233.7070     0.0220     2.4880   136.7730    12.8270   -27.8090    87.4230     8.7220     8.5070     8.2740
  962.5000     0.1450   233.7070     0.0070     2.4720   138.1730    12.8170   -27.0380    87.4230     8.6040     8.4080     8.2520
  963.0000     0.1420   233.7070     0.0060     2.4720   138.9050    12.8070   -25.7510    87.4230     8.4860     8.3100     8.2520
  963.5000     0.1420   233.7070     0.0110     2.4740   139.3440    12.8030   -24.5170    87.4230     8.3680     8.2110     8.1180
  964.0000     0.1490   233.7070     0.0110     2.4700   139.1300    12.8030   -23.9960    87.4230     8.2500     8.1130     7.8520
  964.5000     0.1770   233.7070     0.0050     2.4550   138.2790    12.8030   -25.0230    87.4230     8.1070     8.0140     7.5860
  965.0000     0.1770   233.7070    -0.0010     2.4560   137.4980    12.8030   -26.1650    87.4230     8.1260     7.9470     7.5110
  965.5000     0.1700   233.7070     0.0010     2.4650   137.5560    12.8030   -25.8720    87.4230     8.1650     7.9470     7.5110
  966.0000     0.1610   233.7070     0.0070     2.4790   138.7210    12.8030   -25.8050    87.4230     8.2030     7.9470     7.5840
  966.5000     0.1560   233.7070     0.0100     2.4770   139.8110    12.8030   -25.6880    87.4230     8.2420     8.0370     7.6500
  967.0000     0.1610   233.7740     0.0100     2.4730   140.0140    12.8030   -25.6860    87.4230     8.2970     8.1330     7.7160
  967.5000     0.1670   234.1780     0.0160     2.4780   139.1380    12.8030   -25.7230    87.4230     8.3580     8.2300     7.7820
  968.0000     0.1720   234.5810     0.0240     2.4840   138.1400    12.8030   -26.1680    87.4230     8.4190     8.3270     7.8780
  968.5000     0.1700   234.9840     0.0260     2.4890   137.1300    12.8030   -26.6160    87.4230     8.4810     8.4090     7.9860
  969.0000     0.1670   235.3880     0.0230     2.4920   136.1220    12.8050   -26.8500    87.4230     8.5690     8.3530     8.0980
  969.5000     0.1640   235.7910     0.0120     2.4950   135.1490    12.8080   -26.4040    87.4230     8.5280     8.3030     8.2520
  970.0000     0.1620   236.1940     0.0070     2.4990   134.2940    12.8100   -25.2720    87.4230     8.4540     8.2520     8.1490
  970.5000     0.1590   236.5970     0.0110     2.5040   133.4350    12.8130   -25.0520    87.4230     8.3800     8.1250     8.0120
  971.0000     0.1550   237.0010     0.0140     2.5080   132.5400    12.8150   -25.4210    87.4230     8.3070     7.9920     7.8750
  971.5000     0.1510   237.4040     0.0180     2.5070   132.2810    12.8180   -25.6540    87.4230     8.2330     7.8590     7.7390
  972.0000     0.1440   237.8070     0.0210     2.5010   133.1010    12.8200   -25.3500    87.4230     8.1590     7.7260     7.5740
  972.5000     0.1420   238.2110     0.0120     2.4810   134.9850    12.8230   -25.0580    87.4230     8.0980     7.5930     7.3630
  973.0000     0.1400   238.6140     0.0020     2.4640   139.4240    12.8250   -25.0110    87.4230     8.0100     7.5110     7.2330
  973.5000     0.1390   239.0170     0.0000     2.4540   142.4950    12.8270   -25.4310    87.4230     7.9340     7.5110     7.3470
  974.0000     0.1400   239.4210     0.0020     2.4570   140.4010    12.8280   -25.7700    87.4230     7.8590     7.4750     7.4630
  974.5000     0.1410   239.8240     0.0050     2.4600   138.0920    12.8300   -26.0840    87.4230     7.7990     7.4440     7.5110
  975.0000     0.1460   240.2270     0.0070     2.4580   136.9340    12.8320   -25.8260    87.4230     7.7070     7.4140     7.3130
  975.5000     0.1540   240.6310     0.0050     2.4560   138.1600    12.8340   -24.9610    87.4230     7.6300     7.3840     7.1670
  976.0000     0.1660   241.0340     0.0040     2.4550   140.5880    12.8360   -23.4170    87.4230     7.5530     7.3530     7.0220
  976.5000     0.1770   241.4370     0.0050     2.4570   142.7610    12.8380   -22.9190    87.4230     7.4770     7.3230     6.9540
  977.0000     0.1850   241.8400     0.0070     2.4610   141.0190    12.8390   -22.9980    87.4230     7.4000     7.2930     6.9350
  977.5000     0.1800   242.2440     0.0100     2.4680   138.2520    12.8410   -24.0110    87.4230     7.3450     7.2620     6.9150
  978.0000     0.1650   242.6470     0.0130     2.4730   137.1940    12.8430   -24.5540    87.4230     7.3050     7.2330     6.8960
  978.5000     0.1540   243.0500     0.0150     2.4720   139.1780    12.8460   -24.3280    87.4230     7.2640     7.1280     6.8770
  979.0000     0.1490   243.4540     0.0150     2.4680   141.4140    12.8490   -23.6750    87.4230     7.2230     7.0260     6.8580
  979.5000     0.1490   243.8570     0.0110     2.4650   143.8390    12.8510   -22.8450    87.4230     7.1830     6.9240     6.8360
  980.0000     0.1550   244.2600     0.0080     2.4610   146.4560    12.8540   -23.2980    87.4230     7.1420     6.8220     6.7950
  980.5000     0.1570   244.6640     0.0050     2.4600   146.6030    12.8570   -25.5020    87.4230     7.1010     6.7200     6.7480
  981.0000     0.1560   245.0670     0.0050     2.4630   143.4000    12.8600   -26.5820    87.4230     7.0610     6.6180     6.7000
  981.5000     0.1560   245.4700     0.0110     2.4730   138.0730    12.8630   -26.1490    87.4230     7.0200     6.5160     6.6520
  982.0000     0.1590   245.8740     0.0180     2.4780   133.5360    12.8660   -25.8010    87.4230     6.9790     6.4290     6.6040
  982.5000     0.1570   246.2770     0.0260     2.4650   131.3000    12.8690   -25.1090    87.4230     6.9160     6.3590     6.5560
  983.0000     0.1550   246.6800     0.0330     2.4430   132.3630    12.8720   -24.5430    87.4230     6.8420     6.2900     6.5080
  983.5000     0.1560   247.0830     0.0380     2.4130   135.4470    12.8750   -24.5140    87.4230     6.7670     6.2210     6.4600
  984.0000     0.1580   247.4870     0.0250     2.3940   140.6700    12.8780   -24.4950    87.4230     6.6930     6.1520     6.4120
  984.5000     0.1570   247.8900     0.0140     2.4040   142.9560    12.8810   -24.3230    87.4230     6.6180     6.0820     6.3640
  985.0000     0.1560   248.2930     0.0060     2.4290   140.7710    12.8840   -24.2140    87.4230     6.5430     6.0130     6.3080
