~VERSION INFORMATION
 VERS.                2.0:   CWLS LOG ASCII STANDARD - VERSION 2.0
 WRAP.                 NO:   ONE LINE PER DEPTH STEP
~WELL INFORMATION
#MNEM.UNIT      DATA TYPE    INFORMATION
#----------   ------------   ------------------------------
 STRT.F            7.0000:   START DEPTH
 STOP.F         3304.0000:   STOP DEPTH
 STEP.F            0.5000:   STEP LENGTH
 NULL.          -999.2500:   NO VALUE
 COMP. LAWRENCE ALLISON ASSOC. WEST:   COMPANY
 WELL. LAWRENCE NPR  "X" #18-2:   WELL
 FLD .              N P R:   FIELD
 LOC .       S2 T38N R78W:   LOCATION
 CNTY.            NATRONA:   COUNTY
 STAT.            WYOMING:   STATE
 CTRY. UNITED STATES OF AMERICA:   COUNTRY
 SRVC.      DRESSER ATLAS:   SERVICE COMPANY
 DATE.        28-APR-1986:   LOGDATE
 API .     49025110710000:   API NUMBER
~CURVE INFORMATION
#MNEM.UNIT       API CODE    CURVE DESCRIPTION
#----------   ------------   ------------------------------
 DEPT.F                  :   
 TEND.LBS    45 635 01 00:   TENSION FROM DENSITY LOG
 DEN .G/C3   45 635 01 00:   DENSITY
 CORR.G/C3   45 356 01 00:   DENSITY CORRECTION
 CNC .DEC    42 890 03 00:   NEUTRON PORISITY SANDSTONE
 TENR.LBS    07 635 01 00:   TENSION FROM RESISTIVITY
 CALR.IN     07 280 01 00:   CALIPER FROM RESISTIVITY
 SPR .MV     07 010 01 00:   SPONTANEOUS POTENTIAL
 GRR .GAPI   07 310 01 00:   GAMMA RAY FROM RESISTIVITY
 RFOC.OHMM   07 220 04 00:   RESISTIVITY FOCUSED LOG RES.
 RILD.OHMM   07 120 46 00:   DEEP INDUCTION RESISTIVITY
 RILM.OHMM   07 120 44 00:   INDUCTION LOG MEDIUM RESISTIVITY
 TENS.LBS    60 635 01 00:   TENSION
 AC  .US/F   60 250 00 00:   ACCOUSTIC
~PARAMETER INFORMATION
#MNEM.UNIT          VALUE    DESCRIPTION
#----------   ------------   ------------------------------
 EKB .F         5142.0000:   Kelly bushing
 EGL .F         5130.0000:   Ground level
 EDF .F            0.0000:   Drilling floor
 EPD .F         5130.0000:   Permanent datum
 TD  .F         3296.0000:   Total depth
 DATE.        28-APR-1986:   Date logged
 CLNT.            A2DTECH:   Client Code
 SL  . 210' FSL & 204' FWL:   Surface Location
 PD  .                 GL:   Permanent Datum
 DD  .F              3295:   Depth driller
 DL  .F              3290:   Depth logger
 BLI .F              3296:   Bottom log interval
 CS1 .IN            8.625:   Casing size
 CBD1.      8.625" @ 563':   Casing driller 1
 CBL1.F               560:   Casing logger 1
 BS1 .IN            7.875:   Bit size
 BSD1.F              3295:   Depth drilled with bit1
 DFT .        POLYMER KCL:   Type fluid in hole
 DFD .                8.9:   Density
 DFV .                 38:   Viscosity
 DFPH.                8.5:   pH
 DFL .                9.2:   Fluid loss
 MSS .           FLOWLINE:   Source of sample
 RMS .OHMM           .435:   Rm
 MST .F                74:   Rm Meas. temp.
 RMF .OHMM            .33:   Rmf
 MFST.F                74:   Rmf Meas. temp.
 RMC .OHMM            .54:   Rmc
 MCST.F                74:   Rmc Meas. temp.
 MFSS.               CALC:   Source Rmf.
 MCSS.               CALC:   Source Rmc.
 RMB .OHMM            .77:   Rm. at BHT
 BHT .F               119:   BHT.
 TCS .HRS               4:   Time Circ. stopped
 MRT .F               119:   Maximum recorded temp.
 LUN .            HL 6264:   Logging unit number
 LUL .           GILLETTE:   Logging unit location
 ENGI.      P.M. FAHLSING:   Recorded By
 WITN.             STRONG:   Witnessed by
 ORIG.         2.5" PRINT:   Origin of data
 UWI .     49025110710000:   Unique Well ID
 DICO. A2D TECHNOLOGIES, INC.:   Digitizing Company
 DAPD.                 12:   Feet Above Permanent Datum
~OTHER INFORMATION
~A    DEPT    TEND        DEN       CORR        CNC       TENR       CALR        SPR         GRR      RFOC       RILD       RILM       TENS         AC   
# ...
 1307.0000  -999.2500  -999.2500  -999.2500  -999.2500   -66.3830    11.0380   -30.4940    82.8010     7.8910     8.0340     7.9470  -999.2500  -999.2500
 1307.5000  -999.2500  -999.2500  -999.2500  -999.2500   -68.3600    11.0340   -30.5620    82.4460     7.8910     8.0340     7.8720  -999.2500  -999.2500
 1308.0000  -999.2500  -999.2500  -999.2500  -999.2500   -77.3440    11.0310   -30.0510    83.2100     7.7490     8.0340     7.7960  -999.2500  -999.2500
 1308.5000  -999.2500  -999.2500  -999.2500  -999.2500   -86.3280    11.0260   -29.4310    86.6420     7.6110     8.0070     7.7210  -999.2500  -999.2500
 1309.0000  -999.2500  -999.2500  -999.2500  -999.2500   -95.3120    11.0230   -28.8850    88.4580     7.4880     7.9780     7.6450  -999.2500  -999.2500
 1309.5000  -999.2500  -999.2500  -999.2500  -999.2500  -102.9410    11.0210   -28.3850    88.6820     7.3370     7.9480     7.5690  -999.2500  -999.2500
 1310.0000  -999.2500  -999.2500  -999.2500  -999.2500   -97.2550    11.0440   -27.7170    87.6120     7.3430     7.9190     7.4940  -999.2500  -999.2500
 1310.5000  -999.2500  -999.2500  -999.2500  -999.2500   -92.3140    11.0650   -27.2560    86.1850     7.3390     7.8890     7.4180  -999.2500  -999.2500
 1311.0000  -999.2500  -999.2500  -999.2500  -999.2500   -87.3730    11.0880   -26.9170    85.0030     7.3410     7.8600     7.3410  -999.2500  -999.2500
 1311.5000  -999.2500  -999.2500  -999.2500  -999.2500   -82.4310    11.0990   -27.1860    83.8230     7.3410     7.8310     7.3410  -999.2500  -999.2500
 1312.0000  -999.2500  -999.2500  -999.2500  -999.2500   -77.4900    11.0980   -27.6360    84.8900     7.3410     7.8010     7.3410  -999.2500  -999.2500
 1312.5000  -999.2500  -999.2500  -999.2500  -999.2500   -72.5490    11.0990   -28.0800    88.7570     7.3740     7.7720     7.3410  -999.2500  -999.2500
 1313.0000  -999.2500  -999.2500  -999.2500  -999.2500   -67.6080    11.0980   -28.5450    91.0900     7.4080     7.7430     7.3410  -999.2500  -999.2500
 1313.5000  -999.2500  -999.2500  -999.2500  -999.2500   -64.9020    11.0990   -28.9630    89.6260     7.4420     7.7130     7.3410  -999.2500  -999.2500
 1314.0000  -999.2500  -999.2500  -999.2500  -999.2500   -70.3920    11.0980   -29.6340    88.2290     7.4740     7.6840     7.3520  -999.2500  -999.2500
 1314.5000  -999.2500  -999.2500  -999.2500  -999.2500   -75.8820    11.0910   -30.2410    86.9210     7.4020     7.6540     7.3650  -999.2500  -999.2500
 1315.0000  -999.2500  -999.2500  -999.2500  -999.2500   -81.3730    11.0550   -30.8300    84.5020     7.3310     7.6250     7.3790  -999.2500  -999.2500
 1315.5000  -999.2500  -999.2500  -999.2500  -999.2500   -83.3330    11.0610   -31.2060    82.0160     7.2600     7.5960     7.3920  -999.2500  -999.2500
 1316.0000  -999.2500  -999.2500  -999.2500  -999.2500   -83.3330    11.0590   -31.3420    81.2720     7.1890     7.5660     7.4060  -999.2500  -999.2500
 1316.5000  -999.2500  -999.2500  -999.2500  -999.2500   -83.3330    11.0590   -30.9950    86.0750     7.0800     7.5370     7.4190  -999.2500  -999.2500
 1317.0000  -999.2500  -999.2500  -999.2500  -999.2500   -83.3330    11.0590   -30.9050    92.2560     7.0920     7.5080     7.4330  -999.2500  -999.2500
 1317.5000  -999.2500  -999.2500  -999.2500  -999.2500   -83.3330    11.0590   -30.8210    96.0110     7.1170     7.4740     7.4460  -999.2500  -999.2500
 1318.0000  -999.2500  -999.2500  -999.2500  -999.2500   -83.3330    11.0590   -30.4610    95.1260     7.1420     7.4860     7.4600  -999.2500  -999.2500
 1318.5000  -999.2500  -999.2500  -999.2500  -999.2500   -83.3330    11.0590   -30.1520    91.1450     7.1670     7.5090     7.4750  -999.2500  -999.2500
 1319.0000  -999.2500  -999.2500  -999.2500  -999.2500   -83.3330    11.0590   -29.7380    87.3010     7.1920     7.5330     7.5270  -999.2500  -999.2500
 1319.5000  -999.2500  -999.2500  -999.2500  -999.2500   -83.3330    11.0590   -29.3520    87.0580     7.2620     7.5580     7.5840  -999.2500  -999.2500
 1320.0000  -999.2500  -999.2500  -999.2500  -999.2500   -83.3330    11.0590   -28.9550    87.6700     7.4340     7.5810     7.6420  -999.2500  -999.2500
 1320.5000  -999.2500  -999.2500  -999.2500  -999.2500   -83.3330    11.0590   -29.0290    88.8530     7.6060     7.6050     7.6990  -999.2500  -999.2500
 1321.0000  -999.2500  -999.2500  -999.2500  -999.2500   -83.3330    11.0590   -29.2090    89.4040     7.8910     7.6290     7.7490  -999.2500  -999.2500
 1321.5000  -999.2500  -999.2500  -999.2500  -999.2500   -83.3330    11.0590   -29.3910    89.2270     7.8460     7.6530     7.7100  -999.2500  -999.2500
 1322.0000  -999.2500  -999.2500  -999.2500  -999.2500   -83.3330    11.0590   -29.5630    87.5360     7.7130     7.6770     7.6570  -999.2500  -999.2500
 1322.5000  -999.2500  -999.2500  -999.2500  -999.2500   -83.3330    11.0590   -29.7420    87.2160     7.5810     7.7000     7.6030  -999.2500  -999.2500
 1323.0000  -999.2500  -999.2500  -999.2500  -999.2500   -83.3330    11.0600   -29.9180    87.5300     7.4490     7.7240     7.5500  -999.2500  -999.2500
 1323.5000  -999.2500  -999.2500  -999.2500  -999.2500   -83.3330    11.0580   -30.0940    89.1150     7.3170     7.7480     7.4970  -999.2500  -999.2500
 1324.0000  -999.2500  -999.2500  -999.2500  -999.2500   -83.3330    11.0590   -30.2730    91.7090     7.2090     7.7720     7.4740  -999.2500  -999.2500
 1324.5000  -999.2500  -999.2500  -999.2500  -999.2500   -83.3330    11.0660   -30.4470    94.3270     7.2350     7.7960     7.4740  -999.2500  -999.2500
 1325.0000  -999.2500  -999.2500  -999.2500  -999.2500   -83.3330    11.1020   -30.6250    95.8170     7.3020     7.8200     7.4740  -999.2500  -999.2500
 1325.5000  -999.2500  -999.2500  -999.2500  -999.2500   -83.3330    11.0930   -30.8100    95.6140     7.3690     7.8440     7.4740  -999.2500  -999.2500
 1326.0000  -999.2500  -999.2500  -999.2500  -999.2500   -83.3330    11.0920   -30.9080    95.5180     7.4360     7.8660     7.5560  -999.2500  -999.2500
 1326.5000  -999.2500  -999.2500  -999.2500  -999.2500   -83.3330    11.0880   -30.7700    92.0580     7.4740     7.8890     7.6360  -999.2500  -999.2500
 1327.0000  -999.2500  -999.2500  -999.2500  -999.2500   -83.3330    11.0840   -30.6430    88.8410     7.4780     7.8490     7.7170  -999.2500  -999.2500
 1327.5000  -999.2500  -999.2500  -999.2500  -999.2500   -83.3330    11.0810   -30.5120    88.6430     7.4950     7.8110     7.7980  -999.2500  -999.2500
 1328.0000  -999.2500  -999.2500  -999.2500  -999.2500   -83.3330    11.0780   -30.3750    92.4030     7.5110     7.7720     7.8910  -999.2500  -999.2500
 1328.5000  -999.2500  -999.2500  -999.2500  -999.2500   -83.3330    11.0740   -30.2480    93.9070     7.5270     7.7330     7.8910  -999.2500  -999.2500
 1329.0000  -999.2500  -999.2500  -999.2500  -999.2500   -83.3330    11.0710   -30.1300    92.4510     7.5440     7.6940     7.8910  -999.2500  -999.2500
 1329.5000  -999.2500  -999.2500  -999.2500  -999.2500   -83.3330    11.0670   -30.0020    91.1650     7.5600     7.6550     7.8910  -999.2500  -999.2500
 1330.0000  -999.2500  -999.2500  -999.2500  -999.2500   -98.4590    11.0640   -29.4940    89.8310     7.5760     7.6110     7.8910  -999.2500  -999.2500
 1330.5000  -999.2500  -999.2500  -999.2500  -999.2500  -112.5770    11.0600   -29.0210    89.3400     7.5930     7.7250     7.9200  -999.2500  -999.2500
 1331.0000  -999.2500  -999.2500  -999.2500  -999.2500  -118.9220    11.0570   -28.5760    89.4080     7.6110     7.8540     7.9810  -999.2500  -999.2500
 1331.5000  -999.2500  -999.2500  -999.2500  -999.2500  -106.5690    11.0530   -28.7370    89.9780     7.7490     7.9840     8.0420  -999.2500  -999.2500
 1332.0000  -999.2500  -999.2500  -999.2500  -999.2500   -94.2160    11.0500   -28.9040    90.5520     7.9140     8.1140     8.1030  -999.2500  -999.2500
 1332.5000  -999.2500  -999.2500  -999.2500  -999.2500   -83.3330    11.0460   -29.0950    90.3770     7.8980     8.2430     8.1640  -999.2500  -999.2500
