~VERSION INFORMATION
 VERS.                2.0:   CWLS LOG ASCII STANDARD - VERSION 2.0
 WRAP.                 NO:   ONE LINE PER DEPTH STEP
~WELL INFORMATION
#MNEM.UNIT      DATA TYPE    INFORMATION
#----------   ------------   ------------------------------
 STRT.F          209.5000:   START DEPTH
 STOP.F         3130.0000:   STOP DEPTH
 STEP.F            0.5000:   STEP LENGTH
 NULL.          -999.2500:   NO VALUE
 COMP. FENIX & SCISSON-U.S. NAVY:   COMPANY
 WELL.   FENIX "A" #66-29:   WELL
 FLD .              NPR 3:   FIELD
 LOC .      S29 T39N R78W:   LOCATION
 CNTY.            NATRONA:   COUNTY
 STAT.            WYOMING:   STATE
 CTRY. UNITED STATES OF AMERICA:   COUNTRY
 SRVC.       SCHLUMBERGER:   SERVICE COMPANY
 DATE.        12-JUN-1977:   LOGDATE
 API .     49025103850000:   API NUMBER
~CURVE INFORMATION
#MNEM.UNIT       API CODE    CURVE DESCRIPTION
#----------   ------------   ------------------------------
 DEPT.F                  :   
 CALD.IN     45 280 60 00:   CALIPER FROM DENSITY LOG
 GRD .GAPI   45 310 01 00:   GAMMA RAY FROM DENSITY LOG
 RHOB.G/C3   45 350 01 00:   BULK DENSITY
 CORR.G/C3   45 356 01 00:   DENSITY CORRECTION
 LL8 .OHMM   07 220 08 00:   LATEROLOG-8 RES.
 ILD .OHMM   07 120 46 00:   DEEP INDUCTION RESISTIVITY
 ILM .OHMM   07 120 44 00:   INDUCTION LOG MEDIUM RESISTIVITY
 SPR .MV     07 010 01 00:   SPONTANEOUS POTENTIAL
~PARAMETER INFORMATION
#MNEM.UNIT          VALUE    DESCRIPTION
#----------   ------------   ------------------------------
 EKB .F         5058.0000:   Kelly bushing
 EGL .F         5048.0000:   Ground level
 EDF .F            0.0000:   Drilling floor
 TD  .F         3120.0000:   Total depth
 DATE.        12-JUN-1977:   Date logged
 CLNT.            A2DTECH:   Client Code
 SL  . 1650' FSL & 1650' FEL:   Surface Location
 PD  .                 GL:   Permanent Datum
 EPD .F              5048:   Elevation Permanent Datum
 LMF .                 KB:   Log Measured From
 DMF .                 KB:   Drilling Measured From
 DAPD.F                10:   Feet Above Permanent Datum
 DD  .F              3120:   Depth driller
 DL  .F              3120:   Depth logger
 BLI .F              3120:   Bottom log interval
 TLI .F               219:   Top log interval
 CS1 .IN            8.625:   Casing size
 CBD1.      8.625" @ 225':   Casing driller 1
 CBL1.F               219:   Casing logger 1
 BS1 .IN            7.875:   Bit size
 BSD1.F              3120:   Depth drilled with bit1
 DFT .            KCL MUD:   Type fluid in hole
 DFD .                8.8:   Density
 DFV .                 32:   Viscosity
 DFPH.                7.5:   pH
 DFL .                  8:   Fluid loss
 MSS .              CIRC.:   Source of sample
 RMS .OHMM           2.01:   Rm
 MST .F                72:   Rm Meas. temp.
 RMF .OHMM            1.9:   Rmf
 MFST.F                72:   Rmf Meas. temp.
 RMC .OHMM           3.02:   Rmc
 MCST.F                72:   Rmc Meas. temp.
 MFSS.               MEAS:   Source Rmf.
 MCSS.               CALC:   Source Rmc.
 RMB .OHMM           1.21:   Rm. at BHT
 BHT .F               120:   BHT.
 TCS .HRS            1400:   Time Circ. stopped
 TLAB.HRS            1730:   Time logger at bottom
 MRT .F               120:   Maximum recorded temp.
 LUN .               7711:   Logging unit number
 LUL .               CSPR:   Logging unit location
 ENGI.             SAYLER:   Recorded By
 WITN.             RHODES:   Witnessed by
 ORIG.           5" PRINT:   Origin of data
 UWI .     49025103850000:   Unique Well ID
 DICO. A2D TECHNOLOGIES, INC.:   Digitizing Company
~OTHER INFORMATION
~A   DEPT     CALD         GRD      RHOB       CORR        LL8        ILD        ILM        SPR   
# ...
  979.0000     8.6381   105.6004     2.5533     0.0103     7.9213     8.7611     8.1420   -53.0478
  979.5000     8.6581   105.4048     2.5513     0.0063     8.2891     8.8380     8.5201   -52.4628
  980.0000     8.7176   105.8021     2.5384     0.0063     8.7335     9.3335     8.8344   -52.0758
  980.5000     8.6980   102.8395     2.5325     0.0093     9.2224     9.7669     9.2446   -51.8867
  981.0000     8.6784   100.6675     2.5285     0.0133     9.4751    10.0348     9.5856   -50.9058
  981.5000     8.6984    99.4837     2.5295     0.0203     9.8241    10.2161     9.8486   -50.7167
  982.0000     8.6591    98.1022     2.5245     0.0203    10.0014    10.4964    10.2119   -50.5277
  982.5000     8.6988    95.3377     2.5235     0.0113    10.0891    10.6861    10.3965   -50.5366
  983.0000     8.6990    94.3515     2.5265     0.0094    10.1776    10.8792    10.4878   -50.7434
  983.5000     8.6992    94.7488     2.5365     0.0173    10.1734    10.9748    10.5799   -50.7523
  984.0000     8.7389    95.5413     2.5544     0.0183    10.1692    10.9702    10.5756   -50.9592
  984.5000     8.7194    96.5323     2.5276     0.0144    10.1651    10.8657    10.5712   -51.5620
  985.0000     8.7393    94.9523     2.5236     0.0064    10.1609    10.7622    10.4705   -52.1648
  985.5000     8.7395    93.7689     2.5206     0.0064    10.0642    10.7578    10.4662   -52.5696
  986.0000     8.7397    93.1768     2.5097     0.0035     9.9685    10.6553    10.3648   -52.9744
  986.5000     8.7596    94.9579     2.5097     0.0055     9.9644    10.6509    10.2677   -53.1813
  987.0000     8.7599    96.5422     2.5097     0.0055     9.9603    10.5495    10.1699   -53.3882
  987.5000     8.7798    96.3453     2.5117     0.0025     9.8655    10.4490    10.0731   -53.5950
  988.0000     8.7800    93.3832     2.5157     0.0025     9.7717    10.4447    10.0689   -53.9998
  988.5000     8.7802    91.8041     2.5177     0.0055     9.6787    10.4403    10.0648   -53.6128
  989.0000     8.7804    93.1891     2.5247     0.0075     9.6748    10.5303    10.0606   -53.2258
  989.5000     8.7806    95.1675     2.5356     0.0105     9.7596    10.4317    10.0565   -53.0367
  990.0000     8.7611    96.5529     2.5098     0.0065     9.7556    10.4274    10.0523   -53.2436
  990.5000     8.7810    95.5667     2.5048    -0.0054     9.8412    10.5191    10.0482   -52.0647
  991.0000     8.8010    93.9876     2.5068    -0.0054     9.9275    10.5147    10.0440   -51.6776
  991.5000     8.8012    92.4085     2.5177     0.0006    10.0146    10.6071    10.1323   -50.8947
  992.0000     8.8014    92.4105     2.5267     0.0056    10.0105    10.6027    10.1281   -50.9053
  992.5000     8.8016    97.1557     2.5367     0.0026    10.0064    10.5984    10.1239   -50.7145
  993.0000     8.8216   100.5175     2.5407     0.0056    10.0023    10.4974    10.1198   -50.5254
  993.5000     8.8218   103.0887     2.5417     0.0146     9.9071    10.4931    10.1156   -50.3363
  994.0000     8.8812   101.3120     2.5377     0.0185     9.8129    10.3931    10.1114   -50.3452
  994.5000     8.8419    99.1400     2.5417     0.0176     9.5434    10.2941    10.0151   -50.7501
  995.0000     8.8618    97.9562     2.5437     0.0206     9.3665    10.2899     9.9197   -50.7590
  995.5000     8.8620    98.9463     2.5357     0.0226     9.2774    10.1918     9.8252   -51.3618
  996.0000     8.8622   100.5294     2.5258     0.0236     9.1892    10.0948     9.7316   -51.1727
  996.5000     8.9020   101.1243     2.5447     0.0265     9.1854     9.9986     9.6389   -51.9735
  997.0000     8.9022    98.7547     2.5507     0.0345     9.2660     9.9033     9.5471   -52.3783
  997.5000     8.9024    96.3850     2.5607     0.0345     9.3473     9.8993     9.4561   -52.7831
  998.0000     8.9026    95.5965     2.5676     0.0395     9.3434    10.0765     9.4522   -52.1981
  998.5000     8.9028    94.6103     2.5816     0.0405     9.2545     9.9821     9.4483   -52.9989
  999.0000     8.9030    94.2170     2.5736     0.0405     9.1665     9.9780     9.4444   -53.6035
  999.5000     8.9031    94.0213     2.5597     0.0257     9.0793     9.7928     9.4405   -53.6123
 1000.0000     8.9033    94.0233     2.5378     0.0157     8.8505     9.6996     9.3506   -53.6212
 1000.5000     8.9587    91.8521     2.5329     0.0234     8.7666     9.6158     9.2686   -53.2986
 1001.0000     9.0224    92.4462     2.5428     0.0296     8.6835     9.6041     9.1741   -53.0434
 1001.5000     9.0423    93.6340     2.5428     0.0296     8.6803     9.5130     9.0871   -52.6564
 1002.0000     9.0425    94.4265     2.5379     0.0137     8.6772     9.5095     9.0010   -52.0714
 1002.5000     9.0427    95.2190     2.5190     0.0038     8.6740     9.5060     8.9977   -51.8823
 1003.0000     9.0429    94.8257     2.5110     0.0018     8.6708     9.5026     8.9944   -51.4953
 1003.5000     9.0232    94.0371     2.5101     0.0058     8.7474     9.4991     9.0738   -51.7022
 1004.0000     9.0037    94.4343     2.5061     0.0098     8.8247     9.5830     9.1540   -51.3151
 1004.5000     8.9644    97.2032     2.5091     0.0058     9.0672     9.6676     9.2349   -51.3187
 1005.0000     8.9448   100.1697     2.5111     0.0049     9.2315     9.8428     9.4021   -50.7390
 1005.5000     8.9450   102.3461     2.5131     0.0049     9.2281     9.9297     9.4852   -50.7953
 1006.0000     8.9452   100.5689     2.5211     0.0049     9.0573     9.9261     9.6570   -50.7989
 1006.5000     8.9454    98.5945     2.5181     0.0059     9.0540     9.9224     9.6535   -51.0058
 1007.0000     8.9456    95.8296     2.5136     0.0119     9.0506     9.9188     9.6500   -51.2126
 1007.5000     8.9458    93.6576     2.5380     0.0149     9.1306     9.8248     9.5585   -51.6175
 1008.0000     8.9460    93.0667     2.5570     0.0258     9.2112     9.7316     9.4679   -52.1783
 1008.5000     8.9462    93.2663     2.5470     0.0189     9.1858     9.6394     9.2926   -52.7811
 1009.0000     8.9464    94.4541     2.5401     0.0139     9.0989     9.6358     9.2892   -52.9879
 1009.5000     8.9466    95.6419     2.5371     0.0080     9.0127     9.5445     9.2838   -53.1966
 1010.0000     8.9468    96.4343     2.5341     0.0070     8.9274     9.5410     9.2146   -53.2055
 1010.5000     8.9470    97.2269     2.5411     0.0070     9.0062     9.5375     9.1944   -53.6104
 1011.0000     8.9472    99.6005     2.5421     0.0169     9.1890     9.5340     9.1910   -53.8172
 1011.5000     8.9474   102.1717     2.5362     0.0170     9.1039     9.6182     9.1877   -53.8682
 1012.0000     8.9476   103.1614     2.5252     0.0070     9.0176     9.7032     9.2688   -53.6791
 1012.5000     8.9478   100.5945     2.5362     0.0050     8.9321     9.6996     9.2654   -53.2903
 1013.0000     8.9480   100.3989     2.5342     0.0070     8.8474     9.6961     9.2620   -52.9033
 1013.5000     8.9482   101.7843     2.5233     0.0130     8.7635     9.6042     9.2586   -52.3183
 1014.0000     8.9484   102.9721     2.5163     0.0061     8.6805     9.6007     9.2553   -51.4986
 1014.5000     8.9486   100.6024     2.5014    -0.0009     8.5982     9.5096     9.1675   -51.5022
 1015.0000     8.9488   100.4067     2.5034    -0.0019     8.5166     9.3336     8.9978   -51.3131
 1015.5000     8.9490   100.6063     2.5124    -0.0018     8.5135     9.2451     8.9125   -50.9261
 1016.0000     8.9492   100.4107     2.5194     0.0021     8.6478     9.1575     8.8280   -50.7371
 1016.5000     8.9494   100.4127     2.5293     0.0061     8.5659     9.0706     8.7443   -50.7460
 1017.0000     8.9496   100.8099     2.5343     0.0111     8.5628     8.9846     8.6614   -51.1508
 1017.5000     8.9498   101.8001     2.5314     0.0121     8.5597     8.9814     8.6582   -51.3613
 1018.0000     8.9500   100.4186     2.5264     0.0082     8.5565     8.9781     8.6551   -51.7625
 1018.5000     8.8710    98.0489     2.5145     0.0002     8.5534     8.9748     8.6519   -51.9694
 1019.0000     8.8714    97.8533     2.5105     0.0002     8.4718     8.9715     8.6487   -52.1763
