~VERSION INFORMATION
 VERS.                2.0:   CWLS LOG ASCII STANDARD - VERSION 2.0
 WRAP.                 NO:   ONE LINE PER DEPTH STEP
~WELL INFORMATION
#MNEM.UNIT      DATA TYPE    INFORMATION
#----------   ------------   ------------------------------
 STRT.F            5.5000:   START DEPTH
 STOP.F         3006.0000:   STOP DEPTH
 STEP.F            0.5000:   STEP LENGTH
 NULL.          -999.2500:   NO VALUE
 COMP.    FENIX & SCISSON:   COMPANY
 WELL.  FENIX "AX" #28-28:   WELL
 FLD .  TEAPOT DOME NPR-3:   FIELD
 LOC .      S28 T39N R78W:   LOCATION
 CNTY.            NATRONA:   COUNTY
 STAT.            WYOMING:   STATE
 CTRY. UNITED STATES OF AMERICA:   COUNTRY
 SRVC.           BIRDWELL:   SERVICE COMPANY
 DATE.        23-JAN-1980:   LOGDATE
 API .     49025107960000:   API NUMBER
~CURVE INFORMATION
#MNEM.UNIT       API CODE    CURVE DESCRIPTION
#----------   ------------   ------------------------------
 DEPT.F                  :   
 GRD .GAPI   45 310 01 00:   GAMMA RAY FROM DENSITY LOG
 CALD.IN     45 280 60 00:   CALIPER FROM DENSITY LOG
 DPHI.DEC    45 890 12 00:   DENSITY POROSITY SANDSTONE
 NPHI.DEC    42 890 03 00:   NEUTRON POROSITY SANDSTONE
 CORR.G/C3   45 356 01 00:   DENSITY CORRECTION
 SPR .MV     05 010 01 00:   SPONTANEOUS POTENTIAL FROM RES.
 ILD .OHMM   05 120 40 00:   INDUCTION LOG DEEP RESISTIVITY
 SN  .OHMM   05 040 16 00:   SHORT NORMAL 16"
~PARAMETER INFORMATION
#MNEM.UNIT          VALUE    DESCRIPTION
#----------   ------------   ------------------------------
 EKB .F         5120.0000:   Kelly bushing
 EGL .F         5110.0000:   Ground level
 EDF .F         5119.0000:   Drilling floor
 EPD .F         5110.0000:   Permanent datum
 TD  .F         3006.0000:   Total depth
 CLNT.            A2DTECH:   Client Code
 SL  . 600' FSL & 1300' FWL:   Surface Location
 PD  .                 GL:   Permanent Datum
 DAPD.F                 9:   Feet Above Permanent Datum
 DATE.        23-JAN-1980:   Date Logged [DD-MMM-YYYY]
 DD  .F              3006:   Depth driller
 DL  .F              3006:   Depth logger
 BLI .F              3006:   Bottom log interval
 TLI .F                10:   Top log interval
 CS1 .IN            8.625:   Casing size
 CBD1.      8.625" @ 440':   Casing driller 1
 CBL1.F               460:   Casing logger 1
 BS1 .IN            7.875:   Bit size
 BSD1.F              3006:   Depth drilled with bit1
 DFT .       GEL MUD FULL:   Type fluid in hole
 DFD .                  9:   Density
 DFV .                 46:   Viscosity
 DFPH.                 11:   pH
 DFL .               17.2:   Fluid loss
 MSS .           MUD TANK:   Source of sample
 RMS .OHMM            1.9:   Rm
 MST .F                60:   Rm Meas. temp.
 RMF .OHMM            .73:   Rmf
 MFST.F                62:   Rmf Meas. temp.
 MFSS.               MEAS:   Source Rmf.
 RMC .OHMM            .95:   Rmc
 MCST.F                62:   Rmc Meas. temp.
 TCS .HRS               5:   Time Circ. stopped
 MRT .F               110:   Maximum recorded temp.
 LUN .               3029:   Logging unit number
 LUL .             CASPER:   Logging unit location
 ENGI.           T. WOLFF:   Recorded By
 WITN.           DINSMORE:   Witnessed by
 ORIG.           5" PRINT:   Origin of data
 UWI .     49025107960000:   Unique Well ID
 DICO. A2D TECHNOLOGIES, INC.:   Digitizing Company
~OTHER INFORMATION
~A    DEPT      GRD      CALD       DPHI         NPHI     CORR        SPR        ILD         SN   
# ...
 1787.5000   127.6330     8.3025     0.2850     0.1273     0.0519   -33.7377     6.5290     7.3539
 1788.0000   130.0000     8.3049     0.2475     0.1153    -0.0007   -33.6000     6.8309     7.4653
 1788.5000   130.0000     8.2919     0.2496     0.1165     0.0193   -33.5215     7.3779     7.6873
 1789.0000   130.0000     8.2789     0.2645     0.1276     0.0662   -33.3486     7.7060     8.0296
 1789.5000   130.0000     8.2659     0.2756     0.1335     0.0816   -34.0941     8.0487     8.3873
 1790.0000   130.0000     8.2381     0.2789     0.1427     0.0501   -34.1916     8.2875     8.7070
 1790.5000   130.0000     8.2251     0.2692     0.1241     0.0523   -34.6349     8.5333     9.0862
 1791.0000   130.0000     8.2275     0.2632     0.1285     0.0069   -34.7320     8.6620     9.0299
 1791.5000   130.0000     8.2293     0.2691     0.1252     0.0132   -34.2998     8.7302     9.1667
 1792.0000   130.0000     8.2312     0.2775     0.1191     0.0195   -34.3369     8.7363     9.4393
 1792.5000   130.0000     8.2331     0.2841     0.1185     0.0229   -34.3229     8.8680    10.0014
 1793.0000   130.0000     8.2350     0.2942     0.1191     0.0291   -34.2805     8.9378    10.7492
 1793.5000   130.0000     8.2221     0.3038     0.1190     0.0309   -34.6358     9.2031    11.3893
 1794.0000   130.0000     8.2239     0.3044     0.1232     0.0326   -34.6753     9.7672    12.9599
 1794.5000   130.0000     8.2258     0.2983     0.1288     0.0254   -34.8333    10.5896    13.9289
 1795.0000   130.0000     8.2277     0.2863     0.1330     0.0000   -35.0579    11.5894    14.9776
 1795.5000   130.0000     8.2296     0.2849     0.1344     0.0078   -34.6338    12.3666    15.6521
 1796.0000   130.0000     8.2315     0.2737     0.1353     0.0110   -34.3386    13.0090    15.9907
 1796.5000   130.0000     8.2335     0.2688     0.1433    -0.0023   -34.8346    13.6848    16.1175
 1797.0000   130.0000     8.2358     0.2693     0.1529    -0.0020   -35.2808    14.1917    16.5968
 1797.5000   130.0000     8.2223     0.2705     0.1509    -0.0003   -35.6113    14.8227    16.9689
 1798.0000   130.0000     8.2247     0.2675     0.1390     0.0045   -35.5985    15.1540    17.2259
 1798.5000   130.0000     8.2266     0.2644     0.1267     0.0259   -35.2353    15.6036    17.6121
 1799.0000   130.0000     8.2285     0.2590     0.1182     0.0291   -35.4196    15.9523    17.8789
 1799.5000   130.0000     8.2092     0.2500     0.1218     0.0234   -35.0630    16.3088    18.1497
 1800.0000   130.0000     8.2080     0.2457     0.1193     0.0206   -35.3678    16.5548    18.2936
 1800.5000   130.0000     8.2057     0.2415     0.1133     0.0148   -35.9575    17.1702    18.5701
 1801.0000   130.0000     8.2033     0.2349     0.1091     0.0150   -36.0460    17.3063    18.1883
 1801.5000   130.0000     8.2009     0.2282     0.1024     0.0213   -35.8287    17.0742    17.9419
 1802.0000   130.0000     8.1985     0.2276     0.0958     0.0259   -35.4414    16.7146    17.6960
 1802.5000   128.6260     8.1961     0.2395     0.0922     0.0216   -34.8504    16.2673    17.5812
 1803.0000   114.1279     8.1937     0.2451     0.0873     0.0203   -34.8736    16.0491    17.5950
 1803.5000   113.2544     8.1924     0.2389     0.0812     0.0206   -34.5780    15.8369    17.3566
 1804.0000   118.0207     8.1944     0.2243     0.0729     0.0359   -34.2600    15.7333    17.1214
 1804.5000   118.3375     8.1960     0.2405     0.0684     0.0346   -34.3854    15.4149    17.1349
 1805.0000   115.2468     8.2124     0.2483     0.0626     0.0300   -34.0590    15.6483    16.9027
 1805.5000   103.1191     8.2140     0.2441     0.0548     0.0164   -34.0471    16.1136    16.7904
 1806.0000    93.6581     8.2305     0.2030     0.0452     0.0036   -33.9118    16.5928    16.8036
 1806.5000    93.3772     8.2469     0.1820     0.0377     0.0022   -33.2293    16.9713    16.9345
 1807.0000    99.0324     8.2782     0.1754     0.0463     0.0055   -32.7217    17.3455    17.3117
 1807.5000   110.7566     8.3095     0.1853     0.0631     0.0057   -32.9161    17.4858    17.6973
 1808.0000   118.4808     8.3407     0.2248     0.0864     0.0028   -33.0530    17.2513    17.7084
 1808.5000   123.3901     8.3572     0.2464     0.0977     0.0031   -33.1767    16.8957    17.2210
 1809.0000   123.5587     8.3588     0.2344     0.0923     0.0063   -33.2609    16.2032    16.7299
 1809.5000   127.7274     8.3604     0.2404     0.0917     0.0050   -33.2727    15.5361    16.1512
 1810.0000   125.0029     8.3620     0.2500     0.0910     0.0037   -33.3380    14.8965    15.3946
 1810.5000   125.4279     8.3637     0.2506     0.0850     0.0100   -33.3821    14.3855    14.7588
 1811.0000   125.7147     8.3656     0.2483     0.0881     0.0071   -34.2026    13.5966    14.4554
 1811.5000   126.7773     8.3524     0.2436     0.0927     0.0043   -34.9084    12.7513    14.1581
 1812.0000   127.8297     8.3540     0.2379     0.0906     0.0106   -34.8850    12.2365    13.8670
 1812.5000   127.2575     8.3556     0.2391     0.0888     0.0078   -34.6230    12.0724    13.6791
 1813.0000   127.5794     8.3720     0.2415     0.1010     0.0020   -34.2700    11.9127    13.3979
 1813.5000   129.0814     8.3736     0.2427     0.1052    -0.0083   -33.9415    11.8371    13.2163
 1814.0000   129.3981     8.3600     0.2394     0.1069    -0.0066   -33.8947    11.7597    13.0373
 1814.5000   130.0000     8.3619     0.2487     0.1075    -0.0034   -33.4303    11.7709    12.9405
 1815.0000   130.0000     8.3636     0.2559     0.1039    -0.0002   -33.1301    11.6962    12.6864
 1815.5000   130.0000     8.3652     0.2588     0.1056    -0.0030   -32.8442    11.6218    12.5866
 1816.0000   130.0000     8.3668     0.2558     0.1068    -0.0028   -32.3770    11.4531    12.3692
 1816.5000   126.6857     8.3684     0.2486     0.1053     0.0004   -32.6871    11.0748    12.1519
 1817.0000   126.5019     8.3552     0.2531     0.1025     0.0157   -32.5674    10.8486    11.9346
 1817.5000   128.0599     8.3568     0.2636     0.0992     0.0205   -32.0931    10.6270    11.6845
 1818.0000   130.0000     8.3585     0.2726     0.0982     0.0145   -32.1513    10.4099    11.4442
 1818.5000   130.0000     8.3604     0.2732     0.0982     0.0073   -32.6932    10.2683    11.2892
 1819.0000   130.0000     8.3620     0.2672     0.0994     0.0045   -33.2596    10.2031    11.2142
 1819.5000   130.0000     8.3484     0.2462     0.0990     0.0047   -33.4913    10.1399    11.1432
 1820.0000   129.2492     8.3504     0.2408     0.0975     0.0004   -33.4795    10.1480    11.2300
 1820.5000   128.9235     8.3668     0.2446     0.0969    -0.0009   -32.9722    10.1558    11.3986
 1821.0000   130.0000     8.3682     0.2497     0.0983    -0.0007   -32.5034    10.1745    11.5697
 1821.5000   130.0000     8.3699     0.2545     0.0992    -0.0035   -32.7195    10.3194    11.7435
 1822.0000   130.0000     8.3715     0.2581     0.0992    -0.0033   -33.9501    10.3273    11.9213
 1822.5000   129.4481     8.3731     0.2509     0.0967    -0.0015   -34.1135    10.5588    12.1002
 1823.0000   126.2144     8.3748     0.2470     0.0913     0.0047   -33.6159    10.7955    12.1078
 1823.5000   120.3090     8.3764     0.2479     0.0823     0.0185   -33.3073    10.9590    12.1154
 1824.0000   118.6998     8.3780     0.2464     0.0754     0.0217   -33.2590    11.0459    12.1230
 1824.5000   120.7943     8.3648     0.2517     0.0834     0.0159   -33.8944    10.9755    11.9588
 1825.0000   124.5185     8.3664     0.2574     0.0867     0.0226   -34.1287    10.8285    11.9663
 1825.5000   125.7244     8.3521     0.2644     0.0870     0.0209   -33.8701    10.7519    11.8885
 1826.0000   125.4483     8.3401     0.2706     0.0890     0.0090   -33.3236    10.6881    11.8115
 1826.5000   128.5555     8.3417     0.2652     0.0872     0.0137   -33.1570    10.6236    11.8192
 1827.0000   130.0000     8.3433     0.2577     0.0904     0.0079   -33.3019    10.5591    11.7423
 1827.5000   130.0000     8.3451     0.2505     0.1012    -0.0039   -33.3058    10.4946    11.6661
