~VERSION INFORMATION
 VERS.                2.0:   CWLS LOG ASCII STANDARD - VERSION 2.0
 WRAP.                 NO:   ONE LINE PER DEPTH STEP
~WELL INFORMATION
#MNEM.UNIT      DATA TYPE    INFORMATION
#----------   ------------   ------------------------------
 STRT.F          200.0000:   START DEPTH
 STOP.F         3050.0000:   STOP DEPTH
 STEP.F            0.5000:   STEP LENGTH
 NULL.          -999.2500:   NO VALUE
 COMP.     FENIX & SISSON:   COMPANY
 WELL. FENIX & SISSON "AX" #16-28:   WELL
 FLD .              NPR 3:   FIELD
 LOC .      S28 T39N R78W:   LOCATION
 CNTY.            NATRONA:   COUNTY
 STAT.            WYOMING:   STATE
 CTRY. UNITED STATES OF AMERICA:   COUNTRY
 SRVC.      DRESSER ATLAS:   SERVICE COMPANY
 DATE.        01-JUL-1977:   LOGDATE
 API .     49025103930000:   API NUMBER
~CURVE INFORMATION
#MNEM.UNIT       API CODE    CURVE DESCRIPTION
#----------   ------------   ------------------------------
 DEPT.F                  :   
 CALD.IN     45 280 60 00:   CALIPER FROM DENSITY LOG
 GRD .GAPI   45 310 01 00:   GAMMA RAY FROM DENSITY LOG
 CORR.G/C3   45 356 01 00:   DENSITY CORRECTION
 TEND.LBS    45 635 01 00:   TENSION FROM DENSITY LOG
 SPR .MV     07 010 01 00:   SPONTANEOUS POTENTIAL
 ILD .OHMM   07 120 46 00:   DEEP INDUCTION RESISTIVITY
 ILM .OHMM   07 120 44 00:   INDUCTION LOG MEDIUM RESISTIVITY
 SFL .OHMM   07 220 01 00:   SHALLOW FOCUSED LOG RESISTIVITY
 RHOB.G/C3   45 350 01 00:   BULK DENSITY
~PARAMETER INFORMATION
#MNEM.UNIT          VALUE    DESCRIPTION
#----------   ------------   ------------------------------
 EKB .F         5067.0000:   Kelly bushing
 EGL .F         5057.0000:   Ground level
 EDF .F         5066.0000:   Drilling floor
 EPD .F            0.0000:   Permanent datum
 TD  .F         3036.0000:   Total depth
 DATE.        01-JUL-1977:   Date logged
 CLNT.            A2DTECH:   Client Code
 SL  . 1220' FSL & 330' FWL:   Surface Location
 PD  .                 GL:   Permanent Datum
 DAPD.F                10:   Feet Above Permanent Datum
 DD  .F              3034:   Depth driller
 DL  .F              3036:   Depth logger
 BLI .F              3034:   Bottom log interval
 TLI .F               214:   Top log interval
 CS1 .IN            8.625:   Casing size
 CBD1.      8.625" @ 204':   Casing driller 1
 CBL1.F               214:   Casing logger 1
 BS1 .IN            7.875:   Bit size
 BSD1.F              3034:   Depth drilled with bit1
 DFT .                KCL:   Type fluid in hole
 DFD .                  9:   Density
 DFV .                 34:   Viscosity
 DFPH.                7.2:   pH
 DFL .                8.8:   Fluid loss
 MSS .         CIRCULATED:   Source of sample
 RMS .OHMM           .112:   Rm
 MST .F                75:   Rm Meas. temp.
 RMF .OHMM           .085:   Rmf
 MFST.F                75:   Rmf Meas. temp.
 RMC .OHMM           .141:   Rmc
 MCST.F                75:   Rmc Meas. temp.
 MFSS.               MEAS:   Source Rmf.
 MCSS.               MEAS:   Source Rmc.
 RMB .OHMM           .067:   Rm. at BHT
 BHT .F               124:   BHT.
 TCS .HRS               1:   Time Circ. stopped
 MRT .F               124:   Maximum recorded temp.
 LUN .               6134:   Logging unit number
 LUL .              GLTTE:   Logging unit location
 ENGI.              GOULD:   Recorded By
 WITN.         PETTINGILL:   Witnessed by
 ORIG.       2.5"5" PRINT:   Origin of data
 UWI .     49025103930000:   Unique Well ID
 DICO. A2D TECHNOLOGIES, INC.:   Digitizing Company
~OTHER INFORMATION
~A   DEPT     CALD         GRD      CORR       TEND        SPR        ILD        ILM        SFL       RHOB   
# ...
  966.5000     8.1280    91.4210     0.0280   -26.7860   -65.6720     8.1460    11.3600    12.4990     2.5350
  967.0000     8.0720    91.4920     0.0410   -30.8930   -65.5960     8.1550    11.1900    13.0210     2.5490
  967.5000     8.1100    91.6270     0.0410   -35.8130   -65.5100     8.1640    11.0210    12.9340     2.5420
  968.0000     8.1550    92.3100     0.0380    -3.1420   -65.4170     8.1730    10.8370    12.7670     2.5350
  968.5000     8.2000    92.9710     0.0350    12.8970   -65.3220     8.1820    10.9030    12.5520     2.5370
  969.0000     8.2230    93.5680     0.0330     2.1280   -65.2060     8.1910    10.9750    12.6880     2.5340
  969.5000     8.2130    93.3760     0.0300   -11.2910   -65.2580     8.2010    11.0460    12.9790     2.5330
  970.0000     8.1680    92.9170     0.0270   -16.8650   -65.5970     8.2100    11.1180    12.9550     2.5270
  970.5000     8.1450    92.7180     0.0250   -16.8650   -65.9080     8.2190    11.1900    12.7220     2.5160
  971.0000     8.2280    92.6230     0.0220   -16.8650   -66.2470     8.2290    11.3030    12.5980     2.5070
  971.5000     8.3040    93.6200     0.0190   -16.8650   -66.2760     8.2450    11.5280    12.7750     2.4980
  972.0000     8.2820    93.9720     0.0160   -16.8650   -66.1430     8.2640    11.7540    12.9510     2.4910
  972.5000     8.1700    93.9500     0.0090   -16.8650   -66.0290     8.2830    12.0360    13.1270     2.4840
  973.0000     8.0830    93.3070     0.0010   -16.8650   -65.9190     8.3020    12.3900    13.2620     2.4630
  973.5000     8.1000    92.8180     0.0070   -18.3720   -65.7990     8.3210    12.9210    13.2620     2.4870
  974.0000     8.1360    93.0630     0.0240   -22.9850   -65.6910     8.3400    12.8610    13.2620     2.5380
  974.5000     8.1690    93.2880     0.0290   -27.5980   -65.5620     8.3580    12.1260    13.3460     2.5430
  975.0000     8.1380    93.3730     0.0330   -32.2110   -65.5520     8.3780    11.2430    13.5080     2.5490
  975.5000     8.0290    92.8220     0.0350   -36.8240   -65.5490     8.3700    11.2430    13.5900     2.5380
  976.0000     8.0250    91.9590     0.0210   -41.4370   -65.5520     8.3570    11.2940    13.7580     2.5100
  976.5000     8.0670    91.8840     0.0050   -46.0500   -65.5510     8.3430    11.3810    13.6420     2.4800
  977.0000     8.1760    92.6290    -0.0120   -45.5920   -65.5510     8.3300    11.4670    13.3340     2.4490
  977.5000     8.2080    92.9740    -0.0200   -44.0540   -65.5510     8.3170    11.5540    13.2200     2.4140
  978.0000     8.1220    93.2020    -0.0160   -42.5160   -65.5510     8.3030    11.6410    13.1660     2.4350
  978.5000     8.0650    93.2720     0.0160   -40.9780   -65.5510     8.2900    11.7770    13.1120     2.5050
  979.0000     8.1040    93.3490     0.0300   -39.4410   -65.5500     8.2760    12.1040    13.0210     2.5480
  979.5000     8.1720    93.7340     0.0320   -37.9030   -65.5520     8.2630    12.5520    13.1840     2.5340
  980.0000     8.2050    94.3160     0.0280   -35.8670   -65.5510     8.2500    12.3210    14.0130     2.5340
  980.5000     8.1380    92.7980     0.0230   -32.0820   -65.5470     8.2290    11.8800    13.9430     2.5250
  981.0000     8.0470    92.8760     0.0180   -28.2970   -65.6210     8.2680    11.6630    13.7190     2.5170
  981.5000     8.0080    92.9830     0.0170   -24.5120   -65.8860     8.3450    11.7430    13.4950     2.5210
  982.0000     8.0470    92.7720     0.0190   -20.7260   -66.1550     8.4220    12.0990    13.2720     2.5190
  982.5000     8.0930    91.6610     0.0220   -16.8650   -66.4070     8.4990    11.7510    13.0210     2.5230
  983.0000     8.1350    92.1210     0.0250   -21.0580   -66.7070     8.5760    11.2430    13.0210     2.5290
  983.5000     8.1190    93.2610     0.0270   -25.3360   -66.6650     8.6530    10.7360    13.0210     2.5370
  984.0000     8.0710    93.5990     0.0300   -29.6150   -66.5910     8.6950    10.2570    13.0210     2.5350
  984.5000     8.0460    93.6900     0.0300   -33.8940   -66.5020     8.6960     9.9120    13.0210     2.5400
  985.0000     8.0510    93.3280     0.0290   -35.9400   -66.4250     8.6960    10.0140    13.1910     2.5410
  985.5000     8.0590    92.9790     0.0280   -33.7030   -66.3430     8.6960    10.1160    13.5080     2.5330
  986.0000     8.0670    92.6360     0.0270   -31.4660   -66.2620     8.6960    10.2570    13.4050     2.5350
  986.5000     8.0750    92.9610     0.0260   -29.2300   -66.1810     8.6940    10.1510    13.0210     2.5410
  987.0000     8.0830    93.3880     0.0250   -26.7860   -66.0980     8.6970     9.9810    13.1040     2.5410
  987.5000     8.0910    93.8250     0.0250   -37.9460   -66.0210     8.6300     9.8100    13.3050     2.5330
  988.0000     8.0990    93.7160     0.0240   -41.1950   -65.9430     8.5210     9.7070    13.5080     2.5260
  988.5000     8.1070    93.5080     0.0230   -22.7430   -65.9490     8.4090     9.5310    13.2610     2.5270
  989.0000     8.1150    93.7640     0.0230   -18.6300   -65.9670     8.3000     9.7440    12.8410     2.5310
  989.5000     8.1210    93.5540     0.0240   -21.2200   -66.2920     8.1900     9.9240    12.3610     2.5280
  990.0000     8.1590    93.4180     0.0240   -23.8100   -66.6140     8.0810    10.1040    12.4330     2.5280
  990.5000     8.1250    93.6440     0.0250   -26.3990   -66.7440     7.9710    10.2840    12.5760     2.5380
  991.0000     8.1360    93.9440     0.0260   -33.3960   -66.7290     7.8610    10.4640    12.7840     2.5440
  991.5000     8.1640    94.3700     0.0300   -41.1650   -66.7320     7.7520    10.6440    12.6560     2.5490
  992.0000     8.2160    94.7950     0.0340   -48.9350   -66.7360     7.6420    10.8370    12.4200     2.5530
  992.5000     8.1680    95.4250     0.0400   -56.5480   -66.7200     7.5330    11.1370    12.1840     2.5610
  993.0000     8.1010    96.1900     0.0410   -56.5480   -66.8530     7.4230    11.4600    11.9480     2.5550
  993.5000     8.0700    96.2300     0.0260   -54.5240   -67.1750     7.3140    11.8790    11.7120     2.5270
  994.0000     8.0970    95.5770     0.0140   -44.6830   -67.4950     7.2300    11.8660    11.4510     2.5020
  994.5000     8.1230    95.1250     0.0080   -37.4240   -67.4570     7.2080    11.8460    11.4310     2.4910
  995.0000     8.0890    96.0660     0.0050   -41.2090   -67.4030     7.1870    11.8270    11.4080     2.4980
  995.5000     8.0280    97.2530     0.0050   -44.9940   -67.3320     7.1650    11.8080    11.3860     2.4940
  996.0000     8.0200    97.3540     0.0080   -46.6270   -67.2730     7.1430    11.7890    11.3630     2.4990
  996.5000     8.0150    96.8160     0.0110   -46.6270   -67.2100     7.1210    11.7700    11.3410     2.4910
  997.0000     8.0100    96.3520     0.0140   -46.6270   -67.1470     7.1050    11.7510    11.3180     2.5050
  997.5000     8.0050    96.7700     0.0190   -46.6270   -67.0840     7.1050    11.7320    11.2960     2.5170
  998.0000     7.9990    96.3990     0.0240   -46.6270   -67.0210     7.1050    11.7120    11.2740     2.5270
  998.5000     7.9940    95.5460     0.0250   -46.6270   -66.9570     7.1050    11.6930    11.2430     2.5330
  999.0000     7.9890    95.9980     0.0240   -46.4680   -66.8960     7.1050    11.6730    11.2720     2.5250
  999.5000     7.9860    96.2590     0.0200   -45.1080   -66.8340     7.1050    11.6620    11.3190     2.5160
 1000.0000     7.9850    95.9060     0.0170   -43.7490   -66.7630     7.1050    11.6630    11.3660     2.5090
 1000.5000     7.9840    95.5780     0.0140   -42.3890   -66.7720     7.1050    11.6630    11.4130     2.5000
 1001.0000     7.9830    95.9160     0.0110   -41.0290   -66.8950     7.1050    11.6630    11.4510     2.4920
 1001.5000     7.9830    97.1400     0.0150   -39.6690   -67.0090     7.1060    11.6060    11.0380     2.4980
 1002.0000     7.9820    96.7070     0.0200   -38.3100   -67.1220     7.1040    11.4540    11.1180     2.5040
 1002.5000     7.9810    96.0980     0.0230   -36.9500   -67.2400     7.1060    11.3020    11.2570     2.5100
