~VERSION INFORMATION
 VERS.                2.0:   CWLS LOG ASCII STANDARD - VERSION 2.0
 WRAP.                 NO:   ONE LINE PER DEPTH STEP
~WELL INFORMATION
#MNEM.UNIT      DATA TYPE    INFORMATION
#----------   ------------   ------------------------------
 STRT.F            0.0000:   START DEPTH
 STOP.F         3504.0000:   STOP DEPTH
 STEP.F            0.5000:   STEP LENGTH
 NULL.          -999.2500:   NO VALUE
 COMP. LAWRENCE-ALLISON AND ASSOCIATES:   COMPANY
 WELL. LAWRENCE "TX" #16-34:   WELL
 FLD .              NPR 3:   FIELD
 LOC .      S34 T39N R78W:   LOCATION
 CNTY.            NATRONA:   COUNTY
 STAT.            WYOMING:   STATE
 CTRY. UNITED STATES OF AMERICA:   COUNTRY
 SRVC.       SCHLUMBERGER:   SERVICE COMPANY
 DATE.        10-APR-1982:   LOGDATE
 API .     49025108970000:   API NUMBER
~CURVE INFORMATION
#MNEM.UNIT       API CODE    CURVE DESCRIPTION
#----------   ------------   ------------------------------
 DEPT.F                  :   
 SPR .MV     07 010 01 00:   SPONTANEOUS POTENTIAL
 ILD .OHMM   07 120 46 00:   DEEP INDUCTION RESISTIVITY
 SFLU.OHMM   07 220 01 00:   SPHERICALLY FOCUSED LOG UNAVERAGED RESISTIVITY
 TENR.LBS    07 635 01 00:   TENSION FROM RESISTIVITY
 ILM .OHMM   07 120 44 00:   INDUCTION LOG MEDIUM RESISTIVITY
 GRD .GAPI   45 310 01 00:   GAMMA RAY FROM DENSITY LOG
 CALD.IN     45 280 60 00:   CALIPER FROM DENSITY LOG
 RHOB.G/C3   45 350 01 00:   BULK DENSITY
 CORR.G/C3   45 356 01 00:   DENSITY CORRECTION
 TEND.LBS    45 635 01 00:   TENSION FROM DENSITY LOG
 NPHI.DEC    42 890 03 00:   NEUTRON POROSITY SANDSTONE
~PARAMETER INFORMATION
#MNEM.UNIT          VALUE    DESCRIPTION
#----------   ------------   ------------------------------
 EKB .F         5149.0000:   Kelly bushing
 EGL .F         5139.0000:   Ground level
 EDF .F            0.0000:   Drilling floor
 TD  .F         3500.0000:   Total depth
 DATE.        10-APR-1982:   Date logged
 CLNT.            A2DTECH:   Client Code
 SL  . 1406' FSL & 423' FWL:   Surface Location
 PD  .                 GL:   Permanent Datum
 EPD .F              5139:   Elevation Permanent Datum
 LMF .                 KB:   Log Measured From
 DMF .                 KB:   Drilling Measured From
 DAPD.F                10:   Feet Above Permanent Datum
 DD  .F              3500:   Depth driller
 DL  .F              3497:   Depth logger
 BLI .F              3491:   Bottom log interval
 TLI .F               658:   Top log interval
 CS1 .IN            9.625:   Casing size
 CBD1.      9.625" @ 632':   Casing driller 1
 CBL1.F               658:   Casing logger 1
 BS1 .IN             8.75:   Bit size
 BSD1.F              3500:   Depth drilled with bit1
 DFT .           SPUD MUD:   Type fluid in hole
 DFD .                  9:   Density
 DFV .                 44:   Viscosity
 DFPH.                 10:   pH
 DFL .                  7:   Fluid loss
 MSS .           FLOWLINE:   Source of sample
 RMS .OHMM              2:   Rm
 MST .F                53:   Rm Meas. temp.
 RMF .OHMM            1.9:   Rmf
 MFST.F                53:   Rmf Meas. temp.
 RMC .OHMM            1.5:   Rmc
 MCST.F                53:   Rmc Meas. temp.
 MFSS.               MEAS:   Source Rmf.
 MCSS.               CALC:   Source Rmc.
 RMB .OHMM              1:   Rm. at BHT
 BHT .F               106:   BHT.
 TCS .HRS            1100:   Time Circ. stopped
 TLAB.HRS            1330:   Time logger at bottom
 MRT .F               106:   Maximum recorded temp.
 LUN .               8151:   Logging unit number
 LUL .                GLT:   Logging unit location
 ENGI.            NEUFFER:   Recorded By
 WITN.           JENNINGS:   Witnessed by
 ORIG.           5" PRINT:   Origin of data
 UWI .     49025108970000:   Unique Well ID
 DICO. A2D TECHNOLOGIES, INC.:   Digitizing Company
~OTHER INFORMATION
~A    DEPT     SPR        ILD       SFLU       TENR        ILM        GRD       CALD       RHOB       CORR       TEND       NPHI   
# ...
 1403.0000   -11.2620     8.3200     9.2130  1098.9010     8.5530    98.7060     9.8940     2.5080     0.0310  1060.0000     0.2900
 1403.5000   -11.2680     8.3700     9.3340  1098.9010     8.6040   100.6610     9.8370     2.4970     0.0310  1060.0000     0.2870
 1404.0000   -11.3110     8.4210     9.4540  1098.9010     8.6560   100.5310     9.7910     2.4880     0.0300  1060.0000     0.2920
 1404.5000   -11.3550     8.4710     9.5800  1098.9010     8.7080    99.0420     9.7750     2.4840     0.0240  1060.0000     0.2970
 1405.0000   -11.3980     8.5220     9.5380  1098.9010     8.7600    98.1230     9.7590     2.4840     0.0200  1060.0000     0.3020
 1405.5000   -11.4410     8.5720     9.4940  1098.9010     8.8120    97.5890     9.7490     2.4920     0.0180  1060.0000     0.3050
 1406.0000   -11.4950     8.6220     9.4500  1098.9010     8.8640    97.6890     9.7410     2.5030     0.0240  1060.0000     0.3040
 1406.5000   -11.5570     8.6730     9.4070  1098.9010     8.9160    97.8130     9.7320     2.5210     0.0330  1060.0000     0.3060
 1407.0000   -11.6190     8.7230     9.3630  1098.9010     8.9670    98.1620     9.7230     2.5290     0.0370  1060.0000     0.3080
 1407.5000   -11.6810     8.7740     9.3190  1098.9010     9.0190    98.7950     9.7140     2.5230     0.0320  1060.0000     0.3110
 1408.0000   -11.7430     8.8240     9.5540  1098.9010     9.0710    99.3510     9.7060     2.5080     0.0200  1060.0000     0.3130
 1408.5000   -11.8050     8.8750     9.7920  1098.9010     9.1230    98.7120     9.6970     2.4920     0.0120  1060.0000     0.3190
 1409.0000   -11.8590     8.9250    10.0300  1098.9010     9.1750    95.8380     9.6880     2.4780     0.0120  1060.0000     0.3170
 1409.5000   -11.7420     8.9760    10.4070  1098.9010     9.2270    92.3470     9.6790     2.4750     0.0120  1060.0000     0.3000
 1410.0000   -11.6050     9.0260    10.3490  1098.9010     9.2790    91.0180     9.6850     2.4770     0.0130  1060.0000     0.3010
 1410.5000   -11.4670     9.0650    10.2120  1098.9010     9.3190    92.5800     9.6920     2.4810     0.0120  1060.0000     0.3020
 1411.0000   -11.3290     9.0400    10.0740  1098.9010     9.2930    94.2400     9.7000     2.4870     0.0120  1060.0000     0.3040
 1411.5000   -11.1920     9.0190     9.9370  1098.9010     9.2710    95.5710     9.7070     2.4940     0.0110  1060.0000     0.3050
 1412.0000   -11.0540     8.9980     9.7990  1098.9010     9.2500    96.0850     9.7140     2.4930     0.0110  1060.0000     0.3080
 1412.5000   -10.9090     8.9770     9.6680  1098.9010     9.2280    96.1130     9.7130     2.4860     0.0080  1060.0000     0.3000
 1413.0000   -10.9260     8.9560     9.9280  1098.9010     9.2070    95.2020     9.7040     2.4760     0.0070  1060.0000     0.3000
 1413.5000   -11.0110     8.9350    10.1760  1098.9010     9.1850    94.0940     9.6940     2.4710     0.0080  1060.0000     0.2930
 1414.0000   -11.0980     8.9140    10.4070  1098.9010     9.1640    92.9780     9.6850     2.4710     0.0100  1060.0000     0.2900
 1414.5000   -11.1860     8.8940    10.1410  1098.9010     9.1420    91.9570     9.6830     2.4740     0.0110  1060.0000     0.2940
 1415.0000   -11.2730     8.8730     9.8920  1098.9010     9.1210    92.1290     9.7000     2.4820     0.0120  1060.0000     0.2980
 1415.5000   -11.3600     8.8520     9.6440  1098.9010     9.1000    92.7860     9.7160     2.4990     0.0190  1060.0000     0.3030
 1416.0000   -11.4470     8.8310     9.3190  1098.9010     9.0780    93.9900     9.7330     2.5160     0.0230  1060.0000     0.3070
 1416.5000   -11.5340     8.8100     9.3480  1098.9010     9.0570    95.1930     9.7120     2.5170     0.0240  1060.0000     0.3110
 1417.0000   -11.6210     8.7890     9.3910  1098.9010     9.0350    94.8870     9.6770     2.5100     0.0230  1060.0000     0.3150
 1417.5000   -11.7080     8.7680     9.4330  1098.9010     9.0140    93.1410     9.6290     2.5060     0.0210  1060.0000     0.3190
 1418.0000   -11.7940     8.7380     9.4750  1098.9010     8.9820    91.8880     9.5700     2.5090     0.0250  1060.0000     0.3200
 1418.5000   -11.8270     8.7440     9.5170  1098.9010     8.9890    93.0430     9.5400     2.5110     0.0260  1060.0000     0.3130
 1419.0000   -11.6930     8.7560     9.5600  1098.9010     9.0010    94.5360     9.5380     2.5080     0.0240  1060.0000     0.3080
 1419.5000   -11.8330     8.7690     9.6410  1098.9010     9.0140    95.9610     9.5360     2.5080     0.0210  1060.0000     0.3050
 1420.0000   -11.9620     8.7810     9.8270  1098.9010     9.0270    96.8200     9.5340     2.5170     0.0220  1060.0000     0.3020
 1420.5000   -11.9900     8.7930    10.0130  1098.9010     9.0400    97.7260     9.5330     2.5290     0.0520  1060.0000     0.3000
 1421.0000   -11.7730     8.8060    10.1990  1098.9010     9.0520    97.1230     9.5310     2.5320     0.0420  1060.0000     0.3020
 1421.5000   -11.5660     8.8180    10.4770  1098.9010     9.0650    96.4300     9.5290     2.5000     0.0330  1060.0000     0.3040
 1422.0000   -11.3610     8.8310    10.4100  1098.9010     9.0780    96.9480     9.5270     2.4840     0.0230  1060.0000     0.3060
 1422.5000   -11.1530     8.8430    10.1520  1098.9010     9.0900    98.3100     9.5260     2.4830     0.0150  1060.0000     0.3090
 1423.0000   -11.0860     8.8550     9.8940  1098.9010     9.1030    98.7890     9.5240     2.4960     0.0170  1060.0000     0.3140
 1423.5000   -11.1180     8.8680     9.6360  1098.9010     9.1160    97.4700     9.5220     2.5020     0.0200  1060.0000     0.3110
 1424.0000   -11.1510     8.8800     9.5440  1098.9010     9.1290    96.1460     9.5190     2.5070     0.0230  1060.0000     0.3070
 1424.5000   -11.1850     8.8990     9.4970  1098.9010     9.1480    96.9090     9.5020     2.5120     0.0250  1060.0000     0.3040
 1425.0000   -11.2180     8.8810     9.4510  1098.9010     9.1300    98.6270     9.4850     2.5100     0.0220  1060.0000     0.3080
 1425.5000   -11.2510     8.8350     9.4050  1098.9010     9.0820   101.3420     9.4680     2.5060     0.0190  1060.0000     0.3090
 1426.0000   -11.2850     8.7880     9.3590  1098.9010     9.0340   103.8510     9.4510     2.5040     0.0160  1060.0000     0.3040
 1426.5000   -11.3180     8.7410     9.3130  1098.9010     8.9860   104.6270     9.4340     2.5090     0.0200  1060.0000     0.2980
 1427.0000   -11.3520     8.6940     9.2670  1098.9010     8.9380   101.2750     9.4250     2.5140     0.0250  1060.0000     0.2920
 1427.5000   -11.3850     8.6480     9.2210  1098.9010     8.8900    97.6640     9.4340     2.5150     0.0250  1060.0000     0.2870
 1428.0000   -11.4190     8.6010     9.1490  1098.9010     8.8420    95.4050     9.4440     2.5080     0.0230  1060.0000     0.2890
 1428.5000   -11.4520     8.5540     9.1690  1098.9010     8.7940    94.4150     9.4530     2.5080     0.0230  1060.0000     0.2930
 1429.0000   -11.4860     8.5080     9.2140  1098.9010     8.7460    94.1430     9.4620     2.5170     0.0290  1060.0000     0.2960
 1429.5000   -11.5190     8.4610     9.2590  1098.9010     8.6980    94.6140     9.4720     2.5280     0.0420  1060.0000     0.2990
 1430.0000   -11.5520     8.4140     9.3190  1098.9010     8.6500    96.2890     9.4810     2.5340     0.0530  1060.0000     0.3020
 1430.5000   -11.5860     8.3670     9.2490  1098.9010     8.6020    97.8410     9.4900     2.5350     0.0520  1060.0000     0.3050
 1431.0000   -11.6200     8.3210     9.1430  1098.9010     8.5540    97.8510     9.5000     2.5250     0.0380  1060.0000     0.3080
 1431.5000   -11.6520     8.2710     9.0370  1098.9010     8.5020    97.0940     9.5090     2.5150     0.0300  1060.0000     0.3120
 1432.0000   -11.5710     8.2870     8.9820  1098.9010     8.5190    96.3410     9.5180     2.5090     0.0260  1060.0000     0.3140
 1432.5000   -11.4740     8.3080     9.2240  1098.9010     8.5410    95.6400     9.5280     2.5040     0.0220  1060.0000     0.3190
 1433.0000   -11.3770     8.3290     9.4970  1098.9010     8.5620    93.5370     9.5370     2.4940     0.0180  1060.0000     0.3180
