~VERSION INFORMATION
 VERS.                2.0:   CWLS LOG ASCII STANDARD - VERSION 2.0
 WRAP.                 NO:   ONE LINE PER DEPTH STEP
~WELL INFORMATION
#MNEM.UNIT      DATA TYPE    INFORMATION
#----------   ------------   ------------------------------
 STRT.F          197.0000:   START DEPTH
 STOP.F         3238.5000:   STOP DEPTH
 STEP.F            0.5000:   STEP LENGTH
 NULL.          -999.2500:   NO VALUE
 COMP.    FENIX & SCISSON:   COMPANY
 WELL. FENIX 28 "A" #28-11:   WELL
 FLD .              NPR-3:   FIELD
 LOC .      S11 T38N R78W:   LOCATION
 CNTY.            NATRONA:   COUNTY
 STAT.            WYOMING:   STATE
 CTRY. UNITED STATES OF AMERICA:   COUNTRY
 SRVC.              WELEX:   SERVICE COMPANY
 DATE.        25-OCT-1977:   LOGDATE
 API .     49025104350000:   API NUMBER
~CURVE INFORMATION
#MNEM.UNIT       API CODE    CURVE DESCRIPTION
#----------   ------------   ------------------------------
 DEPT.F                  :   
 SPR .MV     07 010 01 00:   SPONTANEOUS POTENTIAL
 TENR.LBS    07 635 01 00:   TENSION FROM RESISTIVITY
 ILM .OHMM   07 120 44 00:   INDUCTION LOG MEDIUM RESISTIVITY
 SGRD.OHMM   07 220 05 00:   SHALLOW SHORT GUARD RESISTIVITY
 ILD .OHMM   07 120 46 00:   INDUCTION LOG DEEP RESISTIVITY
 GRD .GAPI   45 310 01 00:   GAMMA RAY FROM DENSITY LOG
 CALD.IN     45 280 60 00:   CALIPER FROM DENSITY LOG
 CORR.G/C3   45 356 01 00:   DENSITY CORRECTION
 RHOB.G/C3   45 350 01 00:   BULK DENSITY
~PARAMETER INFORMATION
#MNEM.UNIT          VALUE    DESCRIPTION
#----------   ------------   ------------------------------
 EKB .F         5211.0000:   Kelly bushing
 EGL .F         5201.0000:   Ground level
 EDF .F            0.0000:   Drilling floor
 EPD .F         5201.0000:   Permanent datum
 TD  .F         3235.0000:   Total depth
 CLNT.            A2DTECH:   Client Code
 SL  . 330' FSL & 990' FWL:   Surface Location
 PD  .                 GL:   Permanent Datum
 DAPD.F                10:   Feet Above Permanent Datum
 DATE.        25-OCT-1977:   Date Logged [DD-MMM-YYYY]
 DD  .F              3235:   Depth driller
 DL  .F              3231:   Depth logger
 BLI .F              3229:   Bottom log interval
 TLI .F               200:   Top log interval
 CS1 .IN            8.625:   Casing size
 CBD1.      8.625" @ 217':   Casing driller 1
 CBL1.F               217:   Casing logger 1
 BS1 .              7.875:   Bit size
 BSD1.IN             3235:   Depth drilled with bit1
 DFT .            KCL MUD:   Type fluid in hole
 DFD .                8.9:   Density
 DFV .                 35:   Viscosity
 DFPH.               11.5:   pH
 DFL .               16.4:   Fluid loss
 MSS .           FLOWLINE:   Source of sample
 RMS .OHMM           1.18:   Rm
 MST .F                74:   Rm Meas. temp.
 RMF .OHMM           1.74:   Rmf
 MFST.F                74:   Rmf Meas. temp.
 MFSS.               MEAS:   Source Rmf.
 MCSS.               MEAS:   Source Rmc.
 RMB .OHMM           1.15:   Rm. at BHT
 BHT .F               116:   BHT.
 TCS .HRS               3:   Time Circ. stopped
 MRT .F               116:   Maximum recorded temp.
 LUN .               8611:   Logging unit number
 LUL .             CASPER:   Logging unit location
 ENGI.            C. DOAK:   Recorded By
 WITN.      W. PETTINGILL:   Witnessed by
 ORIG.           5" PRINT:   Origin of data
 UWI .     49025104350000:   Unique Well ID
 DICO. A2D TECHNOLOGIES, INC.:   Digitizing Company
~OTHER INFORMATION
~A   DEPT      SPR       TENR        ILM       SGRD        ILD         GRD      CALD       CORR       RHOB   
# ...
 2788.5000   -49.2618  1965.7186     8.6334    16.2904     7.9810   108.4607     8.6922     0.0348     2.5052
 2789.0000   -49.1192  1966.2505     8.2354    13.9828     7.8145   109.6878     8.6906     0.0363     2.4774
 2789.5000   -49.1300  1936.7397     8.0083    13.5935     7.6516   111.2216     8.6891     0.0253     2.4601
 2790.0000   -48.9852  1907.1212     7.8961    13.1262     7.5440   112.7606     8.6874     0.0144     2.4316
 2790.5000   -48.8448  1877.6104     7.9489    11.5033     7.3837   114.6191     8.6859     0.0097     2.4020
 2791.0000   -48.7022  1863.1736     8.1136    10.4363     7.1327   116.5182     8.6843     0.0065     2.3933
 2791.5000   -48.2414  1893.5629     7.9993    10.1481     6.9359   118.3085     8.6828     0.0034     2.3881
 2792.0000   -47.9631  1953.9624     7.9420    11.2534     6.7912   119.8476     8.6656    -0.0013     2.3843
 2792.5000   -48.1252  1969.3615     7.9399    12.1393     6.6038   121.6986     8.6639    -0.0030     2.3813
 2793.0000   -48.5877  1969.7904     7.9935    11.3215     6.4212   123.4902     8.6623    -0.0030     2.3805
 2793.5000   -49.3528  1925.3094     8.1586    11.3170     6.2007   125.4007     8.6609    -0.0062     2.3812
 2794.0000   -49.9748  1895.7985     7.9118    11.1569     6.0714   126.9765     8.6593    -0.0062     2.3819
 2794.5000   -50.7339  1881.2573     7.1981    10.7729     5.9038   129.4096     8.6422    -0.0063     2.3834
 2795.0000   -51.6502  1881.7937     6.9513    10.1883     5.8612   131.2659     8.6406    -0.0064     2.3864
 2795.5000   -52.4153  1897.1929     6.7596    10.6891     5.7788   132.1809     8.6391    -0.0064     2.3946
 2796.0000   -52.8779  1927.5621     6.6649     9.4326     5.7370   129.6586     8.6375    -0.0065     2.4065
 2796.5000   -52.8865  1988.2722     6.6171     8.6770     5.7347   124.0213     8.6359    -0.0034     2.4125
 2797.0000   -52.2922  2018.2405     6.7543     8.0374     5.7328   119.5938     8.6344    -0.0020     2.4170
 2797.5000   -51.3932  1958.8967     7.1367     8.2712     5.8108   115.2377     8.6169     0.0011     2.4229
 2798.0000   -49.2838  1929.2783     7.7530    10.3038     5.8898   108.3524     8.6000     0.0057     2.4372
 2798.5000   -47.0232  1929.8147     8.3067    12.5036     6.2268   104.5872     8.5983     0.0118     2.4446
 2799.0000   -45.5190  1930.2438     8.6568    13.8668     6.7117   101.7581     8.5903     0.0149     2.4499
 2799.5000   -43.9718  1930.6886     8.8976    14.7527     7.0911   100.1770     8.5641     0.0194     2.4506
 2800.0000   -42.5128  1931.2091     9.1445    14.8493     7.5962    98.9080     8.5554     0.0268     2.4506
 2800.5000   -41.4625  1916.5609     9.3995    13.5642     7.9703    97.5488     8.5461     0.0351     2.4444
 2801.0000   -40.4100  1908.8857     9.6610    12.3915     8.3106    96.0737     8.5453     0.0379     2.4356
 2801.5000   -39.2895  1901.1976     9.7925    11.9650     8.7135    93.8775     8.5445     0.0394     2.4326
 2802.0000   -38.0846  1901.1976     9.8579    11.7155     8.9549    91.3694     8.5280     0.0409     2.4431
 2802.5000   -36.9915  1901.1976     9.7866    14.0360     9.1396    88.8561     8.5116     0.0424     2.4528
 2803.0000   -35.7958  1931.8999     9.7165    16.4120     9.2007    87.1928     8.4952     0.0424     2.4558
 2803.5000   -34.6000  1991.0179     9.5803    15.7346     9.3288    85.0899     8.4788     0.0439     2.4543
 2804.0000   -33.4043  2005.9880     9.3809    14.4712     9.3226    82.2697     8.4624     0.0423     2.4321
 2804.5000   -32.6485  2005.9880     9.3784    12.7675     9.0620    78.8255     8.4461     0.0376     2.4006
 2805.0000   -31.3191  1961.0779     9.4410    11.7423     8.8024    75.6933     8.4297     0.0329     2.3719
 2805.5000   -30.2747  1916.1677     9.3610    14.0195     8.3852    72.2491     8.4044     0.0297     2.3622
 2806.0000   -28.9277  1854.7935     9.0987    16.2375     7.9834    68.8049     8.3811     0.0266     2.3562
 2806.5000   -27.5807  1871.2574     8.8449    14.1288     7.6008    64.9100     8.3804     0.0281     2.3547
 2807.0000   -26.6875  1901.1976     8.7183    12.6393     7.3374    60.0414     8.3483     0.0327     2.3562
 2807.5000   -25.9457  1916.1677     8.6533    12.2037     7.0832    60.3414     8.3476     0.0391     2.3644
 2808.0000   -25.8089  1946.1078     9.0165    14.1033     7.1771    61.5773     8.3469     0.0403     2.3884
 2808.5000   -26.1297  1946.1078     9.0117    13.0610     7.6495    64.3045     8.3305     0.0387     2.3973
 2809.0000   -26.4469  1931.1377     9.0069    12.2644     8.2300    69.0415     8.3297     0.0387     2.3958
 2809.5000   -27.3692  1916.1677     9.2542    15.4017     8.5732    74.0216     8.3289     0.0371     2.3883
 2810.0000   -28.4427  1901.1976     9.3150    16.9620     8.7472    76.1936     8.3436     0.0371     2.3786
 2810.5000   -29.2137  1901.1976     9.3748    15.4900     8.7413    78.0506     8.3506     0.0370     2.3709
 2811.0000   -29.9971  1916.1677     9.3686    14.5453     8.8572    79.9107     8.3736     0.0385     2.3629
 2811.5000   -31.0619  1961.0779     9.3636    13.7531     8.9747    83.0187     8.3882     0.0385     2.3771
 2812.0000   -31.6817  1976.0479     9.4297    13.0898     9.0309    87.6868     8.4031     0.0353     2.3868
 2812.5000   -31.9988  1961.0779     9.5491    14.8322     9.1507    89.8619     8.4336     0.0353     2.3943
 2813.0000   -31.8621  1946.1078     9.5440    14.2098     9.1431    89.2227     8.4387     0.0337     2.4100
 2813.5000   -31.7217  1931.1377     9.5389    13.0688     9.2019    88.2676     8.4633     0.0352     2.4205
 2814.0000   -31.2859  1931.1377     9.5338    12.7924     9.1308    87.3260     8.4624     0.0382     2.4242
 2814.5000   -31.1494  1931.1377     9.5287    13.7966     9.1247    86.0634     8.4774     0.0397     2.4234
 2815.0000   -30.8650  1946.1078     9.5236    15.7273     9.1187    82.6192     8.4923     0.0412     2.4212
 2815.5000   -30.1231  1946.1078     9.5172    14.8707     9.1124    78.2389     8.4914     0.0396     2.4167
 2816.0000   -29.3813  1946.1078     9.5122    13.7571     9.1050    74.7947     8.5062     0.0396     2.4107
 2816.5000   -28.7871  1931.1377     9.5071    12.6640     8.9738    72.5986     8.5055     0.0395     2.3995
 2817.0000   -28.3514  1920.9678     9.5020    13.2870     8.9060    70.0904     8.5047     0.0380     2.3935
 2817.5000   -28.2096  1930.0000     9.5631    13.6499     8.8387    71.1220     8.4955     0.0379     2.3852
 2818.0000   -27.6241  1930.0000     9.6246    13.2690     8.6513    75.0555     8.4874     0.0361     2.3791
 2818.5000   -27.6423  1930.0000     9.6192    12.9006     8.6455    77.2275     8.4866     0.0316     2.3770
 2819.0000   -27.5020  1890.0000     9.4804    14.0079     8.6396    77.5304     8.4703     0.0300     2.3800
 2819.5000   -27.0627  1890.0000     9.4754    14.1949     8.8748    76.2673     8.4695     0.0284     2.3882
 2820.0000   -26.9260  1850.0000     9.4703    13.5836     9.0549    74.6952     8.4531     0.0268     2.3919
 2820.5000   -27.0955  1853.2554     9.5976    13.4136     9.2387    73.7471     8.4612     0.0268     2.3844
 2821.0000   -27.1267  1859.7021     9.7265    14.1670     9.3627    73.4228     8.4672     0.0267     2.3799
 2821.5000   -27.7334  1866.1489     9.8620    14.2590     9.5514    73.7199     8.4821     0.0251     2.3792
 2822.0000   -28.3531  1872.5957    10.0579    13.9553     9.6778    74.0760     8.4812     0.0251     2.3844
 2822.5000   -28.5190  1879.0426    10.1239    14.3386     9.8139    74.6338     8.4804     0.0250     2.3949
 2823.0000   -28.8361  1885.4894    10.2586    15.5717    10.0035    74.9318     8.4796     0.0250     2.3979
 2823.5000   -29.0020  1891.9362    10.4688    16.9212    10.0679    75.4351     8.4789     0.0249     2.3934
 2824.0000   -28.8614  1898.3829    10.6095    15.4433    10.1310    75.8440     8.4773     0.0249     2.3784
 2824.5000   -28.2783  1904.8298    10.6777    14.1052    10.1226    76.4601     8.4616     0.0249     2.3634
