~VERSION INFORMATION
 VERS.                2.0:   CWLS LOG ASCII STANDARD - VERSION 2.0
 WRAP.                 NO:   ONE LINE PER DEPTH STEP
~WELL INFORMATION
#MNEM.UNIT      DATA TYPE    INFORMATION
#----------   ------------   ------------------------------
 STRT.F          200.0000:   START DEPTH
 STOP.F         3000.0000:   STOP DEPTH
 STEP.F            0.5000:   STEP LENGTH
 NULL.          -999.2500:   NO VALUE
 COMP.    FENIX & SCISSON:   COMPANY
 WELL.   FENIX "A" #65-28:   WELL
 FLD .              NPR 3:   FIELD
 LOC .      S28 T39N R78W:   LOCATION
 CNTY.            NATRONA:   COUNTY
 STAT.            WYOMING:   STATE
 CTRY. UNITED STATES OF AMERICA:   COUNTRY
 SRVC.              WELEX:   SERVICE COMPANY
 DATE.        25-JUL-1977:   LOGDATE
 API .     49025104010000:   API NUMBER
~CURVE INFORMATION
#MNEM.UNIT       API CODE    CURVE DESCRIPTION
#----------   ------------   ------------------------------
 DEPT.F                  :   
 GRD .GAPI   45 310 01 00:   GAMMA RAY FROM DENSITY LOG
 CALD.IN     45 280 60 00:   CALIPER FROM DENSITY LOG
 RHOB.G/C3   45 350 01 00:   BULK DENSITY
 DCOR.G/C3   45 356 01 00:   DENSITY CORRECTION
 SPR .MV     07 010 01 00:   SPONTANEOUS POTENTIAL
 RILM.OHMM   07 120 44 00:   INDUCTION LOG MEDIUM RESISTIVITY
 RILD.OHMM   07 120 46 00:   DEEP INDUCTION RESISTIVITY
 SGRD.OHMM   07 220 05 00:   SHALLOW GUARD
~PARAMETER INFORMATION
#MNEM.UNIT          VALUE    DESCRIPTION
#----------   ------------   ------------------------------
 EKB .F         5069.0000:   Kelly bushing
 EGL .F         5059.0000:   Ground level
 EDF .F            0.0000:   Drilling floor
 TD  .F         3006.0000:   Total depth
 DATE.        25-JUL-1977:   Date logged
 CLNT.            A2DTECH:   Client Code
 SL  . 2310' FSL & 1650' FEL:   Surface Location
 PD  .                 GL:   Permanent Datum
 EPD .F              5059:   Elevation Permanent Datum
 LMF .                 KB:   Log Measured From
 DMF .                 KB:   Drilling Measured From
 DAPD.F                10:   Feet Above Permanent Datum
 DD  .F              3006:   Depth driller
 DL  .F              3006:   Depth logger
 BLI .F              3004:   Bottom log interval
 TLI .F               200:   Top log interval
 CS1 .IN            8.625:   Casing size
 CBD1.      8.625" @ 205':   Casing driller 1
 CBL1.F               220:   Casing logger 1
 BS1 .IN            7.875:   Bit size
 BSD1.F              3006:   Depth drilled with bit1
 DFT .            KCL MUD:   Type fluid in hole
 DFD .                8.9:   Density
 DFV .                 39:   Viscosity
 DFPH.                7.5:   pH
 DFL .                7.2:   Fluid loss
 MSS .           FLOWLINE:   Source of sample
 RMS .OHMM           0.29:   Rm
 MST .F                78:   Rm Meas. temp.
 RMF .OHMM           0.19:   Rmf
 MFST.F                78:   Rmf Meas. temp.
 RMC .OHMM           0.80:   Rmc
 MCST.F                78:   Rmc Meas. temp.
 MFSS.               FANN:   Source Rmf.
 MCSS.                KIT:   Source Rmc.
 RMB .OHMM           0.20:   Rm. at BHT
 BHT .F               113:   BHT.
 TCS .HRS               3:   Time Circ. stopped
 MRT .F               113:   Maximum recorded temp.
 LUN .               8766:   Logging unit number
 LUL .             CASPER:   Logging unit location
 ENGI.         G. BENTSEN:   Recorded By
 WITN.      B. HARRINGTON:   Witnessed by
 ORIG.           5" PRINT:   Origin of data
 UWI .     49025104010000:   Unique Well ID
 DICO. A2D TECHNOLOGIES, INC.:   Digitizing Company
~OTHER INFORMATION
~A   DEPT       GRD        CALD       RHOB      DCOR       SPR       RILM         RILD       SGRD 
# ...
  402.5000    93.3590    10.1000     2.4480     0.0420   -29.4140    11.7060    10.0190    13.1800
  403.0000    93.3260    10.0930     2.4420     0.0370   -29.7330    11.9990     9.6640    13.0210
  403.5000    95.2580    10.0830     2.4350     0.0340   -29.6170    12.1430     9.2270    12.8610
  404.0000    96.9420    10.0730     2.4360     0.0350   -29.7550    11.9610     9.6170    12.7120
  404.5000    96.9420    10.0630     2.4420     0.0370   -30.2040    11.7910     9.9280    12.8260
  405.0000    98.8720    10.0530     2.4490     0.0380   -30.6140    11.6200     9.4840    12.9470
  405.5000    99.2320    10.0430     2.4570     0.0430   -30.9470    11.4940     9.4840    12.8550
  406.0000    97.9210    10.0330     2.4640     0.0500   -31.2030    11.6120     9.3890    12.7480
  406.5000    98.8300    10.0230     2.4710     0.0570   -31.5550    11.7060     9.3000    12.6410
  407.0000   100.2980    10.0130     2.4760     0.0590   -31.8980    11.8140     9.2100    12.5340
  407.5000   100.5510    10.0030     2.4780     0.0580   -32.2400    10.8860     9.1430    12.4280
  408.0000   100.3170     9.9930     2.4710     0.0550   -32.5840    10.3840     9.0090    12.2750
  408.5000   101.4490     9.9830     2.4660     0.0530   -32.8080    10.3630     8.8800    12.0620
  409.0000   100.7760     9.9730     2.4710     0.0550   -32.9670    10.3430     8.7520    11.8500
  409.5000   100.8800     9.9630     2.4760     0.0580   -33.1260    10.3220     8.6230    11.6370
  410.0000   101.5490     9.9530     2.4780     0.0590   -33.2850    10.3020     8.4950    11.2190
  410.5000   102.9090     9.9430     2.4720     0.0550   -33.4430    10.0030     8.3660    10.7560
  411.0000   102.4030     9.9330     2.4660     0.0530   -33.6000     9.6440     8.0730    10.2940
  411.5000   102.3390     9.9230     2.4590     0.0530   -33.6310     9.2840     7.7420     9.8640
  412.0000   103.3560     9.9130     2.4530     0.0520   -33.4640     8.8320     7.4100     9.5570
  412.5000   104.3710     9.9030     2.4460     0.0500   -33.3010     8.3210     7.0790     9.1940
  413.0000   104.8770     9.8980     2.4370     0.0480   -33.1360     7.8100     6.7480     8.6070
  413.5000   104.2440     9.8970     2.4360     0.0480   -32.9730     7.2980     6.4170     8.0190
  414.0000   102.6590     9.8970     2.4450     0.0480   -32.7110     6.7870     6.1350     7.1860
  414.5000   101.1050     9.8960     2.4570     0.0480   -32.3840     6.4560     5.8880     6.2870
  415.0000   100.6380     9.8960     2.4720     0.0500   -32.0320     6.8360     5.6800     5.7320
  415.5000   100.2600     9.8950     2.4860     0.0520   -31.5720     7.4880     5.7110     7.7680
  416.0000    98.2280     9.8950     2.4920     0.0540   -31.1130     8.0260     5.8030     9.7380
  416.5000    97.2100     9.8940     2.4980     0.0500   -30.6670     8.3700     6.0000    11.1300
  417.0000    96.5910     9.8940     2.4830     0.0460   -30.3250     8.7150     6.3140    11.3890
  417.5000    96.9850     9.8930     2.4840     0.0440   -29.9780     9.0590     6.6390    11.3890
  418.0000    97.0280     9.8930     2.4890     0.0440   -29.6270     9.4040     6.9630    11.2490
  418.5000    95.5430     9.8920     2.4950     0.0460   -29.2150     9.7490     7.2880    11.1040
  419.0000    94.7830     9.8920     2.4970     0.0490   -28.7770    10.1110     7.6120    10.9800
  419.5000    93.8490     9.8920     2.4990     0.0520   -28.3400    10.1850     7.9170    11.1960
  420.0000    92.5040     9.8910     2.5030     0.0540   -27.9390    10.2640     8.1830    11.3840
  420.5000    90.4820     9.8910     2.5070     0.0570   -27.8380    10.3420     8.4490    11.5710
  421.0000    87.8830     9.8900     2.5080     0.0550   -27.6440    10.4200     8.7340    11.7590
  421.5000    85.2370     9.8900     2.5010     0.0510   -27.2620    10.5450     8.8150    11.9470
  422.0000    83.6140     9.8890     2.4930     0.0490   -26.8840    10.9850     8.9020    12.1350
  422.5000    82.2320     9.8890     2.4890     0.0490   -26.5040    11.4250     8.9890    12.3230
  423.0000    82.6260     9.8880     2.4930     0.0480   -26.1260    11.8140     9.0750    12.5110
  423.5000    83.3670     9.8880     2.4850     0.0450   -25.7480    11.7060     9.1620    12.6990
  424.0000    82.6190     9.8870     2.4790     0.0410   -25.4670    11.6000     9.2490    12.9150
  424.5000    83.6540     9.8870     2.4730     0.0380   -25.3090    11.8550     9.3360    13.1930
  425.0000    82.4270     9.8860     2.4680     0.0360   -25.1850    12.1350     9.4080    13.4720
  425.5000    81.3450     9.8860     2.4640     0.0360   -25.0620    12.4160     9.4440    13.7500
  426.0000    80.2210     9.8860     2.4600     0.0350   -24.9390    12.6970     9.4800    14.0590
  426.5000    80.5180     9.8850     2.4570     0.0350   -24.8160    12.9780     9.5160    13.9960
  427.0000    82.4880     9.8850     2.4540     0.0350   -24.6930    13.0660     9.5520    13.9250
  427.5000    83.6850     9.8840     2.4500     0.0340   -24.5700    12.5960     9.6470    13.8550
  428.0000    82.9430     9.8840     2.4470     0.0340   -24.4470    12.3680     9.8050    13.8040
  428.5000    81.8260     9.8830     2.4450     0.0350   -24.3240    12.4330     9.9620    14.1400
  429.0000    82.3580     9.8830     2.4510     0.0370   -24.2010    12.4810    10.1200    14.4040
  429.5000    83.4840     9.8820     2.4580     0.0450   -24.0790    12.6880    10.2290    14.6680
  430.0000    84.2280     9.8820     2.4650     0.0470   -24.0410    12.8810    10.2810    14.9310
  430.5000    84.7340     9.8810     2.4610     0.0460   -24.1780    12.9470    10.3340    15.1270
  431.0000    85.0310     9.8810     2.4560     0.0400   -24.3080    12.1280    10.3870    14.8450
  431.5000    85.0050     9.8800     2.4500     0.0340   -24.3830    11.7060    10.4390    14.6200
  432.0000    83.9460     9.8800     2.4460     0.0280   -24.2540    11.7680    10.4920    14.4500
  432.5000    84.5770     9.8800     2.4430     0.0220   -24.1310    11.8170    10.5450    14.8240
  433.0000    86.3290     9.8790     2.4420     0.0200   -24.0110    11.8660    10.5850    15.1240
  433.5000    86.7980     9.8790     2.4360     0.0200   -23.9100    11.9230    10.4580    15.4240
  434.0000    84.9450     9.8780     2.4410     0.0220   -23.8110    11.6440    10.3550    15.8360
  434.5000    84.6070     9.8770     2.4490     0.0270   -23.7130    11.3080    10.2520    15.6550
  435.0000    86.9800     9.8730     2.4570     0.0330   -23.6140    10.9800    10.1500    15.3670
  435.5000    86.4440     9.8690     2.4650     0.0390   -23.5150    11.0310    10.0470    15.0790
  436.0000    87.3600     9.8650     2.4820     0.0450   -23.4240    11.0820     9.9440    14.8170
  436.5000    86.3340     9.8600     2.4920     0.0510   -23.5060    11.1320     9.8410    14.6510
  437.0000    87.1990     9.8560     2.4940     0.0560   -23.5930    11.1830     9.7390    14.4850
  437.5000    88.7680     9.8520     2.4960     0.0550   -23.6810    10.8400     9.6360    14.3190
  438.0000    88.4420     9.8480     2.4980     0.0540   -23.7670    10.5000     9.5330    13.9520
  438.5000    87.9040     9.8440     2.4990     0.0530   -23.8540    10.1590     9.4300    13.5850
  439.0000    88.0780     9.8390     2.4970     0.0530   -23.9410    10.0190     9.3270    13.2180
  439.5000    89.9730     9.8350     2.4960     0.0520   -24.0730    10.0190     9.2250    12.9470
  440.0000    92.2440     9.8310     2.4980     0.0490   -24.4280    10.0190     9.1220    13.0660
  440.5000    93.8350     9.8270     2.4950     0.0460   -24.7780     9.9170     9.0190    13.3070
  441.0000    95.4070     9.8230     2.4920     0.0420   -25.0680     9.7410     8.9160    13.0380
  441.5000    97.0260     9.8180     2.4880     0.0390   -25.2450     9.5650     8.8140    12.7800
  442.0000    95.6850     9.8190     2.4800     0.0360   -25.4430     9.3120     8.7110    12.5230
  442.5000    98.5930     9.8200     2.4710     0.0280   -25.7290     9.3810     8.6080    12.2550
