~VERSION INFORMATION
 VERS.                2.0:   CWLS LOG ASCII STANDARD - VERSION 2.0
 WRAP.                 NO:   ONE LINE PER DEPTH STEP
~WELL INFORMATION
#MNEM.UNIT      DATA TYPE    INFORMATION
#----------   ------------   ------------------------------
 STRT.F          207.0000:   START DEPTH
 STOP.F         3130.0000:   STOP DEPTH
 STEP.F            0.5000:   STEP LENGTH
 NULL.          -999.2500:   NO VALUE
 COMP. FENIX & SCISSON U.S. NAVY:   COMPANY
 WELL.    FENIX "A" #61-3:   WELL
 FLD .             NPR #3:   FIELD
 LOC .       S3 T38N R78W:   LOCATION
 CNTY.            NATRONA:   COUNTY
 STAT.            WYOMING:   STATE
 CTRY. UNITED STATES OF AMERICA:   COUNTRY
 SRVC.              WELEX:   SERVICE COMPANY
 DATE.        13-MAY-1977:   LOGDATE
 API .     49025103630000:   API NUMBER
~CURVE INFORMATION
#MNEM.UNIT       API CODE    CURVE DESCRIPTION
#----------   ------------   ------------------------------
 DEPT.F                  :   
 SPR .MV     07 010 01 00:   SPONTANEOUS POTENTIAL
 SFLU.OHMM   07 220 01 00:   SPHERICALLY FOCUSED LOG UNAVERAGED RESISTIVITY
 ILD .OHMM   07 120 46 00:   INDUCTION LOG DEEP RESISTIVITY
 ILM .OHMM   07 120 44 00:   INDUCTION LOG MEDIUM RESISTIVITY
 CALD.IN     45 280 60 00:   CALIPER FROM DENSITY LOG
 GRD .GAPI   45 310 01 00:   GAMMA RAY FROM DENSITY LOG
 RHOB.G/C3   45 350 01 00:   BULK DENSITY
 CORR.G/C3   45 356 01 00:   DENSITY CORRECTION
~PARAMETER INFORMATION
#MNEM.UNIT          VALUE    DESCRIPTION
#----------   ------------   ------------------------------
 EKB .F         5109.0000:   Kelly bushing
 EGL .F         5099.0000:   Ground level
 EDF .F            0.0000:   Drilling floor
 TD  .F         3130.0000:   Total depth
 DATE.        13-MAY-1977:   Date logged
 CLNT.            A2DTECH:   Client Code
 SL  . 330' FNL & 1650' FEL:   Surface Location
 PD  .                 GL:   Permanent Datum
 EPD .F              5099:   Elevation Permanent Datum
 LMF .                 KB:   Log Measured From
 DMF .                 KB:   Drilling Measured From
 DAPD.F                10:   Feet Above Permanent Datum
 DD  .F              3126:   Depth driller
 DL  .F              3129:   Depth logger
 BLI .F              3127:   Bottom log interval
 TLI .F               210:   Top log interval
 CS1 .IN            8.625:   Casing size
 CBD1.      8.625" @ 200':   Casing driller 1
 CBL1.F               216:   Casing logger 1
 BS1 .IN            7.875:   Bit size
 BSD1.F              3126:   Depth drilled with bit1
 DFT .            KCL MUD:   Type fluid in hole
 DFD .                9.1:   Density
 DFV .                 32:   Viscosity
 DFPH.                  8:   pH
 DFL .                8.4:   Fluid loss
 MSS .           FLOWLINE:   Source of sample
 RMS .OHMM            .29:   Rm
 MST .F                68:   Rm Meas. temp.
 RMF .OHMM            .28:   Rmf
 MFST.F                68:   Rmf Meas. temp.
 RMC .OHMM            .43:   Rmc
 MCST.F                68:   Rmc Meas. temp.
 MFSS.           FANN KIT:   Source Rmf.
 MCSS.           FANN KIT:   Source Rmc.
 RMB .OHMM            .16:   Rm. at BHT
 BHT .F               123:   BHT.
 TCS .HRS             2.5:   Time Circ. stopped
 MRT .F               123:   Maximum recorded temp.
 LUN .               9685:   Logging unit number
 LUL .           BRIGHTON:   Logging unit location
 ENGI.          T. JOYNER:   Recorded By
 WITN.      B. HARRINGTON:   Witnessed by
 ORIG.           5" PRINT:   Origin of data
 UWI .     49025103630000:   Unique Well ID
 DICO. A2D TECHNOLOGIES, INC.:   Digitizing Company
~OTHER INFORMATION
~A   DEPT      SPR       SFLU        ILD        ILM       CALD        GRD       RHOB       CORR   
# ...
 2718.0000   -25.7991    15.5124     7.4402    11.5618     9.4991    94.4301     2.4771     0.0122
 2718.5000   -25.8061    14.9493     7.4384    11.5584     9.4996    94.4402     2.4791     0.0182
 2719.0000   -25.8131    13.8854     7.4348    11.4492     9.5002    94.4503     2.4812     0.0203
 2719.5000   -25.6205    13.6294     7.3659    11.5514     9.5203    95.6453     2.4812     0.0203
 2720.0000   -25.6275    13.3773     7.2292    11.5479     9.5011    96.8403     2.4744     0.0204
 2720.5000   -25.4349    13.3733     7.1614    11.4388     9.5214    97.2452     2.4715     0.0204
 2721.0000   -25.2423    13.3684     7.1588    11.3308     9.5219    97.6882     2.4725     0.0225
 2721.5000   -25.4489    13.4877     7.1570    11.4319     9.5224    96.1185     2.4775     0.0245
 2722.0000   -25.0567    13.6056     7.1549    11.7477     9.5230    94.9437     2.4815     0.0246
 2722.5000   -24.8641    13.3563     7.2853    11.9626     9.5235    93.7690     2.4856     0.0286
 2723.0000   -24.8711    13.7253     7.3507    12.0700     9.5240    93.7791     2.4916     0.0306
 2723.5000   -24.4790    14.2346     7.5537    11.7385     9.5048    93.3943     2.4986     0.0347
 2724.0000   -24.0868    14.3616     7.6910    11.7349     9.4856    93.4044     2.5006     0.0308
 2724.5000   -24.0938    14.4897     7.7591    11.8396     9.4664    92.6247     2.5017     0.0388
 2725.0000   -23.9012    14.4854     7.9005    12.1667     9.4669    92.6348     2.5015     0.0329
 2725.5000   -23.7086    14.2175     7.8981    12.2752     9.4674    92.2120     2.4995     0.0309
 2726.0000   -23.5160    14.3443     7.9686    12.3848     9.4680    91.8253     2.4976     0.0289
 2726.5000   -22.7261    15.0139     7.9666    12.6105     9.4685    91.8354     2.4916     0.0310
 2727.0000   -22.7317    15.8596     8.0372    12.6060     9.4888    91.4426     2.4896     0.0331
 2727.5000   -22.5391    16.2978     8.0352    12.4869     9.4893    91.0716     2.4897     0.0368
 2728.0000   -22.1469    15.5616     8.0328    12.0329     9.5096    90.7007     2.4897     0.0372
 2728.5000   -21.5552    14.3227     8.0303    11.8103     9.4904    90.3297     2.4897     0.0392
 2729.0000   -20.9634    13.9293     8.0279    12.4756     9.4711    89.9140     2.4897     0.0392
 2729.5000   -20.3717    14.5794     8.0255    12.8211     9.4716    89.9221     2.4898     0.0393
 2730.0000   -19.9795    14.8453     8.0225    12.6992     9.4721    89.1426     2.4898     0.0413
 2730.5000   -19.5873    14.5698     8.0206    12.1256     9.4726    88.3632     2.4878     0.0414
 2731.0000   -19.1951    14.1704     8.0172    12.1219     9.4732    87.5838     2.4859     0.0394
 2731.5000   -18.6020    14.2968     8.0892    12.4576     9.4737    86.0149     2.4799     0.0395
 2732.0000   -17.8107    14.8265     8.2366    13.1586     9.4545    84.4460     2.4779     0.0395
 2732.5000   -17.2189    14.6874     8.3101    13.7728     9.4550    82.8772     2.4700     0.0376
 2733.0000   -16.8267    13.8957     8.5402    13.8957     9.4555    80.9537     2.4660     0.0356
 2733.5000   -16.6341    13.8915     8.6158    13.8915     9.4363    80.9640     2.4601     0.0357
 2734.0000   -16.6411    14.0155     8.7734    13.8873     9.4566    82.1586     2.4641     0.0357
 2734.5000   -16.4486    13.3823     8.8512    13.8848     9.4176    82.5637     2.4721     0.0392
 2735.0000   -16.4527    13.5017     8.9307    13.6263     9.4182    83.3635     2.4821     0.0398
 2735.5000   -17.0613    13.3743     8.9280    13.4977     9.3990    85.7401     2.4861     0.0399
 2736.0000   -17.2679    13.4936     8.9263    13.4944     9.3403    88.5134     2.4862     0.0399
 2736.5000   -18.0732    14.1243     8.6001    13.4895     9.3606    89.7077     2.4902     0.0380
 2737.0000   -19.4786    15.0569     8.5200    13.4855     9.3611    92.0861     2.4922     0.0380
 2737.5000   -19.8848    15.1921     8.4390    13.4814     9.3616    93.6750     2.4942     0.0381
 2738.0000   -20.6915    14.7739     8.2829    13.3541     9.3622    93.6851     2.5003     0.0381
 2738.5000   -20.8953    14.6344     8.2056    13.3509     9.3232    92.5112     2.5003     0.0382
 2739.0000   -21.3028    14.6309     8.1266    13.2240     9.3435    91.3373     2.5023     0.0362
 2739.5000   -22.3077    14.7614     8.0504    13.1007     9.3243    91.6980     2.5024     0.0382
 2740.0000   -22.7139    15.1711     8.0479    13.0960     9.3247    92.1069     2.5016     0.0363
 2740.5000   -23.3196    15.4468     8.0465    12.9708     9.3055    93.3009     2.5006     0.0304
 2741.0000   -23.9254    15.5856     8.0445    12.8506     9.3060    94.4950     2.5007     0.0284
 2741.5000   -24.3315    15.7247     8.0416    12.7285     9.3066    92.5319     2.4987     0.0265
 2742.0000   -24.9372    15.5744     8.0396    12.4930     9.2479    92.5420     2.4967     0.0245
 2742.5000   -25.3434    15.0071     7.8899    12.0365     9.3076    94.1285     2.4978     0.0206
 2743.0000   -25.7496    14.3299     7.8860    11.4941     9.2884    96.1117     2.4998     0.0206
 2743.5000   -25.9561    13.6825     7.8856    11.4906     9.3087    96.9109     2.4988     0.0227
 2744.0000   -26.1627    14.0606     7.8106    11.7001     9.2500    96.9210     2.4998     0.0228
 2744.5000   -26.3693    14.7170     7.8087    11.5896     9.2900    95.3526     2.5009     0.0248
 2745.0000   -26.7754    14.9854     7.7345    11.4802     9.2906    94.9681     2.5029     0.0228
 2745.5000   -27.1816    14.8439     7.6624    11.7974     9.2911    94.9782     2.5049     0.0249
 2746.0000   -27.3882    14.8394     7.6600    11.7945     9.3114    95.3828     2.5120     0.0250
 2746.5000   -27.3952    14.2997     7.5881    11.8991     9.2922    96.1820     2.5140     0.0250
 2747.0000   -27.6017    14.8305     7.5146    12.0052     9.2927    96.1920     2.5140     0.0250
 2747.5000   -27.6087    15.9566     7.5123    12.1131     9.2932    95.4130     2.5160     0.0271
 2748.0000   -28.2145    16.2476     7.5105    11.9994     9.2740    94.6340     2.5170     0.0271
 2748.5000   -27.6227    14.6816     7.5082    11.5623     9.2743    95.4331     2.5169     0.0252
 2749.0000   -27.8293    13.5125     7.5059    11.1411     9.2553    96.6267     2.5169     0.0252
 2749.5000   -27.8363    13.0211     7.5036    11.1384     9.2557    96.6367     2.5169     0.0233
 2750.0000   -28.4420    13.2585     7.7091    11.1357     9.2367    96.2522     2.5170     0.0253
 2750.5000   -27.8503    14.1349     7.7793    11.1317     9.1876    95.5964     2.5170     0.0234
 2751.0000   -27.6577    14.9313     7.7769    11.1283     9.0993    95.0809     2.5150     0.0235
 2751.5000   -27.8642    15.9163     7.7731    11.1263     9.0996    93.5490     2.5111     0.0235
 2752.0000   -28.0708    16.0603     7.7722    11.1223     9.0802    92.3717     2.5091     0.0236
 2752.5000   -28.0778    15.6190     7.7698    11.0166     9.1003    91.5888     2.5031     0.0197
 2753.0000   -28.2844    14.6427     7.7679    10.6165     9.1006    91.9506     2.5012     0.0197
 2753.5000   -28.2914    13.8524     7.7651    10.1356     9.0812    91.9518     2.5032     0.0217
 2754.0000   -29.0967    13.1056     7.6228     9.6776     9.0816    93.9419     2.5032     0.0238
 2754.5000   -29.1037    12.2849     7.4808     9.4117     9.0819    95.9321     2.5053     0.0238
 2755.0000   -29.3103    11.8388     7.2748     9.2375     9.0823    97.4943     2.5053     0.0239
 2755.5000   -29.9160    11.4082     7.1410     8.9842     9.1023    99.4735     2.5073     0.0240
 2756.0000   -30.3221    11.4047     7.0714     8.7379     9.0829   101.0558     2.5073     0.0221
 2756.5000   -30.9279    11.5065     6.9418     8.3420     9.0833   102.2449     2.5074     0.0221
 2757.0000   -31.5336    11.2936     6.7511     8.2637     9.0836   103.4339     2.5074     0.0222
 2757.5000   -31.5434    11.1869     6.5659     8.1098     9.1036   104.2285     2.5034     0.0242
 2758.0000   -32.5483    10.2019     6.5039     8.1078     9.1040   104.6287     2.5015     0.0223
