~VERSION INFORMATION
 VERS.                2.0:   CWLS LOG ASCII STANDARD - VERSION 2.0
 WRAP.                 NO:   ONE LINE PER DEPTH STEP
~WELL INFORMATION
#MNEM.UNIT      DATA TYPE    INFORMATION
#----------   ------------   ------------------------------
 STRT.F          388.0000:   START DEPTH
 STOP.F         3166.0000:   STOP DEPTH
 STEP.F            0.5000:   STEP LENGTH
 NULL.          -999.2500:   NO VALUE
 COMP.    PENIX & SCISSON:   COMPANY
 WELL. PENIX NPR 3 "AX" #34-28:   WELL
 FLD .                NPR:   FIELD
 LOC .      S28 T39N R78W:   LOCATION
 CNTY.            NATRONA:   COUNTY
 STAT.            WYOMING:   STATE
 CTRY. UNITED STATES OF AMERICA:   COUNTRY
 SRVC.              WELEX:   SERVICE COMPANY
 DATE.        15-DEC-1978:   LOGDATE
 API .     49025107950000:   API NUMBER
~CURVE INFORMATION
#MNEM.UNIT       API CODE    CURVE DESCRIPTION
#----------   ------------   ------------------------------
 DEPT.F                  :   
 CALD.IN     45 280 60 00:   CALIPER FROM DENSITY LOG
 GRD .GAPI   45 310 01 00:   GAMMA RAY FROM DENSITY LOG
 RHOB.G/C3   45 350 01 00:   BULK DENSITY
 CORR.G/C3   45 356 01 00:   DENSITY CORRECTION
 NPHI.DEC    42 890 03 00:   NEUTRON POROSITY SANDSTONE
 SPR .MV     07 010 01 00:   SPONTANEOUS POTENTIAL
 SGRD.OHMM   07 220 05 00:   SHALLOW GUARD
 ILD .OHMM   07 120 46 00:   DEEP INDUCTION RESISTIVITY
 ILM .OHMM   07 120 44 00:   INDUCTION LOG MEDIUM RESISTIVITY
 TENR.LBS    07 635 01 00:   TENSION FROM RESISTIVITY
~PARAMETER INFORMATION
#MNEM.UNIT          VALUE    DESCRIPTION
#----------   ------------   ------------------------------
 EKB .F         5039.0000:   Kelly bushing
 EGL .F         5029.0000:   Ground level
 EDF .F            0.0000:   Drilling floor
 TD  .F         3159.0000:   Total depth
 DATE.        15-DEC-1978:   Date logged
 CLNT.            A2DTECH:   Client Code
 SL  . 2434' FNL & 1651' FWL:   Surface Location
 PD  .                 GL:   Permanent Datum
 EPD .F              5029:   Elevation Permanent Datum
 LMF .                 KB:   Log Measured From
 DMF .                 KB:   Drilling Measured From
 DAPD.F                10:   Feet Above Permanent Datum
 DD  .F              3155:   Depth driller
 DL  .F              3159:   Depth logger
 BLI .F              3157:   Bottom log interval
 TLI .F               350:   Top log interval
 CS1 .IN            8.625:   Casing size
 CBD1.      8.625" @ 383':   Casing driller 1
 CBL1.F               398:   Casing logger 1
 BS1 .IN            7.875:   Bit size
 BSD1.F              3155:   Depth drilled with bit1
 DFT .           CHEM/GEL:   Type fluid in hole
 DFD .                8.5:   Density
 DFV .                 55:   Viscosity
 DFPH.                 10:   pH
 DFL .               10.8:   Fluid loss
 MSS .           FLOWLINE:   Source of sample
 RMS .OHMM           1.65:   Rm
 MST .F                65:   Rm Meas. temp.
 RMF .OHMM           1.32:   Rmf
 MFST.F                65:   Rmf Meas. temp.
 RMC .OHMM           1.98:   Rmc
 MCST.F                65:   Rmc Meas. temp.
 MFSS.               CALC:   Source Rmf.
 RMB .OHMM              1:   Rm. at BHT
 BHT .F               107:   BHT.
 TCS .HRS               8:   Time Circ. stopped
 MRT .F               107:   Maximum recorded temp.
 LUN .               1892:   Logging unit number
 LUL .             CASPER:   Logging unit location
 ENGI.               REIN:   Recorded By
 WITN.              AMEND:   Witnessed by
 ORIG.           5" PRINT:   Origin of data
 UWI .     49025107950000:   Unique Well ID
 DICO. A2D TECHNOLOGIES, INC.:   Digitizing Company
~OTHER INFORMATION
~A   DEPT     CALD         GRD      RHOB       CORR       NPHI        SPR       SGRD        ILD        ILM       TENR   
# ...
 2967.5000     7.8135   157.3208     2.4622     0.0295     0.2077   -67.3253     3.1293     2.3328     2.6582  1895.2288
 2968.0000     7.8123   156.8871     2.4793     0.0294     0.2073   -67.3239     3.1003     2.3111     2.6335  1895.7668
 2968.5000     7.8314   156.0438     2.4863     0.0394     0.2053   -67.5237     3.0715     2.2896     2.6090  1876.0494
 2969.0000     7.8299   160.4458     2.4892     0.0474     0.2025   -67.5224     3.0148     2.2264     2.4901  1856.3336
 2969.5000     7.8690   156.7843     2.4992     0.0493     0.1996   -67.3200     2.9592     2.1650     2.5497  1856.7655
 2970.0000     7.8884   150.3051     2.4810     0.0329     0.1988   -67.3189     3.1290     2.1449     2.5266  1857.3053
 2970.5000     7.8866   161.1616     2.4951     0.0450     0.2057   -67.1165     3.1582     2.1053     2.4810  1857.8451
 2971.0000     7.8856   164.3584     2.4980     0.0448     0.2085   -67.1152     3.1582     2.1053     2.5369  1878.6366
 2971.5000     7.8841   167.5550     2.4848     0.0365     0.2101   -66.9127     3.1581     2.1053     2.5369  1899.4264
 2972.0000     7.8425   149.7640     2.4817     0.0344     0.2109   -66.5090     3.1581     2.1052     2.5606  1899.9644
 2972.5000     7.8412   157.0004     2.4806     0.0383     0.2113   -66.5077     3.1580     2.1052     2.5606  1900.5023
 2973.0000     7.8391   168.6732     2.4856     0.0341     0.2101   -66.5063     3.1580     2.0857     2.5368  1901.0400
 2973.5000     7.8583   173.0791     2.4835     0.0441     0.2077   -66.7062     3.2172     2.0663     2.5132  1901.5779
 2974.0000     7.8169   176.2747     2.4653     0.0521     0.2065   -66.7048     2.6959     2.0282     2.3923  1881.8690
 2974.5000     7.8157   185.9040     2.4591     0.0540     0.2049   -66.5023     2.6217     1.9722     2.3279  1862.1616
 2975.0000     7.8346   178.6262     2.4470     0.0478     0.2005   -66.5009     2.6217     1.9539     2.3068  1862.7010
 2975.5000     7.8131   170.5361     2.4378     0.0272     0.1993   -66.4996     2.5733     1.9358     2.2057  1883.4846
 2976.0000     7.7917   160.0210     2.4539     0.0332     0.1980   -66.6995     2.7210     1.9358     2.1852  1883.9154
 2976.5000     7.7904   158.7810     2.4457     0.0066     0.1980   -66.0944     2.9040     1.9178     2.1852  1904.6967
 2977.0000     7.8093   151.4929     2.4416     0.0024     0.1964   -66.0931     3.0422     1.9178     2.2652  1905.2341
 2977.5000     7.8081   149.8501     2.4486     0.0145     0.1924   -66.2929     3.1869     1.9179     2.3764  1885.5305
 2978.0000     7.7866   152.2393     2.4536     0.0062     0.1896   -66.4928     3.1574     1.9179     2.4897  1906.3090
 2978.5000     7.8055   149.7903     2.4596     0.0101     0.1876   -66.6927     3.2467     1.9722     2.5130  1886.6069
 2979.0000     7.8043   151.3729     2.4848     0.0242     0.1860   -66.6914     3.3384     2.0663     2.6084  1887.1451
 2979.5000     7.8030   154.5620     2.4958     0.0282     0.1843   -66.6903     3.4010     2.1649     2.7584  1887.6833
 2980.0000     7.8017   149.7005     2.5230     0.0504     0.1827   -66.6890     3.6636     2.3324     2.9718  1888.2214
 2980.5000     7.8005   138.7870     2.5240     0.0543     0.1763   -66.6876     3.9099     2.4436     3.0561  1888.7595
 2981.0000     7.7992   139.5637     2.5249     0.0338     0.1747   -66.2837     4.2510     2.5841     3.2317  1909.5328
 2981.5000     7.7785   146.3863     2.5157     0.0235     0.1791   -66.0810     4.7087     2.8101     3.2889  1910.0699
 2982.0000     7.6959   137.0864     2.5066     0.0051     0.1723   -66.0797     5.0721     2.9168     3.6138  1910.4996
 2982.5000     7.7349   136.6481     2.4934    -0.0012     0.1751   -66.0783     4.9785     2.9716     3.7861  1911.0367
 2983.0000     7.7538   161.4778     2.4933     0.0007     0.1823   -66.0769     4.8866     3.0558     3.8933  1911.5736
 2983.5000     7.7321   186.3074     2.4902     0.0108     0.1888   -66.0755     4.9320     3.0843     3.8932  1912.1106
 2984.0000     7.7712   199.4320     2.4770     0.0391     0.1948   -65.8728     4.4941     3.0843     3.8931  1912.6475
 2984.5000     7.7699   199.3942     2.4385     0.0430     0.1928   -65.6701     3.7664     3.0556     3.6814  1933.4139
 2985.0000     7.7686   199.3564     2.4405     0.0571     0.1787   -65.4673     3.0414     2.9165     3.4104  1913.7212
 2985.5000     7.7676   199.3300     2.4616     0.0793     0.1703   -65.2646     2.9304     2.7838     3.1421  1914.2581
 2986.0000     7.7863   171.4020     2.5111     0.0446     0.1606   -65.2632     3.1565     2.7579     3.0841  1894.5677
 2986.5000     7.8051   140.4362     2.5423     0.0506     0.1578   -65.4632     4.2497     2.7579     3.1420  1915.3315
 2987.0000     7.7842   132.7578     2.5443     0.0423     0.1602   -65.2604     4.9308     2.8360     3.3225  1915.8682
 2987.5000     7.7623   124.6712     2.5442     0.0300     0.1610   -65.4604     5.5637     2.8892     3.5794  1916.6193
 2988.0000     7.7610   125.4481     2.5421     0.0318     0.1654   -65.2576     5.8281     2.9711     3.8204  1936.9700
 2988.5000     7.7804   139.9153     2.5329     0.0256     0.1626   -65.4576     5.7205     3.1712     4.1158  1937.5938
 2989.0000     7.7384   134.6520     2.5127     0.0071     0.1574   -65.4565     5.7203     3.3223     4.3119  1917.9070
 2989.5000     7.7371   139.4536     2.4812    -0.0174     0.1602   -65.6565     5.9366     3.7847     4.4754  1898.5444
 2990.0000     7.7358   134.1937     2.4873    -0.0215     0.1598   -65.6551     6.0478     4.0020     4.8213  1918.9799
 2990.5000     7.7144   126.1090     2.5003    -0.0095     0.1578   -66.0566     6.1039     4.1538     4.9577  1919.5164
 2991.0000     7.7333   127.2942     2.5083    -0.0015     0.1525   -65.8538     5.9359     4.4334     5.0979  1920.0526
 2991.5000     7.7723   122.0238     2.5214     0.0004     0.1534   -65.8524     6.1033     4.6445     5.1935  1920.5889
 2992.0000     7.7711   130.0495     2.5274     0.0043     0.1566   -65.8511     6.1032     4.7758     5.1933  1921.1251
 2992.5000     7.7698   132.8393     2.5122    -0.0101     0.1602   -65.6482     6.1028     4.7757     5.2907  1921.6613
 2993.0000     7.7685   139.6559     2.4959    -0.0082     0.1614   -65.6468     6.1027     4.7756     5.1929  1942.4130
 2993.5000     7.7670   142.0365     2.5029    -0.0023     0.1606   -65.6454     5.9346     4.8201     5.0969  1922.7335
 2994.0000     7.7657   141.6043     2.5110     0.0037     0.1594   -65.6440     5.6651     4.8199     5.0968  1923.2695
 2994.5000     7.7443   143.9906     2.5058    -0.0025     0.1574   -65.4411     5.4077     4.8197     5.0966  1943.9117
 2995.0000     7.7431   146.7794     2.5007    -0.0047     0.1526   -65.4397     5.3576     4.8196     5.0492  1924.2343
 2995.5000     7.7619   155.1984     2.5238     0.0053     0.1514   -65.4383     5.7173     4.8194     5.0490  1904.5586
 2996.0000     7.7405   145.5121     2.5309     0.0234     0.1578   -65.4369     6.2153     4.7746     5.1436  1925.3062
 2996.5000     7.7192   148.7030     2.5358     0.0233     0.1671   -65.2340     6.4372     4.7302     5.1435  1925.8420
 2997.0000     7.7186   147.8680     2.5267     0.0211     0.1727   -65.2326     6.8193     4.7300     5.2889  1926.3778
 2997.5000     7.7166   146.2366     2.5125     0.0230     0.1783   -65.2312     7.0116     4.6426     5.2887  1947.3359
 2998.0000     7.7154   148.6135     2.5144     0.0331     0.1804   -65.2298     6.8189     4.5995     5.2885  1947.6569
 2998.5000     7.7347   148.5837     2.5325     0.0471     0.1824   -65.0271     5.7691     4.5993     5.2392  1948.1917
 2999.0000     7.6927   153.7683     2.5315     0.0429     0.1840   -65.0257     5.8769     4.5566     5.2390  1948.6195
 2999.5000     7.6912   151.3414     2.5091     0.0286     0.1820   -65.0242     5.6101     4.4724     5.1764  1949.0472
 3000.0000     7.6902   148.0918     2.4939     0.0162     0.1788   -65.0225     5.2083     4.4309     4.9082  1889.2344
 3000.5000     7.7078   151.6853     2.5030     0.0242     0.1792   -65.2535     5.1606     4.3218     4.7294  1889.0771
