~VERSION INFORMATION
 VERS.                2.0:   CWLS LOG ASCII STANDARD - VERSION 2.0
 WRAP.                 NO:   ONE LINE PER DEPTH STEP
~WELL INFORMATION
#MNEM.UNIT      DATA TYPE    INFORMATION
#----------   ------------   ------------------------------
 STRT.F          176.5000:   START DEPTH
 STOP.F         3010.0000:   STOP DEPTH
 STEP.F            0.5000:   STEP LENGTH
 NULL.          -999.2500:   NO VALUE
 COMP.    FENIX & SCISSON:   COMPANY
 WELL.   FENIX "A" #36-28:   WELL
 FLD .              NPR 3:   FIELD
 LOC .      S28 T39N R78W:   LOCATION
 CNTY.            NATRONA:   COUNTY
 STAT.            WYOMING:   STATE
 CTRY. UNITED STATES OF AMERICA:   COUNTRY
 SRVC.       SCHLUMBERGER:   SERVICE COMPANY
 DATE.        19-AUG-1977:   LOGDATE
 API .     49025104150000:   API NUMBER
~CURVE INFORMATION
#MNEM.UNIT       API CODE    CURVE DESCRIPTION
#----------   ------------   ------------------------------
 DEPT.F                  :   
 SPR .MV     07 010 01 00:   SPONTANEOUS POTENTIAL
 ILM .OHMM   07 120 44 00:   INDUCTION LOG MEDIUM RESISTIVITY
 ILD .OHMM   07 120 46 00:   INDUCTION LOG DEEP RESISTIVITY
 LL8 .OHMM   07 220 08 00:   LATEROLOG-8 RESISTIVITY
 GRD .GAPI   45 310 01 00:   GAMMA RAY FROM DENSITY LOG
 CALD.IN     45 280 60 00:   CALIPER FROM DENSITY LOG
 RHOB.G/C3   45 350 01 00:   BULK DENSITY
 DCOR.G/C3   45 356 01 00:   DENSITY CORRECTION
~PARAMETER INFORMATION
#MNEM.UNIT          VALUE    DESCRIPTION
#----------   ------------   ------------------------------
 EKB .F         5107.0000:   Kelly bushing
 EGL .F         5097.0000:   Ground level
 EDF .F            0.0000:   Drilling floor
 TD  .F         3012.0000:   Total depth
 DATE.        19-AUG-1977:   Date logged
 CLNT.            A2DTECH:   Client Code
 SL  . 1650' FSL & 1650' FWL:   Surface Location
 PD  .                 GL:   Permanent Datum
 EPD .F              5097:   Elevation Permanent Datum
 LMF .                 KB:   Log Measured From
 DMF .                 KB:   Drilling Measured From
 DAPD.F                10:   Feet Above Permanent Datum
 DD  .F              3010:   Depth driller
 DL  .F              3011:   Depth logger
 BLI .F              3005:   Bottom log interval
 TLI .F               215:   Top log interval
 CS1 .IN            8.625:   Casing size
 CBD1.      8.625" @ 205':   Casing driller 1
 CBL1.F               215:   Casing logger 1
 BS1 .IN            7.875:   Bit size
 BSD1.F              3010:   Depth drilled with bit1
 DFT .                FGM:   Type fluid in hole
 DFD .                8.8:   Density
 DFV .                 33:   Viscosity
 DFPH.               10.5:   pH
 DFL .               10.6:   Fluid loss
 MSS .            MUD PIT:   Source of sample
 RMS .OHMM            .19:   Rm
 MST .F                76:   Rm Meas. temp.
 RMF .OHMM            .17:   Rmf
 MFST.F                78:   Rmf Meas. temp.
 MFSS.               MEAS:   Source Rmf.
 RMB .OHMM            .13:   Rm. at BHT
 BHT .F               112:   BHT.
 TCS .HRS            0700:   Time Circ. stopped
 TLAB.HRS            1400:   Time logger at bottom
 MRT .F               112:   Maximum recorded temp.
 LUN .               5642:   Logging unit number
 ENGI.          CHALUPSKY:   Recorded By
 WITN.     WES PETTINGILL:   Witnessed by
 ORIG.           5" PRINT:   Origin of data
 UWI .     49025104150000:   Unique Well ID
 DICO. A2D TECHNOLOGIES, INC.:   Digitizing Company
 LUL .               CSPR:   Logging unit location
~OTHER INFORMATION
~A   DEPT      SPR        ILM        ILD        LL8        GRD       CALD       RHOB       DCOR   
# ...
  581.5000   -44.1090     8.9340     9.8700    10.2640   117.7030     8.7760     2.4300     0.0700
  582.0000   -44.1070     8.9900     9.9330    10.3290   116.6420     8.7560     2.4160     0.0560
  582.5000   -44.1580     9.0450     9.9960    10.3950   117.3640     8.7550     2.4130     0.0490
  583.0000   -44.2370     9.1000    10.0590    10.4610   118.4160     8.7550     2.4240     0.0570
  583.5000   -44.3170     9.1550    10.1220    10.5260   119.9480     8.7550     2.4330     0.0460
  584.0000   -44.3960     9.2380    10.2170    10.5980   116.8000     8.7540     2.4090     0.0690
  584.5000   -44.4780     9.2330    10.1690    10.5770   114.3280     8.7500     2.4280     0.0630
  585.0000   -44.3420     9.2240    10.0720    10.5540   113.0240     8.7460     2.4450     0.0570
  585.5000   -44.1180     9.2140     9.9750    10.5300   113.4390     8.7420     2.4310     0.0710
  586.0000   -44.2780     9.2050     9.8490    10.5070   113.0020     8.7390     2.4120     0.0500
  586.5000   -44.4470     9.1960     9.9050    10.4830   113.5650     8.7350     2.3930     0.0250
  587.0000   -44.5040     9.1860     9.9850    10.4600   114.5350     8.7310     2.3990     0.0370
  587.5000   -44.5260     9.1770    10.0640    10.4360   112.9760     8.7280     2.4070     0.0470
  588.0000   -44.6230     9.1680    10.1440    10.4060   114.2090     8.7240     2.4180     0.0330
  588.5000   -44.7180     9.1610    10.2230    10.5370   116.7970     8.7200     2.4280     0.0670
  589.0000   -44.8160     9.1540    10.3110    10.7230   119.5600     8.7170     2.4190     0.0540
  589.5000   -44.8780     9.5000    10.4600    10.9100   120.4140     8.6970     2.3980     0.0420
  590.0000   -44.3420     9.7320    10.6250    11.0970   120.8670     8.6720     2.4070     0.0370
  590.5000   -43.8060     9.9400    10.7910    11.2840   123.3040     8.6630     2.4160     0.0390
  591.0000   -43.5450     9.9910    10.9570    11.4710   125.7140     8.6810     2.4240     0.0570
  591.5000   -43.6070    10.0370    11.1220    11.6580   128.3950     8.6990     2.4040     0.0320
  592.0000   -43.6630    10.0840    11.2880    11.9380   126.7570     8.7160     2.4190     0.0410
  592.5000   -43.6130    10.1300    11.4040    11.8880   124.5950     8.7340     2.4290     0.0590
  593.0000   -43.1960    10.1760    11.2790    11.7880   124.2190     8.7520     2.4370     0.0730
  593.5000   -42.7890    10.2230    11.1830    11.6880   124.5140     8.7700     2.4220     0.0580
  594.0000   -42.3840    10.2690    11.0870    11.5880   123.8890     8.7570     2.4630     0.0790
  594.5000   -41.9750    10.3110    10.9910    11.4880   119.7650     8.7320     2.4450     0.0890
  595.0000   -41.3900    10.2010    10.8950    11.3880   116.1710     8.7070     2.4030     0.0470
  595.5000   -40.7840    10.1000    10.7990    11.2880   113.6820     8.6820     2.3870     0.0250
  596.0000   -40.3670    10.0000    10.7040    11.1880   114.7170     8.6900     2.3950     0.0350
  596.5000   -40.5240     9.9000    10.5980    11.0880   115.8340     8.7070     2.4110     0.0500
  597.0000   -40.6670     9.7550    10.4630    10.9880   116.8430     8.7250     2.4290     0.0450
  597.5000   -40.8590     9.5670    10.3140    10.8880   118.8060     8.7330     2.4150     0.0630
  598.0000   -41.1080     9.3790    10.1640    10.7880   122.2150     8.7200     2.3960     0.0300
  598.5000   -41.6380     9.3230    10.0140    10.6880   123.8260     8.7080     2.4060     0.0400
  599.0000   -41.9450     9.3230     9.8490    10.5980   120.8360     8.6950     2.4180     0.0560
  599.5000   -41.9880     9.3230     9.8260    10.5450   118.5190     8.6830     2.4300     0.0680
  600.0000   -42.0310     9.3230     9.8010    10.4970   116.5140     8.6980     2.4460     0.0460
  600.5000   -42.0720     9.3230     9.7750    10.4490   117.6490     8.7440     2.4170     0.0730
  601.0000   -42.1170     9.3230     9.7500    10.3980   118.0010     8.7410     2.4480     0.0600
  601.5000   -42.0200     9.3230     9.7240    10.3230   118.4480     8.7240     2.4410     0.0680
  602.0000   -41.8720     9.3240     9.6980    10.2480   119.5370     8.7050     2.4340     0.0560
  602.5000   -41.7230     9.3230     9.6710    10.1730   120.1070     8.6980     2.4480     0.0470
  603.0000   -41.5750     9.1030     9.5520    10.0980   120.5190     8.7000     2.4580     0.0610
  603.5000   -41.2940     8.9570     9.4210    10.0140   119.9610     8.7030     2.4310     0.0440
  604.0000   -40.9630     8.8120     9.2900     9.8620   122.6760     8.7050     2.4380     0.0600
  604.5000   -40.6320     8.6660     9.1590     9.7090   125.4410     8.7080     2.4230     0.0690
  605.0000   -40.3600     8.5200     9.0380     9.5570   126.3830     8.7100     2.4320     0.0560
  605.5000   -40.5040     8.3750     8.9360     9.4040   124.0370     8.7130     2.4400     0.0660
  606.0000   -40.4910     8.2530     8.8330     9.2520   121.6020     8.7160     2.4440     0.0760
  606.5000   -40.4260     8.1790     8.7310     9.0990   120.2440     8.7190     2.4290     0.0600
  607.0000   -40.3530     8.1060     8.6290     8.9470   121.6800     8.7230     2.4140     0.0430
  607.5000   -40.5470     8.0330     8.5270     8.8700   124.5370     8.7260     2.3990     0.0280
  608.0000   -40.8240     7.9600     8.4250     8.8210   127.6230     8.7300     2.3940     0.0450
  608.5000   -41.1030     7.8860     8.3230     8.7730   128.4240     8.7330     2.4060     0.0370
  609.0000   -41.3830     7.8130     8.2210     8.7240   126.3870     8.7370     2.4190     0.0580
  609.5000   -41.6620     7.7400     8.1190     8.6750   124.8120     8.7410     2.4330     0.0690
  610.0000   -41.9400     7.6920     8.0520     8.6260   123.7960     8.7440     2.4500     0.0600
  610.5000   -42.1290     7.7100     8.0890     8.5780   124.2930     8.7480     2.4370     0.0740
  611.0000   -42.1250     7.7230     8.1170     8.5070   125.0870     8.7510     2.4100     0.0470
  611.5000   -42.1250     7.7370     8.1450     8.5410   125.8190     8.7550     2.4150     0.0520
  612.0000   -42.1240     7.7500     8.1730     8.6030   126.4730     8.7510     2.4230     0.0630
  612.5000   -42.1310     7.7630     8.2010     8.6660   124.9530     8.7420     2.4110     0.0420
  613.0000   -42.4190     7.7770     8.2290     8.7280   123.0830     8.7230     2.4000     0.0500
  613.5000   -42.7310     7.7900     8.2570     8.7440   121.2510     8.6780     2.4290     0.0660
  614.0000   -43.0500     7.8040     8.2840     8.7440   119.4570     8.6570     2.4410     0.0590
  614.5000   -43.0310     7.8170     8.3120     8.7440   120.4870     8.6570     2.4110     0.0430
  615.0000   -42.9230     7.8340     8.3520     8.7440   122.5230     8.6620     2.4180     0.0540
  615.5000   -42.8140     7.6830     8.2220     8.6440   124.5360     8.6710     2.4270     0.0670
  616.0000   -42.7870     7.4850     7.9880     8.3690   126.2060     8.6810     2.4130     0.0530
  616.5000   -43.2290     7.2870     7.7550     8.0930   125.2510     8.7100     2.4180     0.0580
  617.0000   -43.4310     7.0830     7.5220     7.8170   125.5890     8.7520     2.4090     0.0450
  617.5000   -43.1850     6.7620     7.2880     7.5420   126.6900     8.7560     2.3950     0.0340
  618.0000   -42.9450     6.4300     7.0550     7.2660   128.1770     8.7510     2.4020     0.0450
  618.5000   -42.7060     6.2500     6.8220     7.0560   129.5510     8.7170     2.4180     0.0640
  619.0000   -42.4650     6.1850     6.5830     6.8960   129.4830     8.6700     2.4350     0.0830
  619.5000   -42.2240     6.1180     6.5380     6.8170   129.4510     8.6730     2.4470     0.0790
  620.0000   -41.9300     6.1180     6.4920     6.7970   129.8580     8.6950     2.4210     0.0630
  620.5000   -41.6030     6.1180     6.4450     6.7770   128.9590     8.7180     2.3930     0.0340
  621.0000   -41.2740     6.1180     6.3990     6.7570   129.3110     8.7160     2.3790     0.0200
  621.5000   -40.9970     6.1180     6.3530     6.7370   130.7960     8.6790     2.3810     0.0140
