~VERSION INFORMATION
 VERS.                2.0:   CWLS LOG ASCII STANDARD - VERSION 2.0
 WRAP.                 NO:   ONE LINE PER DEPTH STEP
~WELL INFORMATION
#MNEM.UNIT      DATA TYPE    INFORMATION
#----------   ------------   ------------------------------
 STRT.F          176.0000:   START DEPTH
 STOP.F         3380.0000:   STOP DEPTH
 STEP.F            0.5000:   STEP LENGTH
 NULL.          -999.2500:   NO VALUE
 COMP.    PENIX & SCISSON:   COMPANY
 WELL.  FENIX "AX" #85-15:   WELL
 FLD .             NPR #3:   FIELD
 LOC .      S15 T38N R78W:   LOCATION
 CNTY.            NATRONA:   COUNTY
 STAT.            WYOMING:   STATE
 CTRY. UNITED STATES OF AMERICA:   COUNTRY
 SRVC.       SCHLUMBERGER:   SERVICE COMPANY
 DATE.        28-APR-1981:   LOGDATE
 API .     49025108700000:   API NUMBER
~CURVE INFORMATION
#MNEM.UNIT       API CODE    CURVE DESCRIPTION
#----------   ------------   ------------------------------
 DEPT.F                  :   
 TEND.LBS    45 635 01 00:   TENSION FROM DENSITY LOG
 CALD.IN     45 280 60 00:   CALIPER FROM DENSITY LOG
 CORR.G/C3   45 356 01 00:   DENSITY CORRECTION
 GRD .GAPI   45 310 01 00:   GAMMA RAY FROM DENSITY LOG
 RHOB.G/C3   45 350 01 00:   BULK DENSITY
 SFL .OHMM   07 220 01 00:   SHALLOW FOCUSED LOG RESISTIVITY
 ILD .OHMM   07 120 46 00:   INDUCTIONLOG DEEP RESISTIVITY
 ILM .OHMM   07 120 44 00:   INDUCTION LOG MEDIUM RESISTIVITY
 TENR.LBS    07 635 01 00:   TENSION FROM RESISTIVITY
 SPR .MV     07 010 01 00:   SPONTANEOUS POTENTIAL
~PARAMETER INFORMATION
#MNEM.UNIT          VALUE    DESCRIPTION
#----------   ------------   ------------------------------
 EKB .F         5259.0000:   Kelly bushing
 EGL .F         5249.0000:   Ground level
 EDF .F            0.0000:   Drilling floor
 TD  .F         3333.0000:   Total depth
 DATE.        28-APR-1981:   Date logged
 CLNT.            A2DTECH:   Client Code
 SL  . 1927' FSL & 140' FEL:   Surface Location
 PD  .                 GL:   Permanent Datum
 DD  .F              3333:   Depth driller
 DL  .F              3382:   Depth logger
 BLI .F              3376:   Bottom log interval
 TLI .F               182:   Top log interval
 CS1 .IN            8.625:   Casing size
 CBD1.      8.625" @ 181':   Casing driller 1
 CBL1.F               182:   Casing logger 1
 BS1 .IN            7.875:   Bit size
 BSD1.F              3333:   Depth drilled with bit1
 DFT .                GEL:   Type fluid in hole
 DFD .                8.7:   Density
 DFV .                 35:   Viscosity
 DFPH.                9.5:   pH
 DFL .                  7:   Fluid loss
 MSS .               TANK:   Source of sample
 RMS .OHMM           1.79:   Rm
 MST .F                58:   Rm Meas. temp.
 RMF .OHMM           1.43:   Rmf
 MFST.F                58:   Rmf Meas. temp.
 MFSS.               MEAS:   Source Rmf.
 RMB .OHMM            .93:   Rm. at BHT
 BHT .F               112:   BHT.
 TCS .HRS             800:   Time Circ. stopped
 TLAB.HRS             200:   Time logger at bottom
 MRT .F               112:   Maximum recorded temp.
 LUN .               8039:   Logging unit number
 LUL .               CAPR:   Logging unit location
 ENGI.           HARRINER:   Recorded By
 WITN.              SCOTT:   Witnessed by
 ORIG.           5" PRINT:   Origin of data
 UWI .     49025108700000:   Unique Well ID
 DICO. A2D TECHNOLOGIES, INC.:   Digitizing Company
 EPD .               5249:   Elevation Permanent Datum
 LMF .                 KB:   Log Measured From
 DMF .                 KB:   Drilling Measured From
 DAPD.                 10:   Feet Above Permanent Datum
~OTHER INFORMATION
~A   DEPT     TEND       CALD       CORR         GRD      RHOB        SFL        ILD        ILM       TENR        SPR   
# ...
 1650.0000  1214.2030    10.9570     0.0150   102.7760     2.5770     8.0930     7.7890     6.7290  1299.9100   -31.4860
 1650.5000  1215.5360    10.9940     0.0110   104.0010     2.5320     8.0930     7.8520     6.7390  1299.1270   -31.3060
 1651.0000  1216.8690    11.0290     0.0070   104.1540     2.5150     8.4070     7.9480     6.7510  1298.3440   -31.1020
 1651.5000  1218.2010    11.0590     0.0040   103.8250     2.5040     8.7240     8.0930     6.8770  1297.5601   -30.9130
 1652.0000  1219.5341    11.0880     0.0100   104.5460     2.5090     8.8590     8.0930     6.8770  1296.7770   -30.7100
 1652.5000  1220.8669    11.1170     0.0110   104.9460     2.5160     9.0210     8.0890     6.8970  1295.9940   -30.5240
 1653.0000  1222.2000    11.1510     0.0090   102.6820     2.5220     8.8300     8.0970     6.9140  1295.2111   -30.3300
 1653.5000  1223.5330    11.1230     0.0060   100.2670     2.5210     8.7000     8.0550     6.9310  1294.4280   -30.0560
 1654.0000  1224.8660    11.0330     0.0000    98.0540     2.5190     8.8590     8.0230     6.9490  1293.6440   -29.6810
 1654.5000  1226.1990    10.9350     0.0500    98.1990     2.5340     8.9500     7.9910     6.9660  1292.8610   -29.8230
 1655.0000  1227.5320    10.8420     0.1310    98.3430     2.5590     9.0210     7.9590     6.9830  1292.0780   -30.0630
 1655.5000  1228.8640    10.7400     0.2440    98.5950     2.5840     9.0210     7.9270     7.0030  1291.2950   -30.3170
 1656.0000  1230.1970    10.6530     0.2290    98.7850     2.5960     8.7180     7.8950     7.0010  1290.5110   -30.5750
 1656.5000  1231.5300    10.7120     0.1580    98.9670     2.5570     8.3850     7.8630     7.0020  1289.7280   -30.8270
 1657.0000  1232.8630    11.1330     0.0930    99.6630     2.4860     8.0520     7.8310     6.9610  1288.9449   -31.0810
 1657.5000  1234.1960    11.4680     0.0420   100.8910     2.4940     7.9480     7.7990     6.9150  1288.1620   -31.3390
 1658.0000  1235.5291    11.8320     0.0490   100.4970     2.5460     7.9480     7.7670     6.8690  1287.3790   -31.5900
 1658.5000  1236.8621    11.7480     0.0550    99.4210     2.5660     8.0930     7.7340     6.8230  1286.5950   -31.8410
 1659.0000  1238.1949    11.6440     0.0620    98.3450     2.5580     8.3910     7.7020     6.7780  1285.8120   -32.1140
 1659.5000  1239.5270    11.6480     0.0640    97.3250     2.5420     8.3180     7.6650     6.7320  1285.0291   -32.4180
 1660.0000  1240.8600    11.7190     0.0450    98.3840     2.5270     8.0280     7.5260     6.6860  1284.2460   -32.7120
 1660.5000  1242.1930    11.1750     0.0280   101.9100     2.5110     7.8170     7.5290     6.6320  1283.4630   -32.4430
 1661.0000  1243.5260    10.5320     0.0170   105.4350     2.5080     7.8680     7.5290     6.7530  1282.6790   -32.3340
 1661.5000  1244.8590     9.9280     0.0110   108.9440     2.5100     7.9180     7.5260     6.8270  1281.8960   -32.0920
 1662.0000  1246.1920     9.7640     0.0040   110.6050     2.5120     7.9480     7.6490     6.8990  1281.1130   -31.9000
 1662.5000  1247.5250     9.7410     0.0060   107.5110     2.5230     8.2420     7.7470     6.9710  1280.3300   -31.6970
 1663.0000  1247.5250     9.7450     0.0080   104.8750     2.5370     8.4880     7.8070     7.0430  1279.5470   -31.4800
 1663.5000  1247.5250     9.7430     0.0140   103.7070     2.5500     8.7350     7.8040     7.1140  1278.7629   -31.2900
 1664.0000  1247.5250     9.7410     0.0150   103.8630     2.5600     8.9810     7.8060     7.1300  1277.9800   -31.0770
 1664.5000  1247.5250     9.7400     0.0080   103.8680     2.5540     9.1860     7.8060     7.1300  1277.1970   -30.8330
 1665.0000  1247.5250     9.7380     0.0040   104.8510     2.5480     9.1060     7.8050     7.1260  1326.7850   -30.4740
 1665.5000  1247.5250     9.7370     0.0090   105.8700     2.5540     8.8870     7.8050     7.1150  1355.5990   -30.5300
 1666.0000  1247.5250     9.7360     0.0140   107.1370     2.5670     8.6680     7.8050     7.1030  1345.3831   -30.5030
 1666.5000  1247.5250     9.7350     0.0160   106.3370     2.5730     8.4490     7.8050     7.0920  1336.5240   -30.5530
 1667.0000  1247.5250     9.7330     0.0150   104.5960     2.5740     8.3910     7.7870     7.0810  1327.6660   -30.6460
 1667.5000  1234.8510     9.7320     0.0130   102.8290     2.5670     8.5110     7.7710     7.0690  1318.8070   -30.7270
 1668.0000  1215.3660     9.7310     0.0100   103.7220     2.5600     8.6400     7.7550     7.0580  1316.3060   -30.8120
 1668.5000  1213.0690     9.7300     0.0080   104.9300     2.5520     8.8590     7.7390     7.0470  1314.1541   -30.8980
 1669.0000  1237.4260     9.7280     0.0050   106.2910     2.5450     8.8420     7.7230     7.0350  1309.9170   -30.9830
 1669.5000  1247.5250     9.7270     0.0040   106.7820     2.5500     8.7860     7.7070     7.0240  1305.6801   -31.0630
 1670.0000  1238.6720     9.7260     0.0030   106.8530     2.5560     8.7300     7.6910     7.0130  1301.4440   -31.1590
 1670.5000  1227.2100     9.7250     0.0060   107.8380     2.5490     8.6080     7.6750     7.0030  1297.2070   -31.2310
 1671.0000  1215.7480     9.7230     0.0120   108.9180     2.5410     8.5440     7.6590     6.9920  1292.9700   -31.2960
 1671.5000  1204.2870     9.7220     0.0170   107.3510     2.5550     8.5440     7.6430     6.9530  1288.7330   -31.3740
 1672.0000  1192.8250     9.7210     0.0230   106.4910     2.5690     8.7000     7.6270     6.9150  1284.4960   -31.7380
 1672.5000  1181.3630     9.7200     0.0250   105.6370     2.5770     8.8590     7.6110     6.8760  1280.2600   -31.6110
 1673.0000  1168.3170     9.7180     0.0190   104.8220     2.5760     8.8590     7.5950     6.8370  1277.0140   -31.4740
 1673.5000  1168.3170     9.7170     0.0130   104.3910     2.5640     8.5910     7.5790     6.8000  1279.0370   -31.3170
 1674.0000  1209.1880     9.7160     0.0070   104.3740     2.5570     8.2680     7.5630     6.7540  1281.4730   -31.1600
 1674.5000  1247.5250     9.7150     0.0020   104.9460     2.5590     7.9480     7.5470     6.7540  1283.9100   -31.0090
 1675.0000  1247.5250     9.7130     0.0000   106.0440     2.5620     8.0310     7.5310     6.7540  1286.3459   -30.8520
 1675.5000  1243.9720     9.7120     0.0040   107.0380     2.5520     8.1680     7.5150     6.7570  1288.7820   -30.7020
 1676.0000  1241.0200     9.7110     0.0050   108.0620     2.5390     8.3060     7.4990     6.7680  1291.2180   -30.5470
 1676.5000  1238.0680     9.7090     0.0050   109.0370     2.5320     8.5440     7.4830     6.7780  1293.6541   -30.5110
 1677.0000  1235.1160     9.7090     0.0040   108.9350     2.5370     8.5440     7.4670     6.7880  1296.0900   -30.5190
 1677.5000  1232.1630     9.7070     0.0040   106.9040     2.5490     9.0210     7.4510     6.7980  1298.5270   -30.6100
 1678.0000  1229.2111     9.7010     0.0100   105.0240     2.5610     8.8350     7.4360     6.8080  1300.9630   -30.6860
 1678.5000  1226.2590     9.6330     0.0130   104.3920     2.5670     8.5000     7.4190     6.8190  1303.3990   -30.7700
 1679.0000  1223.3060     9.5720     0.0090   105.2340     2.5550     8.1650     7.4020     6.8290  1305.8350   -30.8570
 1679.5000  1220.3540     9.5020     0.0040   106.1360     2.5450     7.8050     7.3930     6.8390  1308.2710   -30.9100
 1680.0000  1217.4020     9.4680     0.0070   107.0480     2.5370     7.9480     7.3940     6.8490  1310.7070   -30.9020
 1680.5000  1214.4490     9.4720     0.0090   107.9700     2.5420     8.3210     7.4300     6.8590  1313.1429   -30.7680
 1681.0000  1211.4969     9.4700     0.0120   108.8650     2.5480     8.6530     7.4610     6.8700  1315.5800   -30.5850
 1681.5000  1208.5450     9.4710     0.0150   109.7990     2.5540     9.0210     7.4920     6.8770  1320.4600   -30.4690
 1682.0000  1217.2280     9.4710     0.0180   110.7020     2.5550     9.0210     7.5240     6.8770  1334.3810   -30.8440
 1682.5000  1241.5840     9.4700     0.0200   111.3750     2.5540     8.7870     7.5560     6.8620  1348.3020   -31.1230
 1683.0000  1296.6340     9.4710     0.0230   110.0910     2.5540     8.5720     7.5880     6.8070  1394.8920   -31.3200
