~VERSION INFORMATION
 VERS.                2.0:   CWLS LOG ASCII STANDARD - VERSION 2.0
 WRAP.                 NO:   ONE LINE PER DEPTH STEP
~WELL INFORMATION
#MNEM.UNIT      DATA TYPE    INFORMATION
#----------   ------------   ------------------------------
 STRT.F           16.0000:   START DEPTH
 STOP.F         2834.0000:   STOP DEPTH
 STEP.F            0.5000:   STEP LENGTH
 NULL.          -999.2500:   NO VALUE
 COMP.    FENIX & SCISSON:   COMPANY
 WELL. FENIX NPR 3 "AX" #14-21:   WELL
 FLD .              N P R:   FIELD
 LOC .      S21 T39N R78W:   LOCATION
 CNTY.            NATRONA:   COUNTY
 STAT.            WYOMING:   STATE
 CTRY. UNITED STATES OF AMERICA:   COUNTRY
 SRVC.           BIRDWELL:   SERVICE COMPANY
 DATE.        26-JUL-1978:   LOGDATE
 API .     49025106740000:   API NUMBER
~CURVE INFORMATION
#MNEM.UNIT       API CODE    CURVE DESCRIPTION
#----------   ------------   ------------------------------
 DEPT.F                  :   
 GRD .GAPI   45 310 01 00:   GAMMA RAY FROM DENSITY LOG
 CALD.IN     45 280 60 00:   CALIPER FROM DENSITY LOG
 RHOB.G/C3   45 350 01 00:   BULK DENSITY
 CORR.G/C3   45 356 01 00:   DENSITY CORRECTION
 SPR .MV     05 010 01 00:   SPONTANEOUS POTENTIAL
 ILD .OHMM   05 120 46 00:   DEEP INDUCTION RESISTIVITY
 SN  .OHMM   05 040 00 00:   SHORT NORMAL
~PARAMETER INFORMATION
#MNEM.UNIT          VALUE    DESCRIPTION
#----------   ------------   ------------------------------
 EKB .F         4998.0000:   Kelly bushing
 EGL .F         4988.0000:   Ground level
 EDF .F            0.0000:   Drilling floor
 EPD .F            0.0000:   Permanent datum
 TD  .F         2850.0000:   Total depth
 DATE.        26-JUL-1978:   Date logged
 CLNT.            A2DTECH:   Client Code
 SL  . 2640' FNL & 500' FWL:   Surface Location
 PD  .                 GL:   Permanent Datum
 DD  .F              2850:   Depth driller
 DL  .F              2838:   Depth logger
 BLI .F              2832:   Bottom log interval
 CS1 .IN            8.625:   Casing size
 CBD1.      8.625" @ 208':   Casing driller 1
 BS1 .IN            7.875:   Bit size
 DFT .            MUD/GEL:   Type fluid in hole
 DFD .                9.4:   Density
 DFV .                 37:   Viscosity
 DFPH.                 11:   pH
 TCS .HRS               4:   Time Circ. stopped
 LUN .               2958:   Logging unit number
 LUL .               CASP:   Logging unit location
 ENGI.             MILLER:   Recorded By
 WITN.           MCGINLEY:   Witnessed by
 ORIG.           5" PRINT:   Origin of data
 UWI .     49025106740000:   Unique Well ID
 DICO. A2D TECHNOLOGIES, INC.:   Digitizing Company
 DAPD.                 12:   Feet Above Permanent Datum
 BSD1.               3950:   Depth drilled with bit1
 MCSS.               CALC:   Source Rmc.
 TLI .F               230:   Top log interval
~OTHER INFORMATION
~A   DEPT       GRD      CALD       RHOB       CORR        SPR        ILD         SN   
# ...
 2427.5000   101.9430     9.1170     2.4810     0.2620   -39.5720    17.4440    16.8210
 2428.0000   101.0830     9.1170     2.4900     0.2590   -39.6440    17.6060    16.8210
 2428.5000    98.4490     9.1230     2.4860     0.2540   -39.7160    17.7680    16.8280
 2429.0000    94.0110     9.1290     2.4750     0.2530   -39.7890    17.9310    16.8210
 2429.5000    89.6380     9.1350     2.4630     0.2550   -39.8610    18.5520    17.6280
 2430.0000    86.5070     9.1410     2.4410     0.2580   -39.9340    19.2840    18.2510
 2430.5000    84.5370     9.1470     2.4200     0.2610   -40.0050    20.0160    18.8740
 2431.0000    84.3300     9.1530     2.4210     0.2640   -40.0300    20.7490    19.4980
 2431.5000    86.6020     9.1590     2.4240     0.2670   -39.9020    21.1330    19.8250
 2432.0000    90.0900     9.1650     2.4300     0.2670   -39.7780    20.9410    19.6850
 2432.5000    93.5780     9.1700     2.4410     0.2670   -39.6540    20.1900    19.1910
 2433.0000    95.1960     9.1730     2.4500     0.2670   -39.5310    19.2270    18.5340
 2433.5000    95.0580     9.2030     2.4490     0.2680   -39.4080    18.3800    17.7100
 2434.0000    95.7300     9.2210     2.4450     0.2680   -39.2710    17.5330    16.9750
 2434.5000    96.5090     9.2410     2.4420     0.2680   -38.7260    17.0930    16.8720
 2435.0000    95.9680     9.2600     2.4390     0.2680   -38.1160    17.0180    16.6720
 2435.5000    94.8410     9.2780     2.4290     0.2680   -38.0860    16.9440    16.4710
 2436.0000    95.7060     9.2910     2.4200     0.2700   -38.0900    16.8700    16.2710
 2436.5000    97.2020     9.3210     2.4150     0.2750   -38.0910    16.8210    16.2180
 2437.0000    97.3670     9.3330     2.4170     0.2790   -38.0910    17.1310    16.4330
 2437.5000    98.4360     9.3460     2.4190     0.2800   -38.0910    17.2150    16.7240
 2438.0000    99.8230     9.3590     2.4340     0.2810   -38.0910    17.3290    17.0150
 2438.5000   100.9480     9.3720     2.4570     0.2820   -38.0900    17.4430    17.3060
 2439.0000   101.1030     9.4050     2.4460     0.2840   -38.0910    17.5570    17.6060
 2439.5000   100.5580     9.4370     2.4290     0.2860   -38.0930    17.6060    17.6060
 2440.0000    97.9990     9.4690     2.4130     0.2870   -38.0200    17.7680    17.2630
 2440.5000    97.5060     9.5000     2.4120     0.2860   -37.9310    17.3920    16.8200
 2441.0000    98.0130     9.5320     2.4210     0.2860   -37.8410    16.8330    16.3780
 2441.5000    98.6280     9.5630     2.4330     0.2850   -37.7520    16.2730    15.9350
 2442.0000    98.7440     9.5920     2.4440     0.2840   -37.6920    15.7140    15.4940
 2442.5000    98.6720     9.6240     2.4540     0.2800   -37.6800    15.1550    14.9970
 2443.0000    98.6430     9.6460     2.4590     0.2760   -37.6670    14.3620    14.3800
 2443.5000    98.9560     9.6670     2.4640     0.2740   -37.6550    13.4200    13.7630
 2444.0000    99.5710     9.6870     2.4610     0.2720   -37.6420    12.4790    13.1460
 2444.5000   101.0750     9.7080     2.4580     0.2720   -37.6300    11.5690    12.5290
 2445.0000   102.5520     9.7290     2.4590     0.2720   -37.6180    11.2040    11.9120
 2445.5000   103.4790     9.7490     2.4600     0.2720   -37.6050    10.7660    11.3530
 2446.0000   102.8550     9.7680     2.4610     0.2720   -37.5930    10.3290    10.8650
 2446.5000   101.3420     9.7870     2.4630     0.2720   -37.5800     9.8910    10.3770
 2447.0000   102.1480     9.7920     2.4640     0.2720   -37.5680     9.4540     9.8900
 2447.5000   103.0890     9.7960     2.4650     0.2740   -37.5560     8.9600     9.5430
 2448.0000   102.3230     9.8010     2.4670     0.2770   -37.5430     8.9660     9.2680
 2448.5000   101.2370     9.8060     2.4670     0.2770   -37.5310     8.9730     8.9600
 2449.0000   102.4020     9.8150     2.4660     0.2770   -37.5190     8.9800     8.9920
 2449.5000   104.0720     9.8240     2.4640     0.2770   -37.5060     8.9870     9.0390
 2450.0000   102.4950     9.8330     2.4600     0.2770   -37.5000     8.9940     9.0850
 2450.5000    99.6150     9.8420     2.4560     0.2780   -37.5000     9.0010     9.1320
 2451.0000    98.0570     9.8620     2.4520     0.2820   -37.5000     9.0080     9.1790
 2451.5000    98.4550     9.8890     2.4480     0.2850   -37.5000     9.0150     9.2260
 2452.0000    98.6120     9.9020     2.4470     0.2870   -37.5000     9.0220     9.2730
 2452.5000    99.6780     9.9030     2.4490     0.2880   -37.5000     9.0290     9.3200
 2453.0000   100.6020     9.9120     2.4510     0.2900   -37.5000     9.0360     9.3780
 2453.5000   101.3720     9.9200     2.4510     0.2910   -37.5000     9.0420     9.3260
 2454.0000    99.7020     9.9290     2.4500     0.2920   -37.5000     8.9960     9.2350
 2454.5000    97.4990     9.9380     2.4520     0.2940   -37.5000     8.9490     9.1440
 2455.0000    97.1560     9.9460     2.4550     0.2960   -37.5000     8.9020     9.1250
 2455.5000    97.0780     9.9550     2.4530     0.2980   -37.5000     8.8560     9.1250
 2456.0000    95.8180     9.9610     2.4460     0.3000   -37.5000     8.8090     9.1250
 2456.5000    93.8330     9.9550     2.4380     0.3030   -37.5000     8.7620     8.9850
 2457.0000    94.3470     9.9490     2.4400     0.3040   -37.5000     8.7150     8.8480
 2457.5000    96.9800     9.9420     2.4430     0.3060   -37.5000     8.6680     8.7170
 2458.0000    99.5360     9.9490     2.4390     0.3060   -37.5000     8.6210     8.8780
 2458.5000   100.0050     9.9590     2.4430     0.3060   -37.5000     8.5740     8.8190
 2459.0000    99.3850     9.9700     2.4480     0.3060   -37.5000     8.5280     8.6930
 2459.5000    96.8360     9.9800     2.4460     0.3060   -37.5000     8.4810     8.5670
 2460.0000    95.8660     9.9900     2.4370     0.3060   -37.5000     8.4340     8.4400
 2460.5000    97.6290    10.0000     2.4280     0.3070   -37.5000     8.3870     8.3140
 2461.0000   100.4980     9.9980     2.4200     0.3090   -37.4980     8.3400     8.2530
 2461.5000   103.3560     9.9960     2.4190     0.3110   -37.5670     8.2930     8.2530
 2462.0000   105.8200     9.9950     2.4190     0.3140   -37.6530     8.2530     8.4050
 2462.5000   105.0170     9.9930     2.4220     0.3160   -37.7400     8.2530     8.5190
 2463.0000   103.5500     9.9910     2.4270     0.3160   -37.8260     8.3040     8.6410
 2463.5000   102.7490     9.9890     2.4290     0.3150   -37.8890     8.3970     8.7630
 2464.0000   103.1560     9.9870     2.4270     0.3150   -37.8530     8.4900     8.8850
 2464.5000   104.9220     9.9850     2.4250     0.3150   -37.8200     8.5820     8.9600
 2465.0000   106.8240     9.9830     2.4290     0.3140   -37.7870     8.6380     8.9370
 2465.5000   105.8910     9.9810     2.4370     0.3140   -37.7540     8.6380     8.9140
 2466.0000   103.9380     9.9850     2.4380     0.3140   -37.7200     8.6380     8.8920
 2466.5000   103.9010     9.9930     2.4390     0.3140   -37.6940     8.6260     8.8690
 2467.0000   102.4060    10.0020     2.4350     0.3130   -37.6870     8.5980     8.8460
 2467.5000   102.1010    10.0110     2.4280     0.3130   -37.6800     8.5700     8.8230
 2468.0000   106.1660    10.0190     2.4280     0.3130   -37.6720     8.4900     8.8010
 2468.5000   112.4930     9.9960     2.4290     0.3120   -37.6650     8.3380     8.5600
 2469.0000   108.5370     9.9710     2.4290     0.3130   -37.6580     8.1860     8.4040
 2469.5000   104.0420     9.9450     2.4270     0.3140   -37.6500     8.0340     8.2580
 2470.0000   103.7800     9.9190     2.4210     0.3150   -37.6430     7.8380     8.1120
 2470.5000   104.9080     9.8940     2.4180     0.3150   -37.6350     7.5970     7.9660
 2471.0000   107.6550     9.8800     2.4180     0.3160   -37.6280     7.3560     7.8200
 2471.5000   109.2440     9.8630     2.4200     0.3170   -37.6200     7.1140     7.6740
 2472.0000   109.0000     9.8460     2.4220     0.3180   -37.6130     6.9790     7.5280
 2472.5000   108.0990     9.8290     2.4180     0.3190   -37.6050     6.9110     7.3820
