~VERSION INFORMATION
 VERS.                2.0:   CWLS LOG ASCII STANDARD - VERSION 2.0
 WRAP.                 NO:   ONE LINE PER DEPTH STEP
~WELL INFORMATION
#MNEM.UNIT      DATA TYPE    INFORMATION
#----------   ------------   ------------------------------
 STRT.F         3288.0000:   START DEPTH
 STOP.F         4421.0000:   STOP DEPTH
 STEP.F            0.5000:   STEP LENGTH
 NULL.          -999.2500:   NO VALUE
 COMP.       FLUOR DANIEL:   COMPANY
 WELL. FLUOR 22 "X" #2-10:   WELL
 FLD . TEA POT DOME NAVAL PETROLEUM DO:   FIELD
 LOC .      S10 T38N R78W:   LOCATION
 CNTY.            NATRONA:   COUNTY
 STAT.            WYOMING:   STATE
 CTRY. UNITED STATES OF AMERICA:   COUNTRY
 SRVC.        HALLIBURTON:   SERVICE COMPANY
 DATE.        13-DEC-1996:   LOGDATE
 API .     49025228330000:   API NUMBER
~CURVE INFORMATION
#MNEM.UNIT       API CODE    CURVE DESCRIPTION
#----------   ------------   ------------------------------
 DEPT.F                  :   
 NPHI.DEC    42 890 03 00:   NEUTRON POROSITY SANDSTONE
 GRD .GAPI   45 310 01 00:   GAMMA RAY FROM DENSITY LOG
 CALD.IN     45 280 60 00:   CALIPER FROM DENSITY LOG
 PE  .B/E    45 358 01 00:   PHOTOELECTRIC FACTOR
 CORR.G/C3   45 356 01 00:   DENSITY CORRECTION
 TEND.LBS    45 635 01 00:   TENSION FORM DENSITY LOG
 RHOB.G/C3   45 350 01 00:   BULK DENSITY
 TENR.LBS    07 635 01 00:   TENSION FROM RESISTIVITY
 ILD .OHMM   07 120 46 00:   DEEP INDUCTION RESISTIVITY
 ILM .OHMM   07 120 44 00:   INDUCTION LOG MEDIUM RESISTIVITY
 SFL .OHMM   07 220 01 00:   SHALLOW FOCUSED LOG RESISTIVITY
~PARAMETER INFORMATION
#MNEM.UNIT          VALUE    DESCRIPTION
#----------   ------------   ------------------------------
 EKB .F         5268.0000:   Kelly bushing
 EGL .F         5258.0000:   Ground level
 EDF .F         5267.0000:   Drilling floor
 TD  .F         4435.0000:   Total depth
 CLNT.            A2DTECH:   Client Code
 SL  . 569' FNL & 1440' FWL:   Surface Location
 PD  .                 GL:   Permanent Datum
 EPD .F              5258:   Elevation Permanent Datum
 LMF .                 KB:   Log Measured From
 DMF .                 KB:   Drilling Measured From
 DAPD.F                10:   Feet Above Permanent Datum
 DATE.        13-DEC-1996:   Date Logged [DD-MMM-YYYY]
 DD  .F              4435:   Depth driller
 DL  .F              4412:   Depth logger
 BLI .F              4403:   Bottom log interval
 TLI .F              3308:   Top log interval
 CS1 .IN            9.625:   Casing size
 CBD1.     9.625" @ 3307':   Casing driller 1
 CBL1.F              3308:   Casing logger 1
 BS1 .IN              8.5:   Bit size
 BSD1.F              4435:   Depth drilled with bit1
 DFT .           POLY-KCL:   Type fluid in hole
 DFD .                  9:   Density
 DFV .                 50:   Viscosity
 DFPH.                  9:   pH
 DFL .                  7:   Fluid loss
 MSS .           MUD TANK:   Source of sample
 RMS .OHMM           0.47:   Rm
 MST .F                56:   Rm Meas. temp.
 RMF .OHMM           0.36:   Rmf
 MFST.F                61:   Rmf Meas. temp.
 MFSS.               MEAS:   Source Rmf.
 RMC .OHMM           0.48:   Rmc
 MCST.F                68:   Rmc Meas. temp.
 MCSS.               MEAS:   Source Rmc.
 RMB .OHMM           0.20:   Rm. at BHT
 BHT .F               138:   BHT.
 TCS .HRS              20:   Time Circ. stopped
 TLAB.HRS            0108:   Time logger at bottom
 MRT .F               138:   Maximum recorded temp.
 LUN .              52546:   Logging unit number
 LUL .              VERNI:   Logging unit location
 ENGI.        JOHN SAVAGE:   Recorded By
 WITN.          STEBBINGS:   Witnessed by
 ORIG.         2.5" PRINT:   Origin of data
 UWI .     49025228330000:   Unique Well ID
 DICO. A2D TECHNOLOGIES, INC.:   Digitizing Company
~OTHER INFORMATION
~A  DEPT        NPHI       GRD      CALD         PE       CORR       TEND       RHOB       TENR        ILD        ILM        SFL   
# ...
 3928.5000     0.2582   173.1153     8.9595     2.8402     0.0333  3034.0891     2.4532  3126.0242     6.6226     6.3317     7.8615
 3929.0000     0.2526   165.3720     8.9589     2.7970     0.0333  3124.4329     2.4547  3156.5522     6.5233     6.4551     7.9664
 3929.5000     0.2516   159.9842     8.9583     2.7973     0.0348  3135.1609     2.4562  3128.2576     6.4522     6.4522     8.3106
 3930.0000     0.2571   159.6176     8.9577     2.7372     0.0364  3063.4297     2.4562  3068.6216     6.5378     6.4208     9.3233
 3930.5000     0.2659   171.6509     8.9269     2.7375     0.0379  3123.5623     2.4547  3012.8445     6.4047     5.8346    10.4286
 3931.0000     0.2710   177.0803     8.9263     2.7378     0.0455  3183.6951     2.4546  3014.1179     5.2642     5.0542     9.0078
 3931.5000     0.2752   184.9266     8.9257     2.7381     0.0563  3114.2324     2.4593  3056.0713     4.8508     4.8406     6.3338
 3932.0000     0.2897   200.1336     8.8948     2.7384     0.0750  3092.4800     2.4622  3134.1177     4.5939     4.5322     6.2411
 3932.5000     0.3169   212.0981     8.8942     2.7433     0.0803  3192.1038     2.4448  -999.2500     4.2077     3.8010     5.9876
 3933.0000     0.3278   213.9033     8.8936     2.7692     0.0784  3158.8977     2.4366  -999.2500     3.5515     3.0201     4.2709
 3933.5000     0.3115   211.4765     8.8930     2.7997     0.0773  3077.2803     2.4397  -999.2500     2.3357     2.2734     2.7715
 3934.0000     0.2613   202.4313     8.8924     2.8416     0.0738  3061.0273     2.4520  -999.2500     2.4393     2.3035     2.6970
 3934.5000     0.2388   183.0603     8.9221     2.8743     0.0628  3151.3064     2.4677  -999.2500     2.8189     2.5090     2.9664
 3935.0000     0.2383   169.5555     8.9270     2.9215     0.0515  3181.2690     2.4773  -999.2500     3.9396     3.7292     4.5355
 3935.5000     0.2403   163.9416     8.9977     2.9822     0.0439  3150.7258     2.4819  -999.2500     6.7763     6.5157     8.3152
 3936.0000     0.2479   160.5320     9.0714     3.0127     0.0424  3090.0129     2.4773  -999.2500     7.2478     7.1511    10.3978
 3936.5000     0.2564   159.4592     9.1144     3.0130     0.0424  3089.7224     2.4637  -999.2500     7.2449     7.2044    10.3946
 3937.0000     0.2595   160.5540     9.1143     3.0133     0.0409  3151.1692     2.4592  -999.2500     6.8607     6.9551    10.1194
 3937.5000     0.2595   164.5770     9.0392     3.0136     0.0379  3145.7700     2.4592  -999.2500     6.4102     6.4837     9.5798
 3938.0000     0.2601   168.4937     8.9782     3.0139     0.0379  3106.5552     2.4607  -999.2500     6.8554     6.4374     9.5774
 3938.5000     0.2619   172.7146     8.9776     3.0142     0.0381  3058.3081     2.4604  -999.2500     7.2331     7.0401     9.7051
 3939.0000     0.2685   176.9355     9.0072     3.0145     0.0416  3099.3933     2.4564  -999.2500     6.9339     7.0535     9.7026
 3939.5000     0.2825   182.3649     9.0671     3.0148     0.0459  3148.3384     2.4454  -999.2500     6.1104     6.1459     9.5700
 3940.0000     0.2964   187.7943     9.0967     3.0151     0.0485  3117.8247     2.4360  -999.2500     5.2193     5.0170     9.3240
 3940.5000     0.2931   190.2025     9.0914     2.9851     0.0455  3057.0439     2.4290  -999.2500     4.2075     3.7260     5.1711
 3941.0000     0.2768   189.9349     9.0350     2.9730     0.0422  3086.9651     2.4290  -999.2500     4.2275     3.8961     4.6115
 3941.5000     0.2726   182.4845     9.0042     2.9106     0.0379  3177.3093     2.4320  -999.2500     4.4921     4.1761     4.6327
 3942.0000     0.2716   170.8627     9.0338     2.8653     0.0348  3237.4622     2.4350  -999.2500     5.3168     4.6669     4.9204
 3942.5000     0.2718   165.1712     9.0788     2.8656     0.0364  3176.7288     2.4396  -999.2500     5.8873     5.5876     7.5487
 3943.0000     0.2731   163.5710     9.1231     2.8659     0.0364  3085.8040     2.4411  -999.2500     5.8061     5.9653     7.8339
 3943.5000     0.2758   165.0965     9.1529     2.8662     0.0364  3182.5125     2.4441  -999.2500     5.6492     5.8829     8.3427
 3944.0000     0.2788   167.1766     9.1522     2.8967     0.0348  3206.0693     2.4411  -999.2500     5.4965     5.8013     8.4937
 3944.5000     0.2843   170.7933     9.1516     2.9272     0.0333  3137.2034     2.4396  -999.2500     5.4943     5.7212     7.9269
 3945.0000     0.2891   176.8269     9.1510     2.9277     0.0318  3114.8035     2.4366  -999.2500     5.5669     5.6423     7.4792
 3945.5000     0.2897   184.6732     9.1202     2.9882     0.0314  3127.5500     2.4350  -999.2500     5.6404     5.6401     7.3802
 3946.0000     0.2812   190.1026     9.1196     2.9885     0.0288  3174.6226     2.4350  -999.2500     5.6594     5.7146     7.6036
 3946.5000     0.2800   195.0347     9.1190     3.0190     0.0288  3174.2615     2.4350  -999.2500     5.8486     5.7122     7.7860
 3947.0000     0.2815   197.5126     9.1224     3.0495     0.0288  3113.5483     2.4330  -999.2500     6.1088     5.8930     8.2310
 3947.5000     0.2843   198.5347     9.1481     3.0498     0.0303  3083.0464     2.4299  -999.2500     6.1894     6.1695     8.8488
 3948.0000     0.2843   198.7191     9.1474     3.0502     0.0303  3077.9543     2.4290  -999.2500     6.0216     6.3566     8.9510
 3948.5000     0.2840   200.8208     9.1468     3.0362     0.0303  3112.6772     2.4290  -999.2500     5.2588     5.3859     7.7769
 3949.0000     0.2824   203.9376     9.1462     3.0508     0.0303  3142.5986     2.4305  -999.2500     5.0481     5.1517     7.1894
 3949.5000     0.2770   206.8014     9.1455     3.0511     0.0288  3142.2959     2.4335  -999.2500     4.9784     5.0067     7.0718
 3950.0000     0.2667   209.9683     9.1450     3.1118     0.0273  3136.9585     2.4381  -999.2500     5.0442     5.1124     7.1661
 3950.5000     0.2601   207.5427     9.1142     3.1121     0.0256  3111.5164     2.4426  -999.2500     6.3451     6.0087     8.3101
 3951.0000     0.2582   195.2407     9.1136     3.1426     0.0227  3141.4375     2.4471  -999.2500     6.3249     6.3389     9.0080
 3951.5000     0.2595   191.3445     9.1130     3.1429     0.0246  3128.6528     2.4486  -999.2500     6.0363     6.1647     9.8995
 3952.0000     0.2649   188.5757     9.1124     3.1418     0.0293  3095.6523     2.4486  -999.2500     5.6666     5.8843    10.0281
 3952.5000     0.2680   188.3535     9.1118     3.1060     0.0345  3049.8491     2.4483  -999.2500     5.3519     5.3627     9.3415
 3953.0000     0.2720   196.7905     9.1112     3.0112     0.0393  3079.7085     2.4471  -999.2500     5.2484     5.2357     8.2127
 3953.5000     0.2851   203.2581     9.1106     2.8943     0.0456  3139.8411     2.4428  -999.2500     5.3190     5.2329     8.1761
 3954.0000     0.3194   202.6452     9.1100     2.8120     0.0500  3200.0000     2.4319  3215.3762     5.4640     5.0902     8.3320
 3954.5000     0.3357   202.3716     9.1395     2.7822     0.0545  3139.2605     2.4018  3187.0588     4.1021     4.2684     6.8561
 3955.0000     0.3278   204.4405     9.1389     2.7825     0.0576  3138.9702     2.3610  3188.2351     2.8765     3.1697     3.4887
 3955.5000     0.2909   204.4597     9.1383     2.7999     0.0591  3170.8491     2.3520  3189.4119     2.2399     2.4182     2.4547
 3956.0000     0.2437   206.3094     9.1377     2.8738     0.0606  3229.0242     2.3867  3220.0000     2.4800     2.1116     2.4209
 3956.5000     0.2508   208.6441     9.1372     2.9345     0.0605  3228.7009     2.4320  3209.7991     3.4037     2.8366     3.2568
 3957.0000     0.2669   196.5493     9.1387     3.0556     0.0574  3198.1875     2.4625  3178.4470     5.5337     4.5640     4.6972
 3957.5000     0.2726   188.6857     9.1662     3.1163     0.0488  3167.6738     2.4773  3106.1057     6.4191     5.6501     8.5865
 3958.0000     0.2833   185.0193     9.2107     3.1166     0.0401  3138.7568     2.4716  3048.2349     5.7610     5.4960     8.7739
 3958.5000     0.2887   183.8338     9.2859     3.1169     0.0338  2999.2483     2.4541  3078.9275     4.8985     4.8645     7.9283
