~VERSION INFORMATION
 VERS.                2.0:   CWLS LOG ASCII STANDARD - VERSION 2.0
 WRAP.                 NO:   ONE LINE PER DEPTH STEP
~WELL INFORMATION
#MNEM.UNIT      DATA TYPE    INFORMATION
#----------   ------------   ------------------------------
 STRT.F          728.0000:   START DEPTH
 STOP.F         3296.0000:   STOP DEPTH
 STEP.F            0.5000:   STEP LENGTH
 NULL.          -999.2500:   NO VALUE
 COMP.    FENIX & SCISSON:   COMPANY
 WELL. FENIX TX "AX" #55-34:   WELL
 FLD . N. P. R. - WILDCAT:   FIELD
 LOC .      S34 T39N R78W:   LOCATION
 CNTY.            NATRONA:   COUNTY
 STAT.            WYOMING:   STATE
 CTRY. UNITED STATES OF AMERICA:   COUNTRY
 SRVC.       SCHLUMBERGER:   SERVICE COMPANY
 DATE.        22-JUL-1981:   LOGDATE
 API .     49025108770000:   API NUMBER
~CURVE INFORMATION
#MNEM.UNIT       API CODE    CURVE DESCRIPTION
#----------   ------------   ------------------------------
 DEPT.F                  :   
 TENS.LBS    60 635 01 00:   TENSION FROM SONIC LOG
 DT  .US/F   60 520 00 00:   DELTA TIME
 RHOB.G/C3   45 350 01 00:   BULK DENSITY
 TEND.LBS    45 635 01 00:   TENSION FROM DENSITY LOG
 CORR.G/C3   45 356 01 00:   DENSITY CORRECTION
 CALD.IN     45 280 60 00:   CALIPER FROM DENSITY LOG
 NPHI.DEC    42 890 03 00:   NEUTRON POROSITY SANDSTONE
 TENR.LBS    07 635 01 00:   TENSION FROM RESISTIVITY
 SPR .MV     07 010 01 00:   SPONTANEOUS POTENTIAL
 GRR .GAPI   07 310 01 00:   GAMMA RAY FROM RESISTIVITY
 SFL .OHMM   07 220 01 00:   SHALLOW FOCUSED LOG RESISTIVITY
 ILM .OHMM   07 120 44 00:   INDUCTION LOG MEDIUM RESISTIVITY
 ILD .OHMM   07 120 46 00:   DEEP INDUCTION RESISTIVITY
~PARAMETER INFORMATION
#MNEM.UNIT          VALUE    DESCRIPTION
#----------   ------------   ------------------------------
 EKB .F         5092.0000:   Kelly bushing
 EGL .F         5082.0000:   Ground level
 EDF .F            0.0000:   Drilling floor
 TD  .F         3170.0000:   Total depth
 DATE.        22-JUL-1981:   Date logged
 CLNT.            A2DTECH:   Client Code
 SL  . 2012' FSL & 2774' FWL:   Surface Location
 PD  .                 GL:   Permanent Datum
 EPD .F              5082:   Elevation Permanent Datum
 LMF .                 KB:   Log Measured From
 DMF .                 KB:   Drilling Measured From
 DAPD.F                10:   Feet Above Permanent Datum
 DD  .F              3170:   Depth driller
 DL  .F              3110:   Depth logger
 BLI .F              3104:   Bottom log interval
 TLI .F               753:   Top log interval
 CS1 .IN            9.625:   Casing size
 CBD1.      9.625" @ 751':   Casing driller 1
 CBL1.F               753:   Casing logger 1
 BS1 .IN            7.875:   Bit size
 BSD1.F              3170:   Depth drilled with bit1
 DFT .                FGM:   Type fluid in hole
 DFD .                  9:   Density
 DFV .                  9:   Viscosity
 DFPH.                9.8:   pH
 DFL .                8.6:   Fluid loss
 MSS .           MUD/TANK:   Source of sample
 RMS .OHMM           1.72:   Rm
 MST .F                72:   Rm Meas. temp.
 RMF .OHMM           1.17:   Rmf
 MFST.F                70:   Rmf Meas. temp.
 MFSS.               MEAS:   Source Rmf.
 RMB .OHMM           0.90:   Rm. at BHT
 BHT .F               144:   BHT.
 TCS .HRS            1215:   Time Circ. stopped
 TLAB.HRS            0400:   Time logger at bottom
 MRT .F               144:   Maximum recorded temp.
 LUN .               8035:   Logging unit number
 LUL .               CSPR:   Logging unit location
 ENGI.            PURPICH:   Recorded By
 WITN.           R. SCOTT:   Witnessed by
 ORIG.           5" PRINT:   Origin of data
 UWI .     49025108770000:   Unique Well ID
 DICO. A2D TECHNOLOGIES, INC.:   Digitizing Company
~OTHER INFORMATION
~A   DEPT     TENS         DT         RHOB      TEND      CORR       CALD         NPHI     TENR        SPR         GRR       SFL        ILM        ILD   
# ...
 1846.0000  -999.2500  -999.2500     2.5650  1022.1590     0.0160     7.7990     0.3330   597.3760   -62.3010   128.5890     6.9960     5.7840     6.1620
 1846.5000  -999.2500  -999.2500     2.5580  1022.5620     0.0180     7.7950     0.3430   597.4440   -62.2560   128.0370     6.8010     5.7970     6.1760
 1847.0000  -999.2500  -999.2500     2.5560  1022.9650     0.0200     7.7920     0.3400   597.5130   -62.2120   127.4970     6.5330     5.8110     6.1910
 1847.5000  -999.2500  -999.2500     2.5570  1023.3680     0.0210     7.7880     0.3280   597.5810   -62.1670   126.9580     6.3250     5.8230     6.2050
 1848.0000  -999.2500  -999.2500     2.5570  1023.7700     0.0200     7.7870     0.3190   597.6500   -62.1230   127.1460     6.6950     5.8230     6.2100
 1848.5000  -999.2500  -999.2500     2.5580  1024.1730     0.0160     7.7870     0.3170   597.7180   -62.1040   128.9430     7.0610     5.8770     6.2670
 1849.0000  -999.2500  -999.2500     2.5580  1024.5760     0.0120     7.7870     0.3140   597.7870   -62.2420   131.9900     7.0870     5.8780     6.2680
 1849.5000  -999.2500  -999.2500     2.5540  1024.9790     0.0080     7.7870     0.3120   597.8560   -62.3780   134.3040     7.1210     5.8740     6.2690
 1850.0000  -999.2500  -999.2500     2.5500  1025.3810     0.0090     7.7870     0.3130   597.9240   -62.5140   133.9830     7.2580     5.9340     6.3270
 1850.5000  -999.2500  -999.2500     2.5470  1025.7841     0.0090     7.7870     0.3160   597.9930   -62.6500   133.7110     7.3860     5.9310     6.3270
 1851.0000  -999.2500  -999.2500     2.5420  1026.1870     0.0090     7.7870     0.3180   598.0610   -62.7850   133.4420     7.4600     5.9860     6.3830
 1851.5000  -999.2500  -999.2500     2.5390  1026.5890     0.0080     7.7870     0.3190   598.1300   -62.8260   133.2020     7.3790     5.9800     6.3830
 1852.0000  -999.2500  -999.2500     2.5340  1026.9919     0.0070     7.7870     0.3180   598.1980   -62.7270   134.5540     7.2450     5.9520     6.3580
 1852.5000  -999.2500  -999.2500     2.5370  1027.3950     0.0050     7.7870     0.3280   598.2670   -62.6300   137.6840     7.1110     5.9250     6.3290
 1853.0000  -999.2500  -999.2500     2.5470  1027.7980     0.0090     7.7870     0.3390   598.3360   -62.5320   140.8080     6.9760     5.8980     6.3000
 1853.5000  -999.2500  -999.2500     2.5590  1028.2000     0.0180     7.7870     0.3470   598.4040   -62.4350   143.2980     6.8690     5.8700     6.2710
 1854.0000  -999.2500  -999.2500     2.5730  1028.6030     0.0270     7.7870     0.3430   598.4730   -62.3370   145.2110     6.9710     5.8430     6.2420
 1854.5000  -999.2500  -999.2500     2.5710  1029.0060     0.0320     7.7870     0.3380   598.5410   -62.2400   144.4150     7.0610     5.8230     6.2120
 1855.0000  -999.2500  -999.2500     2.5610  1029.4091     0.0250     7.7870     0.3420   598.6100   -62.1420   142.6000     7.0240     5.7700     6.2100
 1855.5000  -999.2500  -999.2500     2.5510  1029.8110     0.0140     7.7870     0.3470   598.6780   -62.0450   140.8430     6.9520     5.7700     6.1530
 1856.0000  -999.2500  -999.2500     2.5450  1030.2140     0.0020     7.7870     0.3470   598.7470   -61.9470   140.4010     6.8810     5.7910     6.1650
 1856.5000  -999.2500  -999.2500     2.5400  1030.6169     0.0010     7.7870     0.3460   598.8160   -61.8490   140.9750     6.8060     5.8180     6.1930
 1857.0000  -999.2500  -999.2500     2.5380  1031.0190     0.0020     7.7870     0.3480   598.8840   -61.7520   141.5880     6.8690     5.8450     6.2220
 1857.5000  -999.2500  -999.2500     2.5410  1031.4220     0.0040     7.7870     0.3510   598.9530   -61.6540   141.4480     6.9660     5.8720     6.2500
 1858.0000  -999.2500  -999.2500     2.5470  1031.8250     0.0050     7.7870     0.3520   599.0210   -61.5570   139.6190     7.0710     5.8990     6.2790
 1858.5000  -999.2500  -999.2500     2.5490  1032.2280     0.0070     7.7870     0.3290   599.0900   -61.5010   137.3800     7.1760     5.9250     6.3070
 1859.0000  -999.2500  -999.2500     2.5450  1032.0850     0.0070     7.7870     0.3120   599.1580   -61.5010   136.4280     7.2580     5.9520     6.3360
 1859.5000  -999.2500  -999.2500     2.5360  1031.5790     0.0070     7.7870     0.3120   599.2270   -61.5010   136.0790     7.3920     5.9790     6.3650
 1860.0000  -999.2500  -999.2500     2.5280  1031.0730     0.0030     7.7870     0.3130   599.2960   -61.5010   135.5580     7.3530     6.0410     6.3830
 1860.5000  -999.2500  -999.2500     2.5190  1030.5670     0.0000     7.7870     0.3170   599.3640   -61.5010   134.7130     7.2830     6.0970     6.3830
 1861.0000  -999.2500  -999.2500     2.5140  1030.0610    -0.0050     7.7870     0.3200   599.4330   -61.5010   133.8860     7.2130     6.0970     6.3830
 1861.5000  -999.2500  -999.2500     2.5200  1029.5551    -0.0020     7.7870     0.3360   599.5010   -61.5010   136.5270     7.0900     6.0970     6.3830
 1862.0000  -999.2500  -999.2500     2.5340  1029.0490     0.0050     7.7870     0.3500   599.5700   -61.5010   140.2360     6.8850     6.0480     6.3830
 1862.5000  -999.2500  -999.2500     2.5500  1028.5430     0.0120     7.7870     0.3460   599.6380   -61.5010   143.3420     6.6790     5.9950     6.3410
 1863.0000  -999.2500  -999.2500     2.5580  1028.0360     0.0180     7.7870     0.3330   599.7070   -61.5010   142.7110     6.5610     5.9430     6.3050
 1863.5000  -999.2500  -999.2500     2.5550  1027.5300     0.0180     7.7870     0.3280   599.7760   -61.5010   141.3200     6.6190     5.8900     6.2690
 1864.0000  -999.2500  -999.2500     2.5510  1027.0240     0.0160     7.7870     0.3270   599.8440   -61.5010   141.7560     6.8300     5.8230     6.2330
 1864.5000  -999.2500  -999.2500     2.5470  1026.5179     0.0130     7.7870     0.3220   599.9130   -61.5010   143.3490     7.0400     5.8320     6.2100
 1865.0000  -999.2500  -999.2500     2.5440  1026.0120     0.0110     7.7870     0.3170   599.9810   -61.5010   144.9810     7.1260     5.8440     6.2400
 1865.5000  -999.2500  -999.2500     2.5440  1025.5060     0.0080     7.7870     0.3170   600.0500   -61.5010   144.3310     7.0450     5.8550     6.2630
 1866.0000  -999.2500  -999.2500     2.5500  1025.0000     0.0050     7.7870     0.3180   600.1180   -61.4940   142.9510     6.9870     5.8670     6.2860
 1866.5000  -999.2500  -999.2500     2.5560  1024.4940     0.0030     7.7870     0.3240   600.1870   -61.4310   141.5430     6.9300     5.8780     6.3090
 1867.0000  -999.2500  -999.2500     2.5560  1023.9880     0.0030     7.7870     0.3290   600.2560   -61.3670   140.2080     6.8720     5.8900     6.3310
 1867.5000  -999.2500  -999.2500     2.5560  1023.4820     0.0070     7.7870     0.3340   600.3240   -61.3040   140.5780     6.8060     5.9020     6.3540
 1868.0000  -999.2500  -999.2500     2.5550  1022.9760     0.0090     7.7870     0.3370   600.3930   -61.2400   141.0240     6.9150     5.9130     6.3770
 1868.5000  -999.2500  -999.2500     2.5540  1022.4700     0.0110     7.7870     0.3340   600.4610   -61.1760   141.4650     7.0820     5.9250     6.3990
 1869.0000  -999.2500  -999.2500     2.5530  1021.9640     0.0090     7.7870     0.3340   600.5300   -61.1130   141.8960     7.1260     5.9370     6.4220
 1869.5000  -999.2500  -999.2500     2.5520  1021.4570     0.0080     7.7870     0.3370   600.5980   -61.0490   142.3550     7.1910     5.9480     6.4450
 1870.0000  -999.2500  -999.2500     2.5540  1020.9510     0.0070     7.7870     0.3430   600.6670   -60.9860   141.0750     7.4040     5.9600     6.4680
 1870.5000  -999.2500  -999.2500     2.5560  1020.4450     0.0110     7.7870     0.3470   600.7360   -60.9180   138.9250     7.5830     5.9710     6.4900
 1871.0000  -999.2500  -999.2500     2.5540  1019.9390     0.0130     7.7870     0.3410   600.8040   -60.7190   137.5580     7.6680     5.9860     6.5010
 1871.5000  -999.2500  -999.2500     2.5520  1019.4330     0.0100     7.7870     0.3270   600.8730   -60.5000   139.4780     7.4390     5.9810     6.4720
