~VERSION INFORMATION
 VERS.                2.0:   CWLS LOG ASCII STANDARD - VERSION 2.0
 WRAP.                 NO:   ONE LINE PER DEPTH STEP
~WELL INFORMATION
#MNEM.UNIT      DATA TYPE    INFORMATION
#----------   ------------   ------------------------------
 STRT.F          200.0000:   START DEPTH
 STOP.F         3014.0000:   STOP DEPTH
 STEP.F            0.5000:   STEP LENGTH
 NULL.          -999.2500:   NO VALUE
 COMP.    FENIX & SCISSON:   COMPANY
 WELL. FENIX NPR 3 "AX" #45-28:   WELL
 FLD .                NPR:   FIELD
 LOC .      S28 T39N R78W:   LOCATION
 CNTY.            NATRONA:   COUNTY
 STAT.            WYOMING:   STATE
 CTRY. UNITED STATES OF AMERICA:   COUNTRY
 SRVC.              WELEX:   SERVICE COMPANY
 DATE.        30-SEP-1977:   LOGDATE
 API .     49025104230000:   API NUMBER
~CURVE INFORMATION
#MNEM.UNIT       API CODE    CURVE DESCRIPTION
#----------   ------------   ------------------------------
 DEPT.F                  :   
 SPR .MV     07 010 01 00:   SPONTANEOUS POTENTIAL
 TENR.LBS    07 635 01 00:   TENSION
 SFL .OHMM   07 220 01 00:   SHALLOW FOCUSED LOG RESISTIVITY
 ILD .OHMM   07 120 46 00:   INDUCTION LOG DEEP RESISTIVITY
 ILM .OHMM   07 120 44 00:   INDUCTION LOG MEDIUM RESISTIVITY
 TEND.LBS    45 635 01 00:   TENSION FROM DENSITY LOG
 CALD.IN     45 280 60 00:   CALIPER FROM DENSITY LOG
 RHOB.G/C3   45 350 01 00:   BULK DENSITY
 CORR.G/C3   45 356 01 00:   DENSITY CORRECTION
 GRD .GAPI   45 310 01 00:   GAMMA RAY FROM DENSITY LOG
~PARAMETER INFORMATION
#MNEM.UNIT          VALUE    DESCRIPTION
#----------   ------------   ------------------------------
 EKB .F         5075.0000:   Kelly bushing
 EGL .F         5065.0000:   Ground level
 EDF .F            0.0000:   Drilling floor
 E TD.F         3008.0000:   Total depth
 DATE.        30-SEP-1977:   Date logged
 CLNT.            A2DTECH:   Client Code
 SL  . 2210' FSL & 2310' FWL:   Surface Location
 PD  .                 GL:   Permanent Datum
 EPD .F              5065:   Elevation Permanent Datum
 LMF .                 KB:   Log Measured From
 DMF .                 KB:   Drilling Measured From
 DAPD.F                10:   Feet Above Permanent Datum
 DD  .F              3005:   Depth driller
 DL  .F              3008:   Depth logger
 BLI .F              3006:   Bottom log interval
 TLI .F               200:   Top log interval
 CS1 .IN            8.625:   Casing size
 CBD1.      8.625" @ 205':   Casing driller 1
 CBL1.F               220:   Casing logger 1
 BS1 .IN            7.875:   Bit size
 BSD1.F              3005:   Depth drilled with bit1
 DFT .            KCL/MUD:   Type fluid in hole
 DFD .                9.1:   Density
 DFV .                 38:   Viscosity
 DFPH.                 11:   pH
 DFL .                6.8:   Fluid loss
 MSS .           FLOWLINE:   Source of sample
 RMS .OHMM            .31:   Rm
 MST .F                78:   Rm Meas. temp.
 RMF .OHMM            .15:   Rmf
 MFST.F                78:   Rmf Meas. temp.
 RMC .OHMM           1.02:   Rmc
 MCST.F                78:   Rmc Meas. temp.
 MFSS.               FANN:   Source Rmf.
 MCSS.                KIT:   Source Rmc.
 RMB .OHMM            .20:   Rm. at BHT
 BHT .F               117:   BHT.
 TCS .HRS               3:   Time Circ. stopped
 MRT .F               117:   Maximum recorded temp.
 LUN .               8611:   Logging unit number
 LUL .             CASPER:   Logging unit location
 ENGI.         G. BENTSEN:   Recorded By
 WITN.         HARRINGTON:   Witnessed by
 ORIG.           5" PRINT:   Origin of data
 UWI .     49025104230000:   Unique Well ID
 DICO. A2D TECHNOLOGIES, INC.:   Digitizing Company
~OTHER INFORMATION
~A   DEPT      SPR        TENR       SFL        ILD        ILM       TEND       CALD       RHOB       CORR        GRD   
# ...
 2411.0000   -66.9120   792.2350     8.5080     6.9400     7.5100   950.2240     9.2840     2.5420     0.0120   101.4450
 2411.5000   -67.0110   792.4600     8.2860     6.8440     7.3340   950.4070     9.2880     2.5330     0.0120   104.0550
 2412.0000   -67.0800   792.6850     8.0650     6.7480     7.2090   950.5900     9.2900     2.5240     0.0110   107.3460
 2412.5000   -66.9450   792.9100     7.9110     6.6520     7.1960   950.7720     9.2890     2.5160     0.0110   106.1230
 2413.0000   -66.8130   793.1350     9.0020     6.5560     7.1820   950.9550     9.2890     2.5200     0.0100   104.5190
 2413.5000   -66.7220   793.3600     8.6700     6.4600     7.1680   951.1380     9.2880     2.5240     0.0100   102.9290
 2414.0000   -66.8770   793.5850     7.7660     6.3640     7.1540   951.3210     9.2870     2.5280     0.0090   101.3250
 2414.5000   -67.0340   793.8100     7.8000     6.2680     7.0850   951.5040     9.2870     2.5240     0.0090    99.6230
 2415.0000   -67.1880   794.0340     7.8720     6.1720     6.9530   951.6860     9.2860     2.5170     0.0080    99.7220
 2415.5000   -67.2880   794.2590     7.9840     6.0760     6.8220   951.8690     9.2850     2.5100     0.0080   102.2500
 2416.0000   -67.2480   794.4840     7.8310     5.9800     6.6900   952.0520     9.2850     2.5030     0.0070   104.7980
 2416.5000   -67.2110   794.7090     7.4880     5.8880     6.5590   952.2350     9.2840     2.5080     0.0070   107.3380
 2417.0000   -67.1750   794.9340     7.0590     5.8880     6.4570   952.4180     9.2830     2.5150     0.0060   109.8960
 2417.5000   -67.1390   795.1590     7.4170     5.9790     6.7080   952.6010     9.2830     2.5200     0.0060   112.0750
 2418.0000   -67.1010   795.3840     8.0590     6.1240     6.9530   952.7830     9.2820     2.5250     0.0050   106.4600
 2418.5000   -66.9270   795.6090     9.0850     6.2690     7.1970   952.9660     9.2810     2.5290     0.0040   100.6390
 2419.0000   -66.7330   795.8340     8.9250     6.4150     7.4410   953.1490     9.2810     2.5260     0.0040    92.6220
 2419.5000   -66.5400   796.0590     8.4390     6.5600     7.6860   953.3320     9.2800     2.5200     0.0030    93.9500
 2420.0000   -66.3470   796.2840     8.6980     6.7050     7.9840   953.5150     9.2790     2.5140     0.0030    96.3480
 2420.5000   -66.1530   796.5090     9.1430     6.8500     7.8570   953.6980     9.2790     2.5090     0.0030    98.7990
 2421.0000   -65.9600   796.7340     9.6030     6.9960     7.7640   953.8800     9.2780     2.5060     0.0030    97.3610
 2421.5000   -65.7670   796.9580     9.2070     7.1470     7.6710   954.0630     9.2770     2.5080     0.0040    95.4890
 2422.0000   -65.5740   797.1830     8.7970     7.0860     7.5780   954.2460     9.2770     2.5170     0.0040    93.6180
 2422.5000   -65.3780   797.4080     8.3610     7.0220     7.4850   954.4290     9.2760     2.5250     0.0050    91.7370
 2423.0000   -65.3300   797.6330     8.5330     6.9580     7.3480   954.6120     9.2750     2.5330     0.0050    91.3290
 2423.5000   -65.3620   797.8580     8.7670     6.8940     7.4460   954.7950     9.2750     2.5360     0.0060    93.9170
 2424.0000   -65.3950   798.0830     9.0000     6.8250     7.6320   954.9770     9.2740     2.5360     0.0060    95.9210
 2424.5000   -65.4280   798.1930     9.2550     6.9090     7.8170   955.1600     9.2730     2.5340     0.0070    95.1510
 2425.0000   -65.4610   798.1930     9.0800     7.0010     7.9840   955.3430     9.2730     2.5320     0.0070    94.7340
 2425.5000   -65.4940   798.1930     8.8880     7.0920     7.9110   955.5260     9.2720     2.5310     0.0080    95.9210
 2426.0000   -65.5260   798.1930     8.6950     7.2130     7.8450   955.7090     9.2710     2.5260     0.0080    97.0530
 2426.5000   -65.5590   798.1930     8.5030     7.1330     7.7790   955.8920     9.2710     2.5200     0.0090    98.2030
 2427.0000   -65.5920   798.1930     8.3100     6.9520     7.7130   956.0740     9.2700     2.5140     0.0090    99.5300
 2427.5000   -65.6250   798.1930     8.5200     6.9790     7.6240   956.2570     9.2660     2.5100     0.0090    97.5100
 2428.0000   -65.6580   798.1930     8.7910     7.0380     7.6700   956.4400     9.2620     2.5190     0.0090    94.7270
 2428.5000   -65.6910   798.1930     9.0630     7.0970     7.7400   956.6230     9.2590     2.5310     0.0090    90.9190
 2429.0000   -65.7240   798.1930     9.3350     7.1610     7.8100   956.8060     9.2550     2.5380     0.0090    92.4650
 2429.5000   -65.7550   798.1930     9.6060     7.2250     7.8810   956.9890     9.2520     2.5450     0.0100    96.1120
 2430.0000   -65.7870   798.1930     9.8720     7.2890     7.9510   957.1710     9.2480     2.5400     0.0100    99.7640
 2430.5000   -65.8190   798.1930     9.7210     7.3520     8.0210   957.3540     9.2440     2.5340     0.0100   100.2220
 2431.0000   -65.8510   798.1930     9.5720     7.4160     8.1330   957.5370     9.2410     2.5320     0.0100    99.9740
 2431.5000   -65.8830   798.1930     9.4230     7.3280     8.0920   957.7200     9.2370     2.5380     0.0100    99.7170
 2432.0000   -65.9150   798.1930     9.2750     7.2410     7.9910   957.9030     9.2340     2.5350     0.0100   100.0120
 2432.5000   -65.9470   798.1930     9.1260     7.1540     7.8890   958.0850     9.2300     2.5300     0.0100   102.2790
 2433.0000   -65.9780   798.1930     8.9780     7.0650     7.7880   958.2680     9.2270     2.5260     0.0100   104.5430
 2433.5000   -66.0100   798.1930     8.8290     6.9710     7.6860   958.4510     9.2230     2.5260     0.0100   106.8270
 2434.0000   -66.0420   798.1930     8.6810     6.8780     7.5840   958.6340     9.2200     2.5270     0.0100   108.9750
 2434.5000   -66.0740   798.1930     8.5320     6.7840     7.4830   958.8170     9.2160     2.5230     0.0100   104.9030
 2435.0000   -66.1060   798.1930     8.3830     6.6900     7.4160   959.0000     9.2120     2.5180     0.0100   100.3730
 2435.5000   -66.1380   798.1930     8.2840     6.5960     7.4410   959.1820     9.2090     2.5140     0.0100    95.6050
 2436.0000   -66.1700   798.1930     8.3810     6.4570     7.4590   959.3650     9.2020     2.5100     0.0100    98.4940
 2436.5000   -66.2020   798.1930     8.4530     6.4810     7.4780   959.5480     9.1950     2.5070     0.0100   103.1720
 2437.0000   -66.2330   798.1930     8.5250     6.5260     7.4960   959.7310     9.1880     2.5080     0.0100   101.6350
 2437.5000   -66.2650   798.1930     8.5970     6.5710     7.5150   959.9140     9.1810     2.5090     0.0100    97.1290
 2438.0000   -66.2980   798.1930     8.6690     6.6390     7.5330   960.0970     9.1740     2.5100     0.0100    90.6610
 2438.5000   -66.2700   798.1930     8.7420     6.5880     7.5520   960.2790     9.1670     2.5120     0.0100    82.0170
 2439.0000   -66.2320   798.1930     8.8370     6.4840     7.4390   960.4620     9.1600     2.5130     0.0100    83.8520
 2439.5000   -66.1940   798.1930     8.6470     6.3810     7.3080   960.6450     9.1530     2.5150     0.0100    87.2780
 2440.0000   -66.1560   798.1930     8.3650     6.2770     7.1770   960.8280     9.1460     2.5180     0.0100    90.7540
 2440.5000   -66.1180   798.1930     8.0830     6.1730     7.0460   961.0110     9.1390     2.5170     0.0100    92.2150
 2441.0000   -66.0800   798.1930     7.8010     6.0700     6.9150   961.1940     9.1320     2.5140     0.0100    93.3370
 2441.5000   -66.0420   798.1930     7.4230     6.0370     6.7620   961.3760     9.1260     2.5140     0.0100    94.5090
 2442.0000   -66.0040   798.1930     7.4490     6.0170     6.8000   961.5590     9.1190     2.5200     0.0100    97.3000
 2442.5000   -65.9660   798.1930     7.5010     5.9980     6.8450   961.7420     9.1120     2.5230     0.0100   100.0890
 2443.0000   -65.9280   798.1930     7.5530     5.9780     6.8900   961.9250     9.1050     2.5120     0.0100   102.8620
 2443.5000   -65.8900   798.1930     7.6060     5.9580     6.9360   962.1080     9.0980     2.5010     0.0090   105.6600
 2444.0000   -65.8520   798.1930     7.6580     5.9290     6.9810   962.2910     9.0910     2.4900     0.0080   106.2410
