~VERSION INFORMATION
 VERS.                2.0:   CWLS LOG ASCII STANDARD - VERSION 2.0
 WRAP.                 NO:   ONE LINE PER DEPTH STEP
~WELL INFORMATION
#MNEM.UNIT      DATA TYPE    INFORMATION
#----------   ------------   ------------------------------
 STRT.F            0.0000:   START DEPTH
 STOP.F         3083.0000:   STOP DEPTH
 STEP.F            0.5000:   STEP LENGTH
 NULL.          -999.2500:   NO VALUE
 COMP. LAWRENCE & ALLISON & ASSOCIATES:   COMPANY
 WELL. LAWRENCE 71 "AX" #3-29:   WELL
 FLD .              N P R:   FIELD
 LOC .      S29 T38N R78W:   LOCATION
 CNTY.            NATRONA:   COUNTY
 STAT.            WYOMING:   STATE
 CTRY. UNITED STATES OF AMERICA:   COUNTRY
 SRVC.      DRESSER ATLAS:   SERVICE COMPANY
 DATE.        12-MAR-1985:   LOGDATE
 API .     49025110160000:   API NUMBER
~CURVE INFORMATION
#MNEM.UNIT       API CODE    CURVE DESCRIPTION
#----------   ------------   ------------------------------
 DEPT.F                  :   
 GRR .GAPI   07 310 01 00:   GAMMA RAY FROM RESISTIVITY
 SPR .MV     07 010 01 00:   SPONTANEOUS POTENTIAL
 TENR.LBS    07 635 01 00:   TENSION FROM RESISTIVITY
 RFOC.OHMM   07 220 04 00:   RESISTIVITY FOCUSED LOG RES.
 RILD.OHMM   07 120 46 00:   DEEP INDUCTION RESISTIVITY
 RILM.OHMM   07 120 44 00:   INDUCTION LOG MEDIUM RESISTIVITY
 TEND.LBS    45 635 01 00:   TENSION FROM DENSITY LOG
 DEN .G/C3   45 350 01 00:   BULK DENSITY
 CORR.G/C3   45 356 01 00:   DENSITY CORRECTION
 CNC .DEC    42 890 01 00:   NEUTRON PORISITY LIMESTONE
 CALD.IN     45 280 60 00:   CALIPER FROM DENSITY LOG
~PARAMETER INFORMATION
#MNEM.UNIT          VALUE    DESCRIPTION
#----------   ------------   ------------------------------
 EKB .F         4983.0000:   Kelly bushing
 EGL .F         4971.0000:   Ground level
 TD  .F         3082.0000:   Total depth
 DATE.        12-MAR-1985:   Date logged
 CLNT.            A2DTECH:   Client Code
 SL  . 568' FNL AND 829' FEL:   Surface Location
 PD  .                 GL:   Permanent Datum
 EPD .F              4971:   Elevation Permanent Datum
 LMF .                 KB:   Log Measured From
 DMF .                 KB:   Drilling Measured From
 DD  .F              3080:   Depth driller
 DL  .F              3082:   Depth logger
 BLI .F              3080:   Bottom log interval
 TLI .F              2100:   Top log interval
 CS1 .IN            8.625:   Casing size
 CBD1.      8.625" @ 311':   Casing driller 1
 BS1 .IN            7.875:   Bit size
 DFT .            KCL GEL:   Type fluid in hole
 DFD .                9.1:   Density
 DFV .                 38:   Viscosity
 DFPH.                  8:   pH
 DFL .               10.4:   Fluid loss
 MSS .           FLOWLINE:   Source of sample
 RMS .OHMM            .47:   Rm
 MST .F                60:   Rm Meas. temp.
 RMF .OHMM            .35:   Rmf
 MFST.F                61:   Rmf Meas. temp.
 RMC .OHMM            .53:   Rmc
 MCST.F                61:   Rmc Meas. temp.
 MFSS.               CLAC:   Source Rmf.
 RMB .OHMM           .209:   Rm. at BHT
 BHT .F               134:   BHT.
 TCS .HRS               3:   Time Circ. stopped
 MRT .F               134:   Maximum recorded temp.
 LUN .               6234:   Logging unit number
 LUL .               CLTE:   Logging unit location
 ENGI.      MACK/ EDWARDS:   Recorded By
 WITN.             STRONG:   Witnessed by
 PWI .                  -:   Primary Well Identifier
 ORIG.           5" PRINT:   Origin of data
 UWI .     49025110160000:   Unique Well ID
 DICO. A2D TECHNOLOGIES, INC.:   Digitizing Company
 DAPD.F                12:   Feet Above Permanent Datum
 BSD1.F              3080:   Depth drilled with bit1
 MCSS.               CALC:   Source Rmc.
~OTHER INFORMATION
~A    DEPT      GRR       SPR       TENR       RFOC       RILD       RILM       TEND        DEN       CORR        CNC       CALD   
# ...
 2135.0000   111.5140   -52.2030   -51.2310     3.5530     3.0100     3.0970   -58.7250     2.5240     0.0200     0.3110     9.8830
 2135.5000   111.9780   -52.2970   -49.1170     3.6680     3.0420     3.1550   -57.5970     2.5250     0.0310     0.3030     9.8960
 2136.0000   116.3520   -52.3900   -47.0300     3.9630     3.0420     3.1270   -56.4680     2.5250     0.0180     0.2970     9.9090
 2136.5000   122.0720   -52.4730   -48.4630     3.9240     3.0420     3.1340   -55.3400     2.5140     0.0060     0.2970     9.9220
 2137.0000   128.0280   -52.4710   -50.8110     3.8290     3.0420     3.1400   -54.2110     2.5010     0.0020     0.2970     9.9230
 2137.5000   131.6000   -52.4700   -53.1590     3.7520     3.0420     3.1460   -53.0830     2.4900     0.0020     0.3010     9.9260
 2138.0000   134.5010   -52.4690   -55.5070     3.7980     3.0420     3.1520   -51.9550     2.4890     0.0010     0.3050     9.9280
 2138.5000   136.9280   -52.5140   -55.5920     3.8920     3.0420     3.1590   -50.8260     2.4870     0.0010     0.3030     9.9310
 2139.0000   136.5140   -52.5720   -52.1920     3.7980     3.0420     3.1650   -49.6980     2.4810     0.0010     0.3010     9.9330
 2139.5000   132.6650   -52.6290   -48.7910     3.7180     3.0420     3.1710   -48.5690     2.4740    -0.0280     0.3010     9.9360
 2140.0000   126.6210   -52.6690   -45.3910     3.7630     3.0420     3.1770   -47.4410     2.4780    -0.0640     0.3060     9.9380
 2140.5000   120.1600   -52.6690   -41.9900     3.8210     3.0420     3.1840   -46.4250     2.4810    -0.0650     0.3080     9.9410
 2141.0000   116.8810   -52.6090   -38.5900     3.8920     3.0420     3.1840   -50.1920     2.4850    -0.0430     0.3080     9.9450
 2141.5000   113.6730   -52.5290   -38.6910     3.8350     3.0420     3.1840   -53.6160     2.4910    -0.0160     0.3070     9.9530
 2142.0000   110.8880   -52.4490   -41.4300     3.7350     3.0420     3.2380   -57.0400     2.4970    -0.0060     0.3070     9.9620
 2142.5000   111.2000   -52.3690   -44.1690     3.6510     3.0810     3.2930   -60.4650     2.5030    -0.0140     0.3070     9.9700
 2143.0000   112.3810   -52.2890   -46.9090     3.7990     3.1860     3.3490   -63.8890     2.5100    -0.0230     0.3140     9.9780
 2143.5000   113.4140   -52.2090   -49.6480     3.8560     3.2920     3.4040   -67.3130     2.5140    -0.0270     0.3240     9.9820
 2144.0000   111.8020   -52.1300   -52.3870     3.6850     3.3980     3.4600   -70.7380     2.5090     0.0060     0.3170     9.9820
 2144.5000   107.1790   -52.0940   -55.1270     3.6180     3.5040     3.5150   -74.1620     2.5030     0.0550     0.3020     9.9820
 2145.0000   104.2690   -52.1650   -57.8660     3.9600     3.5530     3.5850   -77.5860     2.5160     0.0370     0.2960     9.9820
 2145.5000   101.3070   -52.2330   -60.6050     4.5300     3.3810     3.5030   -81.0110     2.5310     0.0140     0.3030     9.9820
 2146.0000   101.4860   -52.3010   -63.3440     5.0240     3.2530     3.3750   -84.4350     2.5390     0.0010     0.3110     9.9820
 2146.5000   105.4190   -52.3690   -66.0840     4.7480     3.1260     3.2480   -81.6330     2.5340    -0.0090     0.3140     9.9820
 2147.0000   108.4230   -52.4370   -59.1510     4.3160     2.9980     3.1200   -72.6050     2.5160     0.0000     0.3060     9.9820
 2147.5000   110.6110   -52.4700   -48.5860     3.7230     2.8700     2.9930   -63.5780     2.4980    -0.0030     0.3060     9.9820
 2148.0000   111.0210   -52.5040   -37.1290     2.9600     2.7430     2.8540   -54.5500     2.4790     0.0740     0.3160     9.9820
 2148.5000   112.4070   -52.5410   -35.9990     3.1030     2.6290     2.7900   -46.4250     2.4900     0.0580     0.3200     9.9820
 2149.0000   114.4420   -52.5790   -34.7650     3.3800     2.6110     2.7020   -53.7070     2.5050     0.0230     0.3100     9.9820
 2149.5000   116.7060   -52.6160   -33.5310     3.6840     2.5920     2.6780   -60.3280     2.5210     0.0000     0.3030     9.9820
 2150.0000   117.4140   -52.6530   -32.2970     3.5010     2.5720     2.7190   -66.2860     2.5180     0.0160     0.3040     9.9820
 2150.5000   117.9250   -52.6900   -31.0630     3.1360     2.5580     2.7790   -53.5750     2.5000     0.0310     0.3210     9.9820
 2151.0000   116.8130   -52.7270   -29.8290     3.0700     2.6690     2.8380   -39.4450     2.4850     0.0350     0.3210     9.9820
 2151.5000   116.6460   -52.7650   -28.5950     3.2370     2.7490     2.8980   -26.5640     2.4840     0.0150     0.3190     9.9820
 2152.0000   119.3030   -52.8020   -27.3610     3.3200     2.8290     2.9570   -30.9530     2.4860     0.0030     0.3150     9.9820
 2152.5000   119.4950   -52.8380   -27.9380     3.3560     2.9090     3.0640   -35.8990     2.4890     0.0170     0.3110     9.9820
 2153.0000   117.7380   -52.8170   -28.7350     3.3920     3.0880     3.2200   -40.8440     2.4940     0.0020     0.3070     9.9820
 2153.5000   112.0940   -52.6230   -29.5320     3.4250     3.3130     3.3760   -45.7890     2.5060    -0.0190     0.3050     9.9820
 2154.0000   106.6010   -52.4350   -30.3290     3.7560     3.5370     3.6150   -45.3480     2.5180    -0.0250     0.3030     9.9820
 2154.5000   101.7330   -52.2480   -31.1260     4.0610     3.7620     3.8920   -44.1110     2.5300    -0.0170     0.3020     9.9820
 2155.0000    97.8080   -52.0600   -31.9230     4.3420     3.9860     4.0920   -42.8750     2.5420    -0.0040     0.3020     9.9820
 2155.5000    96.7680   -51.8720   -32.7200     4.8030     4.1480     4.2060   -41.6390     2.5420     0.0080     0.2970     9.9820
 2156.0000    99.7840   -51.6840   -33.5160     5.2290     4.1480     4.3820   -40.4020     2.5340    -0.0020     0.2890     9.9820
 2156.5000   104.3550   -51.4960   -34.3130     5.4530     4.2040     4.3640   -39.1660     2.5260    -0.0140     0.2810     9.9820
 2157.0000   108.7250   -51.3090   -35.1100     5.2440     4.3020     4.3270   -37.9290     2.5170    -0.0180     0.2890     9.9830
 2157.5000   112.5100   -51.2850   -35.9070     4.9490     4.2160     4.2900   -36.6930     2.5090    -0.0030     0.2940     9.9980
 2158.0000   115.9780   -51.2840   -36.7040     4.5020     4.0330     4.2330   -42.4240     2.5000     0.0110     0.2900    10.0030
 2158.5000   116.3590   -51.2850   -38.3430     4.0650     3.7520     4.1200   -49.4890     2.4990     0.0250     0.2730    10.0040
 2159.0000   114.9800   -51.2850   -40.9430     3.7520     3.8750     4.0360   -56.5540     2.5120     0.0120     0.2560    10.0050
 2159.5000   113.2630   -51.2850   -43.5440     4.5070     4.1380     4.3030   -63.6190     2.5230    -0.0020     0.2560    10.0060
 2160.0000   116.3110   -51.2840   -46.1440     5.3060     4.4020     4.5140   -61.1550     2.5340    -0.0030     0.2660    10.0070
 2160.5000   121.4190   -51.2850   -48.7440     5.1080     4.5440     4.7130   -58.9370     2.5450     0.0180     0.2820    10.0080
 2161.0000   124.0180   -51.4060   -51.3440     4.8070     4.5440     4.6730   -65.1190     2.5480     0.0390     0.2900    10.0090
 2161.5000   120.7720   -51.5460   -53.9450     4.4940     4.4960     4.5840   -71.3010     2.5510     0.0210     0.2820    10.0110
 2162.0000   115.8490   -51.6870   -56.5450     4.7280     4.3890     4.4950   -75.7340     2.5510    -0.0120     0.2730    10.0120
 2162.5000   117.9330   -51.8330   -56.9310     5.0240     4.2820     4.4070   -73.3790     2.5520    -0.0070     0.2660    10.0130
 2163.0000   120.6490   -51.8420   -56.9310     5.2520     4.1750     4.3180   -71.0240     2.5490    -0.0020     0.2650    10.0140
 2163.5000   120.6750   -51.7680   -56.9310     5.5030     4.0730     4.2290   -68.6690     2.5450     0.0040     0.2690    10.0150
 2164.0000   118.8560   -51.6920   -56.9310     5.0330     4.0730     4.1400   -66.2860     2.5400     0.0100     0.2830    10.0160
 2164.5000   116.3090   -51.6160   -56.9310     4.4760     4.0730     4.0730   -70.9390     2.5130     0.0050     0.2920    10.0170
 2165.0000   112.0370   -51.5400   -56.9310     3.9190     3.9040     4.2290   -75.6490     2.4760     0.0120     0.2990    10.0180
