~VERSION INFORMATION
 VERS.                2.0:   CWLS LOG ASCII STANDARD - VERSION 2.0
 WRAP.                 NO:   ONE LINE PER DEPTH STEP
~WELL INFORMATION
#MNEM.UNIT      DATA TYPE    INFORMATION
#----------   ------------   ------------------------------
 STRT.F          200.0000:   START DEPTH
 STOP.F         3050.0000:   STOP DEPTH
 STEP.F            0.5000:   STEP LENGTH
 NULL.          -999.2500:   NO VALUE
 COMP.     FENIX & SISSON:   COMPANY
 WELL. FENIX & SISSON "AX" #16-28:   WELL
 FLD .              NPR 3:   FIELD
 LOC .      S28 T39N R78W:   LOCATION
 CNTY.            NATRONA:   COUNTY
 STAT.            WYOMING:   STATE
 CTRY. UNITED STATES OF AMERICA:   COUNTRY
 SRVC.      DRESSER ATLAS:   SERVICE COMPANY
 DATE.        01-JUL-1977:   LOGDATE
 API .     49025103930000:   API NUMBER
~CURVE INFORMATION
#MNEM.UNIT       API CODE    CURVE DESCRIPTION
#----------   ------------   ------------------------------
 DEPT.F                  :   
 CALD.IN     45 280 60 00:   CALIPER FROM DENSITY LOG
 GRD .GAPI   45 310 01 00:   GAMMA RAY FROM DENSITY LOG
 CORR.G/C3   45 356 01 00:   DENSITY CORRECTION
 TEND.LBS    45 635 01 00:   TENSION FROM DENSITY LOG
 SPR .MV     07 010 01 00:   SPONTANEOUS POTENTIAL
 ILD .OHMM   07 120 46 00:   DEEP INDUCTION RESISTIVITY
 ILM .OHMM   07 120 44 00:   INDUCTION LOG MEDIUM RESISTIVITY
 SFL .OHMM   07 220 01 00:   SHALLOW FOCUSED LOG RESISTIVITY
 RHOB.G/C3   45 350 01 00:   BULK DENSITY
~PARAMETER INFORMATION
#MNEM.UNIT          VALUE    DESCRIPTION
#----------   ------------   ------------------------------
 EKB .F         5067.0000:   Kelly bushing
 EGL .F         5057.0000:   Ground level
 EDF .F         5066.0000:   Drilling floor
 EPD .F            0.0000:   Permanent datum
 TD  .F         3036.0000:   Total depth
 DATE.        01-JUL-1977:   Date logged
 CLNT.            A2DTECH:   Client Code
 SL  . 1220' FSL & 330' FWL:   Surface Location
 PD  .                 GL:   Permanent Datum
 DAPD.F                10:   Feet Above Permanent Datum
 DD  .F              3034:   Depth driller
 DL  .F              3036:   Depth logger
 BLI .F              3034:   Bottom log interval
 TLI .F               214:   Top log interval
 CS1 .IN            8.625:   Casing size
 CBD1.      8.625" @ 204':   Casing driller 1
 CBL1.F               214:   Casing logger 1
 BS1 .IN            7.875:   Bit size
 BSD1.F              3034:   Depth drilled with bit1
 DFT .                KCL:   Type fluid in hole
 DFD .                  9:   Density
 DFV .                 34:   Viscosity
 DFPH.                7.2:   pH
 DFL .                8.8:   Fluid loss
 MSS .         CIRCULATED:   Source of sample
 RMS .OHMM           .112:   Rm
 MST .F                75:   Rm Meas. temp.
 RMF .OHMM           .085:   Rmf
 MFST.F                75:   Rmf Meas. temp.
 RMC .OHMM           .141:   Rmc
 MCST.F                75:   Rmc Meas. temp.
 MFSS.               MEAS:   Source Rmf.
 MCSS.               MEAS:   Source Rmc.
 RMB .OHMM           .067:   Rm. at BHT
 BHT .F               124:   BHT.
 TCS .HRS               1:   Time Circ. stopped
 MRT .F               124:   Maximum recorded temp.
 LUN .               6134:   Logging unit number
 LUL .              GLTTE:   Logging unit location
 ENGI.              GOULD:   Recorded By
 WITN.         PETTINGILL:   Witnessed by
 ORIG.       2.5"5" PRINT:   Origin of data
 UWI .     49025103930000:   Unique Well ID
 DICO. A2D TECHNOLOGIES, INC.:   Digitizing Company
~OTHER INFORMATION
~A   DEPT     CALD         GRD      CORR       TEND        SPR        ILD        ILM        SFL       RHOB   
# ...
 2244.0000     7.8040    89.8390     0.0230   -71.1250   -67.1300     7.5740     9.0810    19.8500     2.4890
 2244.5000     7.7530    89.2860     0.0210   -71.9170   -67.1300     7.6310     8.7770    22.1730     2.4850
 2245.0000     7.7000    90.5500     0.0260   -72.7090   -67.4200     7.7330     8.4730    18.6790     2.4860
 2245.5000     7.6880    90.8200     0.0340   -73.5010   -67.8150     7.8520     8.1690    15.9340     2.4920
 2246.0000     7.7620    89.7410     0.0410   -74.2930   -68.1950     7.9710     8.0790    13.9550     2.5010
 2246.5000     7.8490    88.4980     0.0480   -75.0850   -68.5880     8.0790     8.3850    12.3230     2.5070
 2247.0000     7.8670    88.7290     0.0550   -75.8770   -68.5260     8.0300     8.7270    12.4760     2.5260
 2247.5000     7.8470    89.3880     0.0500   -78.1250   -68.2500     7.9850     9.0690    13.4410     2.5210
 2248.0000     7.7830    89.7870     0.0460   -83.0360   -67.9840     7.9320     9.1870    15.6440     2.5060
 2248.5000     7.7810    90.1420     0.0430   -87.9460   -67.7180     7.9840     9.1170    20.1690     2.5110
 2249.0000     7.8630    89.8360     0.0450   -92.8570   -67.5570     8.0450     9.0200    24.3040     2.5090
 2249.5000     7.8530    90.7130     0.0460   -88.5490   -67.7050     8.1060     8.9640    20.6520     2.5060
 2250.0000     7.7970    93.5570     0.0410   -64.0180   -67.8440     8.1670     8.8970    16.2070     2.5000
 2250.5000     7.7690    96.0370     0.0370   -39.4870   -67.9930     8.2290     8.7260    13.2620     2.4920
 2251.0000     7.8040    96.0020     0.0370   -60.6580   -68.1390     8.0500     8.3970    16.8450     2.4860
 2251.5000     7.8770    95.6090     0.0380   -83.0360   -68.2820     7.7440     8.0670    20.6030     2.4920
 2252.0000     7.8430    94.7640     0.0390   -70.7840   -68.4350     7.4380     7.6460    19.7280     2.5080
 2252.5000     7.7670    95.0550     0.0390   -58.5320   -68.5750     7.2230     7.7510     9.7070     2.5040
 2253.0000     7.7880    96.2760     0.0390   -46.2800   -68.6790     7.1820     8.0530     9.1870     2.4910
 2253.5000     7.8770    97.7690     0.0350   -40.6020   -68.4050     7.1410     8.3810    13.9870     2.4750
 2254.0000     7.9500    99.4170     0.0330   -58.4240   -68.1880     7.1050     8.1750    17.7900     2.4600
 2254.5000     7.9150   101.1080     0.0330   -76.3890   -67.9400     6.7760     7.7710    15.9770     2.4480
 2255.0000     7.8760   103.6430     0.0340   -79.8610   -68.1830     6.4780     7.3680    17.4660     2.4480
 2255.5000     7.8670   105.4410     0.0410   -83.3620   -68.4620     6.1800     7.1820    16.5300     2.4540
 2256.0000     7.8760   103.8420     0.0520   -85.6270   -68.7580     5.8830     7.1050    12.0550     2.4950
 2256.5000     7.8870   102.2250     0.0550   -81.3030   -69.0370     5.5850     7.1050     9.3570     2.5020
 2257.0000     7.8970   102.0580     0.0450   -76.9780   -69.3350     5.2970     7.1050     9.3570     2.4890
 2257.5000     7.9050   103.3500     0.0430   -72.6540   -69.6120     5.1060     6.4820    10.8370     2.4750
 2258.0000     7.9260   104.1210     0.0500   -68.3300   -69.8490     5.2650     7.0690     9.7920     2.4730
 2258.5000     7.9200   105.0490     0.0520   -64.0060   -69.5250     5.6500     8.4890     7.2370     2.4780
 2259.0000     7.9140   106.5520     0.0430   -59.6810   -69.2160     6.0350    10.0700     8.5970     2.4750
 2259.5000     7.9080   108.0240     0.0320   -56.5480   -68.8790     6.4200     8.5110    10.8760     2.4500
 2260.0000     7.9020   109.5620     0.0200   -72.3210   -68.5570     6.8040     8.7520    12.3230     2.4190
 2260.5000     7.8960   109.4590     0.0190   -86.3100   -68.2330     7.5640     9.3230    26.0840     2.4180
 2261.0000     7.8900   108.8370     0.0210   -69.1800   -67.9030     8.6230     9.2540    32.0090     2.4320
 2261.5000     7.8890   109.6140     0.0260   -60.2510   -67.5810     9.6830     9.0200    27.7960     2.4240
 2262.0000     7.8740   110.4180     0.0270   -76.5870   -67.2580    10.8370     9.0390    19.1450     2.4120
 2262.5000     7.9050   109.8330     0.0290   -92.9230   -66.9030    10.8370     9.0980    17.4660     2.4300
 2263.0000     7.9350   108.0580     0.0240  -102.4210   -66.7810    10.2600     9.1870    23.0090     2.4180
 2263.5000     7.9970   108.1690     0.0120   -82.8170   -66.9850     9.7360     8.7710    33.4020     2.4040
 2264.0000     8.0810   109.1440    -0.0010   -71.3490   -67.1580     9.2120     7.7880    42.9350     2.3860
 2264.5000     8.1650   108.5390     0.0010  -100.7540   -67.3310     8.6880     8.0160     8.5370     2.4270
 2265.0000     8.2000   107.1880     0.0190  -117.0630   -67.5120     8.0790     8.2800     9.7050     2.5120
 2265.5000     8.1820   105.7430     0.0260   -54.0530   -67.5850     7.3530     8.5370    14.5170     2.5220
 2266.0000     8.2480   103.5500     0.0250   -67.4210   -67.6570     6.4870     7.3740    22.1730     2.5160
 2266.5000     8.3380   101.8260     0.0250   -62.8970   -67.7240     5.6200     6.2480    21.0050     2.5040
 2267.0000     8.3600   101.9070     0.0240   -10.1060   -67.8020     4.9220     6.2480    15.7980     2.5050
 2267.5000     8.2890   102.7450     0.0230    12.7650   -67.8550     4.6040     6.1650     6.1350     2.5130
 2268.0000     8.1280   100.9990     0.0230    35.6350   -68.0920     4.3380     5.9600     6.6870     2.5200
 2268.5000     8.2410   100.5260     0.0230    38.2940   -68.7380     4.0720     5.6550     8.0790     2.5160
 2269.0000     8.3890   101.5310     0.0230   -16.8400   -69.0810     3.8060     5.3950     7.3490     2.5030
 2269.5000     8.4440   103.4330     0.0240    18.1550   -68.8700     3.6910     5.4560     5.3950     2.5100
 2270.0000     8.3270   102.8530     0.0300    25.9590   -68.7240     3.6300     5.6390     6.5160     2.5270
 2270.5000     8.1900   101.5900     0.0280    17.7910   -68.5620     3.5370     5.9140     8.6460     2.5310
 2271.0000     8.1570   100.7170     0.0200     9.6230   -68.3820     3.6050     5.8800     9.7070     2.5310
 2271.5000     8.4000   100.1130     0.0200     2.9760   -68.3410     3.7400     5.8060     8.7300     2.5280
 2272.0000     8.5090   100.0190     0.0290   -16.3100   -68.4340     3.8760     5.9530     7.3180     2.5500
 2272.5000     8.3120   100.7820     0.0400   -36.7060   -68.5350     4.0110     6.1200     6.7240     2.5660
 2273.0000     8.1820   101.2830     0.0470   -32.9960   -68.6080     4.1470     6.2870     6.7240     2.5730
 2273.5000     8.2630   100.4360     0.0530   -28.0950   -68.6430     4.2620     6.4820     7.5070     2.5830
 2274.0000     8.4620    99.2010     0.0590   -41.1510   -67.8970     4.3120     6.4380     8.2530     2.5770
 2274.5000     8.5490    99.9230     0.0590   -60.7540   -67.1700     4.3620     6.3860     8.5370     2.5790
 2275.0000     8.3620   100.0190     0.0570   -63.1610   -67.0190     4.4120     6.3330     8.4120     2.5740
 2275.5000     8.2380    99.4880     0.0530   -58.4940   -66.9030     4.4620     6.2480     8.2580     2.5630
 2276.0000     8.2240    99.1210     0.0480   -53.8270   -66.7900     4.5120     6.2920     8.1040     2.5450
 2276.5000     8.3570    99.7360     0.0380   -49.1590   -66.8110     4.5730     6.4820     7.9500     2.5220
 2277.0000     8.4960    99.2600     0.0300   -50.2140   -67.0710     4.5640     6.4230     7.7880     2.5010
 2277.5000     8.4490    98.6670     0.0290   -58.0560   -67.3200     4.5390     6.2560     8.0670     2.4920
 2278.0000     8.2250    98.9750     0.0300   -65.8970   -67.5120     4.5130     6.0890     8.3810     2.4950
 2278.5000     8.1990    98.6190     0.0340   -73.7380   -67.9380     4.4900     5.8060     7.9640     2.5060
 2279.0000     8.3800   100.9430     0.0380   -81.5790   -68.4860     4.4900     5.8240     7.5130     2.5220
 2279.5000     8.4780   100.8690     0.0370   -85.7840   -69.0500     4.4900     5.8820     6.9760     2.5270
 2280.0000     8.4210    98.9710     0.0310   -84.4590   -68.9070     4.4900     5.9400     7.4180     2.5150
