~VERSION INFORMATION
 VERS.                2.0:   CWLS LOG ASCII STANDARD - VERSION 2.0
 WRAP.                 NO:   ONE LINE PER DEPTH STEP
~WELL INFORMATION
#MNEM.UNIT      DATA TYPE    INFORMATION
#----------   ------------   ------------------------------
 STRT.F           36.0000:   START DEPTH
 STOP.F         3014.5000:   STOP DEPTH
 STEP.F            0.5000:   STEP LENGTH
 NULL.          -999.2500:   NO VALUE
 COMP.    TESRO PETROLEUM:   COMPANY
 WELL. TESORO N.P.R. "A" #6-21:   WELL
 FLD .             TEAPOT:   FIELD
 LOC .      S21 T39N R78W:   LOCATION
 CNTY.            NATRONA:   COUNTY
 STAT.            WYOMING:   STATE
 CTRY. UNITED STATES OF AMERICA:   COUNTRY
 SRVC.              WELEX:   SERVICE COMPANY
 DATE.        16-JUL-1968:   LOGDATE
 API .     49025100180000:   API NUMBER
~CURVE INFORMATION
#MNEM.UNIT       API CODE    CURVE DESCRIPTION
#----------   ------------   ------------------------------
 DEPT.F                  :   
 SPR .MV     05 010 01 00:   SPONTANEOUS POTENTIAL FROM RES.
 ASN .OHMM   05 041 18 00:   AMPLIFIED SHORT NORMAL 18"
 IL  .OHMM   05 120 00 00:   INDUCTION LOG
 GRD .GAPI   45 310 01 00:   GAMMA RAY FROM DENSITY LOG
 CALD.IN     45 280 60 00:   CALIPER FROM DENSITY LOG
 GDEN.CPS    45 350 30 00:   GAMMA DENS
~PARAMETER INFORMATION
#MNEM.UNIT          VALUE    DESCRIPTION
#----------   ------------   ------------------------------
 EKB .F         5002.0000:   Kelly bushing
 EGL .F         4991.0000:   Ground level
 EDF .F         5001.0000:   Drilling floor
 TD  .F         3025.0000:   Total depth
 DATE.        16-JUL-1968:   Date logged
 CLNT.            A2DTECH:   Client Code
 PD  .                 GL:   Permanent Datum
 EPD .F              4991:   Elevation Permanent Datum
 LMF .                 KB:   Log Measured From
 DMF .                 KB:   Drilling Measured From
 DD  .F              3025:   Depth driller
 DL  .F              3019:   Depth logger
 BLI .F              3014:   Bottom log interval
 TLI .F              2670:   Top log interval
 CS1 .IN            10.75:   Casing size
 CBD1.      10.75" @ 325':   Casing driller 1
 CBL1.F               325:   Casing logger 1
 BS1 .IN                9:   Bit size
 BSD1.F              3025:   Depth drilled with bit1
 DFT .     WATER BASE MUD:   Type fluid in hole
 DFD .                9.7:   Density
 DFV .                 60:   Viscosity
 DFL .                6.4:   Fluid loss
 MSS .              CIRC.:   Source of sample
 RMS .OHMM            2.2:   Rm
 MST .F                84:   Rm Meas. temp.
 RMF .OHMM            1.6:   Rmf
 MFST.F                70:   Rmf Meas. temp.
 RMC .OHMM            3.3:   Rmc
 MCST.F                68:   Rmc Meas. temp.
 MFSS.               MEAS:   Source Rmf.
 RMB .OHMM           1.55:   Rm. at BHT
 BHT .F               120:   BHT.
 MRT .F               120:   Maximum recorded temp.
 LUN .               6869:   Logging unit number
 LUL .                 NC:   Logging unit location
 ENGI.          H. STEITZ:   Recorded By
 WITN.                MAY:   Witnessed by
 ORIG.           5" PRINT:   Origin of data
 UWI .     49025100180000:   Unique Well ID
 DICO. A2D TECHNOLOGIES, INC.:   Digitizing Company
~OTHER INFORMATION
~A   DEPT      SPR        ASN           IL      GRD       CALD       GDEN   
# ...
 2948.0000   -35.1200     3.7950     3.1370    97.1060     9.4620  1168.0909
 2948.5000   -35.1760     3.7920     3.1370    98.1300     9.4620  1155.7570
 2949.0000   -35.2320     3.8750     3.1370    95.5830     9.4620  1144.2350
 2949.5000   -35.2880     4.0850     3.1350    92.6590     9.4610  1120.3660
 2950.0000   -35.3440     4.3390     3.3630    89.8660     9.4500  1101.8380
 2950.5000   -35.4000     4.7380     3.8320    90.4000     9.4400  1085.1689
 2951.0000   -35.4560     5.1470     4.3000    90.6780     9.4290  1081.6100
 2951.5000   -35.5120     5.5540     4.7680    88.5110     9.4190  1085.9470
 2952.0000   -35.5680     5.9650     5.2380    83.1880     9.4080  1087.5551
 2952.5000   -35.5650     6.2010     5.3520    83.9050     9.3980  1083.5980
 2953.0000   -35.4670     6.2690     5.3870    84.7900     9.3870  1089.5630
 2953.5000   -35.3710     6.3070     5.4210    85.1200     9.3770  1097.1320
 2954.0000   -35.2740     6.3500     5.4530    82.9160     9.3660  1105.4670
 2954.5000   -35.1590     6.4540     5.4860    82.8860     9.3630  1100.5350
 2955.0000   -34.9770     6.5580     5.5190    82.4710     9.3630  1095.1169
 2955.5000   -34.7970     6.5620     5.5310    81.2200     9.3630  1089.6990
 2956.0000   -34.6170     6.4820     5.6790    81.4450     9.3630  1102.2900
 2956.5000   -34.7990     6.2800     5.8400    83.8200     9.3630  1113.2419
 2957.0000   -35.0350     6.0920     5.9990    85.2110     9.3680  1130.3180
 2957.5000   -35.2740     6.2650     6.1310    86.8190     9.3740  1147.2480
 2958.0000   -35.4370     6.6220     5.9350    88.6370     9.3800  1156.1630
 2958.5000   -35.5720     6.3850     5.4870    90.5480     9.3860  1151.2460
 2959.0000   -35.3700     5.9290     5.0430    93.6470     9.3920  1160.5620
 2959.5000   -35.0390     5.4670     4.6000    96.9840     9.3970  1182.8719
 2960.0000   -34.8350     5.0800     4.1560   100.3320     9.4030  1205.1810
 2960.5000   -34.9400     4.6830     3.7130   102.0700     9.4040  1216.7990
 2961.0000   -35.0390     4.3050     3.3750   104.9710     9.4050  1207.8530
 2961.5000   -35.1380     4.1120     3.2250   107.9060     9.4070  1207.0990
 2962.0000   -35.2350     3.9410     3.1370   109.6030     9.4080  1210.8350
 2962.5000   -35.3280     3.8940     3.1590   104.9740     9.4100  1209.8409
 2963.0000   -35.3050     3.8980     3.2840   103.4420     9.4110  1206.9780
 2963.5000   -34.8730     3.9710     3.3650   101.9940     9.4120  1201.8790
 2964.0000   -34.4400     4.0430     3.4450   101.2440     9.4140  1196.7791
 2964.5000   -34.4710     4.1170     3.5240   102.0460     9.4150  1191.6801
 2965.0000   -34.5440     4.1200     3.6020   101.9900     9.4170  1187.9720
 2965.5000   -34.6180     4.0340     3.6350   104.2110     9.4180  1196.2180
 2966.0000   -34.6930     3.9300     3.6080   107.2900     9.4190  1203.8669
 2966.5000   -34.7660     3.8230     3.4620   109.4470     9.4210  1205.0720
 2967.0000   -34.8400     3.7160     3.3160   106.7050     9.4190  1204.8710
 2967.5000   -34.9140     3.6060     3.1700   104.3580     9.3980  1210.0341
 2968.0000   -34.9890     3.5280     3.0240   107.0650     9.3770  1216.7990
 2968.5000   -35.0550     3.4250     2.8750   109.7980     9.3560  1231.1021
 2969.0000   -35.1200     3.3230     2.8030   111.2680     9.3460  1240.7910
 2969.5000   -35.1850     3.2380     2.7310   112.1840     9.3590  1246.6200
 2970.0000   -35.2510     3.1790     2.6600   113.1610     9.3710  1253.5790
 2970.5000   -35.3160     3.1210     2.5900   115.5140     9.3830  1258.9900
 2971.0000   -35.3840     3.0640     2.5190   117.8920     9.3950  1271.3750
 2971.5000   -35.3040     3.0060     2.4480   118.0210     9.3870  1283.7590
 2972.0000   -35.1470     2.9480     2.3770   119.1980     9.3700  1293.3160
 2972.5000   -34.9900     2.8910     2.3070   122.0050     9.3480  1305.2679
 2973.0000   -34.8320     2.8330     2.2360   124.7670     9.3480  1299.1610
 2973.5000   -34.6750     2.7760     2.1650   125.8080     9.3610  1289.3640
 2974.0000   -34.5180     2.7230     2.0950   128.6070     9.3730  1295.3280
 2974.5000   -34.4160     2.7220     2.0240   130.2220     9.3830  1286.3820
 2975.0000   -34.4830     2.7380     1.9530   129.4900     9.3670  1288.4860
 2975.5000   -34.6570     2.7530     1.8830   128.4950     9.3490  1280.4170
 2976.0000   -34.8290     2.8280     1.8430   125.0320     9.3310  1260.7020
 2976.5000   -35.0020     2.9140     1.8680   120.7050     9.3130  1243.8571
 2977.0000   -35.1740     2.9820     2.0010   112.7150     9.2950  1230.2419
 2977.5000   -35.3460     3.4620     2.2150   103.0270     9.2840  1213.0900
 2978.0000   -35.5180     4.3030     2.8750    85.1830     9.2840  1179.3290
 2978.5000   -35.6900     5.4740     3.6010    59.9120     9.2820  1119.5490
 2979.0000   -35.8130     6.7090     4.6660    46.4810     9.2740  1078.0649
 2979.5000   -35.8830     9.1010     5.7600    46.7630     9.2660  1044.5790
 2980.0000   -35.9560    14.0740     7.6480    54.9590     9.2780  1017.0610
 2980.5000   -35.8670    15.5700     9.6320    63.5950     9.2960   986.1830
 2981.0000   -35.5570    14.2660    10.1750    73.6850     9.3150   992.3630
 2981.5000   -35.2500    12.4740     9.4150    85.4220     9.3340  1009.5970
 2982.0000   -34.9420    11.0360     8.1590    96.9180     9.3520  1059.7419
 2982.5000   -34.6270     9.5920     6.9110    98.1350     9.3710  1095.0380
 2983.0000   -34.3830     8.8170     5.6850    98.0480     9.3890  1102.4850
 2983.5000   -34.2680     8.2370     5.0570    97.0040     9.4030  1094.7170
 2984.0000   -34.4400     7.7320     4.8520    96.1740     9.4060  1090.5570
 2984.5000   -34.6050     7.4690     4.7490    97.2420     9.4100  1099.1010
 2985.0000   -34.7680     7.3530     4.6460   101.0590     9.4140  1107.1140
 2985.5000   -34.9300     7.2400     4.5440   104.7540     9.4170  1118.6591
 2986.0000   -35.0920     7.1320     4.5800   105.9450     9.4210  1137.1450
 2986.5000   -35.1920     7.0250     4.6330   101.4090     9.4110  1145.2290
 2987.0000   -35.1150     6.8370     4.6870    98.1320     9.3940  1143.3130
 2987.5000   -35.0430     6.4230     4.7410    97.7140     9.3780  1138.6770
 2988.0000   -35.0550     5.8280     4.7950    98.3290     9.3610  1135.2880
 2988.5000   -35.2080     5.9340     4.8490    97.6440     9.3440  1149.6660
 2989.0000   -35.4280     6.5340     4.9040    97.6200     9.3370  1158.5830
 2989.5000   -35.6110     7.0180     4.9580    97.8730     9.3310  1163.0450
 2990.0000   -35.5000     6.9630     5.0140    97.0250     9.3250  1162.5750
 2990.5000   -35.3790     6.9100     5.0320    94.3810     9.3190  1148.2111
 2991.0000   -35.2580     6.8950     5.0890    93.8590     9.3120  1151.9410
 2991.5000   -35.1360     6.9850     5.1450    94.9640     9.3060  1155.6500
 2992.0000   -35.0160     7.1000     5.2010    96.0830     9.3000  1141.9720
 2992.5000   -35.0350     7.2160     5.2560    97.2320     9.2940  1146.4340
 2993.0000   -35.1940     7.2890     5.3120    96.2320     9.2880  1155.3580
 2993.5000   -35.3540     7.3510     5.3670    95.4970     9.2810  1164.2820
 2994.0000   -35.5140     7.4010     5.4230    96.6080     9.2750  1172.2660
 2994.5000   -35.5660     7.4220     5.4790    95.0670     9.2690  1182.0081
 2995.0000   -35.4800     7.3650     5.5340    93.5610     9.2680  1183.9960
 2995.5000   -35.3960     7.2450     5.5890    93.2100     9.2870  1164.4900
 2996.0000   -35.3110     7.1630     5.6280    92.7780     9.3050  1154.7910
 2996.5000   -35.2250     7.2470     5.5940    91.9790     9.3220  1163.1360
 2997.0000   -35.2830     7.5180     5.5580    90.5980     9.3120  1174.2620
 2997.5000   -35.4170     7.2510     5.5210    89.1260     9.3000  1178.0320
 2998.0000   -35.5500     6.9710     5.4850    89.1570     9.2880  1174.0560
 2998.5000   -35.5190     6.9610     5.4480    90.8660     9.2750  1182.0380
 2999.0000   -35.1240     7.2700     5.4110    92.1270     9.2630  1184.9900
 2999.5000   -34.7230     7.3760     5.3740    90.4350     9.2510  1171.9580
