~VERSION INFORMATION
 VERS.                2.0:   CWLS LOG ASCII STANDARD - VERSION 2.0
 WRAP.                 NO:   ONE LINE PER DEPTH STEP
~WELL INFORMATION
#MNEM.UNIT      DATA TYPE    INFORMATION
#----------   ------------   ------------------------------
 STRT.F           15.0000:   START DEPTH
 STOP.F         3245.5000:   STOP DEPTH
 STEP.F            0.5000:   STEP LENGTH
 NULL.          -999.2500:   NO VALUE
 COMP. LAWRENCE ALLISON AND ASSOCIATES:   COMPANY
 WELL. LAWRENCE ALLISON 11 X34 #3-3:   WELL
 FLD .             NPR #3:   FIELD
 LOC .       S3 T38N R78W:   LOCATION
 CNTY.            NATRONA:   COUNTY
 STAT.            WYOMING:   STATE
 CTRY. UNITED STATES OF AMERICA:   COUNTRY
 SRVC.      DRESSER ATLAS:   SERVICE COMPANY
 DATE.        23-MAY-1985:   LOGDATE
 API .     49025110530000:   API NUMBER
~CURVE INFORMATION
#MNEM.UNIT       API CODE    CURVE DESCRIPTION
#----------   ------------   ------------------------------
 DEPT.F                  :   
 SPR .MV     07 010 01 00:   SPONTANEOUS POTENTIAL
 GRR .GAPI   07 310 01 00:   GAMMA RAY FROM RESISTIVITY
 SFL .OHMM   07 220 01 00:   SHALLOW FOCUSED LOG RES.
 ILD .OHMM   07 120 46 00:   INDUCTION LOG DEEP RESISTIVITY
 ILM .OHMM   07 120 44 00:   INDUCTION LOG MEDIUM RESISTIVITY
 TENR.LBS    07 635 01 00:   TENSION
 CALR.IN     07 280 01 00:   CALIPER FROM RESISTIVITY
 RHOB.G/C3   45 350 01 00:   BULK DENSITY
 CORR.G/C3   45 356 01 00:   DENSITY CORRECTION
 CNC .DEC    42 890 03 00:   NEUTRON POROSITY SANDSTONE
~PARAMETER INFORMATION
#MNEM.UNIT          VALUE    DESCRIPTION
#----------   ------------   ------------------------------
 EKB .F         5099.0000:   Kelly bushing
 EGL .F         5087.0000:   Ground level
 EDF .F            0.0000:   Drilling floor
 EPD .F         5087.0000:   Permanent datum
 TD  .F         3240.0000:   Total depth
 DATE.         2-MAY-1985:   Date logged
 CLNT.            A2DTECH:   Client Code
 PD  .                 GL:   Permanent Datum
 DD  .F              3239:   Depth driller
 DL  .F              3242:   Depth logger
 BLI .F              3240:   Bottom log interval
 TLI .F                15:   Top log interval
 CS1 .IN            8.625:   Casing size
 CBD1.      8.625" @ 487':   Casing driller 1
 CBL1.F               487:   Casing logger 1
 BSD1.F              3239:   Depth drilled with bit1
 DFT .            KCL GEL:   Type fluid in hole
 ENGI.      MACK. EDWARDS:   Recorded By
 WITN.         MR. STRONG:   Witnessed by
 ORIG.           5" PRINT:   Origin of data
 UWI .     49025110530000:   Unique Well ID
 DICO. A2D TECHNOLOGIES, INC.:   Digitizing Company
 DAPD.IN               12:   Feet Above Permanent Datum
 BS1 .              7.875:   Bit size
 DFD .                9.1:   Density
 DFV .                 35:   Viscosity
 DFPH.                  8:   pH
 DFL .                9.8:   Fluid loss
 MSS .           FLOWLINE:   Source of sample
 RMS .OHMM            .27:   Rm
 MST .F                68:   Rm Meas. temp.
 RMF .OHMM             .2:   Rmf
 MFST.F                68:   Rmf Meas. temp.
 MFSS.               MEAS:   Source Rmf.
 RMC .OHMM            .34:   Rmc
 MCST.F                68:   Rmc Meas. temp.
 MCSS.               CALC:   Source Rmc.
 RMB .OHMM            .15:   Rm. at BHT
 BHT .F               126:   BHT.
 TCS .HRS               3:   Time Circ. stopped
 MRT .F               126:   Maximum recorded temp.
 LUN .               6274:   Logging unit number
 LUL .               GLTE:   Logging unit location
~OTHER INFORMATION
~A   DEPT      SPR        GRR        SFL        ILD        ILM       TENR       CALR       RHOB       CORR        CNC   
# ...
 1556.0000   -69.5666    76.5724     7.1313     7.2612     6.7890   -80.3593  -999.2500  -999.2500  -999.2500  -999.2500
 1556.5000   -69.5686    78.3557     7.1469     7.2821     6.7892   -70.3792  -999.2500  -999.2500  -999.2500  -999.2500
 1557.0000   -69.5706    78.3527     7.1625     7.3080     6.7900   -70.3792  -999.2500  -999.2500  -999.2500  -999.2500
 1557.5000   -69.7698    78.3497     7.1753     7.2464     6.7905   -60.3992  -999.2500  -999.2500  -999.2500  -999.2500
 1558.0000   -69.5745    76.5593     7.1758     7.1852     6.7912   -70.3792  -999.2500  -999.2500  -999.2500  -999.2500
 1558.5000   -69.7749    75.0695     7.0460     7.1247     6.7917   -60.3992  -999.2500  -999.2500  -999.2500  -999.2500
 1559.0000   -69.7769    74.4713     7.0465     7.0646     6.6688   -70.3792  -999.2500  -999.2500  -999.2500  -999.2500
 1559.5000   -69.7789    73.8731     7.0473     7.0050     6.6693   -70.3792  -999.2500  -999.2500  -999.2500  -999.2500
 1560.0000   -70.1777    73.5726     7.0478     6.9460     6.5486   -80.3593  -999.2500  -999.2500  -999.2500  -999.2500
 1560.5000   -70.1796    76.5457     6.9202     6.8874     6.4298   -70.3792  -999.2500  -999.2500  -999.2500  -999.2500
 1561.0000   -70.3800    80.4122     6.9210     6.8293     6.3135   -70.3792  -999.2500  -999.2500  -999.2500  -999.2500
 1561.5000   -70.1832    82.1948     6.9215     6.7956     6.3139   -60.3992  -999.2500  -999.2500  -999.2500  -999.2500
 1562.0000   -69.9872    82.1919     6.9223     6.7961     6.3146   -60.3992  -999.2500  -999.2500  -999.2500  -999.2500
 1562.5000   -70.3860    82.7841     6.9228     6.7968     6.3151   -60.3992  -999.2500  -999.2500  -999.2500  -999.2500
 1563.0000   -70.1895    83.0770     6.9235     6.9234     6.4329   -70.3792  -999.2500  -999.2500  -999.2500  -999.2500
 1563.5000   -69.7947    80.3973     7.0524     7.0523     6.5527   -70.3792  -999.2500  -999.2500  -999.2500  -999.2500
 1564.0000   -69.3999    73.5488     7.3170     7.1839     6.7988   -70.3792  -999.2500  -999.2500  -999.2500  -999.2500
 1564.5000   -69.6002    66.9985     7.8759     7.3176     6.9254   -60.3992  -999.2500  -999.2500  -999.2500  -999.2500
 1565.0000   -69.8006    65.8051     8.1713     7.3185     7.0544   -50.4192  -999.2500  -999.2500  -999.2500  -999.2500
 1565.5000   -69.6042    73.2423     8.0234     7.4547     7.0549   -60.3992  -999.2500  -999.2500  -999.2500  -999.2500
 1566.0000   -69.8046    73.5369     8.0240     7.4555     7.0557   -60.3992  -999.2500  -999.2500  -999.2500  -999.2500
 1566.5000   -69.6082    75.3196     7.8788     7.3203     7.0562   -50.4192  -999.2500  -999.2500  -999.2500  -999.2500
 1567.0000   -69.4117    75.6142     7.7359     7.3209     7.0570   -40.4391  -999.2500  -999.2500  -999.2500  -999.2500
 1567.5000   -69.6121    75.9089     7.5959     7.3216     7.0575   -40.4391  -999.2500  -999.2500  -999.2500  -999.2500
 1568.0000   -69.8125    77.0963     7.5965     7.3223     7.2127   -40.4391  -999.2500  -999.2500  -999.2500  -999.2500
 1568.5000   -70.0129    78.8790     7.5973     7.3229     7.2133   -60.3992  -999.2500  -999.2500  -999.2500  -999.2500
 1569.0000   -69.8165    79.4712     7.5979     7.3236     7.2140   -60.3992  -999.2500  -999.2500  -999.2500  -999.2500
 1569.5000   -69.8184    80.6593     7.4602     7.3243     7.2147   -60.3992  -999.2500  -999.2500  -999.2500  -999.2500
 1570.0000   -70.0188    80.6557     7.4610     7.3250     7.2154   -60.3992  -999.2500  -999.2500  -999.2500  -999.2500
 1570.5000   -69.8224    79.4629     7.4613     7.3257     7.2161   -70.3792  -999.2500  -999.2500  -999.2500  -999.2500
 1571.0000   -69.6260    75.2929     7.4620     7.3264     7.2168   -70.3792  -999.2500  -999.2500  -999.2500  -999.2500
 1571.5000   -69.4295    74.3971     7.4628     7.3271     7.2174   -70.3792  -999.2500  -999.2500  -999.2500  -999.2500
 1572.0000   -69.0343    74.3941     7.4635     7.3278     7.2181   -70.3792  -999.2500  -999.2500  -999.2500  -999.2500
 1572.5000   -69.0367    75.2840     7.4642     7.3285     7.2188   -70.3792  -999.2500  -999.2500  -999.2500  -999.2500
 1573.0000   -69.4351    75.2810     7.4650     7.3292     7.2195   -70.3792  -999.2500  -999.2500  -999.2500  -999.2500
 1573.5000   -69.4375    74.3852     7.4657     7.3299     7.2202   -70.3792  -999.2500  -999.2500  -999.2500  -999.2500
 1574.0000   -69.8358    73.4894     7.4664     7.3306     7.2209   -70.3792  -999.2500  -999.2500  -999.2500  -999.2500
 1574.5000   -69.8382    72.2960     7.4672     7.3312     7.2215   -70.3792  -999.2500  -999.2500  -999.2500  -999.2500
 1575.0000   -69.8398    73.7811     7.4679     7.3319     7.2222   -70.3792  -999.2500  -999.2500  -999.2500  -999.2500
 1575.5000   -69.0486    76.1589     7.4686     7.3326     7.2229   -60.3992  -999.2500  -999.2500  -999.2500  -999.2500
 1576.0000   -69.0501    81.8099     7.4695     7.3333     7.2236   -60.3992  -999.2500  -999.2500  -999.2500  -999.2500
 1576.5000   -68.6557    82.4039     7.4698     7.3340     7.2243   -60.3992  -999.2500  -999.2500  -999.2500  -999.2500
 1577.0000   -68.6573    78.8279     7.4706     7.3347     7.2250   -70.3792  -999.2500  -999.2500  -999.2500  -999.2500
 1577.5000   -68.2629    77.6351     7.4712     7.3351     7.2254   -70.3792  -999.2500  -999.2500  -999.2500  -999.2500
 1578.0000   -68.2652    78.2273     7.3360     7.3357     7.0715   -70.3792  -999.2500  -999.2500  -999.2500  -999.2500
 1578.5000   -68.2668    79.7124     7.2029     7.3046     7.0718   -50.4192  -999.2500  -999.2500  -999.2500  -999.2500
 1579.0000   -67.8716    78.2214     7.2037     7.2736     6.9438   -60.3992  -999.2500  -999.2500  -999.2500  -999.2500
 1579.5000   -67.4772    77.9208     7.0733     7.2428     6.9443   -60.3992  -999.2500  -999.2500  -999.2500  -999.2500
 1580.0000   -67.4787    77.6202     6.9451     7.2053     6.8186   -70.3792  -999.2500  -999.2500  -999.2500  -999.2500
 1580.5000   -67.6795    75.5340     6.9456     7.2056     6.6952   -66.4969  -999.2500  -999.2500  -999.2500  -999.2500
 1581.0000   -67.8787    74.3406     6.9463     7.2064     6.8199   -66.5768  -999.2500  -999.2500  -999.2500  -999.2500
 1581.5000   -67.8819    74.0401     7.0757     7.2069     6.8204   -66.6766  -999.2500  -999.2500  -999.2500  -999.2500
 1582.0000   -68.0823    74.0371     7.0765     7.4775     7.0765   -66.7764  -999.2500  -999.2500  -999.2500  -999.2500
 1582.5000   -68.2826    74.0341     7.4780     7.6167     7.2082   -66.8762  -999.2500  -999.2500  -999.2500  -999.2500
 1583.0000   -68.0846    74.0312     7.6176     7.7588     7.2090   -66.9760  -999.2500  -999.2500  -999.2500  -999.2500
 1583.5000   -68.6834    74.9210     7.6181     7.9033     7.2095   -67.0758  -999.2500  -999.2500  -999.2500  -999.2500
 1584.0000   -69.2806    75.2156     7.4802     7.9042     7.2103   -57.1951  -999.2500  -999.2500  -999.2500  -999.2500
 1584.5000   -69.4810    73.4258     7.4808     7.6198     7.2109   -57.2949  -999.2500  -999.2500  -999.2500  -999.2500
 1585.0000   -69.4830    72.8294     7.3454     7.6204     7.2117   -47.4141  -999.2500  -999.2500  -999.2500  -999.2500
 1585.5000   -69.2865    72.2307     7.3459     7.4822     7.0809   -37.5334  -999.2500  -999.2500  -999.2500  -999.2500
 1586.0000   -69.2885    72.8235     7.2130     7.3467     6.9527   -37.6332  -999.2500  -999.2500  -999.2500  -999.2500
 1586.5000   -69.0929    75.2008     7.2135     7.3473     6.9532   -47.7135  -999.2500  -999.2500  -999.2500  -999.2500
 1587.0000   -69.0937    76.3888     7.0830     7.2143     6.8274   -57.7939  -999.2500  -999.2500  -999.2500  -999.2500
 1587.5000   -68.6992    78.1709     7.0835     7.0835     6.8281   -67.8743  -999.2500  -999.2500  -999.2500  -999.2500
 1588.0000   -68.3040    78.7637     7.0843     7.0843     6.8286   -67.9741  -999.2500  -999.2500  -999.2500  -999.2500
 1588.5000   -68.3064    77.2721     7.0848     7.0848     6.8294   -78.0544  -999.2500  -999.2500  -999.2500  -999.2500
 1589.0000   -68.5068    76.6740     7.0856     7.0856     6.8299   -68.1737  -999.2500  -999.2500  -999.2500  -999.2500
