~VERSION INFORMATION
 VERS.                2.0:   CWLS LOG ASCII STANDARD - VERSION 2.0
 WRAP.                 NO:   ONE LINE PER DEPTH STEP
~WELL INFORMATION
#MNEM.UNIT      DATA TYPE    INFORMATION
#----------   ------------   ------------------------------
 STRT.F            0.0000:   START DEPTH
 STOP.F         1064.0000:   STOP DEPTH
 STEP.F            0.5000:   STEP LENGTH
 NULL.          -999.2500:   NO VALUE
 COMP.  JOHN BROWN E. & C:   COMPANY
 WELL. JOHN BROWN NPR 3-1 "X" #68-2:   WELL
 FLD .                NPR:   FIELD
 LOC .       S2 T38N R78W:   LOCATION
 CNTY.            NATRONA:   COUNTY
 STAT.            WYOMING:   STATE
 CTRY. UNITED STATES OF AMERICA:   COUNTRY
 SRVC.     ATLAS WIRELINE:   SERVICE COMPANY
 DATE.        25-JAN-1992:   LOGDATE
 API .     49025224850000:   API NUMBER
~CURVE INFORMATION
#MNEM.UNIT       API CODE    CURVE DESCRIPTION
#----------   ------------   ------------------------------
 DEPT.F                  :   
 GRR .GAPI   07 310 01 00:   GAMMA RAY FROM RESISTIVITY
 TENR.LBS    07 635 01 00:   TENSION
 RILD.OHMM   07 120 46 00:   INDUCTION LOG DEEP RESISTIVITY
 RILM.OHMM   07 120 44 00:   INDUCTION LOG MEDIUM RESISTIVITY
~PARAMETER INFORMATION
#MNEM.UNIT          VALUE    DESCRIPTION
#----------   ------------   ------------------------------
 EKB .F         5197.0000:   Kelly bushing
 EGL .F         5187.0000:   Ground level
 TD  .F         1060.0000:   Total depth
 DATE.        25-JAN-1992:   Date logged
 CLNT.            A2DTECH:   Client Code
 PD  .                 GL:   Permanent Datum
 EPD .F               518:   Elevation Permanent Datum
 LMF .                 KB:   Log Measured From
 DMF .                 KB:   Drilling Measured From
 DAPD.F                10:   Feet Above Permanent Datum
 DD  .F              1060:   Depth driller
 DL  .F              1057:   Depth logger
 BLI .F              1055:   Bottom log interval
 CS1 .IN            10.75:   Casing size
 CBD1.       10.75" @ 50':   Casing driller 1
 CBL1.F                50:   Casing logger 1
 BS1 .IN             8.75:   Bit size
 BSD1.F              1060:   Depth drilled with bit1
 DFT .                AIR:   Type fluid in hole
 LUN .            HL-6307:   Logging unit number
 LUL .             CASPER:   Logging unit location
 ENGI.             ZIEGER:   Recorded By
 WITN.             STRONG:   Witnessed by
 ORIG.           5" PRINT:   Origin of data
 UWI .     49025224850000:   Unique Well ID
 DICO. A2D TECHNOLOGIES, INC.:   Digitizing Company
~OTHER INFORMATION
~A    DEPT      GRR      TENR       RILD       RILM   
# ...
 1022.0000   124.9460   181.1510     8.7380     8.8880
 1022.5000   123.3380   182.6170     8.6490     8.7670
 1023.0000   122.6200   184.0820     8.5610     8.6470
 1023.5000   122.2000   185.5470     8.4520     8.5270
 1024.0000   121.7750   187.0120     8.3400     8.4060
 1024.5000   122.3890   188.4780     8.2280     8.2860
 1025.0000   124.8190   189.9430     8.1160     8.1660
 1025.5000   128.6890   191.4080     8.0050     8.0450
 1026.0000   131.5320   192.8740     7.8930     7.9250
 1026.5000   131.6130   194.3390     7.7950     7.8580
 1027.0000   130.9630   195.8040     7.7950     7.8400
 1027.5000   129.3460   197.2690     7.7950     7.8220
 1028.0000   128.9230   198.7350     7.7950     7.8050
 1028.5000   131.6950   200.2000     7.7950     7.7870
 1029.0000   133.4970   201.6650     7.7950     7.7690
 1029.5000   131.1140   203.1300     7.7850     7.7520
 1030.0000   128.1730   204.5960     7.7250     7.7340
 1030.5000   127.5380   206.0610     7.6660     7.7020
 1031.0000   129.9850   207.2760     7.6060     7.6470
 1031.5000   133.0410   208.4250     7.5470     7.5920
 1032.0000   133.7810   209.5740     7.4340     7.4210
 1032.5000   133.3170   210.7230     7.2440     7.2220
 1033.0000   133.1540   211.8720     7.1450     7.0940
 1033.5000   133.4670   213.0210     7.0790     7.0620
 1034.0000   135.7760   214.1700     7.0130     7.0310
 1034.5000   137.1400   215.3190     6.9770     7.0000
 1035.0000   133.8970   216.3990     6.9320     6.9500
 1035.5000   130.6760   218.4340     6.8890     6.8440
 1036.0000   131.6270   220.3540     6.8490     6.7390
 1036.5000   131.7770   222.2750     6.7250     6.6340
 1037.0000   129.6490   224.1950     6.5590     6.4000
 1037.5000   126.6540   226.1160     6.2050     6.1090
 1038.0000   124.1400   228.0360     5.8510     5.8170
 1038.5000   125.5760   229.9570     5.5230     5.5260
 1039.0000   127.2520   231.8770     5.4370     5.2340
 1039.5000   127.3700   233.7980     5.4600     5.0960
 1040.0000   126.0260   235.7180     5.4820     5.4590
 1040.5000   124.2630   237.6380     5.6450     5.7320
 1041.0000   122.4140   239.5590     5.9080     5.9080
 1041.5000   123.7870   241.4790     5.8540     5.7470
 1042.0000   126.3060   243.4000     6.1900     6.2230
 1042.5000   128.8640   245.3200     6.7830     6.9470
 1043.0000   129.7910   247.2410     7.0400     7.1410
 1043.5000   128.9030   249.1610     7.3350     7.3350
 1044.0000   126.1670   251.0820     7.8670     7.6990
 1044.5000   124.2220   253.0020     7.8630     7.9400
 1045.0000   125.2900   254.9220     7.8530     8.0670
 1045.5000   129.0600   256.8430     7.8430  -999.2500
 1046.0000   131.7620   258.7630     7.8340  -999.2500
 1046.5000   132.1860   260.6840     7.8240  -999.2500
 1047.0000   129.2820   262.6040     7.8140  -999.2500
 1047.5000   126.5000   264.5250     7.8040  -999.2500
 1048.0000  -999.2500   266.4450     7.7950  -999.2500
 1048.5000  -999.2500   268.3660  -999.2500  -999.2500
 1049.0000  -999.2500   270.2860  -999.2500  -999.2500
 1049.5000  -999.2500   272.2060  -999.2500  -999.2500
 1050.0000  -999.2500   274.1270  -999.2500  -999.2500
 1050.5000  -999.2500   276.0470  -999.2500  -999.2500
 1051.0000  -999.2500   277.9680  -999.2500  -999.2500
 1051.5000  -999.2500   279.8880  -999.2500  -999.2500
 1052.0000  -999.2500   281.8090  -999.2500  -999.2500
 1052.5000  -999.2500   283.7290  -999.2500  -999.2500
 1053.0000  -999.2500   285.6500  -999.2500  -999.2500
 1053.5000  -999.2500   279.4450  -999.2500  -999.2500
 1054.0000  -999.2500   266.5500  -999.2500  -999.2500
 1054.5000  -999.2500   121.7400  -999.2500  -999.2500
 1055.0000  -999.2500    -9.9050  -999.2500  -999.2500
 1055.5000  -999.2500  -154.7140  -999.2500  -999.2500
 1056.0000  -999.2500  -174.0580  -999.2500  -999.2500
 1056.5000  -999.2500  -184.8040  -999.2500  -999.2500
 1057.0000  -999.2500  -184.8040  -999.2500  -999.2500
 1057.5000  -999.2500  -184.8040  -999.2500  -999.2500
 1058.0000  -999.2500  -184.8040  -999.2500  -999.2500
 1058.5000  -999.2500  -199.8500  -999.2500  -999.2500
 1059.0000  -999.2500  -215.3800  -999.2500  -999.2500
 1059.5000  -999.2500  -216.9980  -999.2500  -999.2500
 1060.0000  -999.2500  -218.6160  -999.2500  -999.2500
 1060.5000  -999.2500  -220.2330  -999.2500  -999.2500
 1061.0000  -999.2500  -221.8510  -999.2500  -999.2500
 1061.5000  -999.2500  -223.4690  -999.2500  -999.2500
 1062.0000  -999.2500  -224.9250  -999.2500  -999.2500
 1062.5000  -999.2500  -248.5670  -999.2500  -999.2500
 1063.0000  -999.2500  -250.0000  -999.2500  -999.2500
 1063.5000  -999.2500  -242.8360  -999.2500  -999.2500
 1064.0000  -999.2500  -234.9550  -999.2500  -999.2500
