~VERSION INFORMATION
 VERS.                2.0:   CWLS LOG ASCII STANDARD - VERSION 2.0
 WRAP.                 NO:   ONE LINE PER DEPTH STEP
~WELL INFORMATION
#MNEM.UNIT      DATA TYPE    INFORMATION
#----------   ------------   ------------------------------
 STRT.F          186.0000:   START DEPTH
 STOP.F         3060.0000:   STOP DEPTH
 STEP.F            0.5000:   STEP LENGTH
 NULL.          -999.2500:   NO VALUE
 COMP.    FENIX & SCISSON:   COMPANY
 WELL. FENIX NPR 3 "AX" #63-29:   WELL
 FLD .              N P R:   FIELD
 LOC .      S29 T39N R78W:   LOCATION
 CNTY.            NATRONA:   COUNTY
 STAT.            WYOMING:   STATE
 CTRY. UNITED STATES OF AMERICA:   COUNTRY
 SRVC.           BIRDWELL:   SERVICE COMPANY
 DATE.        28-FEB-1978:   LOGDATE
 API .     49025105960000:   API NUMBER
~CURVE INFORMATION
#MNEM.UNIT       API CODE    CURVE DESCRIPTION
#----------   ------------   ------------------------------
 DEPT.F                  :   
 CALD.IN     45 280 60 00:   CALIPER FROM DENSITY LOG
 GRD .GAPI   45 310 01 00:   GAMMA RAY FROM DENSITY LOG
 DEN .LBS    07 635 01 00:   
 CORR.G/C3   45 356 01 00:   DENSITY CORRECTION
 SPR .MV     05 010 01 00:   SPONTANEOUS POTENTIAL
 SN  .OHMM   05 040 00 00:   SHORT NORMAL
 ILD .OHMM   05 120 46 00:   DEEP INDUCTION RESISTIVITY
~PARAMETER INFORMATION
#MNEM.UNIT          VALUE    DESCRIPTION
#----------   ------------   ------------------------------
 EKB .F         4993.0000:   Kelly bushing
 EGL .F         4983.0000:   Ground level
 EDF .F            0.0000:   Drilling floor
 TD  .F         3060.0000:   Total depth
 DATE.        28-FEB-1978:   Date logged
 CLNT.            A2DTECH:   Client Code
 SL  . 1300' FNL & 1050' FEL:   Surface Location
 PD  .                 GL:   Permanent Datum
 DD  .F              3060:   Depth driller
 DL  .F              3056:   Depth logger
 BLI .F              5050:   Bottom log interval
 CS1 .IN            8.625:   Casing size
 CBD1.      8.625" @ 214':   Casing driller 1
 CBL1.F               218:   Casing logger 1
 BS1 .IN            7.875:   Bit size
 DFT .     LIGNOSULFONATE:   Type fluid in hole
 DFD .                  9:   Density
 DFV .                 34:   Viscosity
 DFPH.               10.5:   pH
 DFL .                  9:   Fluid loss
 MSS .           FLOWLINE:   Source of sample
 RMS .OHMM            1.8:   Rm
 MST .F                58:   Rm Meas. temp.
 RMF .OHMM             .9:   Rmf
 MFST.F                65:   Rmf Meas. temp.
 RMC .OHMM            2.5:   Rmc
 MCST.F                70:   Rmc Meas. temp.
 MFSS.               MEAS:   Source Rmf.
 RMB .OHMM             88:   Rm. at BHT
 BHT .F               118:   BHT.
 TCS .HRS               8:   Time Circ. stopped
 MRT .F               118:   Maximum recorded temp.
 LUN .               2959:   Logging unit number
 LUL .               CASP:   Logging unit location
 ENGI.             MILLER:   Recorded By
 WITN.         HARRINGTON:   Witnessed by
 ORIG.           5" PRINT:   Origin of data
 UWI .     49025105960000:   Unique Well ID
 DICO. A2D TECHNOLOGIES, INC.:   Digitizing Company
 BSD1.F              3060:   Depth drilled with bit1
 EPD .F              4983:   Elevation Permanent Datum
 LMF .                 KB:   Log Measured From
 DMF .                 KB:   Drilling Measured From
 TLI .F               800:   Top log interval
~OTHER INFORMATION
~A   DEPT     CALD         GRD       DEN       CORR        SPR         SN        ILD   
# ...
 1505.5000     9.4930    95.5500     2.5410     0.0380   -48.1380     8.2660     6.8540
 1506.0000     9.4940    96.4700     2.5340     0.0340   -48.1290     8.2580     6.8590
 1506.5000     9.4960    98.2600     2.5340     0.0300   -48.1200     8.2500     6.8650
 1507.0000     9.4970    99.7940     2.5430     0.0300   -48.1120     8.2430     6.8700
 1507.5000     9.4980   101.8400     2.5490     0.0300   -48.1030     8.2350     6.8760
 1508.0000     9.5000   104.9960     2.5140     0.0300   -48.0940     8.2270     6.8840
 1508.5000     9.5010   103.3200     2.5250     0.0270   -48.0860     8.2190     6.8810
 1509.0000     9.5030    96.4820     2.5380     0.0210   -48.0770     8.2120     6.8600
 1509.5000     9.5040    98.3800     2.5330     0.0140   -48.0680     8.2040     6.8390
 1510.0000     9.5060    98.9500     2.5300     0.0060   -48.0600     8.1960     6.8170
 1510.5000     9.5070    94.9200     2.5590     0.0120   -48.0510     8.1890     6.7950
 1511.0000     9.5090    95.0040     2.5550     0.0250   -48.0420     8.1520     6.7730
 1511.5000     9.5100    95.2190     2.5420     0.0340   -48.0330     8.0930     6.7360
 1512.0000     9.5110    95.5990     2.5300     0.0350   -48.0240     8.0340     6.6770
 1512.5000     9.5130    95.9290     2.5220     0.0380   -48.0160     7.9750     6.6190
 1513.0000     9.5140    96.2580     2.5400     0.0410   -48.0060     7.9160     6.5600
 1513.5000     9.5160    96.5320     2.5340     0.0440   -47.9950     7.8890     6.5010
 1514.0000     9.5170    96.9320     2.5250     0.0480   -48.0450     8.0360     6.4430
 1514.5000     9.5180    97.3590     2.5160     0.0650   -48.2690     8.0280     6.3980
 1515.0000     9.5210   100.2470     2.5070     0.0810   -48.4890     8.0140     6.3980
 1515.5000     9.5230   102.3190     2.5080     0.1040   -48.7230     8.0020     6.3980
 1516.0000     9.6080   100.9780     2.5110     0.1350   -48.9340     7.9910     6.3970
 1516.5000     9.7200    97.5450     2.5130     0.1680   -49.1750     7.9820     6.3970
 1517.0000     9.8300    94.4620     2.5090     0.1880   -48.9960     7.9720     6.3980
 1517.5000     9.9400    94.4130     2.5030     0.1930   -48.7700     7.9630     6.3980
 1518.0000    10.0590    94.9540     2.4960     0.1940   -48.5290     7.9530     6.3980
 1518.5000    10.1270    98.6630     2.4900     0.1950   -48.3000     7.9430     6.3980
 1519.0000    10.1100   100.9950     2.4840     0.1960   -48.0610     7.9330     6.3980
 1519.5000    10.0950    99.1660     2.4770     0.1970   -47.8360     7.9230     6.3980
 1520.0000    10.0710    96.5340     2.4760     0.1980   -47.6060     7.9130     6.3980
 1520.5000    10.0210    95.9530     2.4890     0.1860   -47.6610     7.9030     6.3980
 1521.0000     9.8090    97.4100     2.5060     0.1690   -47.7260     7.8930     6.3980
 1521.5000     9.6110    99.5070     2.5230     0.1410   -47.8020     7.8830     6.3980
 1522.0000     9.3950   101.5910     2.5400     0.1040   -47.8720     7.8730     6.3980
 1522.5000     9.3160   100.3580     2.5560     0.0920   -47.9440     7.8640     6.3980
 1523.0000     9.3200    97.2330     2.5740     0.0800   -48.0160     7.8540     6.3980
 1523.5000     9.3180    93.9010     2.5800     0.0680   -48.0880     7.8440     6.3980
 1524.0000     9.3150    95.4570     2.5720     0.0570   -48.1590     7.8340     6.3970
 1524.5000     9.3140    98.4400     2.5420     0.0450   -48.2310     7.8240     6.3850
 1525.0000     9.3120   101.6070     2.5230     0.0420   -48.3020     7.8140     6.3720
 1525.5000     9.3100   103.1840     2.5620     0.0440   -48.3740     7.8040     6.3590
 1526.0000     9.3090   101.2110     2.5430     0.0490   -48.4460     7.7940     6.3450
 1526.5000     9.3070    99.4540     2.5140     0.0500   -48.5170     7.7840     6.3320
 1527.0000     9.3050    97.6090     2.5120     0.0420   -48.5880     7.7740     6.3190
 1527.5000     9.3030    96.3560     2.5240     0.0330   -48.6630     7.7640     6.3060
 1528.0000     9.3020    96.3480     2.5350     0.0240   -48.7300     7.7550     6.2920
 1528.5000     9.3000    95.1810     2.5450     0.0270   -48.7860     7.7460     6.2790
 1529.0000     9.2980    94.0930     2.5290     0.0430   -48.6640     7.7570     6.2660
 1529.5000     9.2960    92.9000     2.5190     0.0600   -48.5530     7.7670     6.2520
 1530.0000     9.2940    92.7600     2.5040     0.0640   -48.4340     7.7790     6.2390
 1530.5000     9.2920    95.2710     2.5110     0.0420   -48.3180     7.7900     6.2260
 1531.0000     9.2910    98.7680     2.5300     0.0260   -48.2010     7.8000     6.2130
 1531.5000     9.2890   100.7890     2.5540     0.0270   -48.0840     7.8120     6.1990
 1532.0000     9.2870    95.0820     2.5220     0.0270   -47.9670     7.8220     6.1850
 1532.5000     9.2850    95.0120     2.5300     0.0270   -47.8500     7.8330     6.1690
 1533.0000     9.2830    96.4320     2.5360     0.0280   -47.7360     7.8440     6.2200
 1533.5000     9.2820    98.1230     2.5350     0.0280   -47.6190     7.8550     6.3200
 1534.0000     9.2800    99.7020     2.5280     0.0290   -47.6440     7.8660     6.3970
 1534.5000     9.2780   100.3320     2.5230     0.0290   -47.7210     7.8770     6.3970
 1535.0000     9.2760    98.5350     2.5200     0.0300   -47.7970     7.8880     6.3980
 1535.5000     9.2740    95.8540     2.5260     0.0310   -47.8710     7.8920     6.3980
 1536.0000     9.2720    97.9290     2.5310     0.0310   -47.9460     7.8990     6.3980
 1536.5000     9.2710   103.4370     2.5370     0.0320   -48.0220     7.9060     6.3980
 1537.0000     9.2690   109.4820     2.5390     0.0330   -48.0970     7.9130     6.3980
 1537.5000     9.2670   107.6720     2.5370     0.0340   -48.1710     7.9190     6.3980
 1538.0000     9.2650   101.5430     2.5350     0.0340   -48.2480     7.9260     6.3980
 1538.5000     9.2630   100.4810     2.5330     0.0350   -48.3200     7.9330     6.3980
 1539.0000     9.2620   100.1600     2.5340     0.0360   -48.3870     7.9390     6.3980
 1539.5000     9.2600   100.7930     2.5360     0.0360   -48.3270     7.9460     6.3980
 1540.0000     9.2580   101.6370     2.5390     0.0370   -48.2670     7.9530     6.3980
 1540.5000     9.2560   102.8530     2.5350     0.0380   -48.2010     7.9590     6.3980
 1541.0000     9.2540   104.1830     2.5330     0.0370   -48.1380     7.9660     6.3980
 1541.5000     9.2520   105.2800     2.5330     0.0350   -48.0740     7.9730     6.3980
 1542.0000     9.2510   102.0620     2.5340     0.0340   -48.0100     7.9790     6.3980
 1542.5000     9.2490    98.3830     2.5340     0.0320   -47.9470     7.9860     6.3980
 1543.0000     9.2470    99.4110     2.5340     0.0300   -47.8830     7.9930     6.3970
 1543.5000     9.2450   100.6330     2.5350     0.0300   -47.8190     7.9990     6.3980
 1544.0000     9.2430   101.7910     2.5350     0.0300   -47.7570     8.0060     6.3980
 1544.5000     9.2420   102.9870     2.5310     0.0300   -47.6920     8.0130     6.3950
 1545.0000     9.2400   104.2520     2.5270     0.0300   -47.6260     8.0200     6.4010
 1545.5000     9.2380   104.1290     2.5230     0.0300   -47.5900     8.0260     6.3910
 1546.0000     9.2360   103.9580     2.5240     0.0300   -47.6670     8.0340     6.2810
 1546.5000     9.2340   103.7060     2.5250     0.0300   -47.7390     8.0380     6.3450
 1547.0000     9.2320   103.4890     2.5170     0.0300   -47.8150     8.1050     6.4650
 1547.5000     9.2310   103.3180     2.5060     0.0300   -47.8900     8.1630     6.5860
 1548.0000     9.2290   102.3170     2.5080     0.0300   -47.9650     8.2220     6.7060
 1548.5000     9.2270   100.0190     2.5150     0.0300   -48.0400     8.2810     6.8270
 1549.0000     9.2250    99.5190     2.5210     0.0300   -48.1150     8.3400     6.8860
 1549.5000     9.2230    99.3830     2.5240     0.0300   -48.1890     8.3990     6.8860
 1550.0000     9.2220    99.1840     2.5190     0.0370   -48.2650     8.4580     6.8230
 1550.5000     9.2200    98.7030     2.5100     0.0440   -48.3430     8.4920     6.7600
