~VERSION INFORMATION
 VERS.                2.0:   CWLS LOG ASCII STANDARD - VERSION 2.0
 WRAP.                 NO:   ONE LINE PER DEPTH STEP
~WELL INFORMATION
#MNEM.UNIT      DATA TYPE    INFORMATION
#----------   ------------   ------------------------------
 STRT.F          906.0000:   START DEPTH
 STOP.F         3426.0000:   STOP DEPTH
 STEP.F            0.5000:   STEP LENGTH
 NULL.          -999.2500:   NO VALUE
 COMP.    FENIX & SCISSON:   COMPANY
 WELL. FENIX NPR 3 "AX" #46-11:   WELL
 FLD .                NPR:   FIELD
 LOC .      S11 T38N R78W:   LOCATION
 CNTY.            NATRONA:   COUNTY
 STAT.            WYOMING:   STATE
 CTRY. UNITED STATES OF AMERICA:   COUNTRY
 SRVC.       SCHLUMBERGER:   SERVICE COMPANY
 DATE.        16-MAY-1981:   LOGDATE
 API .     49025108720000:   API NUMBER
~CURVE INFORMATION
#MNEM.UNIT       API CODE    CURVE DESCRIPTION
#----------   ------------   ------------------------------
 DEPT.F                  :   
 SPR .MV     07 010 01 00:   SPONTANEOUS POTENTIAL
 ILD .OHMM   07 120 46 00:   INDUCTION LOG DEEP RESISTIVITY
 SFL .OHMM   07 220 01 00:   SHALLOW FOCUSED LOG RESISTIVITY
 TENR.LBS    07 635 01 00:   TENSION
 ILM .OHMM   07 120 44 00:   INDUCTION LOG MEDIUM RESISTIVITY
 CALD.IN     45 280 60 00:   CALIPER FROM DENSITY LOG
 GRD .GAPI   45 310 01 00:   GAMMA RAY FROM DENSITY LOG
 RHOB.G/C3   45 350 01 00:   BULK DENSITY
 TEND.LBS    45 635 01 00:   TENSION FROM DENSITY LOG
 CORR.G/C3   45 356 01 00:   DENSITY CORRECTION
~PARAMETER INFORMATION
#MNEM.UNIT          VALUE    DESCRIPTION
#----------   ------------   ------------------------------
 EKB .F         5199.0000:   Kelly bushing
 EGL .F         5189.0000:   Ground level
 EDF .F            0.0000:   Drilling floor
 TD  .F         3422.0000:   Total depth
 DATE.        16-MAY-1981:   Date logged
 CLNT.            A2DTECH:   Client Code
 SL  . 1867' FSL & 2100' FWL:   Surface Location
 PD  .                 GL:   Permanent Datum
 EPD .F              5189:   Elevation Permanent Datum
 LMF .                 KB:   Log Measured From
 DMF .                 KB:   Drilling Measured From
 DAPD.F                10:   Feet Above Permanent Datum
 DD  .F              3421:   Depth driller
 DL  .F              3422:   Depth logger
 BLI .F              3416:   Bottom log interval
 TLI .F               926:   Top log interval
 CS1 .IN            8.625:   Casing size
 CBD1.      8.625" @ 925':   Casing driller 1
 CBL1.F               926:   Casing logger 1
 BS1 .IN            7.875:   Bit size
 BSD1.F              3421:   Depth drilled with bit1
 DFT .                FGM:   Type fluid in hole
 DFD .                8.5:   Density
 DFV .                 60:   Viscosity
 DFPH.                  9:   pH
 DFL .                 12:   Fluid loss
 MSS .               PITS:   Source of sample
 RMS .OHMM           1.17:   Rm
 MST .F                73:   Rm Meas. temp.
 RMF .OHMM           1.03:   Rmf
 MFST.F                73:   Rmf Meas. temp.
 MFSS.               MEAS:   Source Rmf.
 RMB .OHMM            .71:   Rm. at BHT
 BHT .F               120:   BHT.
 TCS .HRS            1200:   Time Circ. stopped
 TLAB.HRS            1745:   Time logger at bottom
 MRT .F               120:   Maximum recorded temp.
 LUN .               8133:   Logging unit number
 LUL .               CSPR:   Logging unit location
 ENGI.             TAYLOR:   Recorded By
 WITN.              RIVAS:   Witnessed by
 ORIG.           5" PRINT:   Origin of data
 UWI .     49025108720000:   Unique Well ID
 DICO. A2D TECHNOLOGIES, INC.:   Digitizing Company
~OTHER INFORMATION
~A   DEPT      SPR        ILD        SFL       TENR        ILM       CALD         GRD        RHOB     TEND        CORR  
# ...
 2380.0000    -0.1840     7.5670     9.2690   911.3140     7.8740     8.0760   128.1800     2.4600   964.2500    -0.0030
 2380.5000    -0.1180     7.4950     9.2690   911.5960     7.7620     8.0750   126.4590     2.4620   964.3830    -0.0010
 2381.0000     0.5980     7.4240     9.2690   911.8780     7.6240     8.0740   124.7140     2.4630   964.5150     0.0000
 2381.5000     0.6470     7.3530     9.2690   912.1590     7.4860     8.0730   124.6720     2.4590   964.6470     0.0010
 2382.0000     1.0400     7.2820     9.2690   912.4410     7.3480     8.0720   128.5510     2.4540   964.7790     0.0020
 2382.5000     0.9650     7.2100     9.1990   912.7230     7.2100     8.0710   133.4700     2.4500   964.9120     0.0030
 2383.0000     0.9940     7.1730     9.0960   913.0050     7.0720     8.0700   132.2970     2.4480   965.0440     0.0030
 2383.5000     0.9880     7.2500     8.9940   913.2870     6.9150     8.0690   129.5770     2.4470   965.1760     0.0020
 2384.0000     0.9850     7.3210     8.8920   913.5690     6.9930     8.0680   127.0660     2.4490   965.3090     0.0040
 2384.5000     0.9890     7.3930     8.7740   913.8510     7.0830     8.0670   129.2190     2.4550   965.4410     0.0060
 2385.0000     0.9870     7.4640     8.8840   914.1330     7.1730     8.0670   133.0480     2.4660   965.5730     0.0090
 2385.5000     0.9880     7.5360     9.1320   914.4150     7.2630     8.0670   136.0800     2.4770   965.7060     0.0120
 2386.0000     0.9880     7.6080     9.3790   914.6970     7.3540     8.0680   138.0140     2.4830   965.8380     0.0120
 2386.5000     0.9880     7.6790     9.6270   914.9790     7.4440     8.0680   139.1010     2.4730   965.9700     0.0040
 2387.0000     0.9880     7.7510     9.8750   915.2610     7.5340     8.0690   139.2790     2.4620   966.1020    -0.0030
 2387.5000     0.9880     7.8220     9.9730   915.5430     7.6240     8.0690   135.0000     2.4560   966.2350    -0.0030
 2388.0000     0.9880     7.8940     9.5760   915.8240     7.7140     8.0700   130.1600     2.4680   966.3670    -0.0010
 2388.5000     0.9880     7.9650     9.4400   916.1060     7.8050     8.0700   125.1990     2.4790   966.4990     0.0050
 2389.0000     0.9880     8.0370     9.8620   916.3880     7.8950     8.0700   124.0090     2.4900   966.6320     0.0100
 2389.5000     0.9880     8.1540    10.2180   916.6700     8.0060     8.0710   129.1220     2.4900   966.7640     0.0150
 2390.0000     0.9880     8.1360    10.7310   916.9520     7.9840     8.0710   133.7340     2.4920   966.8960     0.0140
 2390.5000     0.9880     8.0850    10.2270   917.2340     7.9250     8.0720   135.8220     2.4960   967.0290     0.0090
 2391.0000     0.9880     8.0350     9.2690   917.5160     7.8650     8.0720   132.3290     2.5000   967.1610     0.0080
 2391.5000     0.9880     7.9840     9.0370   917.7980     7.8060     8.0730   129.7220     2.5010   967.2930     0.0120
 2392.0000     0.9880     7.9330     8.7740   918.0800     7.7180     8.0730   127.0840     2.4970   967.4250     0.0110
 2392.5000     0.9880     7.8830     8.7740   918.3620     7.7810     8.0730   125.5800     2.4890   967.5580     0.0090
 2393.0000     0.9880     7.8320     9.0270   918.6440     7.9010     8.0740   126.7090     2.4800   967.6900     0.0060
 2393.5000     0.9880     7.7820     9.3190   918.9260     8.0210     8.0740   128.1330     2.4780   967.8220     0.0020
 2394.0000     0.9880     7.7310     9.6100   919.2080     8.1540     8.0750   129.5700     2.4740   967.9550    -0.0020
 2394.5000     0.9880     7.6810     9.9010   919.4890     8.0740     8.0750   131.3190     2.4670   968.0870    -0.0060
 2395.0000     0.9880     7.6300    10.3450   919.7710     7.9120     8.0760   134.3790     2.4600   968.2190    -0.0110
 2395.5000     0.9880     7.5800    10.0780   920.0530     7.7500     8.0760   136.4270     2.4590   968.3520    -0.0110
 2396.0000     0.9880     7.5290     9.4400   920.3350     7.5880     8.0770   133.4730     2.4610   968.4840    -0.0060
 2396.5000     0.9880     7.4790     9.3420   920.6170     7.4250     8.0770   128.8240     2.4620   968.6160    -0.0010
 2397.0000     0.9880     7.4460     9.2280   920.8990     7.2630     8.0770   125.0780     2.4540   968.7480     0.0040
 2397.5000     0.9880     7.4660     9.1150   921.1810     7.1730     8.0780   122.5220     2.4460   968.8760     0.0040
 2398.0000     0.9880     7.4850     8.9360   921.4630     7.1730     8.0780   119.9680     2.4390   968.8760     0.0050
 2398.5000     0.9880     7.5050     9.1020   921.7450     7.2150     8.0790   117.4330     2.4350   968.8760     0.0090
 2399.0000     0.9880     7.5260     9.4900   922.0270     7.2660     8.0790   114.8600     2.4440   968.8760     0.0080
 2399.5000     0.9880     7.5470     9.8790   922.3090     7.3170     8.0800   111.3870     2.4410   968.8760     0.0050
 2400.0000     0.9880     7.5780    10.3450   922.5910     7.3680     8.0800   107.4630     2.4480   968.8760     0.0020
 2400.5000     0.9880     7.5190    10.0360   922.8730     7.4410     8.0800   103.4510     2.4540   968.8760    -0.0020
 2401.0000     0.9880     7.3690     9.6470   923.1540     7.3490     8.0810   101.4690     2.4600   968.8760    -0.0050
 2401.5000     0.9880     7.2190     9.2590   923.4360     7.1930     8.0810   101.8840     2.4660   968.8760    -0.0040
 2402.0000     0.9880     7.0690     8.8710   923.7180     7.0360     8.0820   102.4110     2.4720   968.8760     0.0010
 2402.5000     0.9880     6.9190     8.5960   924.0000     6.8800     8.0820   103.2080     2.4780   968.8760     0.0040
 2403.0000     0.9880     6.7690     8.3590   924.2820     6.7230     8.0830   104.8530     2.4840   968.8760     0.0080
 2403.5000     0.9880     6.6660     8.1220   924.5640     6.5670     8.0830   106.5720     2.4900   968.8760     0.0020
 2404.0000     0.9880     6.8010     7.8850   924.8460     6.4270     8.0840   107.9140     2.4850   968.8760    -0.0060
 2404.5000     0.9880     7.0640     7.7180   925.1280     6.5960     8.0840   106.7600     2.4790   968.8760    -0.0110
 2405.0000     0.9880     7.3060     7.8610   925.4100     6.8370     8.0840   103.6400     2.4730   968.8760    -0.0070
 2405.5000     0.9880     7.2660     9.1080   925.6920     7.0780     8.0850   100.8400     2.4730   968.8760    -0.0030
 2406.0000     0.9890     7.2300    10.2620   925.9740     7.3060     8.0850    98.5280     2.4780   968.8760     0.0000
 2406.5000     0.9880     7.1930    11.0700   926.2560     7.1780     8.0860    96.2020     2.4820   968.8760     0.0010
 2407.0000     0.9880     7.1730    10.7310   926.5380     7.0580     8.0860    93.9500     2.4820   968.8760     0.0010
 2407.5000     0.9910     6.7960     9.9680   926.8190     6.9150     8.0870    94.4460     2.4820   968.8760     0.0010
 2408.0000     0.9830     6.4030     9.2290   927.1010     6.6100     8.0870   100.2350     2.4830   968.8760     0.0050
 2408.5000     1.0490     6.0090     8.2500   927.3830     6.2370     8.0870   105.4700     2.4840   968.8760     0.0100
 2409.0000     1.1590     5.6160     7.1130   927.6650     5.8640     8.0880   110.6850     2.4840   968.8760     0.0150
 2409.5000     1.2590     5.4500     5.9770   927.9470     5.4910     8.0880   117.7970     2.4830   968.8760     0.0200
 2410.0000     1.3600     5.8640     5.2540   928.2290     5.2540     8.0890   116.1270     2.4830   968.8760     0.0140
 2410.5000     1.4620     5.7640     5.4500   928.5110     5.1590     8.0890   112.7510     2.4840   968.8760     0.0080
 2411.0000     1.5630     5.5830     6.7090   928.7930     5.1590     8.0900   109.4060     2.4820   968.8760     0.0030
 2411.5000     1.6640     5.3510     7.8040   929.0750     5.1590     8.0900   106.3950     2.4710   968.8760    -0.0030
 2412.0000     1.7660     5.3850     9.4400   929.3570     5.1590     8.0910   106.4170     2.4640   968.8760    -0.0080
 2412.5000     1.8660     5.4920     8.8610   929.6390     5.1590     8.0910   110.8510     2.4720   968.8760    -0.0070
 2413.0000     1.9700     5.6540     7.7160   929.9210     5.2940     8.0910   114.0590     2.4780   968.8760    -0.0030
