~VERSION INFORMATION
 VERS.                2.0:   CWLS LOG ASCII STANDARD - VERSION 2.0
 WRAP.                 NO:   ONE LINE PER DEPTH STEP
~WELL INFORMATION
#MNEM.UNIT      DATA TYPE    INFORMATION
#----------   ------------   ------------------------------
 STRT.F          204.0000:   START DEPTH
 STOP.F         3024.0000:   STOP DEPTH
 STEP.F            0.5000:   STEP LENGTH
 NULL.          -999.2500:   NO VALUE
 COMP.    FENIX & SCISSON:   COMPANY
 WELL. FENIX NPR 3 "AX" #87-33:   WELL
 FLD .      NPR - WILDCAT:   FIELD
 LOC .      S33 T39N R78W:   LOCATION
 CNTY.            NATRONA:   COUNTY
 STAT.            WYOMING:   STATE
 CTRY. UNITED STATES OF AMERICA:   COUNTRY
 SRVC.              WELEX:   SERVICE COMPANY
 DATE.        20-JUN-1977:   LOGDATE
 API .     49025103840000:   API NUMBER
~CURVE INFORMATION
#MNEM.UNIT       API CODE    CURVE DESCRIPTION
#----------   ------------   ------------------------------
 DEPT.F                  :   
 SPR .MV     07 010 01 00:   SPONTANEOUS POTENTIAL
 ILD .OHMM   07 120 46 00:   DEEP INDUCTION RESISTIVITY
 ILM .OHMM   07 120 44 00:   INDUCTION LOG MEDIUM RESISTIVITY
 SGRD.OHMM   07 220 05 00:   SHALLOW SHORT GUARD RESISTIVITY
 CALD.IN     45 280 60 00:   CALIPER FROM DENSITY LOG
 GRD .GAPI   45 310 01 00:   GAMMA RAY FROM DENSITY LOG
 RHOB.G/C3   45 350 01 00:   BULK DENSITY
 CORR.G/C3   45 356 01 00:   DENSITY CORRECTION
~PARAMETER INFORMATION
#MNEM.UNIT          VALUE    DESCRIPTION
#----------   ------------   ------------------------------
 EKB .F         5170.0000:   Kelly bushing
 EGL .F         5160.0000:   Ground level
 TD  .F         3040.0000:   Total depth
 DATE.        20-JUN-1977:   Date logged
 CLNT.            A2DTECH:   Client Code
 SL  . 800' FSL & 100' FEL:   Surface Location
 PD  .                 GL:   Permanent Datum
 EPD .F              5160:   Elevation Permanent Datum
 LMF .                 KB:   Log Measured From
 DMF .                 KB:   Drilling Measured From
 DD  .F              3040:   Depth driller
 DL  .F              3027:   Depth logger
 BLI .F              3025:   Bottom log interval
 TLI .F               200:   Top log interval
 CS1 .IN            8.625:   Casing size
 CBD1.      8.625" @ 230':   Casing driller 1
 CBL1.F               210:   Casing logger 1
 BS1 .IN            7.875:   Bit size
 BSD1.F              3040:   Depth drilled with bit1
 DFT .                KCL:   Type fluid in hole
 DFD .                9.2:   Density
 DFV .                 38:   Viscosity
 DFPH.                7.5:   pH
 DFL .                5.4:   Fluid loss
 MSS .           FLOWLINE:   Source of sample
 RMS .OHMM            .60:   Rm
 MST .F                92:   Rm Meas. temp.
 RMF .OHMM            .29:   Rmf
 MFST.F                92:   Rmf Meas. temp.
 RMC .OHMM            .76:   Rmc
 MCST.F                92:   Rmc Meas. temp.
 MFSS.               MEAS:   Source Rmf.
 MCSS.               MEAS:   Source Rmc.
 RMB .OHMM            .49:   Rm. at BHT
 BHT .F               112:   BHT.
 TCS .HRS               2:   Time Circ. stopped
 MRT .F               112:   Maximum recorded temp.
 LUN .               8611:   Logging unit number
 LUL .           GILLETTE:   Logging unit location
 ENGI.            C. DOAK:   Recorded By
 WITN.      B. HARRINGTON:   Witnessed by
 ORIG.     2.5", 5" PRINT:   Origin of data
 UWI .     49025103840000:   Unique Well ID
 DICO. A2D TECHNOLOGIES, INC.:   Digitizing Company
~OTHER INFORMATION
~A   DEPT      SPR        ILD        ILM       SGRD         CALD       GRD        RHOB      CORR  
  204.0000  -999.2500  -999.2500  -999.2500  -999.2500     8.5000    80.4350     2.0000    -0.2520
  204.5000  -999.2500  -999.2500  -999.2500  -999.2500     8.5400    80.7090     2.0000    -0.2520
  205.0000  -999.2500  -999.2500  -999.2500  -999.2500     8.5400    81.2250     2.0000    -0.2380
  205.5000  -999.2500  -999.2500  -999.2500  -999.2500     8.5400    81.6210     2.0000    -0.2110
  206.0000  -999.2500  -999.2500  -999.2500  -999.2500     8.5440    82.3170     2.0370    -0.0900
  206.5000  -999.2500  -999.2500  -999.2500  -999.2500     8.5610    87.4050     2.1140    -0.0950
  207.0000  -999.2500  -999.2500  -999.2500  -999.2500     8.5790    92.8650     2.1760    -0.0130
  207.5000  -999.2500  -999.2500  -999.2500  -999.2500     8.6820    98.3850     2.2180     0.0390
  208.0000  -999.2500  -999.2500  -999.2500     0.5990     8.8500    98.5680     2.2070     0.0590
  208.5000    -8.7970  -999.2500  -999.2500     1.6770     9.4600    96.8110     2.2450     0.0760
  209.0000   -14.2580     3.6600  1397.8400     2.7830    10.0400    95.1480     2.2730     0.0850
  209.5000   -21.1030     1.1670   750.2940     3.9850    10.3880    93.5050     2.2850     0.0870
  210.0000   -28.1290     0.3600     3.3350     5.2420    10.5750    91.8460     2.2850     0.0880
  210.5000   -32.8190     0.3100     5.1480     5.5270    10.6810    91.5100     2.2800     0.0870
  211.0000   -35.8420     0.2560     5.5340     5.8170    10.7860    92.2140     2.2740     0.0860
  211.5000   -38.8650     0.2130     5.5100     5.9620    10.9440    93.0060     2.2700     0.0860
  212.0000   -40.3390     0.5180     5.4720     6.2820    11.1440    90.4720     2.2710     0.0860
  212.5000   -43.6170     0.7360     5.6870     6.3400    11.2560    88.3300     2.2780     0.0810
  213.0000   -46.0690     1.0930     5.4350     6.4040    11.3440    89.0360     2.3000     0.0740
  213.5000   -47.0640     1.4760     5.5660     6.4690    11.5660    90.9170     2.3050     0.0760
  214.0000   -48.6840     1.8590     5.8240     6.5130    11.9890    92.7910     2.2720     0.0780
  214.5000   -50.4610     8.8590     6.0830     6.8230    12.0720    94.6110     2.2370     0.0730
  215.0000   -52.1890     8.6940     6.3410     7.1630    11.7490    94.6860     2.2140     0.0640
  215.5000   -53.6620     8.2410     6.6000     7.5030    11.3740    94.6140     2.2390     0.0560
  216.0000   -54.2490     8.0930     6.8770     7.8430    11.2180    92.7850     2.2610     0.0550
  216.5000   -55.0810     7.8690     6.6320     8.1830    11.0460    90.8910     2.2680     0.0540
  217.0000   -55.8420     8.9110     6.7740     8.5440    10.8880    88.9860     2.2760     0.0410
  217.5000   -56.6320    10.4200     6.8670     8.2960    11.2240    86.9930     2.2940     0.0280
  218.0000   -57.2980    11.0080     6.9600     8.0310    11.7290    89.6000     2.3120     0.0190
  218.5000   -57.8920    10.5590     7.2660     7.8050    12.3820    93.0040     2.3060     0.0140
  219.0000   -58.5360     9.6980     7.7500     8.2810    13.0050    96.3840     2.2950     0.0090
  219.5000   -58.8360    10.0020     8.2340     8.6970    12.0460    99.4820     2.2810     0.0030
  220.0000   -59.0660    10.2390     8.6980     9.1120    11.6290   102.3910     2.3150    -0.0020
  220.5000   -59.3220    13.6770     9.1280     9.5270    11.1650   105.3250     2.3740    -0.0070
  221.0000   -59.6040    13.5640     9.5570     9.9420    10.9050   108.3810     2.4360    -0.0050
  221.5000   -60.5260    13.4320     9.9860    10.3570    10.4970   109.2520     2.4310    -0.0030
  222.0000   -61.5020    14.7040    10.4260    10.6240    10.3440   109.2760     2.4230    -0.0010
  222.5000   -62.2880    13.2980    10.4690    10.6460    10.3190   107.5770     2.4260     0.0000
  223.0000   -62.2960    11.8340    10.5120    10.6670    10.3470   104.0120     2.4220    -0.0030
  223.5000   -62.3100    12.1600    10.5550    10.6880    10.3770   100.4870     2.4170    -0.0060
  224.0000   -62.3000    12.4940    10.5990    10.7090    10.4080    96.9540     2.4120    -0.0100
  224.5000   -62.3330    12.3290    10.6160    10.7300    10.4240    94.9620     2.4120    -0.0070
  225.0000   -62.4870    12.0500    10.6160    10.7510    10.4360    93.2870     2.4140    -0.0030
  225.5000   -62.6590    11.6220    10.6160    10.7720    10.4480    96.2320     2.4180     0.0000
  226.0000   -61.9290    11.5630    10.4730    10.8040    10.4700    95.1790     2.4220     0.0040
  226.5000   -60.8720    11.4170    10.0560    10.7800    10.4760    97.9180     2.4280     0.0070
  227.0000   -60.2850    11.2720    10.0560    10.6340    10.4600    98.3300     2.4310     0.0110
  227.5000   -60.5960    11.1260    10.0560    10.4880    10.4460    97.8440     2.4240     0.0140
  228.0000   -61.5540    10.9810     9.5240    10.3430    10.4920    97.3260     2.4160     0.0120
  228.5000   -62.5200    10.8100     9.4660    10.1970    10.5650    96.8080     2.4100     0.0090
  229.0000   -63.5090    10.7050     9.3730    10.0510    10.6270    96.2450     2.4120     0.0050
  229.5000   -64.4880    10.5780     9.2810     9.9060    10.6440    94.5630     2.4220     0.0060
  230.0000   -65.4840    10.4510     9.1880     9.7600    10.6520    92.7410     2.4330     0.0080
  230.5000   -66.1910    10.3250     9.0950     9.6140    10.6300    91.4300     2.4420     0.0100
  231.0000   -66.1400    10.1980     9.0030     9.4690    10.6090    91.2760     2.4360     0.0090
  231.5000   -66.1080    10.0710     8.9100     9.3230    10.6090    91.1430     2.4260     0.0080
  232.0000   -66.0510     9.9440     8.8470     9.1860    10.6610    92.5460     2.4150     0.0080
  232.5000   -66.0040     9.8170     8.8210     9.1690    10.7110    93.8400     2.4070     0.0090
  233.0000   -65.9540     9.6980     8.7950     9.1430    10.7610    94.2490     2.4020     0.0090
  233.5000   -65.9050     9.6980     8.7680     9.1180    10.8100    92.9810     2.3960     0.0090
  234.0000   -65.8600     9.6980     8.7420     9.0920    10.7860    92.6970     2.3870     0.0100
  234.5000   -65.7460     9.6980     8.7160     9.0660    10.7580    92.6840     2.3830     0.0100
  235.0000   -65.4800     9.6980     8.6890     9.0410    10.7310    92.5350     2.3840     0.0140
  235.5000   -65.2090     9.6430     8.6630     9.0150    10.7240    91.6000     2.3860     0.0170
  236.0000   -64.9480     9.5920     8.6360     8.9890    10.7520    90.6830     2.3880     0.0190
  236.5000   -64.6780     9.5410     8.6100     8.9640    10.7810    89.9670     2.3860     0.0210
  237.0000   -64.5450     9.4910     8.5840     8.9370    10.8090    88.3970     2.3830     0.0240
  237.5000   -64.2930     9.4400     8.5570     8.9100    10.8380    89.4420     2.3730     0.0290
  238.0000   -64.0680     9.3890     8.5440     8.8830    10.8660    88.0170     2.3640     0.0340
  238.5000   -63.8330     9.2860     8.4900     8.8590    10.8980    86.4920     2.3480     0.0380
  239.0000   -63.5980     9.0650     8.4130     8.6190    10.9420    85.9430     2.3220     0.0460
  239.5000   -63.3670     8.8450     8.0930     8.3550    10.9860    86.9700     2.2910     0.0560
  240.0000   -63.1320     8.6240     7.8250     8.0910    11.0280    86.4120     2.2510     0.0660
  240.5000   -62.8970     8.4040     7.5320     7.8260    11.0290    85.5210     2.2090     0.0740
  241.0000   -62.6960     8.1830     7.1830     7.5620    11.0850    85.3480     2.1460     0.0800
  241.5000   -62.6040     7.9480     6.7850     7.2980    11.2450    86.1490     2.0920     0.0880
  242.0000   -62.5210     7.6800     6.3870     7.0330    11.6980    86.9330     2.0450     0.0990
  242.5000   -62.4400     7.2600     6.2080     6.7530    12.0910    87.5530     1.9940     0.0980
  243.0000   -62.3580     7.3930     6.1080     6.5590    12.4830    87.6410     1.9390     0.0900
  243.5000   -62.2760     7.3930     6.0080     6.3520    13.3310    88.7000     1.9090     0.0810
  244.0000   -62.1940     7.3930     5.9080     6.1450    13.0800    89.6530     1.9180     0.0720
