~VERSION INFORMATION
 VERS.                2.0:   CWLS LOG ASCII STANDARD - VERSION 2.0
 WRAP.                 NO:   ONE LINE PER DEPTH STEP
~WELL INFORMATION
#MNEM.UNIT      DATA TYPE    INFORMATION
#----------   ------------   ------------------------------
 STRT.F           29.5000:   START DEPTH
 STOP.F         2719.5000:   STOP DEPTH
 STEP.F            0.5000:   STEP LENGTH
 NULL.          -999.2500:   NO VALUE
 COMP.          INTEX OIL:   COMPANY
 WELL. INTEX NPR 3 "AX" #82-20:   WELL
 FLD .             TEAPOT:   FIELD
 LOC .      S20 T39N R78W:   LOCATION
 CNTY.            NATRONA:   COUNTY
 STAT.            WYOMING:   STATE
 CTRY. UNITED STATES OF AMERICA:   COUNTRY
 SRVC.       SCHLUMBERGER:   SERVICE COMPANY
 DATE.        19-MAY-1956:   LOGDATE
 API .     49025095270000:   API NUMBER
~CURVE INFORMATION
#MNEM.UNIT       API CODE    CURVE DESCRIPTION
#----------   ------------   ------------------------------
 DEPT.F                  :   
 CALD.IN     45 280 60 00:   CALIPER FROM DENSITY LOG
 GRD .GAPI   45 310 01 00:   GAMMA RAY FROM DENSITY LOG
 CORR.G/C3   45 356 01 00:   DENSITY CORRECTION
 RHOB.G/C3   45 350 01 00:   BULK DENSITY
 SPR .MV     05 010 01 00:   SPONTANEOUS POTENTIAL
 ILD .OHMM   05 120 46 00:   DEEP INDUCTION RESISTIVITY
 SN  .OHMM   05 040 00 00:   SHORT NORMAL
~PARAMETER INFORMATION
#MNEM.UNIT          VALUE    DESCRIPTION
#----------   ------------   ------------------------------
 EKB .F         5014.3000:   Kelly bushing
 EGL .F         5004.0000:   Ground level
 EDF .F            0.0000:   Drilling floor
 TD  .F         2717.0000:   Total depth
 DATE.        19-MAY-1956:   Date logged
 CLNT.            A2DTECH:   Client Code
 PD  .                 GL:   Permanent Datum
 EPD .F              5004:   Elevation Permanent Datum
 LMF .                 KB:   Log Measured From
 DMF .                 KB:   Drilling Measured From
 DAPD.F              10.3:   Feet Above Permanent Datum
 DD  .F              2717:   Depth driller
 DL  .F              2717:   Depth logger
 BLI .F              2716:   Bottom log interval
 TLI .F               100:   Top log interval
 CS1 .IN            10.75:   Casing size
 CBD1.       10.75" @ 30':   Casing driller 1
 BS1 .IN            7.875:   Bit size
 BSD1.F              2717:   Depth drilled with bit1
 DFT .        GEL/CAUSTIC:   Type fluid in hole
 DFD .                9.7:   Density
 DFV .                 35:   Viscosity
 DFPH.                7.6:   pH
 DFL .                8.8:   Fluid loss
 MSS .           FLOWLINE:   Source of sample
 RMS .OHMM           1.68:   Rm
 MST .F                58:   Rm Meas. temp.
 RMF .OHMM           1.17:   Rmf
 MFST.F                68:   Rmf Meas. temp.
 MFSS.                 FP:   Source Rmf.
 RMB .OHMM              1:   Rm. at BHT
 BHT .F               101:   BHT.
 TCS .HRS               4:   Time Circ. stopped
 MRT .F               101:   Maximum recorded temp.
 LUN .               4507:   Logging unit number
 LUL .               CSPR:   Logging unit location
 ENGI.            MANGOLD:   Recorded By
 WITN.             TUTTLE:   Witnessed by
 ORIG.           5" PRINT:   Origin of data
 UWI .     49025095270000:   Unique Well ID
 DICO. A2D TECHNOLOGIES, INC.:   Digitizing Company
~OTHER INFORMATION
~A   DEPT     CALD         GRD      CORR       RHOB        SPR        ILD         SN   
# ...
 2486.5000     8.9900   120.5490     0.1190     2.1840   -31.6190     2.8860     3.8710
 2487.0000     9.1360   107.1110     0.0600     2.1530   -31.6900     3.2150     4.5850
 2487.5000     9.3210    93.6310     0.0200     2.2750   -31.7620     3.6190     5.4350
 2488.0000     8.5850    76.5230     0.0490     2.4470   -31.7540     4.2610     6.0810
 2488.5000     8.6100    79.2300     0.0760     2.4960   -31.6500     4.8850     6.2680
 2489.0000     8.6220    83.7730     0.0740     2.4800   -31.5480     4.9910     6.4570
 2489.5000     8.6260    85.7480     0.0640     2.4590   -31.4470     5.0730     6.5800
 2490.0000     8.6280    83.3980     0.0540     2.4490   -31.3460     5.1610     6.8370
 2490.5000     8.6310    81.5780     0.0660     2.4680   -31.2440     5.2900     7.1710
 2491.0000     8.6340    80.9610     0.0840     2.5080   -31.1430     5.5850     7.5070
 2491.5000     8.6360    81.1400     0.1020     2.5360   -31.0420     6.0910     7.8450
 2492.0000     8.6360    83.2500     0.1120     2.5110   -31.0110     6.5940     8.1660
 2492.5000     8.5700    86.0370     0.0780     2.5310   -31.0520     7.1000     8.8150
 2493.0000     8.5040    87.5210     0.0480     2.5200   -31.0910     7.6070     9.4640
 2493.5000     8.4400    85.6970     0.0290     2.4950   -31.1320     8.1140    10.7960
 2494.0000     8.4030    83.0200     0.0360     2.5110   -31.1720     8.6200    12.3520
 2494.5000     8.4110    79.1380     0.0510     2.5310   -31.2120     9.1250    13.9180
 2495.0000     8.4180    75.3010     0.0690     2.5520   -31.2530     9.5750    15.5200
 2495.5000     8.4250    71.8480     0.0590     2.5460   -31.2930     9.9040    15.9500
 2496.0000     8.4330    72.2820     0.0400     2.5330   -31.3330    10.2610    16.2800
 2496.5000     8.4400    74.6260     0.0470     2.5380   -31.3760    10.6200    16.1810
 2497.0000     8.4480    76.9440     0.0610     2.5270   -31.3290    10.9790    15.7880
 2497.5000     8.4560    79.2460     0.0570     2.5160   -31.2510    11.3350    15.3950
 2498.0000     8.4620    80.8030     0.0610     2.5180   -31.1730    11.6580    15.3160
 2498.5000     8.4720    80.2740     0.0590     2.5120   -31.0940    11.9910    16.1790
 2499.0000     8.4810    79.3850     0.0530     2.5230   -31.0120    12.3550    17.1440
 2499.5000     8.4910    74.5290     0.0460     2.5190   -31.0320    12.7200    18.1090
 2500.0000     8.5010    65.9310     0.0400     2.5210   -31.1100    13.0880    19.0680
 2500.5000     8.5110    57.0710     0.0370     2.5410   -31.1890    13.3620    19.7570
 2501.0000     8.5210    54.3410     0.0490     2.5610   -31.2680    12.7430    19.5980
 2501.5000     8.5310    58.8440     0.0610     2.5530   -31.3460    11.6620    18.9760
 2502.0000     8.5400    63.0530     0.0720     2.5460   -31.3330    10.5990    18.3510
 2502.5000     8.5610    66.1580     0.0720     2.5690   -31.1530     9.5420    17.3850
 2503.0000     8.6070    69.1170     0.0710     2.5220   -30.9790     8.4850    15.3550
 2503.5000     8.6530    72.0690     0.0810     2.5440   -30.8060     7.4250    13.3800
 2504.0000     8.6980    77.0390     0.0740     2.5560   -30.6300     6.3540    11.4080
 2504.5000     8.7440    84.5000     0.0640     2.5500   -30.5980     5.8390     9.4260
 2505.0000     8.7900    91.9030     0.0720     2.5440   -30.6800     5.4740     8.7020
 2505.5000     8.8350    99.2450     0.0790     2.5450   -30.7670     5.1140     8.0240
 2506.0000     8.8810   103.8930     0.0910     2.5400   -30.8530     4.7520     7.3530
 2506.5000     8.9270   104.8700     0.0970     2.5320   -30.9380     4.3920     6.7580
 2507.0000     8.9730   105.7650     0.0910     2.5250   -30.9570     4.1900     6.5220
 2507.5000     9.0180   106.3670     0.0840     2.5210   -30.8070     4.1420     6.2580
 2508.0000     9.0640   110.0850     0.0970     2.5300   -30.6610     4.0920     6.0010
 2508.5000     9.0950   114.3250     0.1120     2.5280   -30.5140     4.0380     6.0050
 2509.0000     9.1220   117.9780     0.1260     2.5220   -30.3670     4.0230     6.0870
 2509.5000     9.1490   116.7580     0.1070     2.4970   -30.2210     4.1430     6.1680
 2510.0000     9.1760   108.2400     0.0780     2.4670   -30.0740     4.2670     6.2490
 2510.5000     9.2030   103.9350     0.0510     2.4800   -30.0010     4.3920     6.3290
 2511.0000     9.2300   104.6450     0.0540     2.4920   -30.0010     4.5310     6.4100
 2511.5000     9.2570   106.6140     0.0570     2.4800   -30.0000     4.6080     6.4910
 2512.0000     9.2840   107.4290     0.0550     2.4720   -30.0000     4.6030     6.5720
 2512.5000     9.3110   106.5760     0.0510     2.4900   -30.0000     4.5900     6.5640
 2513.0000     9.3380   107.8670     0.0630     2.5120   -30.0000     4.5760     6.5410
 2513.5000     9.3650   109.7540     0.0680     2.5050   -30.0000     4.5630     6.5180
 2514.0000     9.3920   108.0400     0.0550     2.4900   -30.0000     4.5490     6.4950
 2514.5000     9.4190   105.1850     0.0720     2.5120   -30.0000     4.5360     6.4720
 2515.0000     9.4460   104.5580     0.0620     2.4970   -30.0020     4.5230     6.4490
 2515.5000     9.4730   108.5480     0.0410     2.4780   -30.0440     4.6230     6.4270
 2516.0000     9.4990   110.9370     0.0250     2.4580   -30.2680     4.8460     6.4090
 2516.5000     9.5160   110.6390     0.0360     2.4470   -30.4910     5.0690     6.5140
 2517.0000     9.4940   109.0400     0.0450     2.4550   -30.7220     5.2920     7.0050
 2517.5000     9.4880   103.7370     0.0610     2.5250   -30.7800     5.5150     7.4830
 2518.0000     9.4880    98.5900     0.0760     2.4990   -30.5820     5.7380     7.9590
 2518.5000     9.4880    95.6790     0.0750     2.5120   -30.3820     5.9620     8.4320
 2519.0000     9.4880    97.6720     0.0690     2.5070   -30.1830     6.1890     8.7640
 2519.5000     9.4880    99.4690     0.0740     2.4960   -30.0030     6.1980     8.6830
 2520.0000     9.4880    96.4000     0.0740     2.4830   -30.0000     6.1760     8.6400
 2520.5000     9.4880    93.2510     0.0630     2.5010   -30.0150     6.1550     8.4920
 2521.0000     9.4890    94.5300     0.0580     2.5150   -30.0450     6.1330     8.3440
 2521.5000     9.5190   100.3640     0.0620     2.4990   -30.0740     6.1120     8.1960
 2522.0000     9.5480   103.6030     0.0670     2.5230   -30.1030     6.0910     8.0610
 2522.5000     9.5780   101.7910     0.0730     2.5140   -30.1320     6.0690     8.2280
 2523.0000     9.6070    99.3830     0.0830     2.5060   -30.1600     6.0480     8.4310
 2523.5000     9.5490    97.0870     0.0750     2.5270   -30.1820     6.0260     8.6350
 2524.0000     9.4570    95.8390     0.0640     2.5020   -30.0430     6.0050     8.7640
 2524.5000     9.3650    92.5410     0.0530     2.4840   -29.9320     5.9840     8.7520
 2525.0000     9.2840    95.5320     0.0460     2.4940   -29.8500     5.9620     8.4760
 2525.5000     9.2650    99.4110     0.0530     2.5070   -29.7680     5.9410     8.1880
 2526.0000     9.2430   103.8840     0.0610     2.5190   -29.6840     5.9190     7.9040
 2526.5000     9.2220   102.0400     0.0660     2.5150   -29.6130     5.8770     7.6970
 2527.0000     9.2000    98.9660     0.0600     2.5190   -29.7680     5.7510     7.8510
 2527.5000     9.1790    97.0160     0.0550     2.5230   -29.9280     5.6260     7.9980
 2528.0000     9.1570    93.8310     0.0490     2.4990   -30.0890     5.5010     8.1430
 2528.5000     9.1580    89.0940     0.0470     2.5170   -30.2480     5.3770     8.0550
 2529.0000     9.1920    93.1850     0.0480     2.5210   -30.3920     5.2520     7.7980
 2529.5000     9.2270    99.1820     0.0420     2.4950   -30.2780     5.1270     7.5420
 2530.0000     9.2620   107.1490     0.0560     2.5150   -30.1450     5.0020     7.2860
 2530.5000     9.2970   109.9440     0.0650     2.5020   -30.0120     4.8780     7.0300
 2531.0000     9.3330   108.5930     0.0540     2.4870   -29.8790     4.7530     6.7730
 2531.5000     9.3680   107.2410     0.0470     2.4970   -29.7450     4.6290     6.4990
