~VERSION INFORMATION
 VERS.                2.0:   CWLS LOG ASCII STANDARD - VERSION 2.0
 WRAP.                 NO:   ONE LINE PER DEPTH STEP
~WELL INFORMATION
#MNEM.UNIT      DATA TYPE    INFORMATION
#----------   ------------   ------------------------------
 STRT.F          212.5000:   START DEPTH
 STOP.F         3098.0000:   STOP DEPTH
 STEP.F            0.5000:   STEP LENGTH
 NULL.          -999.2500:   NO VALUE
 COMP.    FENIX & SCISSON:   COMPANY
 WELL. FENIX NPR 77 "A" #3-33:   WELL
 FLD .                NPR:   FIELD
 LOC .      S33 T39N R78W:   LOCATION
 CNTY.            NATRONA:   COUNTY
 STAT.            WYOMING:   STATE
 CTRY. UNITED STATES OF AMERICA:   COUNTRY
 SRVC.       SCHLUMBERGER:   SERVICE COMPANY
 DATE.        07-MAY-1977:   LOGDATE
 API .     49025103700000:   API NUMBER
~CURVE INFORMATION
#MNEM.UNIT       API CODE    CURVE DESCRIPTION
#----------   ------------   ------------------------------
 DEPT.F                  :   
 SPR .MV     07 010 01 00:   SPONTANEOUS POTENTIAL
 LL8 .OHMM   11 220 08 00:   LATERALOG-8 RESISTIVITY
 ILD .OHMM   07 120 46 00:   DEEP INDUCTION RESISTIVITY
 CALD.IN     45 280 60 00:   CALIPER FROM DENSITY LOG
 GRD .GAPI   45 310 01 00:   GAMMA RAY FROM DENSITY LOG
 RHOB.G/C3   45 350 01 00:   BULK DENSITY
 CORR.G/C3   45 356 01 00:   DENSITY CORRECTION
 ILM .OHMM   07 120 44 00:   INDUCTION LOG MEDIUM RESISTIVITY
~PARAMETER INFORMATION
#MNEM.UNIT          VALUE    DESCRIPTION
#----------   ------------   ------------------------------
 EKB .F         5152.0000:   Kelly bushing
 EGL .F         5141.0000:   Ground level
 TD  .F         3097.0000:   Total depth
 DATE.        07-MAY-1977:   Date logged
 CLNT.            A2DTECH:   Client Code
 SL  . 990' FEL & 990' FSL:   Surface Location
 PD  .                 GL:   Permanent Datum
 EPD .F              5141:   Elevation Permanent Datum
 LMF .                 KB:   Log Measured From
 DMF .                 KB:   Drilling Measured From
 DAPD.F                11:   Feet Above Permanent Datum
 DD  .F              3096:   Depth driller
 DL  .F              3097:   Depth logger
 BLI .F              3091:   Bottom log interval
 TLI .F               222:   Top log interval
 CS1 .IN            8.625:   Casing size
 CBD1.      8.625" @ 200':   Casing driller 1
 CBL1.F               222:   Casing logger 1
 BS1 .IN            7.875:   Bit size
 BSD1.F              3096:   Depth drilled with bit1
 DFT .                KCL:   Type fluid in hole
 DFD .                9.2:   Density
 DFV .                 38:   Viscosity
 DFPH.                  8:   pH
 DFL .                7.6:   Fluid loss
 MSS .           FLOWLINE:   Source of sample
 RMS .OHMM           .191:   Rm
 MST .F                76:   Rm Meas. temp.
 RMF .OHMM           .185:   Rmf
 MFST.F                76:   Rmf Meas. temp.
 MFSS.               MEAS:   Source Rmf.
 RMB .OHMM           .126:   Rm. at BHT
 BHT .F               115:   BHT.
 TCS .HRS            1200:   Time Circ. stopped
 TLAB.HRS            1530:   Time logger at bottom
 MRT .F                15:   Maximum recorded temp.
 LUN .               6442:   Logging unit number
 LUL .               CSPR:   Logging unit location
 ENGI.             MARTIN:   Recorded By
 WITN.          PETTMGILL:   Witnessed by
 ORIG.      2.5" 5" PRINT:   Origin of data
 UWI .     49025103700000:   Unique Well ID
 DICO. A2D TECHNOLOGIES, INC.:   Digitizing Company
~OTHER INFORMATION
~A   DEPT      SPR        LL8        ILD       CALD         GRD      RHOB       CORR        ILM   
# ...
  577.0000   -87.0990    10.1820    11.6680     9.8180    98.7060     2.5190     0.0680     9.5980
  577.5000   -87.9330     9.9970    11.4970     9.8190    98.9480     2.5230     0.0760     9.4210
  578.0000   -88.5560     9.8120    11.3330     9.8210    98.9370     2.5270     0.0800     9.1370
  578.5000   -88.8550     9.6270    10.6020     9.8220    98.6170     2.5320     0.0640     8.8530
  579.0000   -89.1550     9.3070     9.8970     9.8230    99.4020     2.5350     0.0540     8.5260
  579.5000   -89.4520     9.0480     9.1920     9.8240   100.2830     2.5360     0.0660     8.0190
  580.0000   -89.7480     8.7890     8.4870     9.8250    99.9540     2.5200     0.0680     7.5110
  580.5000   -90.0420     8.5300     7.7820     9.8260    98.6170     2.5070     0.0570     7.0040
  581.0000   -90.2150     8.2710     7.0770     9.8270    98.2350     2.4930     0.0470     6.4960
  581.5000   -90.2220     8.0120     6.3720     9.8280   100.8400     2.4790     0.0370     5.9880
  582.0000   -90.3790     6.7220     5.6660     9.8310   104.1710     2.4790     0.0510     5.6200
  582.5000   -90.9490     5.2900     4.9610     9.8250   107.4410     2.4850     0.0690     5.7220
  583.0000   -90.5640     3.8150     4.2560     9.8360   110.8500     2.4910     0.0880     5.8370
  583.5000   -90.1990     5.4000     4.1070     9.8430   114.0220     2.4970     0.1070     5.9400
  584.0000   -89.8380     7.6730     6.1070    10.2100   117.6420     2.4880     0.1260     6.1070
  584.5000   -89.4760     9.7770     6.6320    10.5660   119.1340     2.4720     0.1480     6.4320
  585.0000   -89.1140     9.8680     7.3450    10.7980   116.4970     2.4560     0.1310     6.7890
  585.5000   -88.7510     9.7390     8.3230    10.2410   110.0330     2.4520     0.0680     7.1460
  586.0000   -88.3870     9.5990     9.5840     9.6920   104.1620     2.4920     0.0460     7.5030
  586.5000   -88.0540     9.4590    10.9220     9.6310    98.1790     2.5230     0.0550     7.8600
  587.0000   -88.1600     9.4230    10.9390     9.6260    93.4480     2.5330     0.0750     8.2170
  587.5000   -88.2770     9.7460    10.9570     9.6410    93.1770     2.5400     0.0960     8.5920
  588.0000   -88.3910     9.9880    10.9750     9.6340    94.2120     2.5510     0.0970     8.6850
  588.5000   -88.5060    10.2290    10.9940     9.6390    98.6410     2.5700     0.0850     8.7730
  589.0000   -88.6210    10.4300    11.0120     9.6410   104.1560     2.5670     0.0960     8.8600
  589.5000   -88.5920    10.3770    11.0230     9.6420   109.4980     2.5620     0.0990     8.9150
  590.0000   -88.5270    10.3080    11.1250     9.6440   110.2050     2.5570     0.0950     9.0810
  590.5000   -88.4640    10.2390    11.3770     9.6460   111.0600     2.5520     0.0910     9.3470
  591.0000   -88.1480    10.5840    11.6310     9.6480   109.1740     2.5470     0.0880     9.6180
  591.5000   -87.7140    10.9020    11.8850     9.6500   105.8360     2.5420     0.0840     9.8890
  592.0000   -87.2790    11.2200    12.1390     9.6520   103.5330     2.5410     0.0810    10.1060
  592.5000   -86.8430    11.5380    12.3940     9.6540   101.9090     2.5530     0.0870    10.2420
  593.0000   -86.3980    11.8560    12.6480     9.6560   100.1390     2.5670     0.0950    10.3780
  593.5000   -85.9330    11.9780    12.9020     9.6570    98.5010     2.5790     0.1030    10.5130
  594.0000   -85.4360    11.9780    13.1570     9.6590    97.9840     2.5820     0.1140    10.6490
  594.5000   -84.9420    12.1970    13.4110     9.6610   100.7520     2.5740     0.1090    10.7850
  595.0000   -84.4470    12.6630    13.6650     9.6630   103.2860     2.5640     0.0950    10.9210
  595.5000   -83.9510    13.0150    13.7720     9.6650   103.7900     2.5540     0.1060    11.0230
  596.0000   -83.4580    13.0150    13.7980     9.6670   101.1430     2.5440     0.1020    11.0530
  596.5000   -82.9650    12.8440    13.8240     9.6690    98.7350     2.5350     0.0860    11.0980
  597.0000   -82.7980    12.6820    13.8490     9.6710    98.0110     2.5280     0.0710    11.1430
  597.5000   -82.9770    12.5430    13.8840     9.6730    98.4530     2.5480     0.0820    11.1890
  598.0000   -83.1550    12.7310    13.8770     9.6740    96.6560     2.5740     0.0960    11.2340
  598.5000   -83.3360    12.8780    13.8620     9.6760    94.7140     2.6010     0.0960    11.2790
  599.0000   -83.4910    12.8960    13.8480     9.6780    95.2630     2.6090     0.0890    11.3250
  599.5000   -83.3720    12.8230    13.8340     9.6800    96.6310     2.5990     0.0820    11.3700
  600.0000   -83.2540    12.5770    13.8200     9.6820    96.4080     2.5890     0.0770    11.4150
  600.5000   -83.1380    12.3300    13.8050     9.6840    95.0180     2.5900     0.0770    11.4380
  601.0000   -83.0220    12.0830    13.7910     9.6860    94.6570     2.5980     0.0790    11.3330
  601.5000   -82.9060    11.8940    13.7760     9.6880    96.4240     2.6110     0.0820    11.1550
  602.0000   -82.7890    12.0990    13.7510     9.6900    98.6170     2.6060     0.0840    11.0140
  602.5000   -82.6730    12.3140    13.7660     9.6910   100.9640     2.5620     0.0720    10.8730
  603.0000   -82.5570    12.3140    13.5040     9.6930   102.0960     2.5230     0.0570    10.7320
  603.5000   -82.4400    12.3140    13.5040     9.6950   102.2810     2.4980     0.0420    10.5920
  604.0000   -82.3230    12.1610    13.2820     9.6970    98.7640     2.5290     0.0520    10.4510
  604.5000   -82.2090    12.0040    13.0540     9.6990    95.2500     2.5760     0.0740    10.3100
  605.0000   -82.1510    11.8470    12.8250     9.7010    94.9630     2.5930     0.0900    10.1690
  605.5000   -82.3660    11.6890    12.5960     9.7030    99.0990     2.5900     0.0890    10.0280
  606.0000   -82.5770    11.5320    12.3670     9.7050   102.5720     2.5890     0.0820     9.8880
  606.5000   -82.7860    11.3750    12.1380     9.7070   106.3790     2.5900     0.0750     9.7470
  607.0000   -83.0950    11.2170    11.9100     9.7080   107.6800     2.5970     0.0750     9.6060
  607.5000   -83.5360    11.0600    11.6810     9.7100   105.7630     2.6030     0.0850     9.4650
  608.0000   -83.9750    10.9030    11.4520     9.7100   104.6410     2.6090     0.0880     9.3240
  608.5000   -84.4130    10.7450    11.2230     9.7080   105.7380     2.6120     0.0820     9.1840
  609.0000   -84.8510    10.5880    10.9950     9.7020   107.3110     2.5960     0.0760     9.1350
  609.5000   -85.1580    10.4310    10.8220     9.6960   108.0610     2.5690     0.0710     9.1000
  610.0000   -85.3250    10.2730    10.6930     9.6900   107.3960     2.5490     0.0670     9.0660
  610.5000   -85.4920    10.1160    10.5950     9.6850   108.1700     2.5510     0.0750     9.0310
  611.0000   -85.6590     9.9590    10.4970     9.6790   109.1160     2.5530     0.0810     8.9960
  611.5000   -85.8300     9.8020    10.3990     9.6730   110.0610     2.5520     0.0880     8.9610
  612.0000   -85.8170     9.6440    10.3240     9.6700   110.0660     2.5430     0.0800     8.9270
  612.5000   -85.7490     9.5100    10.2940     9.6710   109.5120     2.5350     0.0690     8.8920
  613.0000   -85.6790     9.5720    10.2650     9.6640   109.3210     2.5260     0.0590     8.8570
  613.5000   -85.6100     9.6360    10.2350     9.6510   109.5820     2.5200     0.0630     8.8220
  614.0000   -85.5400     9.7010    10.2060     9.6380   109.9390     2.5440     0.0760     8.7870
  614.5000   -85.4700     9.7650    10.1760     9.6300   110.1520     2.5850     0.0880     8.7520
  615.0000   -85.4000     9.8680    10.1470     9.6310   109.8810     2.6000     0.1000     8.5960
  615.5000   -85.3310     9.8140    10.1170     9.6310   109.4630     2.5630     0.0950     8.4680
  616.0000   -85.2760     9.6800    10.0870     9.6300   108.8570     2.5300     0.0790     8.3410
  616.5000   -85.3140     9.5460    10.0580     9.6230   108.8040     2.5200     0.0640     8.2130
  617.0000   -85.4970     9.4130    10.0280     9.6160   109.7620     2.5450     0.0540     8.0850
