~VERSION INFORMATION
 VERS.                2.0:   CWLS LOG ASCII STANDARD - VERSION 2.0
 WRAP.                 NO:   ONE LINE PER DEPTH STEP
~WELL INFORMATION
#MNEM.UNIT      DATA TYPE    INFORMATION
#----------   ------------   ------------------------------
 STRT.F            0.0000:   START DEPTH
 STOP.F         1077.0000:   STOP DEPTH
 STEP.F            0.5000:   STEP LENGTH
 NULL.          -999.2500:   NO VALUE
 COMP.         JOHN BROWN:   COMPANY
 WELL.       JOHN X #66-2:   WELL
 FLD .                NPR:   FIELD
 LOC .       S2 T38N R78W:   LOCATION
 CNTY.            NATRONA:   COUNTY
 STAT.            WYOMING:   STATE
 CTRY. UNITED STATES OF AMERICA:   COUNTRY
 SRVC.     ATLAS WIRELINE:   SERVICE COMPANY
 DATE.        04-DEC-1991:   LOGDATE
 API .     49025224820000:   API NUMBER
~CURVE INFORMATION
#MNEM.UNIT       API CODE    CURVE DESCRIPTION
#----------   ------------   ------------------------------
 DEPT.F                  :   
 TENR.LBS    07 635 01 00:   TENSION
 RILD.OHMM   07 120 46 00:   INDUCTION LOG DEEP RESISTIVITY
 RILM.OHMM   07 120 44 00:   INDUCTION LOG MEDIUM RESISTIVITY
 GRR .GAPI   07 310 01 00:   GAMMA RAY FROM RESISTIVITY
~PARAMETER INFORMATION
#MNEM.UNIT          VALUE    DESCRIPTION
#----------   ------------   ------------------------------
 EKB .F         5189.0000:   Kelly bushing
 EGL .F         5179.0000:   Ground level
 EDF .F         5188.0000:   Drilling floor
 EPD .F         5179.0000:   Permanent datum
 TD  .F         1072.0000:   Total depth
 DATE.        04-DEC-1991:   Date logged
 CLNT.            A2DTECH:   Client Code
 SL  . 1893' FSL & 1937' FEL:   Surface Location
 PD  .                 GL:   Permanent Datum
 LMF .                 KB:   Log Measured From
 DMF .                 KB:   Drilling Measured From
 DAPD.F                10:   Feet Above Permanent Datum
 DD  .F              1072:   Depth driller
 DL  .F              1073:   Depth logger
 BLI .F              1071:   Bottom log interval
 CS1 .IN            9.625:   Casing size
 CBD1.       9.625" @ 40':   Casing driller 1
 CBL1.F                50:   Casing logger 1
 BS1 .IN            7.875:   Bit size
 BSD1.F              1072:   Depth drilled with bit1
 DFT .                AIR:   Type fluid in hole
 LUN .            HL 6387:   Logging unit number
 LUL .             CASPER:   Logging unit location
 WITN.        GARY STRONG:   Witnessed by
 ORIG.         2.5" PRINT:   Origin of data
 UWI .     49025224820000:   Unique Well ID
 DICO. A2D TECHNOLOGIES, INC.:   Digitizing Company
~OTHER INFORMATION
~A    DEPT    TENR       RILD       RILM         GRR  
# ...
  365.0000   -62.9920     6.0820     6.2000   132.4610
  365.5000   -62.9920     6.1030     6.2250   133.3400
  366.0000   -62.9920     6.1240     6.2510   135.1900
  366.5000   -62.9920     6.1460     6.2770   138.8520
  367.0000   -62.9920     6.1670     6.3020   142.4750
  367.5000   -62.9920     6.1880     6.3250   144.6760
  368.0000   -62.9920     6.2100     6.3720   141.0140
  368.5000   -62.9920     6.1970     6.4400   135.4680
  369.0000   -62.9920     6.1840     6.4070   135.7690
  369.5000   -62.9920     6.1700     6.3120   138.7240
  370.0000   -62.9920     6.1560     6.2170   141.7230
  370.5000   -62.9920     6.1430     6.1100   143.6970
  371.0000   -62.9920     6.1280     6.1300   146.2330
  371.5000   -62.9920     6.1120     6.1700   149.9750
  372.0000   -62.9920     6.0990     6.2110   151.7870
  372.5000   -62.9920     5.9710     6.1210   150.0440
  373.0000   -62.9920     5.8390     5.9670   151.0300
  373.5000   -62.9920     5.7070     5.8120   156.0860
  374.0000   -62.9920     5.5750     5.6570   156.1510
  374.5000   -62.9920     5.4430     5.4710   149.5150
  375.0000   -62.9920     5.3120     5.4060   143.5320
  375.5000   -62.9920     5.1800     5.3260   138.9560
  376.0000   -62.9920     4.9970     5.2450   143.1590
  376.5000   -62.9920     5.0200     5.1940   151.2570
  377.0000   -62.9920     5.0600     5.2530   153.9410
  377.5000   -62.9920     5.0990     5.3120   152.4140
  378.0000   -62.9920     5.1380     5.3710   150.1570
  378.5000   -62.9920     5.1780     5.4300   151.4350
  379.0000   -62.9920     5.2170     5.4890   157.3250
  379.5000   -62.9920     5.2560     5.5480   161.5350
  380.0000   -62.9920     5.2960     5.6070   162.4120
  380.5000   -62.9920     5.3350     5.6660   158.9870
  381.0000   -62.9920     5.3720     5.7250   152.5120
  381.5000   -62.9920     5.4510     5.7850   146.7580
  382.0000   -62.9920     5.5730     5.8440   146.2420
  382.5000   -62.9920     5.6950     5.9030   147.3190
  383.0000   -62.9920     5.8170     5.9620   146.9960
  383.5000   -62.9920     5.9390     6.0210   144.1650
  384.0000   -62.9920     6.0610     6.0800   141.2590
  384.5000   -62.9920     6.1830     6.1310   140.3110
  385.0000   -62.9920     6.3040     6.2460   143.9460
  385.5000   -62.9920     6.4400     6.3610   150.5370
  386.0000   -62.9920     6.4930     6.4760   156.9770
  386.5000   -62.9920     6.5580     6.5330   159.2100
  387.0000   -62.9920     6.5050     6.4460   159.5570
  387.5000   -62.9920     6.4400     6.3580   159.5380
  388.0000   -62.9920     6.0750     6.2710   157.4300
  388.5000   -62.9920     5.6690     6.0610   146.7850
  389.0000   -62.9920     5.2460     5.5700   135.7900
  389.5000   -62.9920     4.8060     5.0800   129.5530
  390.0000   -62.9920     4.3650     4.5900   132.5210
  390.5000   -62.9920     3.9250     4.1000   141.1000
  391.0000   -62.9920     3.5400     3.6100   147.8780
  391.5000   -62.9920     3.4160     3.4350   148.7010
  392.0000   -62.9920     3.2340     3.3770   148.1980
  392.5000   -62.9920     3.2730     3.3190   148.9320
  393.0000   -62.9920     3.3900     3.2340   152.4770
  393.5000   -62.9920     3.5060     3.5750   156.2320
  394.0000   -62.9920     3.6050     3.8740   155.2380
  394.5000   -62.9920     4.2000     4.4500   147.8140
  395.0000   -62.9920     4.7160     5.1160   139.7320
  395.5000   -62.9920     5.2330     5.6650   140.1430
  396.0000   -62.9920     5.7490     6.1760   140.7750
  396.5000   -62.9920     6.2660     6.6880   139.7460
  397.0000   -62.9920     6.7820     7.1990   137.8610
  397.5000   -62.9920     7.2990     7.7200   136.2900
  398.0000   -62.9920     7.7200     7.7200   134.7240
  398.5000   -62.9920     7.5180     7.7200   133.0600
  399.0000   -62.9920     7.3120     7.7200   132.4210
  399.5000   -62.9920     7.0140     6.9920   134.3250
  400.0000   -62.9920     6.2610     6.3800   136.7200
  400.5000   -62.9920     5.5070     5.7690   139.1730
  401.0000   -62.9460     4.7530     5.1570   142.0910
  401.5000   -62.9000     3.7380     4.5460   147.6250
  402.0000   -62.8550     3.8220     4.1680   145.4840
  402.5000   -62.8090     3.8820     4.1680   139.3130
  403.0000   -62.7640     3.9470     4.1680   140.9950
  403.5000   -62.7180     4.0080     4.3330   146.1830
  404.0000   -62.6730     4.0760     4.3550   145.4860
  404.5000   -62.6270     4.1440     4.3780   137.9870
  405.0000   -62.5820     4.2120     4.4010   132.9770
  405.5000   -62.5360     4.3220     4.4010   132.9560
  406.0000   -62.4910     4.2770     4.4010   137.4680
  406.5000   -62.4450     4.1610     4.2640   143.6840
  407.0000   -62.4000     3.9880     4.0360   149.1580
  407.5000   -62.3540     3.7380     3.8080   149.8880
  408.0000   -62.3090     3.4870     3.5800   145.6990
  408.5000   -62.2630     3.2360     3.3520   139.6950
  409.0000   -62.2180     3.0070     3.0620   141.1300
  409.5000   -62.1720     3.1780     3.2420   142.2990
  410.0000   -62.1270     3.3450     3.5000   141.3170
  410.5000   -62.0810     3.5120     3.7590   139.5990
  411.0000   -62.0360     3.6780     4.0170   137.9450
  411.5000   -61.9900     3.8450     4.2760   136.6940
  412.0000   -61.9450     4.0120     4.5340   131.9560
  412.5000   -61.8990     4.1790     4.7930   128.2000
  413.0000   -61.8530     4.4140     4.9970   132.1240
  413.5000   -61.8080     4.6950     5.2050   135.0900
  414.0000   -61.7620     4.9760     5.4600   137.6700
  414.5000   -61.7170     5.2570     5.7140   136.7480
  415.0000   -61.6710     5.5710     5.9690   135.8650
  415.5000   -61.6260     5.6980     6.0990   136.1670
  416.0000   -61.5800     5.9580     6.3290   137.3960
  416.5000   -61.5350     6.2180     6.5380   138.2570
  417.0000   -61.4890     6.4790     6.7480   137.8690
  417.5000   -61.4440     6.7390     6.9250   129.0130
  418.0000   -61.3980     6.8000     6.9090   121.5960
  418.5000   -61.3530     6.7790     6.8880   121.6460
  419.0000   -61.3070     6.7570     6.8670   126.6500
  419.5000   -61.2620     6.7350     6.8460   130.9600
  420.0000   -61.2160     6.7130     6.8250   134.6500
  420.5000   -61.1710     6.6910     6.8040   138.4260
  421.0000   -61.1250     6.6690     6.7840   138.8160
  421.5000   -61.0800     6.6470     6.7630   135.3880
  422.0000   -61.0340     6.6250     6.7420   132.8830
  422.5000   -60.9890     6.6030     6.7210   134.3950
  423.0000   -60.9430     6.5810     6.7000   136.7300
  423.5000   -60.8980     6.5580     6.6780   138.8590
  424.0000   -60.8520     6.5430     6.6590   138.2880
  424.5000   -60.8070     6.5270     6.6380   134.6490
  425.0000   -60.7610     6.5120     6.6180   131.2640
  425.5000   -60.7160     6.4960     6.5980   128.4460
  426.0000   -60.6700     6.4800     6.5770   130.1690
  426.5000   -60.6250     6.4640     6.5580   134.4950
  427.0000   -60.5790     6.4400     6.7010   138.5790
  427.5000   -60.5340     6.5210     6.8370   142.9070
  428.0000   -60.4880     6.6910     6.9730   142.1180
  428.5000   -60.4420     6.8610     7.1090   136.3610
  429.0000   -60.3970     7.0320     7.2450   128.9570
  429.5000   -60.3510     7.2020     7.3820   130.5910
  430.0000   -60.3060     7.3870     7.5180   132.8080
  430.5000   -60.2600     7.6010     7.6540   132.6950
  431.0000   -60.2150     7.8140     7.7900   127.8750
  431.5000   -60.1690     8.1520     8.0060   123.9270
  432.0000   -60.1240     8.0790     7.9600   123.7320
  432.5000   -60.0780     7.9040     7.8490   127.6410
  433.0000   -60.0330     7.7300     7.7390   125.3810
  433.5000   -59.9870     7.5550     7.6290   122.3930
  434.0000   -59.9420     7.3800     7.5190   120.7480
  434.5000   -59.8960     7.2050     7.4090   124.0540
  435.0000   -59.8510     7.0510     7.3120   127.6020
  435.5000   -59.8050     6.7420     6.6610   129.1550
  436.0000   -59.7600     6.3150     6.0800   128.3730
  436.5000   -59.7140     5.5700     5.4980   125.3520
  437.0000   -59.6690     4.7220     4.9160   121.7440
  437.5000   -59.6230     3.8740     4.3340   118.4350
