~VERSION INFORMATION
 VERS.                2.0:   CWLS LOG ASCII STANDARD - VERSION 2.0
 WRAP.                 NO:   ONE LINE PER DEPTH STEP
~WELL INFORMATION
#MNEM.UNIT      DATA TYPE    INFORMATION
#----------   ------------   ------------------------------
 STRT.F          212.0000:   START DEPTH
 STOP.F         3042.0000:   STOP DEPTH
 STEP.F            0.5000:   STEP LENGTH
 NULL.          -999.2500:   NO VALUE
 COMP.    FENIX & SCISSON:   COMPANY
 WELL.   FENIX "A" #74-28:   WELL
 FLD .             NPR #3:   FIELD
 LOC .      S28 T39N R78W:   LOCATION
 CNTY.            NATRONA:   COUNTY
 STAT.            WYOMING:   STATE
 CTRY. UNITED STATES OF AMERICA:   COUNTRY
 SRVC.              WELEX:   SERVICE COMPANY
 DATE.        03-AUG-1977:   LOGDATE
 API .     49025104080000:   API NUMBER
~CURVE INFORMATION
#MNEM.UNIT       API CODE    CURVE DESCRIPTION
#----------   ------------   ------------------------------
 DEPT.F                  :   
 SPR .MV     07 010 01 00:   SPONTANEOUS POTENTIAL
 ILD .OHMM   07 120 46 00:   INDUCTION LOG DEEP RESISTIVITY
 ILM .OHMM   07 120 44 00:   INDUCTION LOG MEDIUM RESISTIVITY
 SFLU.OHMM   07 220 01 00:   SPHERICALLY FOCUSED LOG UNAVERAGED RESISTIVITY
 CALD.IN     45 280 60 00:   CALIPER FROM DENSITY LOG
 GRD .GAPI   45 310 01 00:   GAMMA RAY FROM DENSITY LOG
 CORR.G/C3   45 356 01 00:   DENSITY CORRECTION
 RHOB.G/C3   45 350 01 00:   BULK DENSITY
~PARAMETER INFORMATION
#MNEM.UNIT          VALUE    DESCRIPTION
#----------   ------------   ------------------------------
 EKB .F         5050.0000:   Kelly bushing
 EGL .F         5040.0000:   Ground level
 EDF .F            0.0000:   Drilling floor
 TD  .F         3044.0000:   Total depth
 DATE.        03-AUG-1977:   Date logged
 CLNT.            A2DTECH:   Client Code
 SL  . 2310' FNL & 930' FEL:   Surface Location
 PD  .                 GL:   Permanent Datum
 EPD .F              5040:   Elevation Permanent Datum
 LMF .                 KB:   Log Measured From
 DMF .                 KB:   Drilling Measured From
 DAPD.F                10:   Feet Above Permanent Datum
 DD  .F              3044:   Depth driller
 DL  .F              3044:   Depth logger
 BLI .F              3042:   Bottom log interval
 TLI .F               238:   Top log interval
 CS1 .IN            8.625:   Casing size
 CBD1.      8.625" @ 220':   Casing driller 1
 CBL1.F               238:   Casing logger 1
 BS1 .IN            7.875:   Bit size
 BSD1.F              3044:   Depth drilled with bit1
 DFT .            KCL MUD:   Type fluid in hole
 DFV .                 35:   Viscosity
 DFPH.               10.5:   pH
 DFL .                7.2:   Fluid loss
 MSS .           FLOWLINE:   Source of sample
 RMS .OHMM           1.13:   Rm
 MST .F                84:   Rm Meas. temp.
 RMF .OHMM           0.77:   Rmf
 MFST.F                70:   Rmf Meas. temp.
 MFSS.           FANN KIT:   Source Rmf.
 MCSS.           FANN KIT:   Source Rmc.
 RMB .OHMM            .82:   Rm. at BHT
 BHT .F               118:   BHT.
 TCS .HRS               7:   Time Circ. stopped
 MRT .F               116:   Maximum recorded temp.
 LUN .               8611:   Logging unit number
 LUL .             CASPER:   Logging unit location
 ENGI.            C. DOAK:   Recorded By
 WITN.      W. PETTINGILL:   Witnessed by
 ORIG.         2.5" PRINT:   Origin of data
 UWI .     49025104080000:   Unique Well ID
 DICO. A2D TECHNOLOGIES, INC.:   Digitizing Company
~OTHER INFORMATION
~A   DEPT      SPR        ILD        ILM       SFLU         CALD       GRD       CORR        RHOB 
# ...
  941.0000   -49.2010     6.6990     7.4460    10.5120     9.0520   116.0714     0.0300     2.4750
  941.5000   -49.2390     6.7080     7.4930    10.6740     9.0350   116.5309     0.0300     2.4670
  942.0000   -49.2770     6.7190     7.5390    11.1170     9.0170   114.5119     0.0320     2.4670
  942.5000   -49.3150     6.7200     7.5850    11.0180     8.9990   112.6055     0.0360     2.4820
  943.0000   -49.3520     6.7200     7.6300    10.8310     8.9820   115.8489     0.0400     2.4870
  943.5000   -49.3900     6.7200     7.6760    10.6430     8.9630   119.0967     0.0430     2.4840
  944.0000   -49.4010     6.7200     7.7230    10.5120     8.9510   122.0426     0.0460     2.4820
  944.5000   -49.4000     6.7200     7.7680    10.5120     8.9550   123.5047     0.0450     2.4790
  945.0000   -49.4000     6.7200     7.7970    10.5120     8.9570   124.3715     0.0440     2.4750
  945.5000   -49.4000     6.7200     7.7830    10.5120     8.9590   125.5874     0.0430     2.4750
  946.0000   -49.4000     6.7200     7.7690    10.6000     8.9610   127.2327     0.0420     2.4800
  946.5000   -49.4000     6.7200     7.7560    10.9110     8.9630   125.1864     0.0410     2.4860
  947.0000   -49.4000     6.7150     7.7420    10.8160     8.9650   121.2870     0.0390     2.4840
  947.5000   -49.4000     6.6960     7.7280    10.7260     8.9670   119.8289     0.0380     2.4810
  948.0000   -49.4000     6.6780     7.7150    10.6360     8.9700   119.4493     0.0380     2.4820
  948.5000   -49.4000     6.6590     7.7010    10.5460     8.9720   120.6137     0.0380     2.4850
  949.0000   -49.4000     6.6410     7.6880    10.5120     8.9740   121.7825     0.0390     2.4880
  949.5000   -49.4000     6.6220     7.6740    10.5120     8.9760   122.0506     0.0420     2.4910
  950.0000   -49.4000     6.6030     7.6600    10.5120     8.9780   122.3171     0.0450     2.4920
  950.5000   -49.4000     6.5850     7.6470    10.5120     8.9800   122.8950     0.0470     2.5070
  951.0000   -49.4000     6.5660     7.6330    10.5120     8.9820   124.3484     0.0500     2.5200
  951.5000   -49.4000     6.5480     7.6190    10.5120     8.9840   126.4058     0.0530     2.5200
  952.0000   -49.4000     6.5290     7.6060    10.5120     8.9870   127.7321     0.0510     2.5120
  952.5000   -49.4000     6.5100     7.5920    10.5120     8.9890   129.0280     0.0450     2.5030
  953.0000   -49.4000     6.4920     7.5780    10.5120     8.9910   129.6059     0.0390     2.4950
  953.5000   -49.4000     6.4730     7.5650    10.5110     8.9930   128.0831     0.0330     2.4950
  954.0000   -49.4000     6.4550     7.5510    10.5150     8.9950   127.6156     0.0300     2.5010
  954.5000   -49.4000     6.4360     7.5370    10.5080     8.9970   126.2454     0.0310     2.4990
  955.0000   -49.4000     6.4170     7.5230    10.5770     8.9990   121.4531     0.0310     2.4930
  955.5000   -49.4000     6.3990     7.5090    10.7050     9.0020   118.7486     0.0320     2.4910
  956.0000   -49.4000     6.3800     7.4930    10.5500     9.0040   116.6392     0.0330     2.4990
  956.5000   -49.4000     6.3620     7.4770    10.3900     9.0060   113.3394     0.0330     2.5030
  957.0000   -49.4000     6.3430     7.4610    10.1310     9.0080   112.1771     0.0340     2.5020
  957.5000   -49.4000     6.3240     7.4460    10.1510     9.0100   111.5017     0.0340     2.5020
  958.0000   -49.4000     6.3060     7.4300    10.2330     9.0120   111.7776     0.0330     2.4950
  958.5000   -49.4000     6.2870     7.4140    10.3140     9.0140   112.9334     0.0330     2.4830
  959.0000   -49.4000     6.2690     7.3980    10.3940     9.0170   113.5070     0.0330     2.4740
  959.5000   -49.4000     6.2500     7.3820    10.5120     9.0190   112.5838     0.0320     2.4690
  960.0000   -49.4000     6.2310     7.3660    10.3480     9.0210   111.3673     0.0320     2.4670
  960.5000   -49.4000     6.2130     7.3500    10.0350     9.0230   109.5513     0.0310     2.4790
  961.0000   -49.3990     6.1940     7.3340     9.7560     9.0250   107.7395     0.0310     2.4750
  961.5000   -49.3750     6.1760     7.3180     9.8470     9.0270   108.3088     0.0300     2.4680
  962.0000   -49.3430     6.1570     7.3020     9.9740     9.0290   109.1756     0.0300     2.4670
  962.5000   -49.3110     6.1380     7.2860    10.1010     9.0310   110.3401     0.0300     2.4670
  963.0000   -49.2790     6.1210     7.2710    10.2280     9.0340   111.5089     0.0300     2.4680
  963.5000   -49.2470     6.1080     7.2550    10.3180     9.0360   112.6690     0.0300     2.4780
  964.0000   -49.2150     6.0960     7.2410    10.1910     9.0380   112.3411     0.0300     2.4870
  964.5000   -49.1830     6.0840     7.2400    10.0490     9.0400   110.5294     0.0300     2.4820
  965.0000   -49.1510     6.0710     7.2400     9.9070     9.0420   110.2057     0.0300     2.4720
  965.5000   -49.1190     6.0590     7.2400     9.7650     9.0440   111.3745     0.0300     2.4630
  966.0000   -49.0870     6.0470     7.2400     9.5760     9.0460   111.6462     0.0300     2.4540
  966.5000   -49.0550     6.0350     7.2400     9.6060     9.0490   110.4210     0.0300     2.4550
  967.0000   -49.0230     6.0230     7.2400     9.6510     9.0510   110.3019     0.0300     2.4580
  967.5000   -48.9910     6.0080     7.2400     9.6960     9.0530   112.1547     0.0300     2.4600
  968.0000   -48.9600     6.0080     7.2400     9.7410     9.0550   112.7283     0.0300     2.4620
  968.5000   -48.9280     6.0080     7.2400     9.7670     9.0570   110.9122     0.0300     2.4670
  969.0000   -48.8960     6.0080     7.2400     9.8080     9.0590   109.1005     0.0300     2.4720
  969.5000   -48.8640     6.0550     7.2400     9.8500     9.0610   107.5821     0.0300     2.4760
  970.0000   -48.8320     6.2470     7.2400     9.8920     9.0630   108.4489     0.0310     2.4700
  970.5000   -48.8000     6.4390     7.5750     9.9400     9.0660   109.9110     0.0320     2.4670
  971.0000   -48.7680     6.6300     7.8970    10.6810     9.0680   111.0798     0.0340     2.4730
  971.5000   -48.7360     6.8220     8.2190    11.5670     9.0700   111.9467     0.0350     2.4790
  972.0000   -48.7040     7.0140     8.4780    12.4320     9.0720   112.2183     0.0370     2.4770
  972.5000   -48.6720     7.2400     8.6500    12.6780     9.0680   112.4899     0.0380     2.4680
  973.0000   -48.6400     7.2760     8.8220    12.9170     9.0590   111.9911     0.0380     2.4610
  973.5000   -48.6090     7.3610     8.9910    13.1570     9.0500   111.2387     0.0380     2.4660
  974.0000   -48.5770     7.4470     9.2260    13.3950     9.0410   110.3199     0.0380     2.4750
  974.5000   -48.5450     7.5150     9.2040    13.2710     9.0330   109.0991     0.0380     2.4840
  975.0000   -48.5130     7.5460     9.1690    13.1480     9.0320   107.8826     0.0380     2.4850
  975.5000   -48.4810     7.5860     9.1330    13.9040     9.0320   106.6661     0.0380     2.4850
  976.0000   -48.4490     7.6250     9.0980    13.7410     9.0320   107.5329     0.0380     2.4850
  976.5000   -48.4170     7.6560     9.0630    13.3260     9.0320   108.6974     0.0380     2.4790
  977.0000   -48.3850     7.6370     9.0550    12.9050     9.0320   109.8619     0.0370     2.4680
  977.5000   -48.3530     7.6210     9.0380    12.7890     9.0320   111.3196     0.0370     2.4740
  978.0000   -48.3210     7.6050     9.0210    12.6710     9.0330   112.1908     0.0360     2.4810
  978.5000   -48.2900     7.5890     9.0030    12.5540     9.0340   112.2691     0.0360     2.4740
  979.0000   -48.2570     7.5730     8.9860    12.4320     9.0360   111.5392     0.0350     2.4790
  979.5000   -48.2250     7.5570     8.9680    13.0070     9.0370   109.4299     0.0350     2.4860
  980.0000   -48.2030     7.5410     8.9510    12.7030     9.0390   108.8087     0.0340     2.4900
  980.5000   -48.2350     7.5250     8.9330    12.0750     9.0400   110.2708     0.0340     2.4950
  981.0000   -48.2610     7.5100     8.9160    12.2680     9.0420   109.0499     0.0330     2.5000
