~VERSION INFORMATION
 VERS.                2.0:   CWLS LOG ASCII STANDARD - VERSION 2.0
 WRAP.                 NO:   ONE LINE PER DEPTH STEP
~WELL INFORMATION
#MNEM.UNIT      DATA TYPE    INFORMATION
#----------   ------------   ------------------------------
 STRT.F            0.0000:   START DEPTH
 STOP.F         5673.0000:   STOP DEPTH
 STEP.F            0.5000:   STEP LENGTH
 NULL.          -999.2500:   NO VALUE
 COMP.       FLUOR DANIEL:   COMPANY
 WELL.   FLUOR "X" #63-10:   WELL
 FLD .             NPR #3:   FIELD
 LOC .      S10 T38N R78W:   LOCATION
 CNTY.            NATRONA:   COUNTY
 STAT.            WYOMING:   STATE
 CTRY. UNITED STATES OF AMERICA:   COUNTRY
 SRVC.      WESTERN ATLAS:   SERVICE COMPANY
 DATE.        02-MAR-1996:   LOGDATE
 API .     49025227690000:   API NUMBER
~CURVE INFORMATION
#MNEM.UNIT       API CODE    CURVE DESCRIPTION
#----------   ------------   ------------------------------
 DEPT.F                  :   
 GRD .GAPI   45 310 01 00:   GAMMA RAY FROM DENSITY LOG
 TEND.LBS    45 635 01 00:   TENSION FROM DENSITY LOG
 CALD.IN     45 280 60 00:   CALIPER FROM DENSITY LOG
 ZCOR.G/C3   45 356 01 00:   DENSITY CORRECTION
 ZDEN.G/C3   45 350 01 00:   BULK DENSITY
 CNC .DEC    42 890 03 00:   COMPENSATED NEUTRON POROSITY SANDSTONE
 SPR .MV     11 010 01 00:   SPONTANEOUS POTENTIAL FROM RESISTIVITY
 RD  .OHMM   11 220 10 00:   RESISTIVITY DEEP
 RS  .OHMM   11 220 09 00:   RESISTIVITY SHALLOW
~PARAMETER INFORMATION
#MNEM.UNIT          VALUE    DESCRIPTION
#----------   ------------   ------------------------------
 EKB .F         5196.0000:   Kelly bushing
 EGL .F         5186.0000:   Ground level
 EDF .F         5195.0000:   Drilling floor
 TD  .F         5674.0000:   Total depth
 CLNT.            A2DTECH:   Client Code
 SL  . 1688' FNL & 1730' FEL:   Surface Location
 PD  .                 GL:   Permanent Datum
 EPD .F              5186:   Elevation Permanent Datum
 LMF .                 KB:   Log Measured From
 DMF .                 KB:   Drilling Measured From
 DAPD.F                10:   Feet Above Permanent Datum
 DATE.        02-MAR-1996:   Date Logged [DD-MMM-YYYY]
 DD  .F              5674:   Depth driller
 DL  .F              5674:   Depth logger
 BLI .F              5663:   Bottom log interval
 CS1 .IN            9.625:   Casing size
 CBD1.      9.625" @ 448':   Casing driller 1
 CBL1.F               448:   Casing logger 1
 BS1 .IN             8.75:   Bit size
 BSD1.F              5674:   Depth drilled with bit1
 DFT .               CHEM:   Type fluid in hole
 DFD .                9.7:   Density
 DFV .                 53:   Viscosity
 DFPH.                9.0:   pH
 DFL .                9.2:   Fluid loss
 MSS .           FLOWLINE:   Source of sample
 RMS .OHMM          0.628:   Rm
 MST .F                71:   Rm Meas. temp.
 RMF .OHMM          0.477:   Rmf
 MFST.F                71:   Rmf Meas. temp.
 MFSS.               MEAS:   Source Rmf.
 RMC .OHMM          0.779:   Rmc
 MCST.F                71:   Rmc Meas. temp.
 MCSS.               MEAS:   Source Rmc.
 RMB .OHMM          0.251:   Rm. at BHT
 BHT .F               178:   BHT.
 TCS .F               4.5:   Time Circ. stopped
 MRT .HRS             178:   Maximum recorded temp.
 LUN .            HL-6530:   Logging unit number
 LUL .             CASPER:   Logging unit location
 ENGI.      PAT RASMUSSEN:   Recorded By
 ORIG.           5" PRINT:   Origin of data
 UWI .     49025227690000:   Unique Well ID
 WITN.         LAFRENIERE:   Witnessed by
 DICO.   A2D TECHNOLOGIES:   Digitizing Company
~OTHER INFORMATION
~A  DEPTH      GRD       TEND       CALD       ZCOR       ZDEN        CNC        SPR         RD         RS
# ...
  766.5000    85.0391   -17.5813    10.0541     0.0719     2.5265     0.2829   -72.1086    12.1962     7.7770
  767.0000    85.0426   -17.7905    10.0542     0.0583     2.5355     0.2778   -72.2762    12.5336     8.0508
  767.5000    85.0455   -17.9997    10.0547     0.0403     2.5430     0.2757   -72.4458    12.5275     8.1630
  768.0000    85.0483   -25.7122    10.0553     0.0432     2.5430     0.2748   -72.6160    12.5226     8.1630
  768.5000    84.1205   -25.9667    10.0558     0.0492     2.5407     0.2736   -72.7837    12.7791     8.1630
  769.0000    83.8492   -26.1759    10.0564     0.0536     2.5355     0.2736   -72.7337    12.9521     8.2197
  769.5000    83.8527   -33.8830    10.0569     0.0520     2.5286     0.2742   -72.6703    13.1275     8.3921
  770.0000    83.8556   -34.1428    10.0575     0.0520     2.5189     0.2754   -72.6081    13.2135     8.3342
  770.5000    83.8584   -41.8483    10.0580     0.0536     2.5114     0.2778   -72.5461    13.1160     8.3342
  771.0000    83.8620   -42.0575    10.0586     0.0564     2.5084     0.2814   -72.4842    13.0205     8.2197
  771.5000    84.1660   -42.3190    10.0591     0.0548     2.5076     0.2856   -72.4210    12.7480     8.1630
  772.0000    82.9640   -42.5282    10.0597     0.0532     2.5106     0.2946   -72.3265    12.4811     7.9953
  772.5000    81.7621   -42.7374    10.0602     0.0517     2.5143     0.2982   -72.1944    12.3037     7.9401
  773.0000    81.4637   -42.9535    10.0608     0.0516     2.5198     0.2976   -72.0645    12.2989     7.9401
  773.5000    82.0697   -43.2081    10.0613     0.0516     2.5256     0.2967   -72.0248    12.4654     7.8854
  774.0000    82.9761   -43.4172    10.0619     0.0560     2.5271     0.2940   -72.1136    12.4478     7.9401
  774.5000    84.4850   -43.6282    10.0621     0.0575     2.5263     0.2907   -72.2012    12.1986     7.9401
  775.0000    87.1994   -43.8879    10.0615     0.0589     2.5240     0.2931   -72.2896    12.1097     7.9401
  775.5000    88.1058   -36.5486    10.0611     0.0586     2.5150     0.2964   -72.3802    12.1050     7.9401
  776.0000    86.9039   -36.8101    10.0606     0.0543     2.5097     0.3045   -72.3043    12.0157     7.9401
  776.5000    86.3042   -37.0716    10.0752     0.0542     2.5165     0.3024   -72.2035    11.8459     7.8854
  777.0000    85.4035   -37.2808    10.0747     0.0647     2.5210     0.3000   -72.1030    11.6785     7.8303
  777.5000    84.5035   -37.4900    10.0743     0.0676     2.5217     0.3006   -72.0081    11.3553     7.7234
  778.0000    83.9039   -37.7061    10.0739     0.0585     2.5171     0.3042   -71.7631    11.1166     7.6701
  778.5000    83.6056   -37.9607    10.0734     0.0584     2.5119     0.3033   -71.4986    11.4241     7.5647
  779.0000    83.9277   -38.1699    10.0729     0.0614     2.5089     0.2994   -71.3158    11.5799     7.5125
  779.5000    86.9252   -38.3808    10.0875     0.0629     2.5066     0.2973   -71.1896    11.5737     7.5125
  780.0000    87.8317   -31.0920    10.0870     0.0613     2.5051     0.2993   -71.0682    11.4097     7.5125
  780.5000    86.0273   -31.3535    10.1017     0.0552     2.5043     0.3009   -71.0420    11.0942     7.5647
  781.0000    86.3334   -24.0664    10.1162     0.0522     2.5051     0.3000   -71.2286    11.1761     7.6701
  781.5000    86.9373   -31.8242    10.1157     0.0611     2.5111     0.2970   -71.4116    11.3181     7.7234
  782.0000    86.6382   -39.5296    10.1303     0.0686     2.5216     0.2911   -71.5969    11.5499     7.7770
  782.5000    86.6418   -47.2351    10.1299     0.0625     2.5261     0.2865   -71.7786    11.7064     7.8854
  783.0000    86.6446   -47.4513    10.1445     0.0579     2.5244     0.2847   -71.6978    11.8648     7.9401
  783.5000    87.5518   -47.7058    10.1439     0.0549     2.5178     0.2844   -71.6003    11.8590     7.9401
  784.0000    89.0599   -40.3665    10.1585     0.0563     2.5102     0.2847   -71.5042    11.8544     7.9401
  784.5000    86.3526   -33.1317    10.1581     0.0547     2.5133     0.2841   -71.4084    11.9320     7.9953
  785.0000    84.8495   -25.8446    10.1576     0.0502     2.5170     0.2826   -71.3125    12.0267     8.0508
  785.5000    84.2089   -18.5576    10.1572     0.0501     2.5162     0.2766   -71.2164    12.1728     8.0508
  786.0000    84.2535   -11.3194    10.1568     0.0561     2.5124     0.2754   -71.1210    12.1669     8.0508
  786.5000    84.8587   -11.5843    10.1412     0.0650     2.5109     0.2781   -71.0238    12.1622     8.0508
  787.0000    85.4640   -11.7935    10.1408     0.0633     2.5147     0.2814   -71.1110    12.1562     8.0463
  787.5000    85.7681   -12.0027    10.1404     0.0544     2.5169     0.2805   -71.3285    11.9845     7.9401
  788.0000    84.2655   -12.2189    10.1248     0.0393     2.5169     0.2741   -71.5486    11.6528     7.9401
  788.5000    83.0629   -19.9697    10.1244     0.0318     2.5184     0.2733   -71.7697    11.4881     7.8854
  789.0000    83.0664   -20.1789    10.1391     0.0377     2.5251     0.2766   -71.9820    11.4825     7.7234
  789.5000    83.3705   -27.8860    10.1235     0.0481     2.5296     0.2826   -71.9894    11.4781     7.6701
  790.0000    84.2776   -28.1458    10.1381     0.0631     2.5281     0.2841   -71.9881    11.6346     7.7234
  790.5000    87.5937   -35.8513    10.1377     0.0750     2.5198     0.2883   -71.9882    12.1219     7.9401
  791.0000    87.8978   -36.0605    10.1372     0.0765     2.5055     0.2901   -71.9897    12.2849     8.2257
  791.5000    85.1898   -36.3220    10.1367     0.0749     2.4995     0.2895   -71.9795    12.1113     8.3921
  792.0000    84.2890   -44.0274    10.1213     0.0583     2.5017     0.2874   -71.7570    11.9402     8.2197
  792.5000    84.2926   -44.2366    10.1209     0.0418     2.5077     0.2895   -71.5334    11.4343     7.9953
  793.0000    84.2954   -45.4523    10.1203     0.0387     2.5238     0.2919   -71.3117    10.9791     7.7234
  793.5000    83.9970   -52.2036    10.1200     0.0463     2.5302     0.2925   -71.1351    10.9748     7.5647
  794.0000    84.3018   -44.8642    10.1195     0.0551     2.5287     0.2889   -71.0210    10.9835     7.5125
  794.5000    84.9071   -45.1274    10.1040     0.0625     2.5273     0.2874   -70.9064    11.0081     7.5647
  795.0000    84.3075   -44.1029    10.1036     0.0685     2.5289     0.2883   -70.7919    11.0326     7.5717
  795.5000    82.8043   -38.0478    10.1037     0.0669     2.5289     0.2907   -70.6773    11.0572     7.6701
  796.0000    81.6023   -30.8096    10.1042     0.0549     2.5274     0.2979   -70.5627    11.0817     7.7234
  796.5000    81.3040   -16.0821    10.1046     0.0443     2.5259     0.3003   -70.4479    11.4119     7.7234
  797.0000    81.6087    -8.7950    10.1051     0.0337     2.5228     0.2970   -70.3337    11.3286     7.6624
  797.5000    82.2140    -9.0042    10.1055     0.0352     2.5191     0.2907   -70.2168    11.2452     7.4607
  798.0000    82.5341    -9.2204    10.1059     0.0531     2.5154     0.2910   -70.2499    10.9339     7.3074
  798.5000    83.7264    -9.4749    10.1064     0.0606     2.5116     0.2988   -70.3500    10.6313     7.2570
  799.0000    85.5365    -9.6841    10.1068     0.0635     2.5064     0.3048   -70.4522    10.6162     7.2570
  799.5000    86.1417    -9.8951    10.1072     0.0604     2.5018     0.3051   -70.5544    10.4760     7.2070
  800.0000    87.9518   -10.1548    10.1077     0.0574     2.5004     0.3045   -70.6565    10.7658     7.1079
  800.5000    88.2628   -17.8602    10.1081     0.0483     2.5041     0.3027   -70.7687    10.9116     7.3069
  801.0000    88.8737   -23.8753    10.1085     0.0528     2.5079     0.3021   -70.4533    11.0582     7.3573
  801.5000    90.0890   -25.3495    10.1090     0.0617     2.5169     0.3036   -70.0156    10.9041     7.3566
  802.0000    89.4950   -32.9168    10.1094     0.0691     2.5246     0.3069   -69.5757    11.2062     7.3561
  802.5000    86.7926   -40.4842    10.1098     0.0721     2.5260     0.3126   -69.1364    11.2012     7.3049
