~VERSION INFORMATION
 VERS.                2.0:   CWLS LOG ASCII STANDARD - VERSION 2.0
 WRAP.                 NO:   ONE LINE PER DEPTH STEP
~WELL INFORMATION
#MNEM.UNIT      DATA TYPE    INFORMATION
#----------   ------------   ------------------------------
 STRT.F          250.5000:   START DEPTH
 STOP.F         2849.5000:   STOP DEPTH
 STEP.F            0.5000:   STEP LENGTH
 NULL.          -999.2500:   NO VALUE
 COMP. FENIX & SCISSON U.S. NAVY:   COMPANY
 WELL.   FENIX "A" #25-21:   WELL
 FLD .           N P R #3:   FIELD
 LOC .      S21 T39N R78W:   LOCATION
 CNTY.            NATRONA:   COUNTY
 STAT.            WYOMING:   STATE
 CTRY. UNITED STATES OF AMERICA:   COUNTRY
 SRVC.       SCHLUMBERGER:   SERVICE COMPANY
 DATE.        14-MAR-1977:   LOGDATE
 API .     49025103140000:   API NUMBER
~CURVE INFORMATION
#MNEM.UNIT       API CODE    CURVE DESCRIPTION
#----------   ------------   ------------------------------
 DEPT.F                  :   
 CALD.IN     45 280 60 00:   CALIPER FROM DENSITY LOG
 GRD .GAPI   45 310 01 00:   GAMMA RAY FROM DENSITY LOG
 RHOB.G/C3   45 350 01 00:   BULK DENSITY
 CORR.G/C3   45 356 01 00:   DENSITY CORRECTION
 SPR .MV     07 010 01 00:   SPONTANEOUS POTENTIAL
 LL8 .OHMM   07 220 08 00:   LATEROLOG-8 RES.
 ILM .OHMM   07 120 44 00:   INDUCTION LOG MEDIUM RESISTIVITY
 ILD .OHMM   07 120 46 00:   DEEP INDUCTION RESISTIVITY
~PARAMETER INFORMATION
#MNEM.UNIT          VALUE    DESCRIPTION
#----------   ------------   ------------------------------
 EKB .F         4963.0000:   Kelly bushing
 EGL .F         4953.0000:   Ground level
 EDF .F            0.0000:   Drilling floor
 TD  .F         2848.0000:   Total depth
 DATE.        14-MAR-1977:   Date logged
 CLNT.            A2DTECH:   Client Code
 SL  . 990' FWL & 2310' FSL:   Surface Location
 PD  .                 GL:   Permanent Datum
 DD  .F              2847:   Depth driller
 DL  .F              2848:   Depth logger
 BLI .F              2842:   Bottom log interval
 CS1 .IN            8.625:   Casing size
 CBD1.      8.625" @ 259':   Casing driller 1
 CBL1.F               261:   Casing logger 1
 BS1 .IN            7.875:   Bit size
 DFT .                KCL:   Type fluid in hole
 DFD .                9.2:   Density
 DFV .                 37:   Viscosity
 DFPH.                8.5:   pH
 DFL .                8.6:   Fluid loss
 MSS .           FLOWLINE:   Source of sample
 RMS .OHMM          0.226:   Rm
 MST .F                72:   Rm Meas. temp.
 RMF .OHMM          0.190:   Rmf
 MFST.F                72:   Rmf Meas. temp.
 MFSS.               MEAS:   Source Rmf.
 RMB .OHMM           .139:   Rm. at BHT
 BHT .F               117:   BHT.
 TCS .HRS            1800:   Time Circ. stopped
 MRT .F               117:   Maximum recorded temp.
 LUN .               5642:   Logging unit number
 LUL .               CSPR:   Logging unit location
 ENGI.         JIM MARTIN:   Recorded By
 WITN.               JAPP:   Witnessed by
 ORIG.           5" PRINT:   Origin of data
 UWI .     49025103140000:   Unique Well ID
 DICO. A2D TECHNOLOGIES, INC.:   Digitizing Company
 DAPD.                 10:   Feet Above Permanent Datum
 BSD1.               2847:   Depth drilled with bit1
 EPD .               4953:   Elevation Permanent Datum
 LMF .                 KB:   Log Measured From
 DMF .                 KB:   Drilling Measured From
 TLI .                261:   Top log interval
 TLAB.               2400:   Time logger at bottom
~OTHER INFORMATION
~A   DEPT     CALD         GRD      RHOB       CORR        SPR        LL8        ILM        ILD   
# ...
 2802.0000     8.1840   115.5210     2.4690     0.0230   -53.0130     4.8490     4.6310     4.2730
 2802.5000     8.1880   119.2070     2.4540     0.0100   -53.1010     4.6730     4.4900     4.1880
 2803.0000     8.1760   122.7800     2.4480    -0.0020   -53.3480     4.2600     4.1810     4.1470
 2803.5000     8.1600   127.0550     2.4400    -0.0050   -53.5950     4.0710     4.0340     4.5150
 2804.0000     8.1430   120.4390     2.4380     0.0060   -53.7880     4.3970     4.2360     4.7930
 2804.5000     8.1270   108.4000     2.4640     0.0090   -53.8670     4.6420     4.4550     5.0710
 2805.0000     8.1100    99.8740     2.4590     0.0010   -53.9450     4.8050     4.6730     5.3650
 2805.5000     8.0930    95.3200     2.4770     0.0060   -54.0240     4.7170     4.8910     5.2600
 2806.0000     8.1050    90.9270     2.4900     0.0100   -54.1020     5.1570     5.0910     5.1170
 2806.5000     8.1280    92.3810     2.4620     0.0000   -54.1810     6.6300     5.1720     4.9740
 2807.0000     8.1310    95.2580     2.4810     0.0050   -54.2590     6.2520     5.1250     4.8530
 2807.5000     8.1330   106.6330     2.4890     0.0120   -54.3390     5.5710     4.9940     4.7380
 2808.0000     8.1360   118.9380     2.4700     0.0090   -54.3380     4.8890     4.8640     4.6230
 2808.5000     8.1380   129.5150     2.4680     0.0040   -54.2250     4.0340     4.7330     4.5050
 2809.0000     8.1400   119.7630     2.4670     0.0090   -54.1110     4.2360     4.6020     4.4530
 2809.5000     8.1430   107.0660     2.4890     0.0120   -53.9970     5.2010     4.5460     4.3920
 2810.0000     8.1450    94.2080     2.5070     0.0160   -53.8830     6.1660     4.5970     4.3420
 2810.5000     8.1470    94.0290     2.5040     0.0200   -53.7680     6.5690     4.6620     4.4110
 2811.0000     8.1480    97.5510     2.4980     0.0240   -53.6590     5.8190     4.7260     4.4990
 2811.5000     8.1450   101.2680     2.4920     0.0210   -53.6580     5.1840     4.7910     4.5860
 2812.0000     8.1390   103.5210     2.4950     0.0170   -53.7600     4.6740     4.9080     4.6740
 2812.5000     8.1340    96.4170     2.5100     0.0180   -53.7640     5.1720     5.0810     4.7620
 2813.0000     8.1280    90.8730     2.5030     0.0230   -53.7630     5.0160     5.2190     4.8500
 2813.5000     8.1220    87.6760     2.5080     0.0220   -53.7590     4.7170     5.1330     4.9380
 2814.0000     8.1160    84.4910     2.5220     0.0160   -53.6630     5.6140     5.0770     5.0260
 2814.5000     8.1100    81.7220     2.5140     0.0160   -53.5630     7.4790     5.3160     5.0770
 2815.0000     8.1160    85.0600     2.4980     0.0110   -53.4630     8.1930     5.4150     5.1660
 2815.5000     8.1270    89.5610     2.4820     0.0120   -53.3650     6.1690     5.1960     5.3110
 2816.0000     8.1390    92.2950     2.4680     0.0270   -53.2680     4.7170     4.9850     5.4550
 2816.5000     8.1510    88.4960     2.5270     0.0430   -53.1480     4.8050     5.0770     5.6180
 2817.0000     8.1630    83.4750     2.5120     0.0420   -52.5030     6.3140     5.5850     5.9370
 2817.5000     8.1750    72.3700     2.5170     0.0260   -51.8510     7.7760     6.1610     6.1740
 2818.0000     8.1860    59.1200     2.5120     0.0240   -51.2050     9.6050     6.7380     6.3730
 2818.5000     8.1980    60.8650     2.5070     0.0270   -50.5610     9.0440     7.0060     6.5710
 2819.0000     8.2080    66.4430     2.5060     0.0310   -50.2010     7.3360     7.1910     6.8780
 2819.5000     8.2080    72.3390     2.4950     0.0340   -50.1660     8.1930     7.2690     6.7520
 2820.0000     8.2080    78.2480     2.4810     0.0270   -50.0860     7.6480     6.8970     6.4750
 2820.5000     8.2080    84.2010     2.4650     0.0110   -50.0110     6.4070     6.5450     6.1970
 2821.0000     8.2080    86.2440     2.4720     0.0190   -50.1290     5.9920     6.2160     5.9190
 2821.5000     8.2080    87.3370     2.4950     0.0270   -50.2780     6.1030     6.3300     5.8820
 2822.0000     8.2080    90.5580     2.4870     0.0190   -50.4270     6.3900     6.4490     5.8290
 2822.5000     8.2040    94.9110     2.4550     0.0100   -50.5760     5.8870     6.1610     5.6640
 2823.0000     8.1800   100.8050     2.4490     0.0010   -50.7250     5.3650     5.7350     5.4760
 2823.5000     8.1570   104.2320     2.4650    -0.0020   -50.8740     5.1240     5.5160     5.2680
 2824.0000     8.1350   101.9970     2.4830     0.0010   -51.0250     5.0770     5.5850     5.3250
 2824.5000     8.0580    99.8870     2.5010     0.0070   -51.1700     5.6910     5.6850     5.4080
 2825.0000     7.9700    98.0950     2.5030     0.0120   -50.9790     6.3320     5.7750     5.5160
 2825.5000     7.8830    98.7570     2.4980     0.0250   -50.7450     6.3320     5.6670     5.4110
 2826.0000     7.8070    99.5020     2.4940     0.0340   -50.5110     5.3360     5.5460     5.2630
 2826.5000     7.7970   100.0620     2.4930     0.0310   -50.2770     4.8940     5.4150     5.2190
 2827.0000     7.7900    96.4360     2.4950     0.0280   -50.0430     5.5660     5.4980     5.2190
 2827.5000     7.7850    92.1400     2.4970     0.0150   -49.8090     6.6910     5.5900     5.2190
 2828.0000     7.7800    91.6310     2.5030     0.0140   -49.5750     6.3080     5.6580     5.1810
 2828.5000     7.7760    95.4200     2.5100     0.0420   -49.3410     5.7780     5.4360     5.0620
 2829.0000     7.7710    89.5090     2.5170     0.0510   -49.1080     5.2470     5.2270     4.9430
 2829.5000     7.7280    37.9320     2.5230     0.0580   -48.8690     4.8410     5.0180     4.8240
 2830.0000     7.6930     5.5830     2.5260     0.0460   -48.8970     4.4640     4.8100     4.7050
 2830.5000     7.7150    27.0020     2.4770     0.0300   -49.0470     4.3820     4.6310     4.5860
 2831.0000     7.7380    64.9010     2.4740     0.0160   -49.2000     4.3420     4.5780     4.4670
 2831.5000     7.7590    26.1800     2.4760     0.0220   -49.3530     4.3420     4.5630     4.3420
 2832.0000     7.7640  -999.2500     2.4750     0.0190   -49.5060     4.3020     4.5490     4.3380
 2832.5000     7.7320  -999.2500     2.4610     0.0030   -49.6590     4.6480     4.5340     4.3340
 2833.0000     7.7370  -999.2500     2.4690     0.0070   -49.8120     4.9470     4.5200     4.3290
 2833.5000     7.7410  -999.2500     2.4990     0.0340   -49.9600     5.1240     4.5050     4.3250
 2834.0000     7.7460  -999.2500     2.5100     0.0590   -50.2630     4.7750     4.4480     4.3210
 2834.5000     7.7500  -999.2500     2.4980     0.0550   -50.6020     4.2630     4.3900     4.3170
 2835.0000     7.7580  -999.2500     2.4890     0.0490   -50.9440     4.4180     4.3420     4.3130
 2835.5000     7.7830  -999.2500     2.4830     0.0300   -51.2850     4.8260     4.4780     4.3080
 2836.0000     7.8080  -999.2500     2.4830     0.0130   -51.6250     5.0310     4.6740     4.3040
 2836.5000     7.8330  -999.2500     2.4820     0.0120   -51.9660     4.7330     4.5700     4.2610
 2837.0000     7.8520  -999.2500     2.4820     0.0150   -52.3080     4.4320     4.3060     4.1550
 2837.5000     7.8510  -999.2500     2.4820     0.0160   -52.4360     4.0710     4.1470     4.0490
 2838.0000     7.8520  -999.2500     2.4830     0.0130   -52.5210     4.1470     4.2240     3.9430
 2838.5000     7.8540  -999.2500     2.4790     0.0250   -52.7440     3.9600     4.1230     3.7820
 2839.0000     7.8550  -999.2500     2.4520     0.0190   -53.0920     3.8170     4.0200     3.8170
 2839.5000     7.8560  -999.2500     2.4590     0.0140   -53.4630     3.9300     3.9240  -999.2500
 2840.0000     7.8570  -999.2500     2.4730     0.0180   -53.6920     4.0560     3.9440  -999.2500
 2840.5000     7.8580  -999.2500     2.4870     0.0220   -53.9260     4.1820     3.9760  -999.2500
 2841.0000     7.8600  -999.2500     2.4910     0.0310   -54.1580     4.3080     4.0080  -999.2500
 2841.5000     7.8610  -999.2500     2.4620     0.0070   -54.3890     4.4340     4.0400  -999.2500
 2842.0000     7.8620  -999.2500     2.4730     0.0140   -54.6280  -999.2500     4.0710  -999.2500
