~VERSION INFORMATION
 VERS.                2.0:   CWLS LOG ASCII STANDARD - VERSION 2.0
 WRAP.                 NO:   ONE LINE PER DEPTH STEP
~WELL INFORMATION
#MNEM.UNIT      DATA TYPE    INFORMATION
#----------   ------------   ------------------------------
 STRT.F            0.0000:   START DEPTH
 STOP.F         3474.0000:   STOP DEPTH
 STEP.F            0.5000:   STEP LENGTH
 NULL.          -999.2500:   NO VALUE
 COMP. LAWRENCE ALLISON & ASSOCIATES:   COMPANY
 WELL. LAWRENCE ALLISON #13-AX-14:   WELL
 FLD .            WILDCAT:   FIELD
 LOC .      S14 T38N R78W:   LOCATION
 CNTY.            NATRONA:   COUNTY
 STAT.            WYOMING:   STATE
 CTRY. UNITED STATES OF AMERICA:   COUNTRY
 SRVC.      DRESSER ATLAS:   SERVICE COMPANY
 DATE.        31-MAR-1986:   LOGDATE
 API .     49025110640000:   API NUMBER
~CURVE INFORMATION
#MNEM.UNIT       API CODE    CURVE DESCRIPTION
#----------   ------------   ------------------------------
 DEPT.F                  :   
 TEND.LBS    45 635 01 00:   TENSION FROM DENSITY LOG
 RHOB.G/C3   45 350 01 00:   BULK DENSITY
 CORR.G/C3   45 356 01 00:   DENSITY CORRECTION
 CALD.IN     45 280 60 00:   CALIPER FROM DENSITY LOG
 NPHI.DEC    42 890 00 00:   NEUTRON POROSITY
 TENR.LBS    07 635 01 00:   TENSION FROM RESISTIVITY
 RFOC.OHMM   07 220 01 00:   RESISTIVITY FOCUSED LOG RES.
 RILD.OHMM   07 120 46 00:   DEEP INDUCTION RESISTIVITY
 RILM.OHMM   07 120 44 00:   INDUCTION LOG MEDIUM RESISTIVITY
 GRR .GAPI   07 310 01 00:   GAMMA RAY FROM RESISTIVITY
 SPR .MV     07 010 01 00:   SPONTANEOUS POTENTIAL
 TENS.LBS    60 635 01 00:   TENSION FROM SONIC LOG
 DT  .US/F   60 520 00 00:   DELTA TIME
~PARAMETER INFORMATION
#MNEM.UNIT          VALUE    DESCRIPTION
#----------   ------------   ------------------------------
 EKB .F         5251.0000:   Kelly bushing
 EGL .F         5239.2000:   Ground level
 EDF .F         5248.1000:   Drilling floor
 TD  .F         3456.0000:   Total depth
 DATE.        31-MAR-1986:   Date logged
 CLNT.            A2DTECH:   Client Code
 SL  . 238' FWL & 1739' FNL:   Surface Location
 PD  .                 GL:   Permanent Datum
 EPD .F            5239.2:   Elevation Permanent Datum
 LMF .                 KB:   Log Measured From
 DMF .                 KB:   Drilling Measured From
 DAPD.F              11.8:   Feet Above Permanent Datum
 DD  .F              3450:   Depth driller
 DL  .F              3456:   Depth logger
 BLI .F              3450:   Bottom log interval
 CS1 .IN            8.625:   Casing size
 CBD1.      8.625" @ 689':   Casing driller 1
 CBL1.F               692:   Casing logger 1
 BS1 .IN            7.875:   Bit size
 BSD1.F              3450:   Depth drilled with bit1
 DFT .        POLYMER/KCL:   Type fluid in hole
 DFD .                9.1:   Density
 DFV .                 38:   Viscosity
 DFPH.                8.5:   pH
 DFL .               11.2:   Fluid loss
 MSS .           FLOWLINE:   Source of sample
 RMS .OHMM            .29:   Rm
 MST .F                65:   Rm Meas. temp.
 RMF .OHMM           .235:   Rmf
 MFST.F                65:   Rmf Meas. temp.
 RMC .OHMM           .378:   Rmc
 MCST.F                65:   Rmc Meas. temp.
 MFSS.               MEAS:   Source Rmf.
 MCSS.               MEAS:   Source Rmc.
 RMB .OHMM           .163:   Rm. at BHT
 BHT .F               115:   BHT.
 TCS .HRS               3:   Time Circ. stopped
 MRT .F               115:   Maximum recorded temp.
 LUN .            HL-6274:   Logging unit number
 LUL .           GILLETTE:   Logging unit location
 ENGI.             RAUTIO:   Recorded By
 WITN.             STRONG:   Witnessed by
 ORIG.           5" PRINT:   Origin of data
 UWI .     49025110640000:   Unique Well ID
 DICO. A2D TECHNOLOGIES, INC.:   Digitizing Company
~OTHER INFORMATION
~A    DEPT    TEND       RHOB       CORR       CALD       NPHI       TENR       RFOC       RILD       RILM          GRR      SPR       TENS         DT   
# ...
 2886.0000   -84.8350     2.3820    -0.0040     8.5840     0.2120   -94.5340    16.4730    18.0900    17.5200    83.0630   -15.5750   -94.8450    76.0870
 2886.5000   -84.8350     2.3850     0.0060     8.5770     0.2170   -94.5340    16.1820    17.8980    17.2520    83.0680   -15.4250   -94.8450    76.3120
 2887.0000   -84.8350     2.3850     0.0050     8.5700     0.2240   -94.5340    15.6430    17.7070    17.3130    83.0530   -15.1450   -94.8450    76.4460
 2887.5000   -84.8350     2.3850     0.0020     8.5630     0.2250   -94.5340    15.1590    17.4930    17.3960    83.4270   -14.8510   -94.8450    76.5870
 2888.0000   -84.8350     2.3870     0.0000     8.5530     0.2200   -94.5340    15.4820    17.4120    17.4790    85.1930   -14.8820   -94.8450    76.6110
 2888.5000   -84.8350     2.3910    -0.0030     8.5130     0.2160   -94.5340    16.1380    17.4120    17.5620    87.5490   -15.4920   -94.8450    76.6370
 2889.0000   -84.8350     2.3880    -0.0060     8.4720     0.2150   -94.5340    16.6260    17.4120    17.8120    87.5480   -16.0240   -94.8450    76.6630
 2889.5000   -84.8350     2.3820    -0.0080     8.4610     0.2130   -94.5340    16.4730    17.2520    17.9760    86.1020   -16.5460   -94.8450    76.6870
 2890.0000   -84.8350     2.3770    -0.0090     8.4600     0.2030   -94.5340    15.4440    17.0690    18.1410    81.1010   -16.7880   -93.1890    76.5810
 2890.5000   -84.8350     2.3800     0.0010     8.4580     0.1940   -94.5340    14.6090    16.9580    18.3050    76.0210   -17.0330   -91.2990    76.4820
 2891.0000   -84.8350     2.3870     0.0020     8.4550     0.1940   -94.5340    14.8810    16.9360    18.4040    76.0360   -17.2730   -89.4090    76.3860
 2891.5000   -83.1410     2.3940     0.0020     8.4530     0.1960   -94.5340    16.8480    16.7800    18.2350    77.1880   -17.4490   -87.5180    75.9830
 2892.0000   -79.0460     2.4250     0.0020     8.4500     0.1950   -94.5340    19.0970    16.2190    17.3280    80.0620   -18.4680   -85.6280    75.5340
 2892.5000   -74.9500     2.4620     0.0020     8.4480     0.1930   -94.5340    19.0970    15.6420    16.5820    82.9410   -19.5610   -75.3250    75.1170
 2893.0000   -70.8540     2.4980     0.0060     8.4450     0.1910   -93.1520    17.3650    15.0200    15.8360    85.6210   -20.6560   -58.9420    74.7240
 2893.5000   -66.7580     2.5360     0.0110     8.4430     0.1870   -82.1850    14.8810    14.5790    15.0200    85.1110   -21.7460   -44.7950    74.2020
 2894.0000   -64.8150     2.5440     0.0050     8.4430     0.1820   -77.6110    14.8810    14.0500    14.5920    83.9500   -22.8240   -53.4030    72.8680
 2894.5000   -64.8150     2.5420    -0.0080     8.4500     0.1760   -88.1860    15.4420    13.5210    14.1210    82.7410   -23.6450   -64.8150    71.5340
 2895.0000   -64.8150     2.5400    -0.0060     8.4560     0.1720   -98.7610    15.8740    12.9910    13.6490    82.6720   -24.1940   -72.5370    70.3280
 2895.5000   -69.3850     2.5410    -0.0030     8.4580     0.1710  -100.4400    16.0230    12.4860    13.1780    82.7240   -24.3910   -79.5580    69.7230
 2896.0000   -76.1640     2.5400    -0.0010     8.4460     0.1760   -91.3020    14.6880    12.0960    12.7060    84.7810   -24.4050   -82.7990    70.1020
 2896.5000   -82.9430     2.5310    -0.0070     8.4350     0.1770   -82.1630    13.0760    11.6320    12.2350    87.4720   -24.4570   -74.6080    71.1250
 2897.0000   -89.7220     2.5230    -0.0160     8.4240     0.1770   -73.0250    13.1370    11.1690    11.7610    90.1460   -24.7270   -66.4160    71.9450
 2897.5000   -96.5020     2.5160    -0.0210     8.4120     0.1880   -63.8860    13.2870    10.4410    10.9710    92.7590   -24.9970   -58.2250    72.1820
 2898.0000  -103.2810     2.5120    -0.0180     8.4010     0.2000   -54.4130    13.4440     9.6440    10.2400    97.1830   -25.2600   -50.0330    72.1820
 2898.5000  -100.1380     2.5160    -0.0110     8.3890     0.2120   -66.2990    12.2640     8.8850     9.4940   101.9680   -25.5320   -44.7950    72.8060
 2899.0000   -94.8450     2.5210    -0.0030     8.3670     0.2230   -78.6360    11.0410     8.1570     8.7470   106.7790   -25.3350   -58.1800    74.3120
 2899.5000   -94.8450     2.5200    -0.0040     8.3630     0.2340   -90.9730     9.8170     7.4290     8.0010   111.6500   -24.8660   -72.2220    75.9520
 2900.0000   -94.8450     2.5200    -0.0040     8.3630     0.2450  -104.5640     9.3770     6.7020     7.2550   117.3740   -24.3950   -84.8350    77.5920
 2900.5000   -93.3180     2.5180    -0.0010     8.3630     0.2510   -98.6530     9.2900     6.4140     6.5400   126.1020   -23.9240   -74.9690    79.2320
 2901.0000   -90.2280     2.5170     0.0010     8.3630     0.2520   -92.0730     8.3190     6.1870     6.3030   134.5950   -23.4520   -66.0160    80.8720
 2901.5000   -87.1370     2.5150     0.0030     8.3630     0.2530   -85.4930     7.4240     5.9590     6.1300   143.0890   -22.9580   -70.2540    82.4070
 2902.0000   -84.0470     2.5160     0.0020     8.3630     0.2530   -87.4980     6.9510     5.7320     6.0180   144.7340   -23.0680   -78.4620    83.3640
 2902.5000   -80.9560     2.5210     0.0010     8.3630     0.2400   -91.0230     7.0600     5.6940     6.2190   134.4990   -23.4040   -86.6700    83.4830
 2903.0000   -77.8650     2.5300     0.0010     8.3630     0.2100   -94.5480     7.4320     5.7650     6.3820   125.5150   -23.3560   -94.8450    82.5380
 2903.5000   -74.7750     2.5560     0.0010     8.3630     0.1840   -98.0730     7.6410     6.1090     6.5400   121.2700   -23.1100   -94.8450    80.3990
 2904.0000   -71.6840     2.5830    -0.0080     8.3630     0.1690  -101.5980     7.7950     6.4540     7.1370   118.7560   -22.8590   -88.4050    76.8340
 2904.5000   -68.5940     2.5950    -0.0140     8.3630     0.1640  -102.9990     9.9230     6.7980     7.7410   104.6250   -22.8690   -80.1970    72.9390
 2905.0000   -65.5030     2.5800    -0.0140     8.3630     0.1710   -93.1290    13.3020     7.1420     8.1850    89.4400   -22.9440   -71.9890    69.5980
 2905.5000   -64.8150     2.5590    -0.0060     8.3630     0.1820   -83.2600    15.0200     7.4430     8.4980    87.8920   -22.9840   -63.7800    67.1240
 2906.0000   -64.8150     2.5530     0.0060     8.3630     0.1940   -73.3900    14.4060     7.7400     8.8110    92.7110   -22.0610   -54.8050    67.3770
 2906.5000   -64.8150     2.5560     0.0040     8.3630     0.2030   -64.4430    12.5530     8.1520     9.1230   100.1620   -22.0070   -54.8050    69.9640
 2907.0000   -64.8150     2.5590     0.0010     8.3630     0.2110   -70.2250    11.4260     8.5650     9.4360   102.1540   -22.0110   -54.8050    71.7820
 2907.5000   -64.8150     2.5610    -0.0030     8.3630     0.2190   -75.5120    11.0740     8.9780     9.7300   101.8020   -22.0120   -57.8750    73.4320
 2908.0000   -64.8150     2.5610    -0.0020     8.3630     0.2190   -80.8000    10.7220     9.2900     9.9760   101.4250   -22.0080   -64.4410    73.9950
 2908.5000   -64.8150     2.5650     0.0050     8.3630     0.2060   -86.0870    10.3790     9.2900    10.1580   100.9850   -22.1400   -71.0080    74.2840
 2909.0000   -64.8150     2.5730     0.0130     8.3630     0.2010   -91.3740    10.4400     9.2900    10.2840   102.3230   -22.2890   -84.8350    74.0310
 2909.5000   -64.8150     2.5810     0.0200     8.3630     0.1960   -93.9320    10.4760     9.2430    10.2840   102.7570   -22.4400   -81.5320    73.7840
 2910.0000   -64.8150     2.5840     0.0230     8.3630     0.1910   -92.4360    11.0440     9.0060    10.1350    99.7040   -22.5910   -73.3230    72.8520
 2910.5000   -64.8150     2.5700     0.0190     8.3630     0.1900   -90.9410    11.7620     8.7690     9.7480    94.4320   -22.7420   -64.8150    71.8820
 2911.0000   -64.8150     2.5550     0.0150     8.3630     0.2010   -89.4460    12.3710     8.5310     9.3610    94.2020   -22.8940   -64.8150    71.1070
 2911.5000   -64.8150     2.5390     0.0090     8.3630     0.2130   -87.9500    12.2570     8.4120     8.9730    99.2160   -23.0480   -66.0020    71.2140
