~VERSION INFORMATION
 VERS.                2.0:   CWLS LOG ASCII STANDARD - VERSION 2.0
 WRAP.                 NO:   ONE LINE PER DEPTH STEP
~WELL INFORMATION
#MNEM.UNIT      DATA TYPE    INFORMATION
#----------   ------------   ------------------------------
 STRT.F          906.0000:   START DEPTH
 STOP.F         3426.0000:   STOP DEPTH
 STEP.F            0.5000:   STEP LENGTH
 NULL.          -999.2500:   NO VALUE
 COMP.    FENIX & SCISSON:   COMPANY
 WELL. FENIX NPR 3 "AX" #46-11:   WELL
 FLD .                NPR:   FIELD
 LOC .      S11 T38N R78W:   LOCATION
 CNTY.            NATRONA:   COUNTY
 STAT.            WYOMING:   STATE
 CTRY. UNITED STATES OF AMERICA:   COUNTRY
 SRVC.       SCHLUMBERGER:   SERVICE COMPANY
 DATE.        16-MAY-1981:   LOGDATE
 API .     49025108720000:   API NUMBER
~CURVE INFORMATION
#MNEM.UNIT       API CODE    CURVE DESCRIPTION
#----------   ------------   ------------------------------
 DEPT.F                  :   
 SPR .MV     07 010 01 00:   SPONTANEOUS POTENTIAL
 ILD .OHMM   07 120 46 00:   INDUCTION LOG DEEP RESISTIVITY
 SFL .OHMM   07 220 01 00:   SHALLOW FOCUSED LOG RESISTIVITY
 TENR.LBS    07 635 01 00:   TENSION
 ILM .OHMM   07 120 44 00:   INDUCTION LOG MEDIUM RESISTIVITY
 CALD.IN     45 280 60 00:   CALIPER FROM DENSITY LOG
 GRD .GAPI   45 310 01 00:   GAMMA RAY FROM DENSITY LOG
 RHOB.G/C3   45 350 01 00:   BULK DENSITY
 TEND.LBS    45 635 01 00:   TENSION FROM DENSITY LOG
 CORR.G/C3   45 356 01 00:   DENSITY CORRECTION
~PARAMETER INFORMATION
#MNEM.UNIT          VALUE    DESCRIPTION
#----------   ------------   ------------------------------
 EKB .F         5199.0000:   Kelly bushing
 EGL .F         5189.0000:   Ground level
 EDF .F            0.0000:   Drilling floor
 TD  .F         3422.0000:   Total depth
 DATE.        16-MAY-1981:   Date logged
 CLNT.            A2DTECH:   Client Code
 SL  . 1867' FSL & 2100' FWL:   Surface Location
 PD  .                 GL:   Permanent Datum
 EPD .F              5189:   Elevation Permanent Datum
 LMF .                 KB:   Log Measured From
 DMF .                 KB:   Drilling Measured From
 DAPD.F                10:   Feet Above Permanent Datum
 DD  .F              3421:   Depth driller
 DL  .F              3422:   Depth logger
 BLI .F              3416:   Bottom log interval
 TLI .F               926:   Top log interval
 CS1 .IN            8.625:   Casing size
 CBD1.      8.625" @ 925':   Casing driller 1
 CBL1.F               926:   Casing logger 1
 BS1 .IN            7.875:   Bit size
 BSD1.F              3421:   Depth drilled with bit1
 DFT .                FGM:   Type fluid in hole
 DFD .                8.5:   Density
 DFV .                 60:   Viscosity
 DFPH.                  9:   pH
 DFL .                 12:   Fluid loss
 MSS .               PITS:   Source of sample
 RMS .OHMM           1.17:   Rm
 MST .F                73:   Rm Meas. temp.
 RMF .OHMM           1.03:   Rmf
 MFST.F                73:   Rmf Meas. temp.
 MFSS.               MEAS:   Source Rmf.
 RMB .OHMM            .71:   Rm. at BHT
 BHT .F               120:   BHT.
 TCS .HRS            1200:   Time Circ. stopped
 TLAB.HRS            1745:   Time logger at bottom
 MRT .F               120:   Maximum recorded temp.
 LUN .               8133:   Logging unit number
 LUL .               CSPR:   Logging unit location
 ENGI.             TAYLOR:   Recorded By
 WITN.              RIVAS:   Witnessed by
 ORIG.           5" PRINT:   Origin of data
 UWI .     49025108720000:   Unique Well ID
 DICO. A2D TECHNOLOGIES, INC.:   Digitizing Company
~OTHER INFORMATION
~A   DEPT      SPR        ILD        SFL       TENR        ILM       CALD         GRD        RHOB     TEND        CORR  
# ...
 1576.0000   -40.1190     6.8910     7.8180   754.9810     6.4740     8.2280   122.6910     2.5150   755.8700     0.0330
 1576.5000   -40.1190     6.8960     7.5780   755.0230     6.4560     8.2280   124.2600     2.4990   756.0070     0.0230
 1577.0000   -40.1190     6.9020     7.6760   755.0650     6.4370     8.2280   121.7190     2.4950   756.1440     0.0210
 1577.5000   -40.1190     6.9080     7.7760   755.1070     6.4260     8.2280   119.6930     2.4970   756.2800     0.0260
 1578.0000   -40.1190     6.9140     7.8760   755.1490     6.4440     8.2280   117.6740     2.4920   756.4170     0.0320
 1578.5000   -40.1180     6.9230     7.9760   755.1910     6.4780     8.2280   115.6520     2.4820   756.5530     0.0150
 1579.0000   -40.1130     6.9330     8.0760   755.2330     6.5110     8.2280   113.6250     2.4720   756.6900     0.0020
 1579.5000   -40.1070     6.9440     8.1760   755.2750     6.5440     8.2270   111.5300     2.4700   756.8260     0.0020
 1580.0000   -40.1000     6.9540     8.2870   755.3170     6.5780     8.2250   111.9470     2.4870   756.9630     0.0110
 1580.5000   -40.0940     6.9650     8.2460   755.3590     6.6110     8.2230   113.0890     2.5000   757.1000     0.0200
 1581.0000   -40.0880     6.9750     8.1630   755.4010     6.6440     8.2220   114.1040     2.5050   757.2360     0.0300
 1581.5000   -40.0820     6.9860     8.0810   755.4440     6.6720     8.2200   114.2120     2.5100   757.3730     0.0310
 1582.0000   -40.0750     6.9960     8.0060   755.4860     6.6830     8.2180   114.5880     2.5110   757.5090     0.0190
 1582.5000   -40.0690     7.0070     8.2500   755.5280     6.6940     8.2160   116.4910     2.5070   757.6460     0.0100
 1583.0000   -40.0630     7.0170     8.4580   755.5700     6.7060     8.2140   118.4060     2.5030   757.7820     0.0090
 1583.5000   -40.0570     7.0280     8.3330   755.6120     6.7190     8.2120   120.3280     2.5020   757.9190     0.0070
 1584.0000   -40.0510     7.0380     8.1460   755.6540     6.7310     8.2100   120.7020     2.5030   758.0320     0.0060
 1584.5000   -40.0440     7.0490     8.0060   755.6960     6.7430     8.2090   119.1720     2.5150   758.0320     0.0100
 1585.0000   -40.0380     7.0590     8.2070   755.7380     6.7550     8.2070   117.6180     2.5290   758.0320     0.0180
 1585.5000   -40.0320     7.0700     8.6590   755.7800     6.7670     8.2050   117.1910     2.5380   758.0320     0.0280
 1586.0000   -40.0260     7.0800     9.1010   755.8220     6.7790     8.2030   119.6270     2.5270   758.0320     0.0220
 1586.5000   -40.0190     7.0910     8.7740   755.8640     6.7910     8.2010   122.2070     2.5150   758.0320     0.0150
 1587.0000   -40.0130     7.1010     8.4580   755.9060     6.8030     8.1990   123.9550     2.5060   758.0320     0.0090
 1587.5000   -40.0070     7.1120     8.6160   755.9480     6.8150     8.1970   123.2360     2.5080   758.0320     0.0110
 1588.0000   -40.0010     7.1220     8.7740   755.9910     6.8270     8.1960   123.0040     2.5110   758.0320     0.0160
 1588.5000   -39.9950     7.1330     8.3960   756.0330     6.8390     8.1940   123.6050     2.5130   758.0320     0.0210
 1589.0000   -39.9880     7.1430     8.0060   756.0750     6.8510     8.1920   123.3900     2.5160   758.0320     0.0200
 1589.5000   -39.9820     7.1540     8.0060   756.1170     6.8630     8.1900   121.8980     2.5110   758.0320     0.0180
 1590.0000   -39.9760     7.1650     8.3590   756.1590     6.8760     8.1880   119.2330     2.5000   758.0320     0.0160
 1590.5000   -39.9700     7.1730     8.6600   756.2010     6.8870     8.1880   116.9390     2.5060   758.0320     0.0140
 1591.0000   -39.9630     7.2300     9.1010   756.2430     6.8990     8.1890   116.9490     2.5160   758.0320     0.0130
 1591.5000   -39.9570     7.3070     8.9480   756.2850     6.9100     8.1900   117.9570     2.5160   758.0320     0.0160
 1592.0000   -39.9510     7.3830     8.6660   756.3270     6.9460     8.1910   118.9600     2.5130   758.0320     0.0190
 1592.5000   -39.9450     7.4600     8.3050   756.3690     7.0440     8.1920   119.4390     2.5210   758.0320     0.0220
 1593.0000   -39.9390     7.5360     8.4580   756.4110     7.1400     8.1930   117.4810     2.5350   758.0320     0.0290
 1593.5000   -39.9320     7.6130     8.7280   756.4530     7.2370     8.1940   113.7890     2.5480   758.0320     0.0380
 1594.0000   -39.9260     7.6900     9.0860   756.4950     7.3340     8.1950   110.1660     2.5450   758.0320     0.0340
 1594.5000   -39.9200     7.7660     9.5920   756.5380     7.4310     8.1960   107.3580     2.5210   758.0320     0.0290
 1595.0000   -39.9140     7.8420    10.1580   756.5800     7.5780     8.1970   107.6710     2.5180   758.0320     0.0260
 1595.5000   -39.9070     7.9190    10.1580   756.6220     7.5690     8.1980   109.6670     2.5200   758.0320     0.0270
 1596.0000   -39.9010     8.0060     9.7970   756.6640     7.5500     8.1990   111.8920     2.5440   758.0320     0.0330
 1596.5000   -39.8950     7.9710     9.4600   756.7060     7.5310     8.2000   115.1790     2.5610   758.0320     0.0400
 1597.0000   -39.8890     7.8950     9.1230   756.7480     7.5130     8.2010   118.4210     2.5490   758.0320     0.0330
 1597.5000   -39.8830     7.8200     8.9360   756.7900     7.4940     8.2020   121.1140     2.5330   758.0320     0.0200
 1598.0000   -39.8760     7.7440     8.9550   756.8320     7.4740     8.2030   120.3520     2.5160   758.0320     0.0090
 1598.5000   -39.8700     7.6680     8.9740   756.8740     7.4550     8.2040   117.0010     2.5070   758.0320     0.0080
 1599.0000   -39.8640     7.5780     8.9920   756.9160     7.4380     8.2050   116.1140     2.5020   758.0320     0.0070
 1599.5000   -39.8580     7.5740     9.0110   756.9580     7.4260     8.2060   116.9180     2.4990   758.0320     0.0070
 1600.0000   -39.8520     7.5640     9.0290   757.0000     7.4140     8.2070   116.5440     2.4960   758.0320     0.0070
 1600.5000   -39.8450     7.5540     9.0480   757.0430     7.4020     8.2080   115.7300     2.5000   758.0320     0.0110
 1601.0000   -39.8390     7.5440     9.0660   757.0850     7.3900     8.2080   114.9220     2.5160   758.0320     0.0150
 1601.5000   -39.8330     7.5340     9.0850   757.1270     7.3780     8.2080   115.2320     2.5320   758.0320     0.0180
 1602.0000   -39.8270     7.5240     9.1010   757.1690     7.3660     8.2080   114.3080     2.5270   758.0320     0.0120
 1602.5000   -39.8200     7.5140     8.9700   757.2110     7.3540     8.2080   111.9750     2.5210   758.0320     0.0040
 1603.0000   -39.8140     7.5040     8.8550   757.2530     7.3420     8.2080   109.7450     2.5210   758.0320     0.0030
 1603.5000   -39.8080     7.4940     8.7740   757.2950     7.3300     8.2080   110.9720     2.5280   758.0320     0.0050
 1604.0000   -39.8020     7.4840     8.7740   757.3370     7.3180     8.2080   113.5890     2.5340   758.0320     0.0100
 1604.5000   -39.7960     7.4740     8.9600   757.3790     7.3060     8.2080   115.7000     2.5410   758.0320     0.0170
 1605.0000   -39.7890     7.4640     9.1350   757.4210     7.2940     8.2080   115.9170     2.5480   758.0320     0.0240
 1605.5000   -39.7830     7.4540     9.2690   757.4630     7.2820     8.2080   115.6700     2.5530   758.0320     0.0310
 1606.0000   -39.7770     7.4440     9.1580   757.5050     7.2700     8.2080   117.5370     2.5520   758.0320     0.0310
 1606.5000   -39.7710     7.4340     9.0220   757.5470     7.2580     8.2080   120.1240     2.5420   758.0320     0.0270
 1607.0000   -39.7640     7.4240     8.8870   757.5900     7.2460     8.2080   122.7520     2.5320   758.0320     0.0240
 1607.5000   -39.7580     7.4140     8.7740   757.6320     7.2340     8.2080   125.4810     2.5210   758.0320     0.0230
 1608.0000   -39.7520     7.4050     8.9300   757.6740     7.2220     8.2080   125.5670     2.5140   758.0320     0.0220
 1608.5000   -39.7460     7.3950     9.0640   757.7160     7.2100     8.2080   121.5700     2.5070   758.0320     0.0250
 1609.0000   -39.7400     7.3850     8.9830   757.7580     7.1980     8.2080   117.4940     2.5030   758.0320     0.0270
