~VERSION INFORMATION
 VERS.                2.0:   CWLS LOG ASCII STANDARD - VERSION 2.0
 WRAP.                 NO:   ONE LINE PER DEPTH STEP
~WELL INFORMATION
#MNEM.UNIT      DATA TYPE    INFORMATION
#----------   ------------   ------------------------------
 STRT.F          198.0000:   START DEPTH
 STOP.F         3252.0000:   STOP DEPTH
 STEP.F            0.5000:   STEP LENGTH
 NULL.          -999.2500:   NO VALUE
 COMP. FENIX & SCISSON - U.S. NAVY:   COMPANY
 WELL.   FENIX A X #21-33:   WELL
 FLD .              NPR-3:   FIELD
 LOC .      S33 T39N R78W:   LOCATION
 CNTY.            NATRONA:   COUNTY
 STAT.            WYOMING:   STATE
 CTRY. UNITED STATES OF AMERICA:   COUNTRY
 SRVC.              WELEX:   SERVICE COMPANY
 DATE.        06-JUN-1977:   LOGDATE
 API .     49025103750000:   API NUMBER
~CURVE INFORMATION
#MNEM.UNIT       API CODE    CURVE DESCRIPTION
#----------   ------------   ------------------------------
 DEPT.F                  :   
 CALD.IN     45 280 60 00:   CALIPER FROM DENSITY LOG
 GRD .GAPI   45 310 01 00:   GAMMA RAY FROM DENSITY LOG
 RHOB.G/C3   45 350 01 00:   BULK DENSITY
 CORR.G/C3   45 356 01 00:   DENSITY CORRECTION
 NPHI.DEC    42 890 01 00:   NEUTRON POROSITY LIMESTONE
 SPR .MV     07 010 01 00:   SPONTANEOUS POTENTIAL
 GURD.OHMM   07 220 05 00:   GUARD LOG RESISTIVITY
 FORX.OHMM   07 220 00 00:   FORMATION FACTOR
~PARAMETER INFORMATION
#MNEM.UNIT          VALUE    DESCRIPTION
#----------   ------------   ------------------------------
 EKB .F         5147.0000:   Kelly bushing
 EGL .F         5137.0000:   Ground level
 EDF .F            0.0000:   Drilling floor
 EPD .F            0.0000:   Permanent datum
 TD  .F         3254.0000:   Total depth
 CLNT.            A2DTECH:   Client Code
 SL  . 660' FNL & 1320' FWL:   Surface Location
 PD  .                 GL:   Permanent Datum
 DAPD.F                10:   Feet Above Permanent Datum
 DATE.        06-JUN-1977:   Date Logged [DD-MMM-YYYY]
 DD  .F              3249:   Depth driller
 DL  .F              3254:   Depth logger
 BLI .F              3252:   Bottom log interval
 TLI .F               200:   Top log interval
 CS1 .IN            8.625:   Casing size
 CBD1.      8.625" @ 204':   Casing driller 1
 CBL1.F               221:   Casing logger 1
 BS1 .IN            7.875:   Bit size
 BSD1.F              3249:   Depth drilled with bit1
 DFT .            KCL MUD:   Type fluid in hole
 DFD .                  9:   Density
 DFV .                134:   Viscosity
 DFPH.                7.5:   pH
 DFL .                7.8:   Fluid loss
 MSS .           FLOWLINE:   Source of sample
 RMS .OHMM           0.64:   Rm
 MST .F                85:   Rm Meas. temp.
 RMF .OHMM           0.61:   Rmf
 MFST.F                85:   Rmf Meas. temp.
 MFSS.           FANN KIT:   Source Rmf.
 RMC .OHMM              1:   Rmc
 MCST.F                85:   Rmc Meas. temp.
 MCSS.           FANN KIT:   Source Rmc.
 RMB .OHMM           0.46:   Rm. at BHT
 BHT .F               116:   BHT.
 TCS .HRS             2.5:   Time Circ. stopped
 MRT .F               116:   Maximum recorded temp.
 LUN .               8611:   Logging unit number
 LUL .             CASPER:   Logging unit location
 ENGI.            C. DOAK:   Recorded By
 WITN.      B. HARRINGTON:   Witnessed by
 ORIG.           5" PRINT:   Origin of data
 UWI .     49025103750000:   Unique Well ID
 DICO. A2D TECHNOLOGIES, INC.:   Digitizing Company
~OTHER INFORMATION
~A   DEPT     CALD         GRD      RHOB       CORR       NPHI        SPR       GURD       FORX   
# ...
 2385.0000     8.6237    89.9861     2.5564     0.0424     0.3192   -38.7537     8.9354     3.9094
 2385.5000     8.6399    89.1122     2.5437     0.0381     0.3179   -38.8246     8.4752     4.5414
 2386.0000     8.6412    87.6340     2.5182     0.0307     0.3173   -38.8952     8.2534     4.8782
 2386.5000     8.6574    86.4703     2.5154     0.0278     0.3166   -38.9656     8.1489     4.4197
 2387.0000     8.6587    87.0919     2.5286     0.0279     0.3160   -39.0361     7.6674     4.2985
 2387.5000     8.6601    88.6025     2.5328     0.0310     0.3159   -39.0772     8.1093     4.1474
 2388.0000     8.6614    88.9209     2.5202     0.0296     0.3159   -39.0723     8.6933     3.9241
 2388.5000     8.6478    88.9412     2.5127     0.0268     0.3159   -38.8780     8.3383     4.0692
 2389.0000     8.6491    89.5577     2.5128     0.0253     0.3165   -38.6833     9.2058     4.1891
 2389.5000     8.6504    90.7702     2.5189     0.0270     0.3174   -38.6768     8.8980     4.3434
 2390.0000     8.6518    91.3867     2.5310     0.0271     0.3183   -38.6833     9.2267     4.4083
 2390.5000     8.6382    91.4070     2.5363     0.0287     0.3195   -38.8780     8.4954     4.2875
 2391.0000     8.6398    93.8600     2.5372     0.0272     0.3194   -39.0718     7.7833     4.3826
 2391.5000     8.6411    97.4140     2.5320     0.0274     0.3181   -39.0732     9.0640     4.4798
 2392.0000     8.6424    98.9246     2.5305     0.0275     0.3169   -39.0990     8.8269     4.3881
 2392.5000     8.6438   100.1372     2.5344     0.0276     0.3162   -38.6576     8.5981     4.3288
 2393.0000     8.6451   100.7536     2.5375     0.0262     0.3168   -38.8813     8.2567     4.3347
 2393.5000     8.6464   100.1778     2.5263     0.0263     0.3180   -39.0728     8.8558     4.5232
 2394.0000     8.6477    99.8950     2.5075     0.0249     0.3195   -39.0759     8.2754     4.5266
 2394.5000     8.6490   100.8146     2.5107     0.0235     0.3211   -39.0719     8.0037     4.4025
 2395.0000     8.6503   102.3252     2.5153     0.0221     0.3204   -39.1262     7.9567     4.2515
 2395.5000     8.6516   102.3457     2.5199     0.0222     0.3179   -39.1869     8.4201     4.0477
 2396.0000     8.6530   101.6821     2.5260     0.0223     0.3145   -39.1044     8.5408     3.9361
 2396.5000     8.6543    98.8145     2.5328     0.0240     0.3113   -39.0138     8.9116     4.2293
 2397.0000     8.6559    96.4503     2.5411     0.0270     0.3082   -38.9237     9.5557     4.1133
 2397.5000     8.6572    93.7881     2.5472     0.0301     0.3057   -38.8340     9.9000     4.2046
 2398.0000     8.6585    92.9092     2.5465     0.0317     0.3029   -38.7440     9.1878     4.6805
 2398.5000     8.6599    95.9152     2.5504     0.0333     0.3004   -38.6832     9.1971     5.0326
 2399.0000     8.6612    98.9161     2.5565     0.0364     0.3001   -38.6937     9.4631     5.1767
 2399.5000     8.6625   100.7248     2.5611     0.0395     0.3000   -39.0936     9.3432     4.9644
 2400.0000     8.6638   100.1456     2.5647     0.0456     0.3003   -39.0560     8.7309     4.7594
 2400.5000     8.6654   100.7690     2.5702     0.0472     0.3003   -39.4558     7.8833     4.4974
 2401.0000     8.6819   100.2013     2.5733     0.0474     0.3027   -39.4658     9.1796     4.3054
 2401.5000     8.6835    97.2439     2.5741     0.0445     0.3039   -39.4723     9.3153     4.0520
 2402.0000     8.6851    96.0691     2.5719     0.0416     0.3051   -39.4473     9.8512     3.9688
 2402.5000     8.6718    99.6749     2.5637     0.0388     0.3066   -39.0333     9.7232     4.2956
 2403.0000     8.6886    99.6982     2.5473     0.0359     0.3091   -38.6269    10.7191     4.7150
 2403.5000     8.6753   100.9137     2.5316     0.0331     0.3109   -38.2335    10.1521     5.1386
 2404.0000     8.6769   104.2156     2.5234     0.0317     0.3127   -37.8303     9.8200     5.2534
 2404.5000     8.6934   110.4982     2.5174     0.0334     0.3140   -38.7630     9.3027     5.1465
 2405.0000     8.6801   115.9475     2.5138     0.0335     0.3155   -39.0610     9.3754     4.7294
 2405.5000     8.6665   120.4221     2.5259     0.0351     0.3171   -39.4933     9.5796     4.2243
 2406.0000     8.6535   120.7020     2.5350     0.0382     0.3191   -39.8771     9.3925     3.8820
 2406.5000     8.6406   118.9369     2.5395     0.0399     0.3203   -39.8637     9.3365     3.8873
 2407.0000     8.6422   115.7000     2.5411     0.0415     0.3215   -39.8589     9.5399     4.0335
 2407.5000     8.6438   106.1745     2.5457     0.0416     0.3230   -39.8694     8.7338     4.3294
 2408.0000     8.6156   100.5287     2.5472     0.0433     0.3227   -39.4436     8.5612     4.3628
 2408.5000     8.6023   113.0764     2.5503     0.0464     0.3208   -39.4599     8.9321     3.9534
 2409.0000     8.6039   114.8880     2.5579     0.0480     0.3186   -39.3157     9.3169     3.7913
 2409.5000     8.6055   116.1035     2.5654     0.0512     0.3164   -39.1692     9.4545     3.8760
 2410.0000     8.6071   115.8229     2.5685     0.0528     0.3139   -39.0241     9.3961     4.0192
 2410.5000     8.6091   115.5529     2.5616     0.0529     0.3114   -38.8792     9.5371     4.0799
 2411.0000     8.6107   116.4713     2.5502     0.0515     0.3101   -38.7343     9.7448     4.1415
 2411.5000     8.6123   117.9982     2.5297     0.0457     0.3089   -38.5894     9.6868     4.2040
 2412.0000     8.6138   119.2012     2.5050     0.0369     0.3088   -38.4444     9.1107     4.0893
 2412.5000     8.6303   118.0371     2.4758     0.0278     0.3113   -38.2995     5.9629     3.8072
 2413.0000     8.6167   116.2662     2.4766     0.0192     0.3144   -38.1546     4.2549     3.5405
 2413.5000     8.6187   118.3817     2.4880     0.0194     0.3174   -38.0096     6.7535     3.1071
 2414.0000     8.6203   119.5972     2.5008     0.0210     0.3196   -37.8645     6.5762     2.8351
 2414.5000     8.6219   121.4088     2.4986     0.0241     0.3214   -37.7148     6.3597     3.1341
 2415.0000     8.6235   121.7301     2.4926     0.0257     0.3229   -37.6837     6.4536     3.5142
 2415.5000     8.6251   121.4553     2.4972     0.0273     0.3232   -37.8873     6.5942     3.3941
 2416.0000     8.6271   121.7766     2.4973     0.0305     0.3225   -37.8920     6.3333     3.0102
 2416.5000     8.6287   122.0984     2.5004     0.0336     0.3206   -37.8940     6.2095     3.0556
 2417.0000     8.6451   121.8231     2.5089     0.0352     0.3194   -37.8937     6.2153     3.1461
 2417.5000     8.6467   119.7657     2.5215     0.0369     0.3184   -37.8937     6.3547     3.1503
 2418.0000     8.6632   118.8948     2.5306     0.0385     0.3184   -37.8937     6.5420     3.0626
 2418.5000     8.6648   116.8316     2.5314     0.0371     0.3177   -37.8937     6.7700     2.9986
 2419.0000     8.6812   114.7684     2.5277     0.0342     0.3158   -37.8937     6.8700     3.0314
 2419.5000     8.6829   113.5936     2.5158     0.0299     0.3136   -37.8937     6.9237     3.2499
 2420.0000     8.6848   110.9401     2.4993     0.0241     0.3104   -37.8937     7.0745     3.4426
 2420.5000     8.6864   106.4924     2.4889     0.0182     0.3074   -37.8937     7.3287     3.5953
 2421.0000     8.6880   108.3076     2.4830     0.0139     0.3049   -37.8937     7.5920     3.5719
 2421.5000     8.6896   109.8510     2.4838     0.0110     0.3033   -37.8937     7.8648     3.7845
 2422.0000     8.6912   111.0389     2.4822     0.0097     0.3023   -37.8937     8.0915     3.9806
 2422.5000     8.6928   110.4660     2.4719     0.0083     0.3026   -37.8937     8.1548     4.0407
 2423.0000     8.6943   109.2970     2.4689     0.0099     0.3032   -37.8937     7.9855     4.1016
 2423.5000     8.7109   107.8299     2.4843     0.0116     0.3044   -37.8937     7.5070     4.2231
 2424.0000     8.7128   106.6551     2.5021     0.0162     0.3056   -37.8937     7.7944     3.9645
 2424.5000     8.7144   105.4861     2.5052     0.0223     0.3059   -37.8937     7.9078     3.8564
 2425.0000     8.7160   105.8132     2.5045     0.0254     0.3055   -37.8937     8.0975     3.9147
