~VERSION INFORMATION
 VERS.                2.0:   CWLS LOG ASCII STANDARD - VERSION 2.0
 WRAP.                 NO:   ONE LINE PER DEPTH STEP
~WELL INFORMATION
#MNEM.UNIT      DATA TYPE    INFORMATION
#----------   ------------   ------------------------------
 STRT.F          176.0000:   START DEPTH
 STOP.F         3400.0000:   STOP DEPTH
 STEP.F            0.5000:   STEP LENGTH
 NULL.          -999.2500:   NO VALUE
 COMP.    PENIX & SCISSON:   COMPANY
 WELL. FENIX NPR 3 "AX" #64-4:   WELL
 FLD .                NPR:   FIELD
 LOC .       S4 T38N R78W:   LOCATION
 CNTY.            NATRONA:   COUNTY
 STAT.            WYOMING:   STATE
 CTRY. UNITED STATES OF AMERICA:   COUNTRY
 SRVC.       SCHLUMBERGER:   SERVICE COMPANY
 DATE.        25-JAN-1981:   LOGDATE
 API .     49025108640000:   API NUMBER
~CURVE INFORMATION
#MNEM.UNIT       API CODE    CURVE DESCRIPTION
#----------   ------------   ------------------------------
 DEPT.F                  :   
 SPR .MV     07 010 01 00:   SPONTANEOUS POTENTIAL
 RFOC.OHMM   07 220 01 00:   RESISTIVITY FOCUSED LOG RES.
 ILD .OHMM   07 120 46 00:   DEEP INDUCTION RESISTIVITY
 TENR.LBS    07 635 01 00:   TENSION
 ILM .OHMM   07 120 44 00:   INDUCTION LOG MEDIUM RESISTIVITY
 GRD .GAPI   45 310 01 00:   GAMMA RAY FROM DENSITY LOG
 CALD.IN     45 280 60 00:   CALIPER FROM DENSITY LOG
 RHOB.G/C3   45 350 01 00:   BULK DENSITY
 TEND.LBS    45 635 01 00:   TENSION FROM DENSITY LOG
 CORR.G/C3   45 356 01 00:   DENSITY CORRECTION
~PARAMETER INFORMATION
#MNEM.UNIT          VALUE    DESCRIPTION
#----------   ------------   ------------------------------
 EKB .F         5257.0000:   Kelly bushing
 EGL .F         5247.0000:   Ground level
 EDF .F            0.0000:   Drilling floor
 TD  .F         3388.0000:   Total depth
 DATE.        25-JAN-1981:   Date logged
 CLNT.            A2DTECH:   Client Code
 SL  . 2289' FNL & 1495' FEL:   Surface Location
 PD  .                 GL:   Permanent Datum
 EPD .F              5247:   Elevation Permanent Datum
 LMF .                 KB:   Log Measured From
 DMF .                 KB:   Drilling Measured From
 DAPD.F                10:   Feet Above Permanent Datum
 DD  .F              3388:   Depth driller
 DL  .F              3386:   Depth logger
 BLI .F              3380:   Bottom log interval
 TLI .F               192:   Top log interval
 CS1 .IN            8.625:   Casing size
 CBD1.      8.625" @ 191':   Casing driller 1
 CBL1.F               192:   Casing logger 1
 BS1 .IN            7.875:   Bit size
 BSD1.F              3388:   Depth drilled with bit1
 DFT .                FGM:   Type fluid in hole
 DFD .                8.7:   Density
 DFV .                 32:   Viscosity
 DFPH.                9.5:   pH
 DFL .                 18:   Fluid loss
 MSS .           FLOWLINE:   Source of sample
 RMS .OHMM           1.60:   Rm
 MST .F                60:   Rm Meas. temp.
 RMF .OHMM           1.33:   Rmf
 MFST.F                60:   Rmf Meas. temp.
 MFSS.               MEAS:   Source Rmf.
 RMB .OHMM            .83:   Rm. at BHT
 BHT .F               115:   BHT.
 TCS .HRS            1700:   Time Circ. stopped
 TLAB.HRS            2200:   Time logger at bottom
 MRT .F               115:   Maximum recorded temp.
 LUN .               8039:   Logging unit number
 LUL .               CSPR:   Logging unit location
 ENGI.           C. PFARR:   Recorded By
 WITN.           L. FIVAS:   Witnessed by
 ORIG.           5" PRINT:   Origin of data
 UWI .     49025108640000:   Unique Well ID
 DICO. A2D TECHNOLOGIES, INC.:   Digitizing Company
~OTHER INFORMATION
~A   DEPT      SPR       RFOC        ILD       TENR        ILM         GRD      CALD         RHOB      TEND      CORR   
# ...
  377.0000   -14.9590     8.0360     7.6810   282.4730     7.4030    97.3920    10.5120     2.4750   419.9200     0.0110
  377.5000   -15.0820     8.0360     7.7450   282.7000     7.4650    98.2460    10.5150     2.4920   420.0980     0.0150
  378.0000   -15.2040     8.0360     7.6120   282.9270     7.3370    97.4540    10.5180     2.4920   420.2750     0.0200
  378.5000   -15.3260     7.8310     7.4800   283.1540     7.2090    95.6740    10.5210     2.4870   420.4530     0.0260
  379.0000   -15.4480     7.6610     7.3470   283.3810     7.0810    94.0140    10.5250     2.4870   420.6310     0.0340
  379.5000   -15.5710     7.4900     7.2150   283.6090     6.9540    93.3860    10.5280     2.5000   420.8090     0.0400
  380.0000   -15.6930     7.3200     7.0820   283.8360     6.8260    95.5590    10.5310     2.5040   420.9870     0.0470
  380.5000   -15.8150     7.1490     6.9490   284.0630     6.6980    98.3530    10.5340     2.5020   421.1640     0.0420
  381.0000   -15.9380     6.9790     6.8170   284.2900     6.5700   100.2650    10.5380     2.4940   421.3420     0.0350
  381.5000   -16.0600     6.8080     6.6840   284.5170     6.4420   101.1080    10.5400     2.4810   421.5200     0.0280
  382.0000   -16.1820     6.9050     6.7470   284.7450     6.4420   102.7500    10.5400     2.4690   421.6980     0.0210
  382.5000   -16.3040     7.0020     6.8090   284.9720     6.4420   105.0410    10.4940     2.4640   421.8760     0.0230
  383.0000   -16.4270     7.0980     6.8720   285.1990     6.4420   107.3960    10.4500     2.4790   422.0530     0.0300
  383.5000   -16.5490     7.1950     6.9350   285.4260     6.4420   105.8090    10.4020     2.4940   422.2310     0.0420
  384.0000   -16.6710     7.1620     6.9070   285.6530     6.4420   102.3700    10.3580     2.5040   422.4090     0.0540
  384.5000   -16.7930     7.1290     6.8800   285.8810     6.4420    99.6240    10.3090     2.5000   422.5870     0.0670
  385.0000   -16.9160     7.0960     6.8530   286.1080     6.4420    98.8930    10.3120     2.4930   422.7640     0.0720
  385.5000   -17.0380     7.0640     6.8260   286.3350     6.4420    98.9750    10.3180     2.4810   422.9420     0.0650
  386.0000   -17.1600     7.0640     6.7980   286.5620     6.4420    98.3130    10.3260     2.4700   423.1200     0.0560
  386.5000   -17.2820     7.0640     6.7710   286.7900     6.4420    96.8240    10.3320     2.4680   423.2980     0.0460
  387.0000   -17.4050     7.0640     6.7440   287.0170     6.4420    95.9720    10.3390     2.4710   423.4760     0.0360
  387.5000   -17.5270     7.0640     6.7170   287.2440     6.4430    97.2760    10.3460     2.4770   423.6530     0.0280
  388.0000   -17.6490     7.0640     6.6840   287.4710     6.4430    99.4060    10.3530     2.4840   423.8310     0.0280
  388.5000   -17.7720     7.0840     6.7230   287.6980     6.4800   100.7680    10.3600     2.4830   424.0090     0.0410
  389.0000   -17.8940     7.1360     6.7720   287.9260     6.5270   101.1420    10.3670     2.4850   424.1870     0.0540
  389.5000   -18.0160     7.1880     6.8210   288.1530     6.5740   101.7630    10.3740     2.4850   424.3650     0.0560
  390.0000   -18.1380     7.2400     6.8700   288.3800     6.6210   103.5050    10.3810     2.4870   424.5420     0.0580
  390.5000   -18.2610     7.2920     6.9180   288.6070     6.6680   105.5870    10.3880     2.4820   424.7200     0.0530
  391.0000   -18.3830     7.3440     6.9670   288.8340     6.7150   106.4450    10.3950     2.4720   424.8980     0.0400
  391.5000   -18.5040     7.3960     7.0160   289.0620     6.7620   105.1550    10.4020     2.4660   425.0760     0.0340
  392.0000   -18.6340     7.4480     7.0650   289.2890     6.8090   102.5250    10.4080     2.4940   425.2540     0.0420
  392.5000   -18.7220     7.5000     7.1140   289.5160     6.8560    99.9330    10.4150     2.5120   425.4310     0.0530
  393.0000   -18.7530     7.5520     7.1630   289.7430     6.9040    99.9410    10.4220     2.5110   425.6090     0.0490
  393.5000   -18.7940     7.6040     7.2120   289.9710     6.9510   102.1730    10.4290     2.4800   425.7870     0.0360
  394.0000   -18.8330     7.7000     7.2600   290.1980     6.9980   104.3100    10.4360     2.4530   425.9650     0.0230
  394.5000   -18.8710     7.7970     7.3090   290.4250     7.0450   104.3240    10.4430     2.4430   426.1430     0.0230
  395.0000   -18.9100     7.8930     7.4170   290.6520     7.0790   103.3540    10.4500     2.4610   426.3200     0.0270
  395.5000   -18.9480     7.9900     7.5640   290.8790     7.1040   102.8630    10.4570     2.4790   426.4980     0.0320
  396.0000   -18.9870     8.0860     7.7120   291.1070     7.1290   102.9290    10.4640     2.4980   426.6760     0.0300
  396.5000   -19.0260     8.1830     7.8590   291.3340     7.1550   103.8770    10.4710     2.5030   426.8540     0.0280
  397.0000   -19.0640     8.3370     8.0360   291.5610     7.1800   105.3430    10.4780     2.5020   427.0320     0.0260
  397.5000   -19.1030     8.3080     7.9740   291.7880     7.2050   106.0020    10.4850     2.5010   427.2090     0.0240
  398.0000   -19.1420     8.2330     7.8970   292.0150     7.2310   105.4940    10.4910     2.5010   427.3870     0.0220
  398.5000   -19.1810     8.1580     7.8200   292.2430     7.2570   105.1380    10.4980     2.5000   427.5650     0.0200
  399.0000   -19.2190     8.0840     7.7430   292.4700     7.2820   104.6810    10.5040     2.5000   427.7430     0.0180
  399.5000   -19.2580     8.0090     7.6660   292.6970     7.3080   104.8160    10.5060     2.4990   427.9200     0.0210
  400.0000   -19.2970     7.8890     7.6040   292.9240     7.3290   105.9020    10.5080     2.5030   428.0980     0.0260
  400.5000   -19.3350     7.9630     7.7810   293.1520     7.5000   106.8450    10.5100     2.5110   428.2760     0.0310
  401.0000   -19.3740     8.1480     7.9290   293.3790     7.6420   107.5630    10.5120     2.5210   428.4540     0.0350
  401.5000   -19.4130     8.3340     8.0770   293.6060     7.7850   106.6400    10.5140     2.5300   428.6320     0.0400
  402.0000   -19.4510     8.5200     8.2250   293.8330     7.9270   105.7730    10.5160     2.5300   428.8090     0.0400
  402.5000   -19.4900     8.7050     8.3730   294.0600     8.0700   105.2350    10.5180     2.5250   428.9870     0.0350
  403.0000   -19.5290     8.8910     8.5210   294.2880     8.2120   105.3020    10.5200     2.5130   429.1650     0.0310
  403.5000   -19.5670     9.0770     8.6680   294.5150     8.3550   105.7340    10.5220     2.5010   429.3430     0.0270
  404.0000   -19.6060     9.2620     8.8160   294.7420     8.4970   106.5100    10.5240     2.4910   429.5210     0.0230
  404.5000   -19.6450     9.3120     8.9750   294.9690     8.6500   106.7870    10.5260     2.4880   429.6980     0.0190
  405.0000   -19.6840     9.2470     8.9210   295.1960     8.5980   106.2360    10.5280     2.4850   429.8760     0.0170
  405.5000   -19.7220     9.1420     8.8630   295.4240     8.5420   103.3080    10.5300     2.4850   430.0540     0.0140
  406.0000   -19.7610     9.4580     8.8110   295.6510     8.4920   101.0430    10.5320     2.4980   430.2320     0.0240
  406.5000   -19.8000    10.0820     9.2900   295.8780     8.9540   100.4630    10.5340     2.5180   430.4100     0.0350
  407.0000   -19.8380    10.7050     9.7240   296.1050     9.3720   100.0000    10.5360     2.5260   430.5870     0.0450
  407.5000   -19.8770    11.4030    10.2100   296.3330     9.8410    98.1210    10.5380     2.5200   430.7650     0.0400
  408.0000   -19.9160    11.4030     9.9190   296.5600     9.5600    94.6830    10.5400     2.5180   430.9430     0.0350
  408.5000   -19.9540    10.1280     9.5880   296.7870     9.2410    91.5590    10.5420     2.5200   431.1210     0.0330
  409.0000   -19.9930     9.4660     9.2570   297.0140     8.9220    92.2660    10.5440     2.5220   431.2990     0.0380
  409.5000   -20.0320     9.4250     9.1070   297.2410     8.7770    94.4810    10.5520     2.5040   431.4760     0.0390
  410.0000   -20.0700     9.3850     9.0530   297.4690     8.7250    96.4310    10.5600     2.4860   431.6540     0.0300
