~VERSION INFORMATION
 VERS.                2.0:   CWLS LOG ASCII STANDARD - VERSION 2.0
 WRAP.                 NO:   ONE LINE PER DEPTH STEP
~WELL INFORMATION
#MNEM.UNIT      DATA TYPE    INFORMATION
#----------   ------------   ------------------------------
 STRT.F           90.0000:   START DEPTH
 STOP.F         3342.0000:   STOP DEPTH
 STEP.F            0.5000:   STEP LENGTH
 NULL.          -999.2500:   NO VALUE
 COMP. LAWRENCE ALLISON AND ASSOCIATES:   COMPANY
 WELL. LAWERNCE "X" #83-3:   WELL
 FLD .             NPR #3:   FIELD
 LOC .       S3 T38N R78W:   LOCATION
 CNTY.            NATRONA:   COUNTY
 STAT.            WYOMING:   STATE
 CTRY. UNITED STATES OF AMERICA:   COUNTRY
 SRVC.      DRESSER ATLAS:   SERVICE COMPANY
 DATE.        23-APR-1985:   LOGDATE
 API .     49025110210000:   API NUMBER
~CURVE INFORMATION
#MNEM.UNIT       API CODE    CURVE DESCRIPTION
#----------   ------------   ------------------------------
 DEPT.F                  :   
 TENR.LBS    07 635 01 00:   TENSION FROM RESISTIVITY
 CALR.IN     07 280 01 00:   CALIPER FROM RESISTIVITY
 SPR .MV     07 010 01 00:   SPONTANEOUS POTENTIAL
 GRR .GAPI   07 310 01 00:   GAMMA RAY FROM RESISTIVITY
 RFOC.OHMM   07 220 04 00:   RESISTIVITY FOCUSED LOG RES.
 RILD.OHMM   07 120 46 00:   DEEP INDUCTION RESISTIVITY
 RILM.OHMM   07 120 44 00:   INDUCTION LOG MEDIUM RESISTIVITY
 NPHI.DEC    42 890 03 00:   NEUTRON POROSITY SANDSTONE
 RHOB.G/C3   45 350 01 00:   BULK DENSITY
 TEND.LBS    45 635 01 00:   TENSION FROM DENSITY LOG
 CORR.G/C3   45 356 01 00:   DENSITY CORRECTION
~PARAMETER INFORMATION
#MNEM.UNIT          VALUE    DESCRIPTION
#----------   ------------   ------------------------------
 EKB .F         5125.0000:   Kelly bushing
 EGL .F         5112.0000:   Ground level
 EDF .F            0.0000:   Drilling floor
 TD  .F         3330.0000:   Total depth
 DATE.        23-APR-1985:   Date logged
 CLNT.            A2DTECH:   Client Code
 SL  . 1745' FNL & 612' FEL:   Surface Location
 PD  .                 GL:   Permanent Datum
 DD  .F              3330:   Depth driller
 DL  .F              3328:   Depth logger
 BLI .F              3326:   Bottom log interval
 CS1 .IN            8.625:   Casing size
 CBD1.      8.625" @ 526':   Casing driller 1
 CBL1.F               528:   Casing logger 1
 BS1 .IN            7.875:   Bit size
 DFT .            KCL-GEL:   Type fluid in hole
 DFD .                9.1:   Density
 DFV .                 43:   Viscosity
 DFPH.                  8:   pH
 DFL .                  8:   Fluid loss
 MSS .           FLOWLINE:   Source of sample
 RMS .OHMM          0.445:   Rm
 MST .F                72:   Rm Meas. temp.
 RMF .OHMM           0.36:   Rmf
 MFST.F                70:   Rmf Meas. temp.
 RMC .OHMM           0.55:   Rmc
 MCST.F                72:   Rmc Meas. temp.
 MFSS.               MEAS:   Source Rmf.
 RMB .OHMM          0.286:   Rm. at BHT
 BHT .F               116:   BHT.
 TCS .HRS               3:   Time Circ. stopped
 MRT .F               116:   Maximum recorded temp.
 LUN .               6274:   Logging unit number
 LUL .               GLTE:   Logging unit location
 ENGI.             RAUTIO:   Recorded By
 WITN.             STRONG:   Witnessed by
 ORIG.           5" PRINT:   Origin of data
 UWI .     49025110210000:   Unique Well ID
 DICO. A2D TECHNOLOGIES, INC.:   Digitizing Company
 DAPD.                 13:   Feet Above Permanent Datum
 BSD1.               3330:   Depth drilled with bit1
 MCSS.               CALC:   Source Rmc.
 EPD .               5112:   Elevation Permanent Datum
 LMF .                 KB:   Log Measured From
 DMF .                 KB:   Drilling Measured From
~OTHER INFORMATION
~A   DEPT     TENR       CALR        SPR         GRR      RFOC       RILD       RILM       NPHI       RHOB       TEND       CORR   
# ...
  547.5000   -55.1900    10.0890   -68.4440    94.8670     8.0580     9.9310     9.3960  -999.2500  -999.2500  -999.2500  -999.2500
  548.0000   -55.5830    10.0890   -68.8040    97.6700     7.9840     9.6930     9.3160  -999.2500  -999.2500  -999.2500  -999.2500
  548.5000   -55.5830    10.0900   -69.1640    96.6790     8.0580     9.4550     9.2360  -999.2500  -999.2500  -999.2500  -999.2500
  549.0000   -55.5830    10.0910   -69.4780    94.1640     7.9560     9.3330     9.1630  -999.2500  -999.2500  -999.2500  -999.2500
  549.5000   -55.5830    10.0920   -69.7810    93.0780     7.7500     9.2350     9.0590  -999.2500  -999.2500  -999.2500  -999.2500
  550.0000   -55.5830    10.0920   -69.9470    97.3970     7.5430     9.1900     8.9640  -999.2500  -999.2500  -999.2500  -999.2500
  550.5000   -55.5830    10.0930   -69.7160   100.3650     7.3360     9.1460     8.8680  -999.2500  -999.2500  -999.2500  -999.2500
  551.0000   -55.5830    10.0940   -69.7860    99.9430     7.1510     9.1010     8.7730  -999.2500  -999.2500  -999.2500  -999.2500
  551.5000   -55.5830    10.0950   -70.1450    99.5960     7.2590     9.0560     8.6770  -999.2500  -999.2500  -999.2500  -999.2500
  552.0000   -55.5830    10.0950   -70.5040    99.2010     7.3780     9.0100     8.5930  -999.2500  -999.2500  -999.2500  -999.2500
  552.5000   -55.5830    10.0960   -70.8640    96.8340     7.4970     8.9640     8.6740  -999.2500  -999.2500  -999.2500  -999.2500
  553.0000   -55.5830    10.0970   -71.2240    94.2340     7.6160     8.9180     8.7520  -999.2500  -999.2500  -999.2500  -999.2500
  553.5000   -55.5830    10.0980   -71.5880    93.7540     7.7670     8.8730     8.6560  -999.2500  -999.2500  -999.2500  -999.2500
  554.0000   -55.5830    10.0980   -71.9650    97.1390     7.7000     8.8180     8.5520  -999.2500  -999.2500  -999.2500  -999.2500
  554.5000   -54.4700    10.0990   -72.0640    97.8390     7.5730     8.7070     8.4470  -999.2500  -999.2500  -999.2500  -999.2500
  555.0000   -52.3850    10.1000   -72.1520    91.7060     7.4470     8.5960     8.3430  -999.2500  -999.2500  -999.2500  -999.2500
  555.5000   -50.2990    10.1000   -72.2410    89.4620     7.3200     8.4850     8.2390  -999.2500  -999.2500  -999.2500  -999.2500
  556.0000   -48.2140    10.1050   -72.3310    93.1620     7.1930     8.3740     8.1350  -999.2500  -999.2500  -999.2500  -999.2500
  556.5000   -46.1280    10.1120   -72.4220   100.4600     7.0760     8.2620     8.0310  -999.2500  -999.2500  -999.2500  -999.2500
  557.0000   -44.0430    10.1190   -72.5100    99.5310     7.0110     8.1510     7.9840  -999.2500  -999.2500  -999.2500  -999.2500
  557.5000   -41.9570    10.1250   -72.5350    97.6280     6.9470     8.0580     7.9840  -999.2500  -999.2500  -999.2500  -999.2500
  558.0000   -39.8720    10.1320   -72.3770    95.7380     6.8930     8.0220     7.6750  -999.2500  -999.2500  -999.2500  -999.2500
  558.5000   -37.7870    10.1380   -72.2100    94.0750     6.8350     7.9840     7.3850  -999.2500  -999.2500  -999.2500  -999.2500
  559.0000   -35.6430    10.1510   -72.4150    94.3330     6.7320     7.9110     7.0860  -999.2500  -999.2500  -999.2500  -999.2500
  559.5000   -35.6430    10.1660   -72.5010    95.5470     6.6290     7.8150     7.0860  -999.2500  -999.2500  -999.2500  -999.2500
  560.0000   -35.6430    10.1800   -72.5060    97.1140     6.5240     7.6470     7.2420  -999.2500  -999.2500  -999.2500  -999.2500
  560.5000   -35.6430    10.1950   -72.3960    98.8020     6.6190     7.4790     7.3510  -999.2500  -999.2500  -999.2500  -999.2500
  561.0000   -35.6430    10.2100   -72.8310    96.3190     6.7420     7.3110     7.1110  -999.2500  -999.2500  -999.2500  -999.2500
  561.5000   -35.6430    10.2250   -73.2520    92.6540     6.7680     7.1430     6.9090  -999.2500  -999.2500  -999.2500  -999.2500
  562.0000   -35.6430    10.2400   -73.6680    91.8600     6.8300     6.9750     6.7060  -999.2500  -999.2500  -999.2500  -999.2500
  562.5000   -35.6430    10.2550   -73.9890    92.0050     6.7470     6.8070     6.4230  -999.2500  -999.2500  -999.2500  -999.2500
  563.0000   -35.6430    10.2590   -74.0690    90.9980     6.6450     6.6390     5.9510  -999.2500  -999.2500  -999.2500  -999.2500
  563.5000   -35.6430    10.2590   -74.1670    91.8280     6.2670     6.4050     6.3210  -999.2500  -999.2500  -999.2500  -999.2500
  564.0000   -35.6430    10.2590   -73.6110    93.8640     5.0910     6.4640     6.7790  -999.2500  -999.2500  -999.2500  -999.2500
  564.5000   -35.6430    10.2170   -72.8370    95.8450     5.3680     6.6410     6.9570  -999.2500  -999.2500  -999.2500  -999.2500
  565.0000   -35.6430    10.1700   -72.0580    97.8150     6.0350     6.8160     7.0010  -999.2500  -999.2500  -999.2500  -999.2500
  565.5000   -35.6430    10.1230   -71.2790    99.7900     6.7030     6.9900     7.2010  -999.2500  -999.2500  -999.2500  -999.2500
  566.0000   -35.6430    10.0810   -70.5010   100.3660     7.1630     7.3620     7.4020  -999.2500  -999.2500  -999.2500  -999.2500
  566.5000   -35.6430    10.0920   -69.8080    99.5470     7.2140     7.7760     7.6030  -999.2500  -999.2500  -999.2500  -999.2500
  567.0000   -35.6430    10.1040   -69.7940    98.8220     7.2650     8.1900     7.8040  -999.2500  -999.2500  -999.2500  -999.2500
  567.5000   -35.6430    10.1170   -69.7900    98.8200     7.3900     8.6040     8.0040  -999.2500  -999.2500  -999.2500  -999.2500
  568.0000   -35.6430    10.1200   -69.2360    98.7600     7.6330     8.8900     8.2050  -999.2500  -999.2500  -999.2500  -999.2500
  568.5000   -35.6430    10.1210   -68.8830    97.5790     7.7670     9.2010     8.4060  -999.2500  -999.2500  -999.2500  -999.2500
  569.0000   -35.6430    10.1210   -70.7760    96.4380     7.9110     9.3320     8.4360  -999.2500  -999.2500  -999.2500  -999.2500
  569.5000   -35.6430    10.1210   -72.5920    95.4890     7.9040     9.4320     8.4360  -999.2500  -999.2500  -999.2500  -999.2500
  570.0000   -35.6430    10.1210   -74.4580    94.9980     7.8940     9.5060     8.4360  -999.2500  -999.2500  -999.2500  -999.2500
  570.5000   -35.6430    10.1210   -75.1320    94.4920     7.8840     9.5060     8.4360  -999.2500  -999.2500  -999.2500  -999.2500
  571.0000   -35.6430    10.1210   -75.4100    94.2930     7.8730     9.5060     8.5860  -999.2500  -999.2500  -999.2500  -999.2500
  571.5000   -35.6430    10.1210   -75.5790    96.7530     7.8630     9.3920     8.7280  -999.2500  -999.2500  -999.2500  -999.2500
  572.0000   -32.2840    10.1210   -75.7320    99.4160     7.8520     9.3360     8.8690  -999.2500  -999.2500  -999.2500  -999.2500
  572.5000   -28.4340    10.1210   -76.9180    96.7490     7.8420     9.2790     8.9540  -999.2500  -999.2500  -999.2500  -999.2500
  573.0000   -24.5840    10.1210   -76.6620    94.1650     7.7900     9.2220     8.9960  -999.2500  -999.2500  -999.2500  -999.2500
  573.5000   -20.7340    10.1210   -75.5750    94.0580     7.7200     9.1650     8.9560  -999.2500  -999.2500  -999.2500  -999.2500
  574.0000   -16.8840    10.1210   -74.3320    93.1930     7.6490     9.0790     8.9240  -999.2500  -999.2500  -999.2500  -999.2500
  574.5000    -8.2850    10.1210   -73.7070    91.9830     7.5780     9.0910     8.8930  -999.2500  -999.2500  -999.2500  -999.2500
  575.0000     6.7300    10.1210   -74.6410    90.9340     7.5560     9.1140     8.8610  -999.2500  -999.2500  -999.2500  -999.2500
  575.5000     7.5960    10.1210   -74.1810    91.5920     7.5560     9.1380     8.8310  -999.2500  -999.2500  -999.2500  -999.2500
  576.0000    -5.5750    10.1210   -69.8560    91.7760     7.5560     9.1610     8.8110  -999.2500  -999.2500  -999.2500  -999.2500
  576.5000   -18.7460    10.1210   -64.6680    90.8700     7.5150     9.1850     8.7920  -999.2500  -999.2500  -999.2500  -999.2500
  577.0000   -31.9170    10.1160   -64.5670    90.8300     7.3840     9.2080     8.7730  -999.2500  -999.2500  -999.2500  -999.2500
  577.5000   -45.0880    10.1080   -65.0450    93.7300     7.2540     9.2320     8.7520  -999.2500  -999.2500  -999.2500  -999.2500
