~VERSION INFORMATION
 VERS.                2.0:   CWLS LOG ASCII STANDARD - VERSION 2.0
 WRAP.                 NO:   ONE LINE PER DEPTH STEP
~WELL INFORMATION
#MNEM.UNIT      DATA TYPE    INFORMATION
#----------   ------------   ------------------------------
 STRT.F           35.5000:   START DEPTH
 STOP.F         6235.5000:   STOP DEPTH
 STEP.F            0.5000:   STEP LENGTH
 NULL.          -999.2500:   NO VALUE
 COMP. LAWRENCE-ALLISON ASSOCIATES:   COMPANY
 WELL. LAWRENCE-ALLISON "X" #62-11:   WELL
 FLD .                NPR:   FIELD
 LOC .      S11 T38N R78W:   LOCATION
 CNTY.            NATRONA:   COUNTY
 STAT.            WYOMING:   STATE
 CTRY. UNITED STATES OF AMERICA:   COUNTRY
 SRVC.      DRESSER ATLAS:   SERVICE COMPANY
 DATE.        18-DEC-1982:   LOGDATE
 API .     49025109020000:   API NUMBER
~CURVE INFORMATION
#MNEM.UNIT       API CODE    CURVE DESCRIPTION
#----------   ------------   ------------------------------
 DEPT.F                  :   
 ILM .OHMM   07 120 44 00:   INDUCTION LOG MEDIUM
 ILD .OHMM   07 120 46 00:   DEEP RESISTIVITY
 RFOC.OHMM   07 220 04 00:   RESISTIVITY FOCUSED LOG RES.
 DT  .US/F   60 520 00 00:   DELTA TIME
 TENS.LBS    60 635 01 00:   TENSION FROM SONIC LOG.
 RS  .OHMM   11 220 09 00:   RESISTIVITY SHALLOW
 RD  .OHMM   11 220 10 00:   RESISTIVITY DEEP
 RLL .OHMM   11 220 00 00:   LATEROLOG RESISTIVITY
 SPR .MV     07 010 01 00:   SPONTANEOUS POTENTIAL
 TENR.LBS    07 635 01 00:   TENSION FROM RES. LOG
 CALD.IN     45 280 60 00:   CALIPER FROM DENSITY LOG
 GRD .GAPI   45 310 01 00:   GAMMA RAY FROM DENSITY LOG
 DEN .G/C3   45 350 01 00:   FORMATION FACTOR DENSITY
 DRHO.G/C3   45 356 01 00:   DENSITY CORRECTION
 TEND.LBS    45 635 01 00:   TENSION FROM DENSITY LOG
 CN  .DEC    42 890 00 00:   NEUTRON POROSITY
~PARAMETER INFORMATION
#MNEM.UNIT          VALUE    DESCRIPTION
#----------   ------------   ------------------------------
 EKB .F         5218.0000:   Kelly bushing
 EGL .F         5208.0000:   Ground level
 EDF .F            0.0000:   Drilling floor
 TD  .F         6232.0000:   Total depth
 DATE.        18-DEC-1982:   Date logged
 CLNT.            A2DTECH:   Client Code
 SL  . 971' FNL & 1898' FEL:   Surface Location
 PD  .                 GL:   Permanent Datum
 EPD .F              5208:   Elevation Permanent Datum
 LMF .                 KB:   Log Measured From
 DMF .                 KB:   Drilling Measured From
 DAPD.F                10:   Feet Above Permanent Datum
 DD  .F              6222:   Depth driller
 DL  .F              6232:   Depth logger
 BLI .F              6230:   Bottom log interval
 CS1 .IN            9.625:   Casing size
 CBD1.     9.625" @ 1002':   Casing driller 1
 CBL1.F              1002:   Casing logger 1
 BS1 .IN             8.75:   Bit size
 BSD1.F              6222:   Depth drilled with bit1
 DFT .                KCL:   Type fluid in hole
 DFD .                  9:   Density
 DFV .                 37:   Viscosity
 DFPH.                  8:   pH
 DFL .                8.4:   Fluid loss
 MSS .           FLOWLINE:   Source of sample
 RMS .OHMM            .25:   Rm
 MST .F                60:   Rm Meas. temp.
 RMF .OHMM            .18:   Rmf
 MFST.F                62:   Rmf Meas. temp.
 RMC .OHMM            .32:   Rmc
 MCST.F                60:   Rmc Meas. temp.
 MFSS.               MEAS:   Source Rmf.
 MCSS.               CALC:   Source Rmc.
 RMB .OHMM            .09:   Rm. at BHT
 BHT .F               166:   BHT.
 TCS .HRS               6:   Time Circ. stopped
 MRT .F               166:   Maximum recorded temp.
 LUN .               6274:   Logging unit number
 LUL .               GLTE:   Logging unit location
 ENGI.             RAUTIO:   Recorded By
 WITN.           JENNINGS:   Witnessed by
 ORIG.           5" PRINT:   Origin of data
 UWI .     49025109020000:   Unique Well ID
 DICO. A2D TECHNOLOGIES, INC.:   Digitizing Company
~OTHER INFORMATION
~A  DEPTH      ILM        ILD       RFOC         DT       TENS         RS         RD        RLL        SPR       TENR       CALD        GRD        DEN       DRHO       TEND         CN
# ...
  465.5000     5.6184     5.2235     6.5148  -999.2500  -999.2500  -999.2500  -999.2500  -999.2500   -39.4912   -79.1541    12.4676    84.8415     2.3905    -0.0121   -59.2924     0.3426
  466.0000     5.5835     5.2192     6.6016  -999.2500  -999.2500  -999.2500  -999.2500  -999.2500   -39.5174   -79.0030    12.4686    85.7165     2.3920    -0.0089   -59.0595     0.3185
  466.5000     5.5150     5.2145     6.5956  -999.2500  -999.2500  -999.2500  -999.2500  -999.2500   -39.8371   -78.8520    12.4695    86.5915     2.3959    -0.0058   -62.7916     0.3106
  467.0000     5.5114     5.2107     6.6355  -999.2500  -999.2500  -999.2500  -999.2500  -999.2500   -39.9325   -78.6768    12.4704    87.1699     2.3975    -0.0058   -62.5864     0.3072
  467.5000     5.4699     5.2064     6.6761  -999.2500  -999.2500  -999.2500  -999.2500  -999.2500   -40.0302   -82.3128    12.4713    87.7446     2.3990    -0.0057   -66.3239     0.3197
  468.0000     5.4663     5.2019     6.6234  -999.2500  -999.2500  -999.2500  -999.2500  -999.2500   -40.2058   -82.1752    12.4722    87.1218     2.4029    -0.0057   -66.0964     0.3244
  468.5000     5.4626     5.2335     6.5732  -999.2500  -999.2500  -999.2500  -999.2500  -999.2500   -40.5271   -82.0242    12.4732    85.5944     2.4075    -0.0057   -65.9020     0.3209
  469.0000     5.4597     5.2299     6.5674  -999.2500  -999.2500  -999.2500  -999.2500  -999.2500   -41.1533   -81.8731    12.4741    84.9716     2.4098    -0.0057   -65.6920     0.3127
  469.5000     5.4562     5.2621     6.4711  -999.2500  -999.2500  -999.2500  -999.2500  -999.2500   -41.7762   -81.7161    12.4750    85.2534     2.4082    -0.0057   -65.4813     0.3096
  470.0000     5.4909     5.3314     6.4665  -999.2500  -999.2500  -999.2500  -999.2500  -999.2500   -41.7949   -81.5523    12.4759    86.4249     2.4082    -0.0072   -65.3188     0.3090
  470.5000     5.6023     5.4764     6.5060  -999.2500  -999.2500  -999.2500  -999.2500  -999.2500   -41.8188   -81.4002    12.4768    87.0033     2.4105    -0.0088   -65.1052     0.2920
  471.0000     5.6383     5.5521     6.5459  -999.2500  -999.2500  -999.2500  -999.2500  -999.2500   -41.6843   -81.2598    12.4777    86.3768     2.4120    -0.0072   -64.9096     0.2858
  471.5000     5.7534     5.7016     6.6769  -999.2500  -999.2500  -999.2500  -999.2500  -999.2500   -41.7104   -77.3312    12.4787    85.1497     2.4143    -0.0056   -64.6989     0.2963
  472.0000     5.9115     5.8564     6.9080  -999.2500  -999.2500  -999.2500  -999.2500  -999.2500   -41.8809   -75.9062    12.4796    83.0254     2.4167    -0.0056   -64.5183     0.3072
  472.5000     6.0412     5.9756     7.2965  -999.2500  -999.2500  -999.2500  -999.2500  -999.2500   -42.0481   -73.2628    12.4805    82.9995     2.4190    -0.0040   -64.3378     0.3139
  473.0000     6.2420     6.0966     7.4940  -999.2500  -999.2500  -999.2500  -999.2500  -999.2500   -41.9202   -73.0867    12.4814    84.7791     2.4205    -0.0024   -64.1271     0.3101
  473.5000     6.3691     6.1351     7.3613  -999.2500  -999.2500  -999.2500  -999.2500  -999.2500   -41.4989   -72.9607    12.4823    86.2621     2.4236     0.0010   -63.9580     0.3082
  474.0000     6.4595     6.1289     6.9801  -999.2500  -999.2500  -999.2500  -999.2500  -999.2500   -40.9102   -72.8097    12.4833    85.3316     2.4329     0.0055   -63.7636     0.3088
  474.5000     6.5864     6.1234     6.7838  -999.2500  -999.2500  -999.2500  -999.2500  -999.2500   -40.4773   -76.4303    12.4842    82.9032     2.4391     0.0102   -63.5554     0.3094
  475.0000     6.4462     6.0768     6.8723  -999.2500  -999.2500  -999.2500  -999.2500  -999.2500   -40.0477   -76.2840    12.4851    81.3795     2.4453     0.0134   -63.3447     0.3097
  475.5000     6.3529     6.0717     7.0123  -999.2500  -999.2500  -999.2500  -999.2500  -999.2500   -39.6116   -76.1143    12.4860    81.3536     2.4445     0.0158   -63.1642     0.3078
  476.0000     6.2395     6.0528     7.0550  -999.2500  -999.2500  -999.2500  -999.2500  -999.2500   -39.6377   -75.9819    12.4869    81.9357     2.4422     0.0181   -62.9535     0.3037
  476.5000     6.0859     5.9782     7.0245  -999.2500  -999.2500  -999.2500  -999.2500  -999.2500   -39.6574   -79.6072    12.4879    82.5141     2.4382     0.0150   -62.7916     0.2974
  477.0000     6.0406     5.9313     6.9463  -999.2500  -999.2500  -999.2500  -999.2500  -999.2500   -39.8311   -79.4344    12.4888    81.8839     2.4343     0.0103   -62.5623     0.2924
  477.5000     5.9002     5.8854     6.8787  -999.2500  -999.2500  -999.2500  -999.2500  -999.2500   -40.1524   -79.3051    12.4897    81.2574     2.4280     0.0070   -62.4028     0.2993
  478.0000     5.8267     5.8505     6.8390  -999.2500  -999.2500  -999.2500  -999.2500  -999.2500   -40.4769   -79.1419    12.4906    80.9349     2.4217     0.0025   -62.2012     0.3118
  478.5000     5.7190     5.7953     6.8324  -999.2500  -999.2500  -999.2500  -999.2500  -999.2500   -40.6474   -78.9898    12.4915    81.2130     2.4155    -0.0022   -61.9755     0.3180
  479.0000     5.6816     5.7105     6.7799  -999.2500  -999.2500  -999.2500  -999.2500  -999.2500   -40.3654   -78.8377    12.4924    82.0916     2.4108    -0.0054   -61.8100     0.3142
  479.5000     5.6570     5.6659     6.7282  -999.2500  -999.2500  -999.2500  -999.2500  -999.2500   -40.2353   -74.9091    12.4933    83.2669     2.4076    -0.0117   -61.5993     0.3161
  480.0000     5.6932     5.6226     6.7217  -999.2500  -999.2500  -999.2500  -999.2500  -999.2500   -39.9521   -74.7734    12.4937    83.8453     2.4029    -0.0195   -61.4188     0.3223
  480.5000     5.7689     5.6180     6.6949  -999.2500  -999.2500  -999.2500  -999.2500  -999.2500   -40.4308   -74.5932    12.4940    83.8157     2.3982    -0.0242   -61.2081     0.3167
  481.0000     5.8680     5.6522     6.6180  -999.2500  -999.2500  -999.2500  -999.2500  -999.2500   -41.3554   -74.4713    12.4944    84.0975     2.3935    -0.0258   -61.0275     0.3117
  481.5000     6.0068     5.6880     6.5671  -999.2500  -999.2500  -999.2500  -999.2500  -999.2500   -41.6800   -74.3202    12.4947    85.2728     2.3950    -0.0242   -56.9289     0.3098
  482.0000     6.1719     5.8432     6.4271  -999.2500  -999.2500  -999.2500  -999.2500  -999.2500   -41.6996   -74.1603    12.4951    86.1502     2.3996    -0.0210   -52.8771     0.3091
  482.5000     6.3420     6.0445     6.2888  -999.2500  -999.2500  -999.2500  -999.2500  -999.2500   -41.7225   -74.0181    12.4954    86.4296     2.4066    -0.0210   -52.6797     0.2969
  483.0000     6.5723     6.2196     6.2840  -999.2500  -999.2500  -999.2500  -999.2500  -999.2500   -41.7672   -73.8561    12.4957    82.4961     2.4152    -0.0194   -52.4691     0.2784
  483.5000     6.7896     6.4689     6.7760  -999.2500  -999.2500  -999.2500  -999.2500  -999.2500   -42.0634   -73.7160    12.4961    76.7644     2.4308    -0.0194   -44.4824     0.2665
  484.0000     6.9761     6.6917     8.5713  -999.2500  -999.2500  -999.2500  -999.2500  -999.2500   -42.3880   -73.5650    12.4964    68.0335     2.4510    -0.0178   -40.4138     0.2627
  484.5000     7.0699     6.8394    11.3830  -999.2500  -999.2500  -999.2500  -999.2500  -999.2500   -42.4109   -73.3880    12.4968    66.8101     2.4980    -0.0178   -40.2031     0.2649
  485.0000     7.0648     6.9178     8.6764  -999.2500  -999.2500  -999.2500  -999.2500  -999.2500   -42.4305   -77.0393    12.4971    70.3878     2.4908    -0.0162   -43.9708     0.2784
  485.5000     7.0046     6.9605     7.5993  -999.2500  -999.2500  -999.2500  -999.2500  -999.2500   -42.0009   -76.8882    12.4975    76.0676     2.4525    -0.0146   -43.7300     0.2930
  486.0000     6.8625     6.9055     7.1313  -999.2500  -999.2500  -999.2500  -999.2500  -999.2500   -41.4172   -76.7198    12.4978    81.4508     2.4275    -0.0130   -48.5227     0.3071
  486.5000     6.7170     6.8019     6.9324  -999.2500  -999.2500  -999.2500  -999.2500  -999.2500   -40.6827   -76.5861    12.4982    82.0329     2.4197    -0.0177   -51.1275     0.3035
