~VERSION INFORMATION
 VERS.                2.0:   CWLS LOG ASCII STANDARD - VERSION 2.0
 WRAP.                 NO:   ONE LINE PER DEPTH STEP
~WELL INFORMATION
#MNEM.UNIT      DATA TYPE    INFORMATION
#----------   ------------   ------------------------------
 STRT.F           42.0000:   START DEPTH
 STOP.F         2778.0000:   STOP DEPTH
 STEP.F            0.5000:   STEP LENGTH
 NULL.          -999.2500:   NO VALUE
 COMP.    FENIX & SCISSON:   COMPANY
 WELL. FENIX & SCISSON SHX #56-23:   WELL
 FLD .        TEAPOT DOME:   FIELD
 LOC .      S23 T38N R78W:   LOCATION
 CNTY.            NATRONA:   COUNTY
 STAT.            WYOMING:   STATE
 CTRY. UNITED STATES OF AMERICA:   COUNTRY
 SRVC.           BIRDWELL:   SERVICE COMPANY
 DATE.        29-AUG-1979:   LOGDATE
 API .     49025107920000:   API NUMBER
~CURVE INFORMATION
#MNEM.UNIT       API CODE    CURVE DESCRIPTION
#----------   ------------   ------------------------------
 DEPT.F                  :   
 GRD .GAPI   45 310 01 00:   GAMMA RAY FROM DENSITY LOG
 CALD.IN     45 280 60 00:   CALIPER FROM DENSITY LOG
 RHOB.G/C3   45 350 01 00:   BULK DENSITY
 CORR.G/C3   45 356 01 00:   DENSITY CORRECTION
 ILD .OHMM   07 120 46 00:   DEEP INDUCTION RESISTIVITY
 SFL .OHMM   07 220 01 00:   SHALLOW FOCUSED LOG RESISTIVITY
 SPR .MV     07 010 01 00:   SPONTANEOUS POTENTIAL
~PARAMETER INFORMATION
#MNEM.UNIT          VALUE    DESCRIPTION
#----------   ------------   ------------------------------
 EKB .F         5361.0000:   Kelly bushing
 EGL .F         5351.0000:   Ground level
 EDF .F         5360.0000:   Drilling floor
 TD  .F         1465.0000:   Total depth
 DATE.        29-AUG-1979:   Date logged
 CLNT.            A2DTECH:   Client Code
 PD  .                 GL:   Permanent Datum
 EPD .F              5351:   Elevation Permanent Datum
 LMF .                 KB:   Log Measured From
 DMF .                 KB:   Drilling Measured From
 DAPD.F                 9:   Feet Above Permanent Datum
 DD  .F              1465:   Depth driller
 DL  .F              1462:   Depth logger
 BLI .F              1457:   Bottom log interval
 TLI .F                40:   Top log interval
 CBD1.F                40:   Casing driller 1
 CBL1.F                40:   Casing logger 1
 BS1 .IN            12.25:   Bit size
 BSD1.F              1465:   Depth drilled with bit1
 DFT .            GEL/MUD:   Type fluid in hole
 DFD .                9.5:   Density
 DFV .                 40:   Viscosity
 DFPH.                9.0:   pH
 DFL .                 40:   Fluid loss
 MSS .            MUD PIT:   Source of sample
 RMS .OHMM            2.6:   Rm
 MST .F                68:   Rm Meas. temp.
 RMF .OHMM            1.8:   Rmf
 MFST.F                78:   Rmf Meas. temp.
 RMC .OHMM            2.8:   Rmc
 MCST.F                76:   Rmc Meas. temp.
 MFSS.               MEAS:   Source Rmf.
 MCSS.               MEAS:   Source Rmc.
 RMB .OHMM           1.96:   Rm. at BHT
 BHT .F                90:   BHT.
 TCS .HRS               5:   Time Circ. stopped
 MRT .F                90:   Maximum recorded temp.
 LUN .               2959:   Logging unit number
 LUL .             CASPER:   Logging unit location
 ENGI.         B. ROLLINS:   Recorded By
 WITN.              AMEND:   Witnessed by
 ORIG.           5" PRINT:   Origin of data
 UWI .     49025107920000:   Unique Well ID
 DICO. A2D TECHNOLOGIES, INC.:   Digitizing Company
~OTHER INFORMATION
~A   DEPT       GRD      CALD       RHOB         CORR      ILD        SFL         SPR  
# ...
 1907.5000   139.6310    10.0460     2.6150     0.3510  -999.2500  -999.2500  -999.2500
 1908.0000   139.8200     9.9990     2.5600     0.2930  -999.2500  -999.2500  -999.2500
 1908.5000   142.6910    10.0030     2.5340     0.2690  -999.2500  -999.2500  -999.2500
 1909.0000   140.4260    10.0580     2.5560     0.2800  -999.2500  -999.2500  -999.2500
 1909.5000   136.6340    10.1150     2.5540     0.2750  -999.2500  -999.2500  -999.2500
 1910.0000   133.5610    10.1790     2.5490     0.2700  -999.2500  -999.2500  -999.2500
 1910.5000   137.4350    10.2010     2.5490     0.2730  -999.2500  -999.2500  -999.2500
 1911.0000   140.0260    10.1930     2.5590     0.2810  -999.2500  -999.2500  -999.2500
 1911.5000   137.6740    10.1860     2.5680     0.2950  -999.2500  -999.2500  -999.2500
 1912.0000   135.6670    10.1790     2.5640     0.2930  -999.2500  -999.2500  -999.2500
 1912.5000   135.7200    10.1720     2.5630     0.2930  -999.2500  -999.2500  -999.2500
 1913.0000   137.8190    10.1650     2.5620     0.2990  -999.2500  -999.2500  -999.2500
 1913.5000   139.7130    10.1580     2.5800     0.3060  -999.2500  -999.2500  -999.2500
 1914.0000   140.9150    10.1510     2.5720     0.2990  -999.2500  -999.2500  -999.2500
 1914.5000   141.6040    10.1440     2.5560     0.2890  -999.2500  -999.2500  -999.2500
 1915.0000   142.1420    10.1370     2.5500     0.2980  -999.2500  -999.2500  -999.2500
 1915.5000   142.6660    10.1300     2.5670     0.3240  -999.2500  -999.2500  -999.2500
 1916.0000   140.6210    10.1230     2.5960     0.3340  -999.2500  -999.2500  -999.2500
 1916.5000   138.2700    10.1160     2.5730     0.3190  -999.2500  -999.2500  -999.2500
 1917.0000   135.8850    10.1080     2.5530     0.3170  -999.2500  -999.2500  -999.2500
 1917.5000   133.7120    10.1010     2.5580     0.3210  -999.2500  -999.2500  -999.2500
 1918.0000   133.2620    10.0940     2.5610     0.3190  -999.2500  -999.2500  -999.2500
 1918.5000   133.2410    10.0870     2.5490     0.3050  -999.2500  -999.2500  -999.2500
 1919.0000   133.8190    10.0810     2.5380     0.2960  -999.2500  -999.2500  -999.2500
 1919.5000   135.6190    10.0760     2.5440     0.2950  -999.2500  -999.2500  -999.2500
 1920.0000   135.4290    10.0670     2.5490     0.2920  -999.2500  -999.2500  -999.2500
 1920.5000   134.0550    10.0590     2.5490     0.2870  -999.2500  -999.2500  -999.2500
 1921.0000   134.9870    10.0500     2.5490     0.2830  -999.2500  -999.2500  -999.2500
 1921.5000   138.8090    10.0420     2.5630     0.2780  -999.2500  -999.2500  -999.2500
 1922.0000   137.2180    10.0340     2.5660     0.2740  -999.2500  -999.2500  -999.2500
 1922.5000   138.0250    10.0260     2.5550     0.2710  -999.2500  -999.2500  -999.2500
 1923.0000   140.4850    10.0170     2.5480     0.2670  -999.2500  -999.2500  -999.2500
 1923.5000   139.9350    10.0090     2.5280     0.2640  -999.2500  -999.2500  -999.2500
 1924.0000   140.2220    10.0010     2.5110     0.2600  -999.2500  -999.2500  -999.2500
 1924.5000   136.4530     9.9920     2.4930     0.2570  -999.2500  -999.2500  -999.2500
 1925.0000   135.7820     9.9850     2.5040     0.2700  -999.2500  -999.2500  -999.2500
 1925.5000   139.5710     9.9750     2.5230     0.2850  -999.2500  -999.2500  -999.2500
 1926.0000   146.0800     9.9670     2.5420     0.3000  -999.2500  -999.2500  -999.2500
 1926.5000   146.3550     9.9680     2.5620     0.2960  -999.2500  -999.2500  -999.2500
 1927.0000   146.4750    10.0190     2.5530     0.2930  -999.2500  -999.2500  -999.2500
 1927.5000   145.9740    10.0610     2.5340     0.2890  -999.2500  -999.2500  -999.2500
 1928.0000   141.2660    10.1120     2.5240     0.2930  -999.2500  -999.2500  -999.2500
 1928.5000   136.8240    10.1590     2.5110     0.3010  -999.2500  -999.2500  -999.2500
 1929.0000   137.2600    10.2080     2.5160     0.3100  -999.2500  -999.2500  -999.2500
 1929.5000   137.6620    10.2560     2.5430     0.3010  -999.2500  -999.2500  -999.2500
 1930.0000   137.9380    10.3030     2.5560     0.2910  -999.2500  -999.2500  -999.2500
 1930.5000   138.1640    10.3270     2.5370     0.2790  -999.2500  -999.2500  -999.2500
 1931.0000   141.2430    10.3690     2.4730     0.2870  -999.2500  -999.2500  -999.2500
 1931.5000   146.7480    10.3990     2.3940     0.2980  -999.2500  -999.2500  -999.2500
 1932.0000   145.7870    10.3440     2.2990     0.3320  -999.2500  -999.2500  -999.2500
 1932.5000   141.3750    10.2810     2.3350     0.4150  -999.2500  -999.2500  -999.2500
 1933.0000   137.3650    10.2150     2.4700     0.4070  -999.2500  -999.2500  -999.2500
 1933.5000   133.4760    10.1540     2.5590     0.3710  -999.2500  -999.2500  -999.2500
 1934.0000   129.5570    10.1160     2.5420     0.3420  -999.2500  -999.2500  -999.2500
 1934.5000   131.0510    10.1210     2.5820     0.3590  -999.2500  -999.2500  -999.2500
 1935.0000   133.2570    10.1190     2.6070     0.3540  -999.2500  -999.2500  -999.2500
 1935.5000   135.2260    10.1250     2.5880     0.3480  -999.2500  -999.2500  -999.2500
 1936.0000   134.2400    10.1310     2.5930     0.3520  -999.2500  -999.2500  -999.2500
 1936.5000   134.4160    10.1360     2.6170     0.3710  -999.2500  -999.2500  -999.2500
 1937.0000   136.5200    10.1420     2.6120     0.3630  -999.2500  -999.2500  -999.2500
 1937.5000   136.7780    10.1480     2.5910     0.3580  -999.2500  -999.2500  -999.2500
 1938.0000   140.6710    10.1540     2.5960     0.3500  -999.2500  -999.2500  -999.2500
 1938.5000   142.1590    10.1600     2.5790     0.3500  -999.2500  -999.2500  -999.2500
 1939.0000   140.0870    10.1650     2.5810     0.3530  -999.2500  -999.2500  -999.2500
 1939.5000   139.9640    10.1710     2.5650     0.3550  -999.2500  -999.2500  -999.2500
 1940.0000   143.8940    10.1770     2.5520     0.3520  -999.2500  -999.2500  -999.2500
 1940.5000   148.3950    10.1820     2.5520     0.3510  -999.2500  -999.2500  -999.2500
 1941.0000   147.0290    10.1910     2.5430     0.3370  -999.2500  -999.2500  -999.2500
 1941.5000   145.4200    10.1900     2.4950     0.3050  -999.2500  -999.2500  -999.2500
 1942.0000   143.3050    10.2290     2.5060     0.3120  -999.2500  -999.2500  -999.2500
 1942.5000   142.4750    10.1890     2.5250     0.3550  -999.2500  -999.2500  -999.2500
 1943.0000   141.2210    10.1280     2.5150     0.3900  -999.2500  -999.2500  -999.2500
 1943.5000   139.4490    10.0660     2.5260     0.4130  -999.2500  -999.2500  -999.2500
 1944.0000   137.1110    10.0070     2.5670     0.4260  -999.2500  -999.2500  -999.2500
 1944.5000   134.4010     9.9460     2.6220     0.4210  -999.2500  -999.2500  -999.2500
 1945.0000   130.4510     9.8840     2.6250     0.4130  -999.2500  -999.2500  -999.2500
 1945.5000   131.2810     9.8540     2.6260     0.4060  -999.2500  -999.2500  -999.2500
 1946.0000   137.1330     9.9030     2.6110     0.3890  -999.2500  -999.2500  -999.2500
 1946.5000   141.7000     9.9500     2.5760     0.3550  -999.2500  -999.2500  -999.2500
 1947.0000   143.0730     9.9990     2.5590     0.3510  -999.2500  -999.2500  -999.2500
 1947.5000   141.3760    10.0470     2.5600     0.3590  -999.2500  -999.2500  -999.2500
 1948.0000   140.2730    10.0950     2.6030     0.3800  -999.2500  -999.2500  -999.2500
 1948.5000   139.8980    10.1440     2.5980     0.3820  -999.2500  -999.2500  -999.2500
 1949.0000   146.3940    10.1910     2.5580     0.3630  -999.2500  -999.2500  -999.2500
 1949.5000   148.4360    10.2360     2.5500     0.3540  -999.2500  -999.2500  -999.2500
 1950.0000   146.3370    10.2380     2.5670     0.3610  -999.2500  -999.2500  -999.2500
 1950.5000   145.0310    10.2370     2.5910     0.3780  -999.2500  -999.2500  -999.2500
 1951.0000   145.6290    10.1970     2.5990     0.3810  -999.2500  -999.2500  -999.2500
 1951.5000   144.5850    10.1550     2.5870     0.3630  -999.2500  -999.2500  -999.2500
 1952.0000   142.4570    10.1130     2.5760     0.3480  -999.2500  -999.2500  -999.2500
 1952.5000   140.1780    10.0720     2.5640     0.3560  -999.2500  -999.2500  -999.2500
