~VERSION INFORMATION
 VERS.                2.0:   CWLS LOG ASCII STANDARD - VERSION 2.0
 WRAP.                 NO:   ONE LINE PER DEPTH STEP
~WELL INFORMATION
#MNEM.UNIT      DATA TYPE    INFORMATION
#----------   ------------   ------------------------------
 STRT.F          200.0000:   START DEPTH
 STOP.F         3058.0000:   STOP DEPTH
 STEP.F            0.5000:   STEP LENGTH
 NULL.          -999.2500:   NO VALUE
 COMP.    FENIX & SCISSON:   COMPANY
 WELL. FENIX & SCISSON "A" #45-34:   WELL
 FLD .              N P R:   FIELD
 LOC .      S34 T39N R78W:   LOCATION
 CNTY.            NATRONA:   COUNTY
 STAT.            WYOMING:   STATE
 CTRY. UNITED STATES OF AMERICA:   COUNTRY
 SRVC.              WELEX:   SERVICE COMPANY
 DATE.        11-MAY-1977:   LOGDATE
 API .     49025103760000:   API NUMBER
~CURVE INFORMATION
#MNEM.UNIT       API CODE    CURVE DESCRIPTION
#----------   ------------   ------------------------------
 DEPT.F                  :   
 GRD .GAPI   45 310 01 00:   GAMMA RAY FROM DENSITY LOG
 CALD.IN     45 280 60 00:   CALIPER FROM DENSITY LOG
 RHOB.G/C3   45 350 01 00:   BULK DENSITY
 CORR.G/C3   45 356 01 00:   DENSITY CORRECTION
 SPR .MV     07 010 01 00:   SPONTANEOUS POTENTIAL
 ILD .OHMM   07 120 46 00:   DEEP INDUCTION RESISTIVITY
 ILM .OHMM   07 120 44 00:   INDUCTION LOG MEDIUM RESISTIVITY
 GURD.OHMM   07 220 05 00:   GUARD LOG RESISTIVITY
~PARAMETER INFORMATION
#MNEM.UNIT          VALUE    DESCRIPTION
#----------   ------------   ------------------------------
 EKB .F         5123.0000:   Kelly bushing
 EGL .F         5113.0000:   Ground level
 EDF .F            0.0000:   Drilling floor
 EPD .F            0.0000:   Permanent datum
 TD  .F         3060.0000:   Total depth
 DATE.        11-MAY-1977:   Date logged
 CLNT.            A2DTECH:   Client Code
 SL  . 2310' FSL & 2310' FWL:   Surface Location
 PD  .                 GL:   Permanent Datum
 DD  .F              3060:   Depth driller
 DL  .F              3060:   Depth logger
 BLI .F              3058:   Bottom log interval
 CS1 .IN            8.625:   Casing size
 CBD1.      8.625" @ 205':   Casing driller 1
 CBL1.F               214:   Casing logger 1
 BS1 .IN            7.875:   Bit size
 DFT .            KCL/MUD:   Type fluid in hole
 DFD .                8.8:   Density
 DFV .                 45:   Viscosity
 MSS .           FLOWLINE:   Source of sample
 RMS .OHMM            3.2:   Rm
 MST .F                85:   Rm Meas. temp.
 RMF .OHMM            2.7:   Rmf
 MFST.F                85:   Rmf Meas. temp.
 RMC .OHMM            3.6:   Rmc
 MCST.F                85:   Rmc Meas. temp.
 MFSS.               CALC:   Source Rmf.
 RMB .OHMM           2.44:   Rm. at BHT
 BHT .F               112:   BHT.
 TCS .HRS             2.5:   Time Circ. stopped
 MRT .F               112:   Maximum recorded temp.
 LUN .               8611:   Logging unit number
 LUL .           GILLETTE:   Logging unit location
 ENGI.            C. DOAK:   Recorded By
 WITN.      B. HARRINGTON:   Witnessed by
 ORIG.           5" PRINT:   Origin of data
 UWI .     49025103760000:   Unique Well ID
 DICO. A2D TECHNOLOGIES, INC.:   Digitizing Company
 DAPD.F                10:   Feet Above Permanent Datum
 BSD1.F              3060:   Depth drilled with bit1
 MCSS.               CALC:   Source Rmc.
 TLI .F               200:   Top log interval
~OTHER INFORMATION
~A   DEPT       GRD      CALD         RHOB      CORR       SPR        ILD        ILM       GURD   
# ...
 2103.5000   145.0030     8.9370     2.4110    -0.0070   -37.0590     7.8310     8.6840    11.8560
 2104.0000   145.8860     8.9420     2.4070    -0.0060   -37.0590     7.8520     8.6140    11.7730
 2104.5000   146.7110     8.9450     2.4080    -0.0050   -37.0590     7.8890     8.5440    11.6900
 2105.0000   147.5970     8.9450     2.4130    -0.0040   -37.0590     7.9250     8.4290    11.6080
 2105.5000   147.1810     8.9390     2.4190    -0.0030   -37.0590     7.9620     8.4410    11.5220
 2106.0000   146.1640     8.9320     2.4240    -0.0020   -37.0590     7.9980     8.4730    11.6960
 2106.5000   145.2060     8.9240     2.4300    -0.0010   -37.0590     8.0350     8.5050    11.8780
 2107.0000   144.2290     8.9170     2.4300     0.0000   -37.0590     8.0710     8.5360    12.0610
 2107.5000   143.8650     8.9090     2.4290     0.0010   -37.0590     8.1080     8.5690    12.2430
 2108.0000   143.7790     8.9020     2.4280     0.0030   -37.0590     8.1470     8.6010    12.4010
 2108.5000   143.6610     8.8940     2.4300     0.0030   -37.0590     8.1880     8.6340    12.4010
 2109.0000   143.5460     8.8870     2.4350     0.0030   -37.0590     8.2290     8.6660    12.4010
 2109.5000   143.4330     8.8790     2.4390     0.0030   -37.0590     8.2700     8.6980    12.4010
 2110.0000   143.3060     8.8710     2.4400     0.0030   -37.0590     8.3110     8.7300    12.4010
 2110.5000   143.2410     8.8680     2.4400     0.0030   -37.0590     8.3510     8.7620    12.3900
 2111.0000   142.6560     8.8760     2.4390     0.0040   -37.0590     8.3920     8.7950    12.3570
 2111.5000   141.4630     8.8840     2.4370     0.0070   -37.0590     8.4330     8.8270    12.3240
 2112.0000   140.3270     8.8930     2.4420     0.0070   -37.0590     8.4750     8.8600    12.2910
 2112.5000   139.0400     8.9010     2.4600     0.0070   -37.0590     8.5160     8.9060    12.2580
 2113.0000   138.7100     8.9100     2.4550     0.0070   -37.0590     8.5570     8.8800    12.2230
 2113.5000   139.7310     8.9180     2.4460     0.0070   -37.0590     8.5850     8.8220    12.1770
 2114.0000   140.5990     8.9260     2.4380     0.0070   -37.0590     8.4920     8.7650    12.2230
 2114.5000   141.5130     8.9350     2.4300     0.0070   -37.0590     8.3870     8.7070    12.3260
 2115.0000   142.4330     8.9430     2.4220     0.0070   -37.0590     8.2810     8.6490    12.4280
 2115.5000   143.2990     8.9520     2.4130     0.0070   -37.0590     8.1760     8.5920    12.5300
 2116.0000   144.9890     8.9600     2.4120     0.0070   -37.0590     8.0710     8.5350    12.6310
 2116.5000   147.8200     8.9690     2.4210     0.0070   -37.0590     7.9660     8.4770    12.4790
 2117.0000   150.7640     8.9770     2.4300     0.0070   -37.0590     7.8610     8.4200    12.3370
 2117.5000   153.7270     8.9820     2.4390     0.0070   -37.0590     7.7560     8.3630    12.1750
 2118.0000   155.4080     8.9640     2.4490     0.0070   -37.0590     7.6500     8.3060    11.6500
 2118.5000   153.8290     8.9470     2.4530     0.0080   -37.0590     7.5450     8.2480    10.7050
 2119.0000   151.5180     8.9290     2.4470     0.0080   -37.0590     7.4400     8.1910    10.9400
 2119.5000   148.6640     8.9110     2.4410     0.0090   -37.0590     7.2760     8.1250    11.4630
 2120.0000   148.0260     8.9050     2.4350     0.0090   -37.0590     7.3780     8.1350    11.9860
 2120.5000   147.4950     8.9050     2.4320     0.0100   -37.0590     7.6080     8.1480    12.2300
 2121.0000   146.3590     8.9050     2.4360     0.0100   -37.0590     7.8310     8.1600    12.3160
 2121.5000   143.9580     8.9050     2.4390     0.0110   -37.0590     7.9070     8.1720    12.4020
 2122.0000   142.9950     8.9050     2.4320     0.0100   -37.0590     7.9800     8.1850    12.4870
 2122.5000   142.0670     8.9050     2.4270     0.0080   -37.0590     8.0530     8.1970    12.5730
 2123.0000   141.1670     8.9050     2.4300     0.0060   -37.0590     8.1250     8.2090    12.6590
 2123.5000   140.3100     8.9050     2.4360     0.0050   -37.0590     8.1250     8.2220    12.7450
 2124.0000   139.2790     8.9050     2.4350     0.0030   -37.0590     8.1250     8.2340    12.8650
 2124.5000   139.4630     8.9050     2.4310     0.0020   -37.0590     8.1250     8.2460    12.6400
 2125.0000   140.0670     8.9050     2.4280     0.0000   -37.0590     8.1250     8.2590    12.2680
 2125.5000   140.6860     8.9050     2.4250    -0.0010   -37.0590     8.1250     8.2710    11.8960
 2126.0000   141.2990     8.9040     2.4290     0.0000   -37.0590     8.1250     8.2830    11.5220
 2126.5000   141.8710     8.9030     2.4380     0.0010   -37.0590     8.1250     8.2960    12.0690
 2127.0000   142.5330     8.9020     2.4460     0.0030   -37.0590     8.1250     8.3080    12.6310
 2127.5000   143.1980     8.9010     2.4550     0.0040   -37.0590     8.1250     8.3200    12.4110
 2128.0000   144.5930     8.9000     2.4630     0.0050   -37.0590     8.1250     8.3330    12.1880
 2128.5000   143.7910     8.8990     2.4720     0.0070   -37.0590     8.1250     8.3450    11.9650
 2129.0000   143.1420     8.8980     2.4740     0.0110   -37.0590     8.1250     8.3570    11.7350
 2129.5000   142.3090     8.8970     2.4680     0.0110   -37.0590     8.1240     8.3700    11.9360
 2130.0000   141.6280     8.8960     2.4620     0.0100   -37.0590     8.1140     8.3820    12.1430
 2130.5000   140.8890     8.8950     2.4550     0.0090   -37.0590     8.1060     8.3940    12.3920
 2131.0000   141.9010     8.8940     2.4490     0.0080   -37.0590     8.0960     8.4070    12.3760
 2131.5000   143.0880     8.8930     2.4420     0.0070   -37.0590     8.0870     8.4190    12.3430
 2132.0000   144.3400     8.8920     2.4360     0.0060   -37.0590     8.0780     8.4310    12.3100
 2132.5000   145.5340     8.8910     2.4290     0.0040   -37.0590     8.0690     8.4440    12.2760
 2133.0000   146.7390     8.8900     2.4230     0.0030   -37.0590     8.0600     8.4560    12.2430
 2133.5000   148.0350     8.8890     2.4160     0.0010   -37.0590     8.0510     8.4680    12.2100
 2134.0000   148.5550     8.8880     2.4100    -0.0010   -37.0590     8.0420     8.4810    12.1750
 2134.5000   148.1190     8.8870     2.4110    -0.0040   -37.0590     8.0330     8.4930    12.4410
 2135.0000   147.7830     8.8860     2.4160    -0.0060   -37.0590     8.0240     8.5050    12.8650
 2135.5000   146.2760     8.8860     2.4210    -0.0080   -37.0590     8.0150     8.5170    12.6380
 2136.0000   144.9300     8.8850     2.4200    -0.0100   -37.0590     8.0060     8.5300    12.2000
 2136.5000   143.2980     8.8840     2.4140    -0.0130   -37.0590     7.9980     8.5420    11.7620
 2137.0000   144.1170     8.8830     2.4100    -0.0110   -37.0590     7.9890     8.5540    11.1060
 2137.5000   145.3330     8.8820     2.4050    -0.0090   -37.0590     7.9810     8.5670    11.7740
 2138.0000   146.5820     8.8810     2.4090    -0.0060   -37.0590     7.9340     8.5830    12.6310
 2138.5000   146.9320     8.8800     2.4140    -0.0040   -37.0590     7.8690     8.5540    12.6310
 2139.0000   144.6500     8.8790     2.4200    -0.0020   -37.0590     7.8050     8.4880    12.5410
 2139.5000   142.8860     8.8780     2.4250     0.0020   -37.0590     7.7410     8.4220    12.4600
 2140.0000   140.9650     8.8770     2.4300     0.0030   -37.0590     7.6760     8.3560    12.3100
 2140.5000   142.1040     8.8760     2.4300     0.0040   -37.0590     7.6120     8.2900    11.9880
 2141.0000   143.4480     8.8750     2.4260     0.0040   -37.0590     7.5490     8.2250    11.6650
 2141.5000   144.8010     8.8740     2.4220     0.0050   -37.0590     7.4850     8.1590    11.1810
 2142.0000   146.1360     8.8730     2.4180     0.0060   -37.0590     7.4120     8.0930    11.2920
 2142.5000   145.4370     8.8720     2.4140     0.0060   -37.0590     7.4120     8.0280    11.9530
 2143.0000   144.5970     8.8710     2.4120     0.0070   -37.0590     7.4110     7.9620    11.8580
 2143.5000   143.6740     8.8700     2.4170     0.0080   -37.0590     7.4110     7.8960    11.7690
