~VERSION INFORMATION
 VERS.                2.0:   CWLS LOG ASCII STANDARD - VERSION 2.0
 WRAP.                 NO:   ONE LINE PER DEPTH STEP
~WELL INFORMATION
#MNEM.UNIT      DATA TYPE    INFORMATION
#----------   ------------   ------------------------------
 STRT.F           42.0000:   START DEPTH
 STOP.F         4542.0000:   STOP DEPTH
 STEP.F            0.5000:   STEP LENGTH
 NULL.          -999.2500:   NO VALUE
 COMP. LAWRENCE ALLISON & ASSOC.:   COMPANY
 WELL. ALLISON NPR 3 #86-27:   WELL
 FLD .                NPR:   FIELD
 LOC .      S27 T39N R78W:   LOCATION
 CNTY.            NATRONA:   COUNTY
 STAT.            WYOMING:   STATE
 CTRY. UNITED STATES OF AMERICA:   COUNTRY
 SRVC.      DRESSER ATLAS:   SERVICE COMPANY
 DATE.        20-MAR-1985:   LOGDATE
 API .     49025110190000:   API NUMBER
~CURVE INFORMATION
#MNEM.UNIT       API CODE    CURVE DESCRIPTION
#----------   ------------   ------------------------------
 DEPT.F                  :   
 CALD.IN     45 280 60 00:   CALIPER FROM DENSITY LOG
 TEND.LBS    45 635 01 00:   TENSION FROM DENSITY LOG
 CORR.G/C3   45 356 01 00:   DENSITY CORRECTION
 RHOB.G/C3   45 350 01 00:   BULK DENSITY
 CNC .DEC    42 890 03 00:   NEUTRON PORISITY SANDSTONE
 TENR.LBS    07 635 01 00:   TENSION FROM RESISTIVITY
 GRR .GAPI   07 310 01 00:   GAMMA RAY FROM RESISTIVITY
 SFL .OHMM   07 220 01 00:   SHALLOW FOCUSED LOG RESISTIVITY
 ILD .OHMM   07 120 46 00:   DEEP INDUCTION RESISTIVITY
 ILM .OHMM   07 120 44 00:   INDUCTION LOG MEDIUM RESISTIVITY
 TENS.LBS    60 635 01 00:   TENSION FROM SONIC LOG
 DT  .US/F   60 520 00 00:   DELTA TIME
 CALS.IN     60 280 50 00:   CALIPER FROM SONIC LOG
 GRS .GAPI   60 310 01 00:   GAMMA RAY FROM SONIC LOG
~PARAMETER INFORMATION
#MNEM.UNIT          VALUE    DESCRIPTION
#----------   ------------   ------------------------------
 EKB .F         5095.0000:   Kelly bushing
 EGL .F         5083.0000:   Ground level
 EDF .F            0.0000:   Drilling floor
 TD  .F         4545.0000:   Total depth
 DATE.        20-MAR-1985:   Date logged
 CLNT.            A2DTECH:   Client Code
 SL  . 292' FEL & 1975' FWL:   Surface Location
 PD  .                 GL:   Permanent Datum
 EPD .F              5083:   Elevation Permanent Datum
 LMF .                 KB:   Log Measured From
 DMF .                 KB:   Drilling Measured From
 DAPD.F                12:   Feet Above Permanent Datum
 DD  .F              4545:   Depth driller
 DL  .F              4533:   Depth logger
 BLI .F              4534:   Bottom log interval
 TLI .F              1045:   Top log interval
 CS1 .IN            8.625:   Casing size
 CBD1.     8.625" @ 1033':   Casing driller 1
 CBL1.F              1045:   Casing logger 1
 BS1 .IN            7.875:   Bit size
 BSD1.F              4545:   Depth drilled with bit1
 DFT .    GEL/KCL/STA/FLO:   Type fluid in hole
 DFD .                9.1:   Density
 DFV .                 30:   Viscosity
 DFPH.                  8:   pH
 DFL .                 12:   Fluid loss
 MSS .           MUD/TANK:   Source of sample
 RMS .OHMM            .46:   Rm
 MST .F                74:   Rm Meas. temp.
 RMF .OHMM            .37:   Rmf
 MFST.F                72:   Rmf Meas. temp.
 RMC .OHMM            .58:   Rmc
 MCST.F                74:   Rmc Meas. temp.
 MFSS.               MEAS:   Source Rmf.
 MCSS.               CALC:   Source Rmc.
 RMB .OHMM            .25:   Rm. at BHT
 BHT .F               138:   BHT.
 TCS .HRS             4.5:   Time Circ. stopped
 MRT .F               138:   Maximum recorded temp.
 LUN .            HL-6274:   Logging unit number
 LUL .           GILLETTE:   Logging unit location
 ENGI.             RAUTIO:   Recorded By
 WITN.             STRONG:   Witnessed by
 ORIG.           5" PRINT:   Origin of data
 UWI .     49025110190000:   Unique Well ID
 DICO. A2D TECHNOLOGIES, INC.:   Digitizing Company
~OTHER INFORMATION
~A   DEPT     CALD       TEND       CORR       RHOB        CNC       TENR        GRR        SFL        ILD        ILM       TENS         DT        CALS        GRS  
# ...
 3839.5000     8.8700    -2.6320    -0.0050     2.4650     0.2940    15.2200   109.8590     4.1860     3.5480     3.4240  -999.2500  -999.2500  -999.2500  -999.2500
 3840.0000     8.8650    -1.0600    -0.0090     2.4630     0.3160    13.7890   111.6900     4.1650     3.5310     3.3970  -999.2500  -999.2500  -999.2500  -999.2500
 3840.5000     8.8600    -9.7380    -0.0130     2.4580     0.3210    12.3570   112.8450     4.1430     3.4920     3.3710  -999.2500  -999.2500  -999.2500  -999.2500
 3841.0000     8.8550   -24.1090    -0.0010     2.4620     0.3230    10.9260   112.5970     4.1220     3.4520     3.3440  -999.2500  -999.2500  -999.2500  -999.2500
 3841.5000     8.8500   -40.4190     0.0180     2.4660     0.3150     9.4940   112.7890     4.1010     3.4130     3.3170  -999.2500  -999.2500  -999.2500  -999.2500
 3842.0000     8.8450   -40.4190     0.0190     2.4700     0.2990     8.0630   114.2110     4.0800     3.3730     3.2900  -999.2500  -999.2500  -999.2500  -999.2500
 3842.5000     8.8400   -40.4190     0.0140     2.4640     0.2980     6.6320   115.9590     4.0580     3.3340     3.2640  -999.2500  -999.2500  -999.2500  -999.2500
 3843.0000     8.8340   -40.4190    -0.0030     2.4600     0.2940     5.2000   114.7930     4.0390     3.2940     3.2370  -999.2500  -999.2500  -999.2500  -999.2500
 3843.5000     8.8370   -40.4190    -0.0170     2.4550     0.2880     3.7690   112.2130     3.9640     3.2550     3.2100  -999.2500  -999.2500  -999.2500  -999.2500
 3844.0000     8.8590   -40.4190    -0.0330     2.4560     0.2840     2.3370   110.0690     3.8950     3.2350     3.1830  -999.2500  -999.2500  -999.2500  -999.2500
 3844.5000     8.8730   -40.4190    -0.0390     2.4570     0.2930     0.9060   110.8350     3.8210     3.2350     3.1990  -999.2500  -999.2500  -999.2500  -999.2500
 3845.0000     8.8710   -40.4190    -0.0270     2.4610     0.2990    -0.5250   111.4880     3.8210     3.2350     3.2330  -999.2500  -999.2500  -999.2500  -999.2500
 3845.5000     8.8720   -40.4190     0.0000     2.4650     0.3010    -1.2740   112.5070     3.8210     3.2410     3.2660  -999.2500  -999.2500  -999.2500  -999.2500
 3846.0000     8.8720   -40.4190     0.0240     2.4700     0.3000    -0.6080   113.4660     3.8550     3.2600     3.3000  -999.2500  -999.2500  -999.2500  -999.2500
 3846.5000     8.8710   -40.4190     0.0390     2.4720     0.2980     0.0580   115.2080     3.8910     3.2790     3.3340  -999.2500  -999.2500  -999.2500  -999.2500
 3847.0000     8.8720   -40.4190     0.0380     2.4700     0.3010     0.7240   115.8230     3.9280     3.2950     3.3670  -999.2500  -999.2500  -999.2500  -999.2500
 3847.5000     8.8710   -40.4190     0.0330     2.4660     0.3040     1.3900   114.4950     3.9650     3.3610     3.4010  -999.2500  -999.2500  -999.2500  -999.2500
 3848.0000     8.8710   -40.4190     0.0180     2.4620     0.3070     2.0570   113.2690     4.0010     3.4190     3.4340  -999.2500  -999.2500  -999.2500  -999.2500
 3848.5000     8.8710   -40.4190     0.0050     2.4590     0.3100     2.7230   112.9990     4.0390     3.4760     3.4680  -999.2500  -999.2500  -999.2500  -999.2500
 3849.0000     8.8710   -40.4190    -0.0060     2.4570     0.3140     3.3890   113.9570     4.0160     3.5340     3.5010  -999.2500  -999.2500  -999.2500  -999.2500
 3849.5000     8.8710   -40.4190    -0.0170     2.4570     0.3160     4.0550   115.7120     3.9930     3.6150     3.5480  -999.2500  -999.2500  -999.2500  -999.2500
 3850.0000     8.8710   -40.4190    -0.0110     2.4590     0.3030     4.7210   117.8840     3.9650     3.6040     3.5300  -999.2500  -999.2500  -999.2500  -999.2500
 3850.5000     8.8710   -40.4190    -0.0100     2.4570     0.3000     5.3870   119.1080     3.9860     3.5850     3.4980  -999.2500  -999.2500  -999.2500  -999.2500
 3851.0000     8.8710   -40.4190    -0.0160     2.4480     0.2960     6.0540   118.6950     4.0130     3.5670     3.4670  -999.2500  -999.2500  -999.2500  -999.2500
 3851.5000     8.8710   -40.4190    -0.0400     2.4400     0.2860     6.7200   118.2390     4.0390     3.5480     3.4350  -999.2500  -999.2500  -999.2500  -999.2500
 3852.0000     8.8710   -40.4190    -0.0620     2.4310     0.2750     7.3860   117.7990     4.0070     3.4930     3.4040  -999.2500  -999.2500  -999.2500  -999.2500
 3852.5000     8.8710   -40.4190    -0.0540     2.4260     0.2750     8.0520   117.3230     3.9760     3.4380     3.3730  -999.2500  -999.2500  -999.2500  -999.2500
 3853.0000     8.8710   -40.4190    -0.0340     2.4210     0.2850     8.7180   117.1570     3.9160     3.3830     3.3410  -999.2500  -999.2500  -999.2500  -999.2500
 3853.5000     8.8710   -40.4190    -0.0150     2.4170     0.2950     9.3840   117.1720     3.8370     3.3280     3.3100  -999.2500  -999.2500  -999.2500  -999.2500
 3854.0000     8.8710   -40.4190    -0.0020     2.4180     0.3070    10.0510   117.1630     3.7580     3.2730     3.2780  -999.2500  -999.2500  -999.2500  -999.2500
 3854.5000     8.8710   -40.4190    -0.0060     2.4240     0.3160    10.7170   117.1630     3.6820     3.2180     3.2470  -999.2500  -999.2500  -999.2500  -999.2500
 3855.0000     8.8710   -40.4190    -0.0090     2.4320     0.3160    11.3830   117.2540     3.7420     3.1710     3.2160  -999.2500  -999.2500  -999.2500  -999.2500
 3855.5000     8.8710   -40.4190    -0.0040     2.4440     0.3100    12.0490   117.5320     3.8000     3.1520     3.1840  -999.2500  -999.2500  -999.2500  -999.2500
 3856.0000     8.8710   -40.4190    -0.0010     2.4510     0.3000    12.7150   118.1290     3.8210     3.1320     3.1530  -999.2500  -999.2500  -999.2500  -999.2500
 3856.5000     8.8710   -40.4190    -0.0080     2.4520     0.2990    13.3810   119.2260     3.8210     3.1130     3.1210  -999.2500  -999.2500  -999.2500  -999.2500
 3857.0000     8.8710   -40.4190    -0.0200     2.4520     0.3010    14.0480   120.6460     3.8210     3.0940     3.0900  -999.2500  -999.2500  -999.2500  -999.2500
 3857.5000     8.8710   -42.1660    -0.0310     2.4520     0.3080    14.7140   122.2620     3.8210     3.0650     3.0600  -999.2500  -999.2500  -999.2500  -999.2500
 3858.0000     8.8710   -43.9690    -0.0400     2.4500     0.3080    15.3800   124.0590     3.6710     3.0720     3.0860  -999.2500  -999.2500  -999.2500  -999.2500
 3858.5000     8.8710   -45.7730    -0.0260     2.4520     0.3040    16.0460   122.8430     3.4830     3.1160     3.1110  -999.2500  -999.2500  -999.2500  -999.2500
 3859.0000     8.8710   -47.5760    -0.0040     2.4660     0.3000    16.7120   120.9950     3.5600     3.1590     3.1360  -999.2500  -999.2500  -999.2500  -999.2500
 3859.5000     8.8710   -49.3800     0.0190     2.4810     0.2980    17.3780   119.2330     3.6740     3.2030     3.1600  -999.2500  -999.2500  -999.2500  -999.2500
 3860.0000     8.8710   -51.1830     0.0310     2.4830     0.2980    18.0450   117.2520     3.7880     3.2470     3.1850  -999.2500  -999.2500  -999.2500  -999.2500
 3860.5000     8.8710   -52.9870     0.0260     2.4840     0.2980    18.3900   117.0920     3.8920     3.2910     3.2090  -999.2500  -999.2500  -999.2500  -999.2500
 3861.0000     8.8710   -54.7900     0.0170     2.4850     0.2890    18.3900   118.5880     3.9070     3.3350     3.2340  -999.2500  -999.2500  -999.2500  -999.2500
 3861.5000     8.8710   -56.5940     0.0080     2.4860     0.2840    18.3900   118.3580     3.9210     3.3570     3.2580  -999.2500  -999.2500  -999.2500  -999.2500
 3862.0000     8.8720   -58.3970    -0.0040     2.4860     0.2840    18.3900   116.9250     3.9350     3.3570     3.2830  -999.2500  -999.2500  -999.2500  -999.2500
 3862.5000     8.8710   -60.3790     0.0020     2.4860     0.2960    18.3900   115.9670     3.9490     3.3570     3.3000  -999.2500  -999.2500  -999.2500  -999.2500
 3863.0000     8.8690   -60.3790     0.0160     2.4900     0.3080    18.3900   115.4750     3.9650     3.3570     3.3100  -999.2500  -999.2500  -999.2500  -999.2500
 3863.5000     8.8670   -60.3790     0.0290     2.4910     0.3060    18.3900   115.6240     3.9650     3.3570     3.3190  -999.2500  -999.2500  -999.2500  -999.2500
