~VERSION INFORMATION
 VERS.                2.0:   CWLS LOG ASCII STANDARD - VERSION 2.0
 WRAP.                 NO:   ONE LINE PER DEPTH STEP
~WELL INFORMATION
#MNEM.UNIT      DATA TYPE    INFORMATION
#----------   ------------   ------------------------------
 STRT.F           89.5000:   START DEPTH
 STOP.F         1300.5000:   STOP DEPTH
 STEP.F            0.5000:   STEP LENGTH
 NULL.          -999.2500:   NO VALUE
 COMP.            US NAVY:   COMPANY
 WELL. US NPR 3 "S" #62-11:   WELL
 FLD .             TEAPOT:   FIELD
 LOC .      S11 T38N R78W:   LOCATION
 CNTY.            NATRONA:   COUNTY
 STAT.            WYOMING:   STATE
 CTRY. UNITED STATES OF AMERICA:   COUNTRY
 SRVC.       SCHLUMBERGER:   SERVICE COMPANY
 DATE.        20-JUL-1964:   LOGDATE
 API .     49025063660000:   API NUMBER
~CURVE INFORMATION
#MNEM.UNIT       API CODE    CURVE DESCRIPTION
#----------   ------------   ------------------------------
 DEPT.F                  :   
 CALS.IN     60 280 50 00:   CALIPER FROM SONIC LOG
 DT  .US/F   60 520 33 00:   DELTA TIME
 SPR .MV     05 010 01 00:   SPONTANEOUS POTENTIAL FROM RES.
 ASN .OHMM   05 041 16 00:   AMPLIFIED SHORT NORMAL 16"
 ILD .OHMM   05 120 46 00:   INDUCTION LOG DEEP
~PARAMETER INFORMATION
#MNEM.UNIT          VALUE    DESCRIPTION
#----------   ------------   ------------------------------
 EKB .F         5223.0000:   Kelly bushing
 EGL .F         5215.0000:   Ground level
 EDF .F            0.0000:   Drilling floor
 TD  .F         1303.0000:   Total depth
 DATE.        20-JUL-1964:   Date logged
 CLNT.            A2DTECH:   Client Code
 PD  .                 GL:   Permanent Datum
 EPD .F              5215:   Elevation Permanent Datum
 LMF .                 KB:   Log Measured From
 DMF .                 KB:   Drilling Measured From
 DAPD.F                 8:   Feet Above Permanent Datum
 DD  .F              1303:   Depth driller
 DL  .F              1300:   Depth logger
 BLI .F              1299:   Bottom log interval
 TLI .F                94:   Top log interval
 CS1 .IN            12.25:   Casing size
 CBD1.       12.25" @ 10':   Casing driller 1
 BS1 .IN               11:   Bit size
 BSD1.F              1303:   Depth drilled with bit1
 DFT .            GEL/OIL:   Type fluid in hole
 DFD .                9.8:   Density
 DFV .                 60:   Viscosity
 DFL .                 10:   Fluid loss
 MSS .           FLOWLINE:   Source of sample
 RMS .OHMM           3.13:   Rm
 MST .F                86:   Rm Meas. temp.
 RMF .OHMM           1.81:   Rmf
 MFST.F                86:   Rmf Meas. temp.
 RMC .OHMM           3.39:   Rmc
 MCST.F                86:   Rmc Meas. temp.
 MFSS.                 FP:   Source Rmf.
 MCSS.                 FP:   Source Rmc.
 TCS .HRS             2.5:   Time Circ. stopped
 LUN .               4507:   Logging unit number
 LUL .               CSPR:   Logging unit location
 ENGI.             DANNER:   Recorded By
 WITN.         JORGENESEN:   Witnessed by
 ORIG.       2", 5" PRINT:   Origin of data
 UWI .     49025063660000:   Unique Well ID
 DICO. A2D TECHNOLOGIES, INC.:   Digitizing Company
~OTHER INFORMATION
~A   DEPT     CALS         DT        SPR        ASN          ILD 
# ...
 1004.5000    11.3190    85.3660   -35.0060     9.0310     8.3120
 1005.0000    11.3390    85.2520   -34.8310     8.8790     8.1750
 1005.5000    11.3340    85.1850   -34.6580     8.6610     8.0300
 1006.0000    11.3320    85.7160   -34.4830     8.3980     7.8500
 1006.5000    11.3290    86.2310   -34.3050     8.1630     7.4940
 1007.0000    11.3270    86.7470   -34.1340     7.9580     6.8740
 1007.5000    11.3250    87.4420   -33.9590     7.6900     6.0870
 1008.0000    11.3220    88.2950   -33.7750     7.2520     5.2050
 1008.5000    11.3200    89.1470   -33.6210     6.8390     4.5390
 1009.0000    11.3180    90.0000   -33.4150     6.3870     4.3810
 1009.5000    11.3550    90.8530   -33.2590     5.9900     4.4810
 1010.0000    11.3560    91.3910   -33.3520     5.5200     4.5450
 1010.5000  -999.2500    91.3910   -33.5080     5.1300     4.5670
 1011.0000  -999.2500  -999.2500   -33.6370     5.1510     4.6690
 1011.5000  -999.2500  -999.2500   -33.7680     5.5140     4.8640
 1012.0000  -999.2500  -999.2500   -33.7430     6.1610     5.1970
 1012.5000  -999.2500  -999.2500   -33.6060     6.9270     5.9710
 1013.0000  -999.2500  -999.2500   -33.4800     7.7300     7.1450
 1013.5000  -999.2500  -999.2500   -33.3570     7.9600     8.0150
 1014.0000  -999.2500  -999.2500   -33.2170     8.1680     8.2100
 1014.5000  -999.2500  -999.2500   -33.1020     8.3750     8.2220
 1015.0000  -999.2500  -999.2500   -33.1210     8.5480     8.3330
 1015.5000  -999.2500  -999.2500   -33.2450     8.7170     8.4190
 1016.0000  -999.2500  -999.2500   -33.3620     8.8780     8.5710
 1016.5000  -999.2500  -999.2500   -33.4780     9.0150     8.7250
 1017.0000  -999.2500  -999.2500   -33.6000     9.1690     8.7950
 1017.5000  -999.2500  -999.2500   -33.7160     9.3060     8.8900
 1018.0000  -999.2500  -999.2500   -33.8340     9.4620     8.9810
 1018.5000  -999.2500  -999.2500   -33.9530     9.7990     9.0580
 1019.0000  -999.2500  -999.2500   -34.0700     9.9200     9.1600
 1019.5000  -999.2500  -999.2500   -34.1880    10.3270     9.2340
 1020.0000  -999.2500  -999.2500   -34.3080    10.4870     9.2830
 1020.5000  -999.2500  -999.2500   -34.4000    10.6010     9.3740
 1021.0000  -999.2500  -999.2500   -34.4480    10.7590     9.4820
 1021.5000  -999.2500  -999.2500   -34.4830    10.8920     9.5700
 1022.0000  -999.2500  -999.2500   -34.5220    11.0210     9.6570
 1022.5000  -999.2500  -999.2500   -34.5600    11.1600     9.7430
 1023.0000  -999.2500  -999.2500   -34.5960    11.3060     9.8370
 1023.5000  -999.2500  -999.2500   -34.6340    11.4480     9.9130
 1024.0000  -999.2500  -999.2500   -34.6720    11.4970     9.9810
 1024.5000  -999.2500  -999.2500   -34.7050    11.5120    10.0610
 1025.0000  -999.2500  -999.2500   -34.7510    11.5610    10.0950
 1025.5000  -999.2500  -999.2500   -34.7800    11.6050    10.1030
 1026.0000  -999.2500  -999.2500   -34.7600    11.6190    10.1290
 1026.5000  -999.2500  -999.2500   -34.7190    11.6820    10.1480
 1027.0000  -999.2500  -999.2500   -34.6870    11.8340    10.1650
 1027.5000  -999.2500  -999.2500   -34.6630    11.9840    10.1870
 1028.0000  -999.2500  -999.2500   -34.6110    12.0320    10.2070
 1028.5000  -999.2500  -999.2500   -34.6070    11.9410    10.2240
 1029.0000  -999.2500  -999.2500   -34.7440    11.8130    10.2480
 1029.5000  -999.2500  -999.2500   -34.9110    11.7210    10.2670
 1030.0000  -999.2500  -999.2500   -35.0450    11.6200    10.2370
 1030.5000  -999.2500  -999.2500   -35.1910    11.5530    10.1750
 1031.0000  -999.2500  -999.2500   -35.3450    11.5640    10.1180
 1031.5000  -999.2500  -999.2500   -35.4800    11.6180    10.0600
 1032.0000  -999.2500  -999.2500   -35.6310    11.6770    10.0010
 1032.5000  -999.2500  -999.2500   -35.7580    11.7380     9.9440
 1033.0000  -999.2500  -999.2500   -35.7400    11.7530     9.8840
 1033.5000  -999.2500  -999.2500   -35.7630    11.6540     9.8280
 1034.0000  -999.2500  -999.2500   -35.7430    11.5060     9.7710
 1034.5000  -999.2500  -999.2500   -35.2650    11.3840     9.6970
 1035.0000  -999.2500  -999.2500   -34.7950    11.2550     9.6170
 1035.5000  -999.2500  -999.2500   -34.7810    11.0930     9.5520
 1036.0000  -999.2500  -999.2500   -34.8220    10.9260     9.4700
 1036.5000  -999.2500  -999.2500   -34.8040    10.7850     9.3350
 1037.0000  -999.2500  -999.2500   -34.8340    10.6590     9.1890
 1037.5000  -999.2500  -999.2500   -34.8370    10.5310     9.0480
 1038.0000  -999.2500  -999.2500   -34.8460    10.4150     8.9080
 1038.5000  -999.2500  -999.2500   -34.8630    10.2980     8.7660
 1039.0000  -999.2500  -999.2500   -34.8670    10.1730     8.6210
 1039.5000  -999.2500  -999.2500   -34.8810    10.0470     8.4880
 1040.0000  -999.2500  -999.2500   -34.8920     9.9070     8.3310
 1040.5000  -999.2500  -999.2500   -34.9000     9.7640     8.1940
 1041.0000  -999.2500  -999.2500   -34.9140     9.6260     8.1740
 1041.5000  -999.2500  -999.2500   -34.9230     9.4850     8.1910
 1042.0000  -999.2500  -999.2500   -34.9330     9.3460     8.1800
 1042.5000  -999.2500  -999.2500   -34.9480     9.2330     8.1840
 1043.0000  -999.2500  -999.2500   -34.9510     9.1780     8.1870
 1043.5000  -999.2500  -999.2500   -34.9710     9.1650     8.1790
 1044.0000  -999.2500  -999.2500   -34.9740     9.1580     8.1910
 1044.5000  -999.2500  -999.2500   -34.8630     9.1500     8.1790
 1045.0000  -999.2500  -999.2500   -34.6910     9.1340     8.1050
 1045.5000  -999.2500  -999.2500   -34.5290     9.1310     8.0220
 1046.0000  -999.2500  -999.2500   -34.3610     9.1120     7.9520
 1046.5000  -999.2500  -999.2500   -34.1960     9.0040     7.8770
 1047.0000  -999.2500  -999.2500   -34.0290     8.8850     7.8010
 1047.5000  -999.2500  -999.2500   -33.8640     8.7770     7.7260
 1048.0000  -999.2500  -999.2500   -33.6990     8.6600     7.6550
 1048.5000  -999.2500  -999.2500   -33.5290     8.5760     7.5730
 1049.0000  -999.2500  -999.2500   -33.5000     8.4920     7.4970
 1049.5000  -999.2500  -999.2500   -33.6330     8.4040     7.4240
 1050.0000  -999.2500  -999.2500   -33.7810     8.3200     7.3040
 1050.5000  -999.2500  -999.2500   -33.9210     8.2320     7.1650
 1051.0000  -999.2500  -999.2500   -33.9830     8.1490     7.0360
 1051.5000  -999.2500  -999.2500   -33.9080     8.0590     6.9070
 1052.0000  -999.2500  -999.2500   -33.8140     7.9790     6.7720
 1052.5000  -999.2500  -999.2500   -33.7390     7.8870     6.6070
 1053.0000  -999.2500  -999.2500   -33.6520     7.8040     6.3980
 1053.5000  -999.2500  -999.2500   -33.5670     7.7220     6.1630
 1054.0000  -999.2500  -999.2500   -33.4870     7.5410     5.9690
 1054.5000  -999.2500  -999.2500   -33.4010     7.3060     5.7920
 1055.0000  -999.2500  -999.2500   -33.3150     6.9990     5.6990
 1055.5000  -999.2500  -999.2500   -33.2410     6.7690     5.7790
 1056.0000  -999.2500  -999.2500   -33.1400     6.7460     5.7760
 1056.5000  -999.2500  -999.2500   -33.0650     6.8460     5.8310
 1057.0000  -999.2500  -999.2500   -33.1380     7.2050     6.3030
 1057.5000  -999.2500  -999.2500   -33.3020     7.6660     6.9210
 1058.0000  -999.2500  -999.2500   -33.4200     8.0720     7.4570
 1058.5000  -999.2500  -999.2500   -33.4490     8.5020     7.8830
 1059.0000  -999.2500  -999.2500   -33.4260     8.8250     8.1450
 1059.5000  -999.2500  -999.2500   -33.4430     9.0590     8.3460
 1060.0000  -999.2500  -999.2500   -33.5600     9.2710     8.5010
 1060.5000  -999.2500  -999.2500   -33.7410     9.4530     8.5700
 1061.0000  -999.2500  -999.2500   -33.9180     9.6050     8.5620
 1061.5000  -999.2500  -999.2500   -34.0880     9.6860     8.5120
 1062.0000  -999.2500  -999.2500   -34.2750     9.7120     8.4760
 1062.5000  -999.2500  -999.2500   -34.3940     9.7270     8.4380
 1063.0000  -999.2500  -999.2500   -34.3630     9.7250     8.3950
 1063.5000  -999.2500  -999.2500   -34.3070     9.7120     8.3600
 1064.0000  -999.2500  -999.2500   -34.2900     9.6870     8.3150
 1064.5000  -999.2500  -999.2500   -34.2270     9.6280     8.2800
 1065.0000  -999.2500  -999.2500   -34.2260     9.5730     8.2380
