~VERSION INFORMATION
 VERS.                2.0:   CWLS LOG ASCII STANDARD - VERSION 2.0
 WRAP.                 NO:   ONE LINE PER DEPTH STEP
~WELL INFORMATION
#MNEM.UNIT      DATA TYPE    INFORMATION
#----------   ------------   ------------------------------
 STRT.F          494.0000:   START DEPTH
 STOP.F         4999.5000:   STOP DEPTH
 STEP.F            0.5000:   STEP LENGTH
 NULL.          -999.2500:   NO VALUE
 COMP.    FENIX & SCISSON:   COMPANY
 WELL.  FENIX "LX" #26-23:   WELL
 FLD . MPR #3 (TEAPOT DOME):   FIELD
 LOC .      S23 T38N R78W:   LOCATION
 CNTY.            NATRONA:   COUNTY
 STAT.            WYOMING:   STATE
 CTRY. UNITED STATES OF AMERICA:   COUNTRY
 SRVC.       SCHLUMBERGER:   SERVICE COMPANY
 DATE.        11-AUG-1978:   LOGDATE
 API .     49025107340000:   API NUMBER
~CURVE INFORMATION
#MNEM.UNIT       API CODE    CURVE DESCRIPTION
#----------   ------------   ------------------------------
 DEPT.F                  :   
 NPHI.DEC    42 890 03 00:   NEUTRON POROSITY SANDSTONE
 TEND.LBS    45 635 01 00:   TENSION FORM DENSITY LOG
 GRD .GAPI   45 310 01 00:   GAMMA RAY FROM DENSITY LOG
 CALD.IN     45 280 60 00:   CALIPER FROM DENSITY LOG
 DRHO.G/C3   45 356 01 00:   DENSITY CORRECTION
 RHOB.G/C3   45 350 01 00:   BULK DENSITY
 SPR .MV     07 010 01 00:   SPONTANEOUS POTENTIAL
 TENR.LBS    07 635 01 00:   TENSION FROM RESISTIVITY LOG
 ILD .OHMM   07 120 46 00:   INDUCTION LOG DEEP RESISTIVITY
 ILM .OHMM   07 120 44 00:   INDUCTION LOG MEDIUM RESISTIVITY
 SFL .OHMM   07 220 01 00:   SPHERICALLY FOCUSED LOG RESISITIVITY
~PARAMETER INFORMATION
#MNEM.UNIT          VALUE    DESCRIPTION
#----------   ------------   ------------------------------
 EKB .F         5335.0000:   Kelly bushing
 EGL .F         5325.0000:   Ground level
 EDF .F            0.0000:   Drilling floor
 EPD .F         5325.0000:   Permanent datum
 TD  .F         5000.0000:   Total depth
 CLNT.            A2DTECH:   Client Code
 SL  . 1600' FSL & 903' FWL:   Surface Location
 PD  .                 GL:   Permanent Datum
 LMF .                 KB:   Log Measured From
 DMF .                 KB:   Drilling Measured From
 DAPD.F                10:   Feet Above Permanent Datum
 DATE.        11-AUG-1978:   Date Logged [DD-MMM-YYYY]
 DD  .F              5000:   Depth driller
 DL  .F              4998:   Depth logger
 BLI .F              4992:   Bottom log interval
 TLI .F               525:   Top log interval
 CS1 .IN            9.625:   Casing size
 CBD1.      9.625" @ 521':   Casing driller 1
 CBL1.F               521:   Casing logger 1
 BS1 .IN             8.75:   Bit size
 BSD1.F              5000:   Depth drilled with bit1
 DFD .                9.1:   Density
 MSS .            MUD PIT:   Source of sample
 RMS .OHMM          0.897:   Rm
 MST .F                64:   Rm Meas. temp.
 RMF .OHMM          0.821:   Rmf
 MFST.F                64:   Rmf Meas. temp.
 MFSS.               MEAS:   Source Rmf.
 BHT .F               135:   BHT.
 TCS .HRS              03:   00:   Time Circ. stopped
 TLAB.HRS              09:   00:   Time logger at bottom
 MRT .F               135:   Maximum recorded temp.
 LUL .               CSPR:   Logging unit location
 ENGI.              CRAIG:   Recorded By
 ORIG.           5" PRINT:   Origin of data
 UWI .     49025107340000:   Unique Well ID
 DICO. A2D TECHNOLOGIES, INC.:   Digitizing Company
 DFV .                 40:   Viscosity
 DFPH.                 12:   pH
 DFL .                  4:   Fluid loss
~OTHER INFORMATION
~A  DEPTH     NPHI       TEND        GRD       CALD       DRHO       RHOB        SPR       TENR        ILD        ILM        SFL
# ...
  524.5000     0.4444  -999.2500    60.8225  -999.2500  -999.2500  -999.2500  -999.2500  -999.2500  -999.2500  -999.2500  -999.2500
  525.0000     0.4400   902.2556    59.8871     9.6447    -0.1937     2.3257   -34.7746   486.5269  -999.2500  -999.2500  -999.2500
  525.5000     0.4481   902.2556    64.0214     9.6600    -0.0116     2.4589   -45.4811   486.3773  -999.2500  -999.2500  -999.2500
  526.0000     0.4697   902.2556    71.9868    10.3531     0.2350     2.4325   -54.0117   486.2275  -999.2500  -999.2500  -999.2500
  526.5000     0.4724   902.2556    76.3297    10.8955     0.2494     2.3173   -61.3446   486.0779  -999.2500  -999.2500  -999.2500
  527.0000     0.4564   902.2556    79.1199    11.0765     0.2206     2.2505   -62.9890   485.9281  -999.2500  -999.2500  -999.2500
  527.5000     0.4465   902.2556    81.0041    11.2576     0.1546     2.2261   -59.5429   485.7784  -999.2500  -999.2500  -999.2500
  528.0000     0.4314   902.2556    81.5946    11.3633     0.1607     2.2803   -55.9478   485.6287  -999.2500  -999.2500     3.1801
  528.5000     0.4092   887.2180    83.1413    11.4389     0.2114     2.3073   -50.2568   485.4790     4.9529     5.5554     2.5474
  529.0000     0.3966   887.2180    84.9998    11.5898     0.2184     2.3028   -48.0089   485.3293     3.6932     3.7270     3.8056
  529.5000     0.3831   887.2180    85.6160    11.8461     0.1888     2.2997   -46.3299   485.1796     5.0755     5.3404     4.8149
  530.0000     0.3752   887.2180    85.9217    12.3435     0.1137     2.3208   -45.0096   485.0299    22.2880     5.7622     5.6447
  530.5000     0.3695   887.2180    85.2957    12.5546     0.0621     2.3509   -44.5581   484.8802    23.8818     5.8417     6.0064
  531.0000     0.3707   887.2180    86.8424    12.7356     0.0462     2.3778   -44.1067   486.2042     9.3994     6.6618     6.8495
  531.5000     0.3749   887.2180    88.0798    12.8112     0.0500     2.3990   -44.1043   489.0135     5.9067     6.5695     6.0443
  532.0000     0.3863   887.2180    88.3855    12.8567     0.0788     2.3876   -43.9517   491.8227     5.5114     5.7594     5.4854
  532.5000     0.3821   902.2556    88.0689    12.7365     0.1160     2.2995   -43.7996   494.6319     5.7047     5.5629     5.4467
  533.0000     0.3743   947.3684    88.0640    11.9838     0.1259     2.2837   -43.4978   497.4412     6.9783     5.5623     5.5595
  533.5000     0.3595  1007.5188    88.7061    11.8335     0.0690     2.3088   -43.1961   500.2504     7.5729     5.6392     5.6358
  534.0000     0.3589  1022.5564    89.6058    11.6380     0.0212     2.3804   -43.3428   503.0597     7.2641     6.6112     5.5954
  534.5000     0.3640   947.3684    91.7749    11.5027     0.0235     2.4368   -43.4908   505.8689     7.0165     7.1335     5.5172
  535.0000     0.3625   917.2932    94.2545    11.4428     0.0341     2.4608   -43.1884   508.6781     6.7307     6.7019     5.5547
  535.5000     0.3505   917.2932    98.6492    11.4130     0.0387     2.4621   -43.0364   511.4874     6.5462     6.4732     5.6697
  536.0000     0.3199   932.3308   100.1453    11.4133     0.0251     2.4553   -42.7146   513.1949     6.5005     6.2957     5.7872
  536.5000     0.3117   932.3308    97.9653    11.4136     0.0251     2.4470   -42.4323   510.9336     6.6821     6.1656     5.8666
  537.0000     0.3258   932.3308    94.8549    11.4139     0.0175     2.4402   -42.4299   508.4744     6.7742     6.0383     5.9885
  537.5000     0.3345   932.3308    93.2713    11.4142     0.0067     2.4342   -42.5778   506.0153     6.9153     5.9960     5.9814
  538.0000     0.3303   932.3308    91.1172    11.4145     0.0031     2.4319   -42.7246   503.5562     6.9701     5.9953     5.9443
  538.5000     0.3159   932.3308    90.4912    11.4148     0.0054     2.4492   -42.8719   501.0971     7.0587     5.9946     5.9567
  539.0000     0.3089   932.3308    90.7981    11.4151     0.0100     2.4605   -43.0187   498.6380     7.0579     6.0774     5.9830
  539.5000     0.3068   917.2932    91.7237    11.4154     0.0160     2.4597   -43.0163   497.1557     7.0570     6.1190     6.0229
  540.0000     0.3074   917.2932    92.6493    11.4157     0.0199     2.4605   -43.6128   497.0060     7.0562     6.1608     6.0635
  540.5000     0.3182   917.2932    92.9562    11.4160     0.0214     2.4657   -44.3583   496.8563     7.0554     6.2029     6.0622
  541.0000     0.3330   917.2932    92.9501    11.4011     0.0214     2.4732   -44.8057   496.7066     7.0547     6.1593     6.1454
  541.5000     0.3453   902.2556    94.1875    11.3864     0.0191     2.4755   -44.8027   496.5569     7.0537     6.0740     6.1437
  542.0000     0.3558   902.2556    94.8037    11.3868     0.0160     2.4544   -44.8004   496.4072     7.0043     5.9898     6.0579
  542.5000     0.3512   902.2556    93.5554    11.3871     0.0116     2.4476   -44.3483   496.2575     6.9553     6.0308     5.9733
  543.0000     0.3299   902.2556    93.2412    11.3874     0.0101     2.4506   -44.0466   496.1078     6.9546     6.1142     6.0978
  543.5000     0.3188   902.2556    94.5291    11.3877     0.0161     2.4573   -43.5951   495.9581     6.9536     6.1985     6.2669
  544.0000     0.3146   902.2556    97.5768    11.3880     0.0253     2.4648   -43.2933   495.8084     6.9530     6.1126     6.3094
  544.5000     0.3158   902.2556    97.8837    11.3883     0.0314     2.4678   -42.9766   495.6587     6.9521     5.9863     6.3077
  545.0000     0.3215   902.2556    96.6354    11.3885     0.0245     2.4607   -42.8389   495.5090     6.9514     5.8626     6.1743
  545.5000     0.3245   902.2556    95.6469    11.3889     0.0177     2.4550   -42.8366   495.3593     6.8963     5.7814     6.0481
  546.0000     0.3191   902.2556    94.1400    11.3742     0.0139     2.4587   -42.5348   495.2096     6.8070     5.7013     5.9636
  546.5000     0.3137   887.2180    94.4457    11.3744     0.0188     2.4655   -42.3777   495.0599     6.7593     5.6613     5.9623
  547.0000     0.3113   887.2180    95.3725    11.3596     0.0299     2.4738   -42.0804   494.8877     6.6658     5.6606     5.9198
  547.5000     0.3203   887.2180    95.7040    11.3600     0.0390     2.4838   -41.7786   493.8675     6.5232     5.6600     5.9182
  548.0000     0.3305   887.2180    96.6050    11.3603     0.0459     2.4896   -41.4769   492.6671     6.3493     5.6987     5.8761
  548.5000     0.3161   887.2180    96.2883    11.3606     0.0474     2.4903   -41.1751   491.4667     6.2182     5.6979     5.8749
  549.0000     0.3091   887.2180    96.5940    11.3609     0.0428     2.4812   -40.8728   490.2663     6.0899     5.6580     5.8330
  549.5000     0.3076   887.2180    97.8572    11.3762     0.0345     2.4680   -40.7207   489.0658     5.9642     5.6184     5.7912
  550.0000     0.3193   887.2180    96.8966    11.3916     0.0247     2.4503   -40.7184   487.8654     5.8410     5.5024     5.6318
  550.5000     0.3308   887.2180    95.3384    11.3919     0.0163     2.4412   -40.8658   486.6650     5.7602     5.3886     5.5148
  551.0000     0.3374   896.9774    94.0932    11.4073     0.0164     2.4397   -41.0329   485.4646     5.7995     5.2773     5.3257
  551.5000     0.3549   887.6644    94.0895    11.4226     0.0209     2.4451   -41.3095   484.2642     5.8015     5.1683     5.1791
  552.0000     0.3647   872.7679    95.0182    11.4380     0.0247     2.4495   -41.6066   483.0637     5.8790     5.0967     5.0017
  552.5000     0.3501   872.9441    96.2575    11.4533     0.0255     2.4442   -41.7545   482.7845     5.9191     4.9227     4.9652
  553.0000     0.3248   858.0452    94.0807    11.4537     0.0128     2.4404   -41.4521   483.5330     5.9596     4.8882     5.1042
  553.5000     0.3037   858.2237    87.7836    11.4540     0.0048     2.4426   -41.2995   484.2815     6.0417     5.0949     5.2464
  554.0000     0.3046   858.3647    84.7580    11.4543     0.0078     2.4524   -41.2971   485.0300     6.0830     5.3103     5.4301
  554.5000     0.3061   858.5057    87.8599    11.4546     0.0116     2.4644   -41.1451   485.7785     6.1245     5.6118     5.6215
