~VERSION INFORMATION
 VERS.                2.0:   CWLS LOG ASCII STANDARD - VERSION 2.0
 WRAP.                 NO:   ONE LINE PER DEPTH STEP
~WELL INFORMATION
#MNEM.UNIT      DATA TYPE    INFORMATION
#----------   ------------   ------------------------------
 STRT.F           85.5000:   START DEPTH
 STOP.F         3267.0000:   STOP DEPTH
 STEP.F            0.5000:   STEP LENGTH
 NULL.          -999.2500:   NO VALUE
 COMP. LAWRENCE ALLISON & ASSOCIATES:   COMPANY
 WELL. LAWRENCE "X" #78-33:   WELL
 FLD .           N P R #3:   FIELD
 LOC .      S33 T39N R78W:   LOCATION
 CNTY.            NATRONA:   COUNTY
 STAT.            WYOMING:   STATE
 CTRY. UNITED STATES OF AMERICA:   COUNTRY
 SRVC.      DRESSER ATLAS:   SERVICE COMPANY
 DATE.        04-FEB-1986:   LOGDATE
 API .     49025110630000:   API NUMBER
~CURVE INFORMATION
#MNEM.UNIT       API CODE    CURVE DESCRIPTION
#----------   ------------   ------------------------------
 DEPT.F                  :   
 CNC .DEC    42 890 03 00:   NEUTRON PORISITY SANDSTONE
 DEN .G/C3   45 350 01 00:   BULK DENSITY
 DCOR.G/C3   45 356 01 00:   DENSITY CORRECTION
 TEND.LBS    45 635 01 00:   TENSION FROM DENSITY LOG
 GRR .GAPI   07 310 01 00:   GAMMA RAY FROM RESISTIVITY
 CALR.IN     07 280 01 00:   CALIPER FROM RESISTIVITY
 RILM.OHMM   07 120 44 00:   INDUCTION LOG MEDIUM RESISTIVITY
 RILD.OHMM   07 120 46 00:   DEEP INDUCTION RESISTIVITY
 RFOC.OHMM   07 220 04 00:   RESISTIVITY FOCUSED LOG RES.
 TENR.LBS    07 635 01 00:   TENSION FROM RESISTIVITY
 DT  .US/F   60 520 00 00:   DELTA TIME
 TENS.LBS    60 635 01 00:   TENSION FROM SONIC
 SPR .MV     07 010 01 00:   SPONTANEOUS POTENTIAL
~PARAMETER INFORMATION
#MNEM.UNIT          VALUE    DESCRIPTION
#----------   ------------   ------------------------------
 EKB .F            0.0000:   Kelly bushing
 EGL .F         5150.0000:   Ground level
 EDF .F         5161.0000:   Drilling floor
 TD  .F         3260.0000:   Total depth
 DATE.        04-FEB-1986:   Date logged
 CLNT.            A2DTECH:   Client Code
 SL  . 1200' FEL & 650' FEL:   Surface Location
 PD  .                 GL:   Permanent Datum
 DD  .F              3260:   Depth driller
 DL  .F              3260:   Depth logger
 BLI .F              3258:   Bottom log interval
 CS1 .IN            8.625:   Casing size
 CBD1.      8.625" @ 566':   Casing driller 1
 CBL1.F               566:   Casing logger 1
 BS1 .IN            7.875:   Bit size
 DFT .        POLYMER-KCL:   Type fluid in hole
 DFD .                9.0:   Density
 DFV .                 36:   Viscosity
 DFPH.                8.5:   pH
 DFL .                 14:   Fluid loss
 MSS .           FLOWLINE:   Source of sample
 RMS .OHMM          0.367:   Rm
 MST .F                65:   Rm Meas. temp.
 RMF .OHMM          0.275:   Rmf
 MFST.F                65:   Rmf Meas. temp.
 RMC .OHMM          0.459:   Rmc
 MCST.F                65:   Rmc Meas. temp.
 MFSS.               CALC:   Source Rmf.
 RMB .OHMM          0.227:   Rm. at BHT
 BHT .F               105:   BHT.
 TCS .HRS               6:   Time Circ. stopped
 MRT .F               105:   Maximum recorded temp.
 LUN .               6274:   Logging unit number
 LUL .           GILLETTE:   Logging unit location
 ENGI.             MILLER:   Recorded By
 WITN.             STRONG:   Witnessed by
 ORIG.           5" PRINT:   Origin of data
 UWI .     49025110630000:   Unique Well ID
 DICO. A2D TECHNOLOGIES, INC.:   Digitizing Company
 DAPD.                 11:   Feet Above Permanent Datum
 BSD1.               3260:   Depth drilled with bit1
 MCSS.               CALC:   Source Rmc.
 EPD .F              5150:   Elevation Permanent Datum
 LMF .                 KB:   Log Measured From
 DMF .                 KB:   Drilling Measured From
 TLI .                566:   Top log interval
~OTHER INFORMATION
~A   DEPT      CNC        DEN       DCOR       TEND         GRR      CALR       RILM       RILD       RFOC       TENR         DT       TENS        SPR   
# ...
  553.5000  -999.2500  -999.2500  -999.2500  -999.2500    55.0700     8.1970  1955.8590   118.8580  -999.2500   -14.9710  -999.2500  -999.2500  -999.2500
  554.0000  -999.2500  -999.2500  -999.2500  -999.2500    55.8490     8.1970  1959.2460   117.2360  -999.2500    -7.9140  -999.2500  -999.2500  -999.2500
  554.5000  -999.2500  -999.2500  -999.2500  -999.2500    58.2500     8.1970  1962.6331   109.6480  -999.2500    -0.8570  -999.2500  -999.2500  -999.2500
  555.0000  -999.2500  -999.2500  -999.2500  -999.2500    57.8530     8.1970  1966.0200    99.3030  -999.2500    -1.3540  -999.2500  -999.2500  -999.2500
  555.5000  -999.2500  -999.2500  -999.2500  -999.2500    57.8080     8.1970  1969.4070   111.0440  -999.2500     6.2000  -999.2500  -999.2500  -999.2500
  556.0000  -999.2500  -999.2500  -999.2500  -999.2500    54.3760     8.2020  1972.7930  1127.5890  -999.2500    15.0000  -999.2500  -999.2500  -999.2500
  556.5000  -999.2500  -999.2500  -999.2500  -999.2500    51.3490     8.2170  1976.1801  9977.6904  -999.2500    12.3430  -999.2500  -999.2500  -999.2500
  557.0000  -999.2500  -999.2500  -999.2500  -999.2500    50.3510     8.2250  1836.6420  5007.8779  -999.2500     8.8140  -999.2500  -999.2500  -999.2500
  557.5000  -999.2500  -999.2500  -999.2500  -999.2500    50.0310     8.2070  1979.5670   123.3190  -999.2500     5.2860  -999.2500  -999.2500  -999.2500
  558.0000  -999.2500  -999.2500  -999.2500  -999.2500    48.7990     8.2410  1982.9540    38.2850  -999.2500     1.7570  -999.2500  -999.2500  -999.2500
  558.5000  -999.2500  -999.2500  -999.2500  -999.2500    50.3150     8.4860  1986.3409    30.6920  -999.2500    -1.7710  -999.2500  -999.2500  -999.2500
  559.0000  -999.2500  -999.2500  -999.2500  -999.2500    54.6610     8.8660  1989.7280    26.9790     0.2240    -5.0000  -999.2500  -999.2500  -999.2500
  559.5000  -999.2500  -999.2500  -999.2500  -999.2500    56.9540     9.2630   431.5490    34.2790     0.5900    -5.0000  -999.2500  -999.2500   -12.4060
  560.0000  -999.2500  -999.2500  -999.2500  -999.2500    59.3010     9.6020     8.6520    17.7680     2.0850    -5.0000  -999.2500  -999.2500   -21.3720
  560.5000  -999.2500  -999.2500  -999.2500  -999.2500    62.9730     9.9420     2.8940     3.1260     3.8260    -5.0000  -999.2500  -999.2500   -28.9260
  561.0000  -999.2500  -999.2500  -999.2500  -999.2500    65.5250    10.6090     2.7230     3.1800     5.8240    -5.0000  -999.2500  -999.2500   -35.8850
  561.5000  -999.2500  -999.2500  -999.2500  -999.2500    66.0370    11.4360     3.5240     5.0010     7.1620    -5.0000  -999.2500  -999.2500   -37.6740
  562.0000  -999.2500  -999.2500  -999.2500  -999.2500    65.6320    12.2300     3.9900    10.7410     7.0640    -5.0000  -999.2500  -999.2500   -42.3160
  562.5000  -999.2500  -999.2500  -999.2500  -999.2500    68.3020    12.8880     4.7420   145.5560     6.9670    -5.0000  -999.2500  -999.2500   -44.7220
  563.0000  -999.2500  -999.2500  -999.2500  -999.2500    71.7360    12.8100     6.5300   170.0480     7.0150    -5.0000  -999.2500  -999.2500   -47.1280
  563.5000  -999.2500  -999.2500  -999.2500  -999.2500    71.8380    12.7430    10.3650    22.8580     7.0650    -6.6330  -999.2500  -999.2500   -49.5350
  564.0000  -999.2500  -999.2500  -999.2500  -999.2500    72.2610    12.3640    17.8250    11.3510     7.2870    -8.0060  -999.2500  -999.2500   -51.7890
  564.5000  -999.2500  -999.2500  -999.2500  -999.2500    74.2530    11.2790    17.5810    11.3020     7.8530    -9.3780  -999.2500  -999.2500   -53.4420
  565.0000  -999.2500  -999.2500  -999.2500  -999.2500    76.7190    10.5470    16.4350    11.2470     8.6720   -10.7500  -999.2500  -999.2500   -55.1800
  565.5000  -999.2500  -999.2500  -999.2500  -999.2500    77.3120     9.8880    16.3180    11.8760     9.7960   -12.1220  -999.2500  -999.2500   -56.5610
  566.0000  -999.2500  -999.2500  -999.2500  -999.2500    75.7310     9.7240    18.8380    12.4280     9.7410   -13.4940  -999.2500  -999.2500   -56.9900
  566.5000  -999.2500  -999.2500  -999.2500  -999.2500    78.1350     9.7180    16.1990    13.0330    10.0620   -15.0000  -999.2500  -999.2500   -57.0060
  567.0000  -999.2500  -999.2500  -999.2500  -999.2500    81.1730     9.6310    13.0990    15.1020    10.0350    -9.4250  -999.2500  -999.2500   -56.8250
  567.5000  -999.2500  -999.2500  -999.2500  -999.2500    80.4120     9.6190    12.1360    16.5590    10.0080    -3.2500  -999.2500  -999.2500   -54.9880
  568.0000  -999.2500  -999.2500  -999.2500  -999.2500    80.6510     9.4900    11.5620    16.7120     9.9780     2.9250  -999.2500  -999.2500   -52.4600
  568.5000  -999.2500  -999.2500  -999.2500  -999.2500    81.7960     9.4190    11.7770    13.7730     9.7960    -1.8400  -999.2500  -999.2500   -50.0110
  569.0000  -999.2500  -999.2500  -999.2500  -999.2500    81.4100     9.3770    12.7950    13.1490     9.4150   -16.6600  -999.2500  -999.2500   -47.6630
  569.5000  -999.2500  -999.2500  -999.2500  -999.2500    79.4390     9.3740    11.8860    12.5580     9.1840   -23.7290  -999.2500  -999.2500   -46.7750
  570.0000  -999.2500  -999.2500  -999.2500  -999.2500    78.2030     9.3660    11.8860    12.1070     9.5170   -20.8240  -999.2500  -999.2500   -46.4640
  570.5000  -999.2500  -999.2500  -999.2500  -999.2500    79.6830     9.3710    11.8310    12.5220     9.9780   -17.9180  -999.2500  -999.2500   -46.7560
  571.0000  -999.2500  -999.2500  -999.2500  -999.2500    80.8820     9.3680    11.7640    13.0330    10.8400   -15.0000  -999.2500  -999.2500   -47.2050
  571.5000  -999.2500  -999.2500  -999.2500  -999.2500    80.4100     9.3690    11.6970    13.1820    10.8400    -2.7000  -999.2500  -999.2500   -47.5130
  572.0000  -999.2500  -999.2500  -999.2500  -999.2500    78.8390     9.3690    11.3300    13.1630    10.0700     3.6220  -999.2500  -999.2500   -48.0250
  572.5000  -999.2500  -999.2500  -999.2500  -999.2500    77.4970     9.3700    10.8400    12.7950    10.7410    -0.0370  -999.2500  -999.2500   -48.1840
  573.0000  -999.2500  -999.2500  -999.2500  -999.2500    78.4570     9.3700    10.9850    12.7470    10.8460    -3.6960  -999.2500  -999.2500   -48.4910
  573.5000  -999.2500  -999.2500  -999.2500  -999.2500    80.4100     9.3750    11.1440    12.6110    10.9400    -7.3560  -999.2500  -999.2500   -48.9830
  574.0000  -999.2500  -999.2500  -999.2500  -999.2500    82.0360     9.3820    11.0570    12.4750    10.6660   -11.0150  -999.2500  -999.2500   -49.6500
  574.5000  -999.2500  -999.2500  -999.2500  -999.2500    81.7340     9.3870    10.8920    12.3390    10.4250   -15.0000  -999.2500  -999.2500   -50.1690
  575.0000  -999.2500  -999.2500  -999.2500  -999.2500    79.0250     9.3940    10.7280    12.2030    10.2570    -6.7860  -999.2500  -999.2500   -50.6600
  575.5000  -999.2500  -999.2500  -999.2500  -999.2500    75.2810     9.3990    10.5450    12.0670    10.1770   -10.3140  -999.2500  -999.2500   -51.6590
  576.0000  -999.2500  -999.2500  -999.2500  -999.2500    71.7540     9.4050    10.4980    11.9310    10.1150   -13.8430  -999.2500  -999.2500   -52.5830
  576.5000  -999.2500  -999.2500  -999.2500  -999.2500    73.0590     9.4090    10.4450    11.7770    10.0700   -17.3710  -999.2500  -999.2500   -53.5650
  577.0000  -999.2500  -999.2500  -999.2500  -999.2500    78.9130     9.4100    10.3920    11.7970    10.1260   -20.9000  -999.2500  -999.2500   -54.8770
  577.5000  -999.2500  -999.2500  -999.2500  -999.2500    82.6930     9.4090    10.3520    11.8200    10.1700   -25.0000  -999.2500  -999.2500   -56.0400
  578.0000  -999.2500  -999.2500  -999.2500  -999.2500    81.8870     9.4100    10.1930    11.8440    10.2140   -25.0000  -999.2500  -999.2500   -57.1100
  578.5000  -999.2500  -999.2500  -999.2500  -999.2500    79.5540     9.4090    10.0660    11.8670    10.2570   -25.0000  -999.2500  -999.2500   -58.1490
  579.0000  -999.2500  -999.2500  -999.2500  -999.2500    79.3370     9.4100     9.9380    11.8860    10.1110   -25.0000  -999.2500  -999.2500   -59.1150
