~VERSION INFORMATION
 VERS.                2.0:   CWLS LOG ASCII STANDARD - VERSION 2.0
 WRAP.                 NO:   ONE LINE PER DEPTH STEP
~WELL INFORMATION
#MNEM.UNIT      DATA TYPE    INFORMATION
#----------   ------------   ------------------------------
 STRT.F          206.0000:   START DEPTH
 STOP.F         2974.0000:   STOP DEPTH
 STEP.F            0.5000:   STEP LENGTH
 NULL.          -999.2500:   NO VALUE
 COMP.    FENIX & SCISSON:   COMPANY
 WELL.    FENIX AX #32-21:   WELL
 FLD .                NPR:   FIELD
 LOC .      S21 T39N R78W:   LOCATION
 CNTY.            NATRONA:   COUNTY
 STAT.            WYOMING:   STATE
 CTRY. UNITED STATES OF AMERICA:   COUNTRY
 SRVC.              WELEX:   SERVICE COMPANY
 DATE.        29-JUL-1977:   LOGDATE
 API .     49025104050000:   API NUMBER
~CURVE INFORMATION
#MNEM.UNIT       API CODE    CURVE DESCRIPTION
#----------   ------------   ------------------------------
 DEPT.F                  :   
 SPR .MV     07 010 01 00:   SPONTANEOUS POTENTIAL
 RILM.OHMM   07 120 44 00:   INDUCTION LOG MEDIUM RESISTIVITY
 RILD.OHMM   07 120 46 00:   INDUCTION LOG DEEP RESISTIVITY
 SGRD.OHMM   07 220 05 00:   SHALLOW GUARD LOG RESISTIVITY
 CALD.IN     45 280 60 00:   CALIPER FROM DENSITY LOG
 RHOB.G/C3   45 350 01 00:   BULK DENSITY
 DCOR.G/C3   45 356 01 00:   DENSITY CORRECTION
 GRD .GAPI   45 310 01 00:   GAMMA RAY FROM DENSITY LOG
~PARAMETER INFORMATION
#MNEM.UNIT          VALUE    DESCRIPTION
#----------   ------------   ------------------------------
 EKB .F         4995.0000:   Kelly bushing
 EGL .F         4985.0000:   Ground level
 EDF .F            0.0000:   Drilling floor
 EPD .F         4985.0000:   Permanent datum
 TD  .F         2978.0000:   Total depth
 DATE.        29-JUL-1977:   Date logged
 CLNT.            A2DTECH:   Client Code
 SL  . 1040' FNL & 1500' FWL:   Surface Location
 PD  .                 GL:   Permanent Datum
 LMF .                 KB:   Log Measured From
 DMF .                 KB:   Drilling Measured From
 DAPD.F                10:   Feet Above Permanent Datum
 DD  .F              2972:   Depth driller
 DL  .F              2978:   Depth logger
 BLI .F              2976:   Bottom log interval
 TLI .F               120:   Top log interval
 CS1 .IN            8.625:   Casing size
 CBD1.      8.625" @ 205':   Casing driller 1
 CBL1.F               220:   Casing logger 1
 BS1 .IN            7.875:   Bit size
 BSD1.F              2972:   Depth drilled with bit1
 DFT .                KCL:   Type fluid in hole
 DFD .                9.2:   Density
 DFV .                 43:   Viscosity
 DFPH.                 10:   pH
 DFL .                  8:   Fluid loss
 MSS .            MUD PIT:   Source of sample
 RMS .OHMM            .21:   Rm
 MST .F                91:   Rm Meas. temp.
 RMF .OHMM            .18:   Rmf
 MFST.F                91:   Rmf Meas. temp.
 RMC .OHMM            .23:   Rmc
 MCST.F                91:   Rmc Meas. temp.
 MFSS.               MEAS:   Source Rmf.
 MCSS.               MEAS:   Source Rmc.
 RMB .OHMM            .17:   Rm. at BHT
 BHT .F               110:   BHT.
 TCS .HRS               3:   Time Circ. stopped
 MRT .F               110:   Maximum recorded temp.
 LUN .               9685:   Logging unit number
 LUL .             CASPER:   Logging unit location
 ENGI.   T JOYNER/ E HOCH:   Recorded By
 WITN.         PETTINGILL:   Witnessed by
 ORIG.     2.5", 5" PRINT:   Origin of data
 UWI .     49025104050000:   Unique Well ID
 DICO. A2D TECHNOLOGIES, INC.:   Digitizing Company
~OTHER INFORMATION
~A   DEPT      SPR       RILM       RILD       SGRD       CALD       RHOB       DCOR         GRD  
# ...
 2757.5000   -75.6640     7.4110     6.1120     7.6380     8.2100     2.5360     0.0380   126.1790
 2758.0000   -75.5690     7.4110     6.1380     7.8240     8.1890     2.5430     0.0410   126.9780
 2758.5000   -75.4780     7.3130     6.1630     8.1250     8.1790     2.5540     0.0470   127.7320
 2759.0000   -75.3800     7.1510     6.1890     7.9890     8.1800     2.5600     0.0510   128.5540
 2759.5000   -75.2910     6.8860     6.2150     7.6400     8.1800     2.5570     0.0560   129.3040
 2760.0000   -75.2150     6.9630     6.2410     7.2760     8.1800     2.5580     0.0520   130.9750
 2760.5000   -75.3800     7.1440     6.2660     7.4110     8.1800     2.5650     0.0480   132.4340
 2761.0000   -75.5450     7.2280     6.2920     7.8830     8.1800     2.5720     0.0430   133.9770
 2761.5000   -75.7210     7.3020     6.3180     8.2930     8.1800     2.5620     0.0390   135.5420
 2762.0000   -75.8900     7.4110     6.3430     8.7040     8.1800     2.5480     0.0350   136.8100
 2762.5000   -76.0610     7.2710     6.3690     9.0720     8.1800     2.5440     0.0310   137.4070
 2763.0000   -76.2320     6.9940     6.3980     9.0720     8.1800     2.5400     0.0270   139.8900
 2763.5000   -76.4050     6.7170     6.1470     9.0720     8.1800     2.5340     0.0230   144.9950
 2764.0000   -76.5720     6.4400     6.0260     8.5240     8.1800     2.5220     0.0200   149.7270
 2764.5000   -76.7430     6.1630     5.9180     7.7080     8.1800     2.5130     0.0230   155.3420
 2765.0000   -76.7350     5.8860     5.7520     6.7600     8.1800     2.5080     0.0250   157.7210
 2765.5000   -76.6620     5.6250     5.4060     6.4870     8.1800     2.5040     0.0270   160.4560
 2766.0000   -76.5890     5.4230     5.0600     6.1610     8.1800     2.5010     0.0290   165.3750
 2766.5000   -76.5230     5.2260     4.7530     5.8360     8.1800     2.4990     0.0310   172.8450
 2767.0000   -76.4490     4.8040     4.5030     5.9730     8.1800     2.4820     0.0330   179.9250
 2767.5000   -76.3810     4.3830     4.1780     6.1670     8.1800     2.4570     0.0360   188.9960
 2768.0000   -76.2400     3.9620     3.7340     5.8560     8.1800     2.4330     0.0350   198.6320
 2768.5000   -76.1120     3.5410     3.2900     5.1310     8.1800     2.4090     0.0340   202.4290
 2769.0000   -75.9790     3.1810     2.8460     4.2610     8.1800     2.3940     0.0320   206.5670
 2769.5000   -75.8470     3.0220     2.5520     3.3510     8.1800     2.3850     0.0310   211.4020
 2770.0000   -75.7170     2.9020     2.6710     2.5520     8.1800     2.3950     0.0290   202.2370
 2770.5000   -75.6010     3.0550     3.0110     2.3280     8.1800     2.4270     0.0280   198.7500
 2771.0000   -75.5970     3.4460     2.9560     2.4950     8.1800     2.4680     0.0320   174.1480
 2771.5000   -75.5940     4.0890     3.0110     3.4240     8.1800     2.5010     0.0350   153.4720
 2772.0000   -75.5960     4.7320     2.9560     6.1520     8.1800     2.5290     0.0390   135.0390
 2772.5000   -75.5950     5.1290     3.5960     8.6930     8.1800     2.5450     0.0390   127.8140
 2773.0000   -75.5950     5.4030     4.1930     9.2410     8.1800     2.5390     0.0360   126.0460
 2773.5000   -75.5960     5.6760     4.7900     8.5110     8.1800     2.5330     0.0330   127.6640
 2774.0000   -75.5950     5.9500     5.2810     7.8310     8.1800     2.5280     0.0300   130.0510
 2774.5000   -75.5960     6.1290     5.6290     7.6640     8.1800     2.5240     0.0280   133.1900
 2775.0000   -75.5950     6.2510     6.0540     7.5000     8.1800     2.5180     0.0290   136.9750
 2775.5000   -75.5950     6.3700     6.0080     7.3360     8.1800     2.5120     0.0300   140.3550
 2776.0000   -75.6010     6.3220     5.9310     7.1720     8.1800     2.5050     0.0310   144.5070
 2776.5000   -75.5800     6.1340     5.8540     7.0080     8.1800     2.5020     0.0320   148.4840
 2777.0000   -75.7610     5.8750     5.6050     6.8440     8.1800     2.5020     0.0310   152.5360
 2777.5000   -76.1210     5.6170     5.3030     6.6800     8.1800     2.4950     0.0290   156.5210
 2778.0000   -76.4320     5.3590     5.0000     6.4040     8.1800     2.4840     0.0280   161.2580
 2778.5000   -76.7530     5.1310     4.7240     6.0870     8.1800     2.4710     0.0260   167.9600
 2779.0000   -76.6040     4.7810     4.4730     5.7700     8.1800     2.4570     0.0250   174.5520
 2779.5000   -76.4220     4.4670     4.2210     5.4530     8.1800     2.4440     0.0230   181.2790
 2780.0000   -76.2250     4.1150     3.9360     5.1280     8.1800     2.4390     0.0220   187.7470
 2780.5000   -76.0400     3.7570     3.5680     4.6800     8.1800     2.4340     0.0200   192.9720
 2781.0000   -75.8500     3.3480     3.2010     4.1190     8.1800     2.4280     0.0190   191.7170
 2781.5000   -75.6610     3.1240     2.8490     3.5580     8.1800     2.4250     0.0180   188.4610
 2782.0000   -75.4710     3.6180     3.0760     2.9020     8.1780     2.4450     0.0150   180.5100
 2782.5000   -75.2830     4.0910     3.2930     3.8210     8.1760     2.4960     0.0140   165.8210
 2783.0000   -75.0970     4.5640     3.5520     5.9810     8.1740     2.5090     0.0190   151.0500
 2783.5000   -74.8920     5.0370     3.8460     7.4110     8.1720     2.5230     0.0230   141.3550
 2784.0000   -74.8280     5.4220     4.2110     7.6060     8.1700     2.5310     0.0280   136.2500
 2784.5000   -74.9250     5.7790     4.5750     7.8020     8.1670     2.5330     0.0320   134.4720
 2785.0000   -75.0030     6.0810     4.9400     8.1250     8.1650     2.5360     0.0360   136.1630
 2785.5000   -75.0850     6.3980     5.3230     8.0510     8.1630     2.5390     0.0360   137.2190
 2786.0000   -75.1670     6.3300     5.5650     7.8410     8.1610     2.5420     0.0360   138.6500
 2786.5000   -75.2290     6.2590     5.9440     7.6320     8.1590     2.5430     0.0360   140.4760
 2787.0000   -75.2830     6.1870     5.9330     7.4220     8.1570     2.5430     0.0360   140.7530
 2787.5000   -75.3340     6.3310     5.9120     7.2760     8.1540     2.5390     0.0350   139.9660
 2788.0000   -75.3860     6.5640     5.8910     7.2760     8.1520     2.5350     0.0320   139.4450
 2788.5000   -75.4390     6.7960     5.8690     7.4640     8.1500     2.5370     0.0290   141.2460
 2789.0000   -75.4870     7.0140     5.8480     7.7380     8.1480     2.5350     0.0270   144.2470
 2789.5000   -75.5440     6.8470     5.8270     8.0120     8.1460     2.5310     0.0240   143.8470
 2790.0000   -75.6040     6.7360     5.8060     8.2760     8.1430     2.5360     0.0270   143.4140
 2790.5000   -75.8670     6.6810     5.7850     8.0850     8.1410     2.5450     0.0300   142.8640
 2791.0000   -76.1460     6.6260     5.7630     7.7860     8.1390     2.5410     0.0330   142.3260
 2791.5000   -76.3800     6.5720     5.7310     7.6080     8.1380     2.5370     0.0360   142.7920
 2792.0000   -76.3870     6.5160     5.7450     7.8920     8.1370     2.5390     0.0390   145.8330
 2792.5000   -76.3890     6.5860     5.7850     8.1250     8.1350     2.5370     0.0350   147.2100
 2793.0000   -76.3800     6.6560     5.8260     7.6890     8.1340     2.5290     0.0280   147.7490
 2793.5000   -76.2160     6.7260     5.8660     7.7900     8.1330     2.5200     0.0220   148.3380
 2794.0000   -76.0280     6.7970     5.9060     7.9690     8.1310     2.5170     0.0160   148.0350
 2794.5000   -75.8370     6.8860     5.9460     8.1250     8.1300     2.5170     0.0140   147.6420
 2795.0000   -75.6490     6.8690     5.9860     8.3400     8.1280     2.5160     0.0130   147.2280
 2795.5000   -75.4590     6.8170     6.0540     8.5290     8.1270     2.5130     0.0120   146.8290
 2796.0000   -75.2710     6.7600     6.0460     9.0720     8.1260     2.5100     0.0120   146.4240
 2796.5000   -75.0800     6.6740     6.0190     8.9170     8.1240     2.5090     0.0120   146.0440
 2797.0000   -74.8920     6.5780     5.9920     8.4290     8.1230     2.5080     0.0120   145.8190
 2797.5000   -74.7050     6.4820     5.9640     8.4650     8.1220     2.5080     0.0120   145.3240
