~VERSION INFORMATION
 VERS.                2.0:   CWLS LOG ASCII STANDARD - VERSION 2.0
 WRAP.                 NO:   ONE LINE PER DEPTH STEP
~WELL INFORMATION
#MNEM.UNIT      DATA TYPE    INFORMATION
#----------   ------------   ------------------------------
 STRT.F          200.0000:   START DEPTH
 STOP.F         3120.0000:   STOP DEPTH
 STEP.F            0.5000:   STEP LENGTH
 NULL.          -999.2500:   NO VALUE
 COMP.    FENIX & SCISSON:   COMPANY
 WELL. FENIX NPR 3 "AX" #83-28:   WELL
 FLD .                NPR:   FIELD
 LOC .      S28 T39N R78W:   LOCATION
 CNTY.            NATRONA:   COUNTY
 STAT.            WYOMING:   STATE
 CTRY. UNITED STATES OF AMERICA:   COUNTRY
 SRVC.              WELEX:   SERVICE COMPANY
 DATE.        29-SEP-1977:   LOGDATE
 API .     49025104240000:   API NUMBER
~CURVE INFORMATION
#MNEM.UNIT       API CODE    CURVE DESCRIPTION
#----------   ------------   ------------------------------
 DEPT.F                  :   
 CALD.IN     45 280 60 00:   CALIPER FROM DENSITY LOG
 GRD .GAPI   45 310 01 00:   GAMMA RAY FROM DENSITY LOG
 RHOB.G/C3   45 350 01 00:   BULK DENSITY
 CORR.G/C3   45 356 01 00:   DENSITY CORRECTION
 SPR .MV     07 010 01 00:   SPONTANEOUS POTENTIAL
 SGRD.MV     07 220 05 00:   SHLLOW GUARD
 ILD .OHMM   07 120 46 00:   DEEP INDUCTION RESISTIVITY
 ILM .OHMM   07 120 44 00:   INDUCTION LOG MEDIUM RESISTIVITY
~PARAMETER INFORMATION
#MNEM.UNIT          VALUE    DESCRIPTION
#----------   ------------   ------------------------------
 EKB .F         5034.0000:   Kelly bushing
 EGL .F         5024.0000:   Ground level
 TD  .F         3110.0000:   Total depth
 DATE.        29-SEP-1977:   Date logged
 CLNT.            A2DTECH:   Client Code
 SL  . 1650' FNL & 330' FEL:   Surface Location
 PD  .                 GL:   Permanent Datum
 EPD .F              5024:   Elevation Permanent Datum
 LMF .                 KB:   Log Measured From
 DMF .                 KB:   Drilling Measured From
 DAPD.F                10:   Feet Above Permanent Datum
 DD  .F              3110:   Depth driller
 DL  .F              3110:   Depth logger
 BLI .F              3108:   Bottom log interval
 TLI .F               210:   Top log interval
 CS1 .IN            8.625:   Casing size
 CBD1.      8.625" @ 201':   Casing driller 1
 CBL1.F               210:   Casing logger 1
 BS1 .IN            7.875:   Bit size
 BSD1.F              3110:   Depth drilled with bit1
 DFT .          KCL/WATER:   Type fluid in hole
 DFD .                  9:   Density
 DFV .                 40:   Viscosity
 DFPH.                 11:   pH
 DFL .                6.4:   Fluid loss
 MSS .            MUD/PIT:   Source of sample
 RMS .OHMM            .56:   Rm
 MST .F                60:   Rm Meas. temp.
 RMF .OHMM            .34:   Rmf
 MFST.F                60:   Rmf Meas. temp.
 RMC .OHMM            .61:   Rmc
 MCST.F                60:   Rmc Meas. temp.
 MFSS.               MEAS:   Source Rmf.
 MCSS.               MEAS:   Source Rmc.
 RMB .OHMM            .28:   Rm. at BHT
 BHT .F               120:   BHT.
 TCS .HRS               3:   Time Circ. stopped
 MRT .F               120:   Maximum recorded temp.
 LUN .               9685:   Logging unit number
 LUL .             CASPER:   Logging unit location
 ENGI. G. BENTSEN/T. JOYNER:   Recorded By
 WITN.         PETTINGILL:   Witnessed by
 ORIG.   1" 2.5" 5" PRINT:   Origin of data
 UWI .     49025104240000:   Unique Well ID
 DICO. A2D TECHNOLOGIES, INC.:   Digitizing Company
~OTHER INFORMATION
~A   DEPT     CALD         GRD      RHOB       CORR        SPR       SGRD        ILD        ILM   
# ...
 2103.5000     8.5483   100.7681     2.1002     0.1553   -62.0754    11.6868     9.0247     9.8067
 2104.0000     8.5481    99.1839     1.9841     0.1474   -62.0754    11.6874     8.9424     9.7171
 2104.5000     8.6270    97.5981     1.9761     0.1077   -62.0754    11.6878     8.8607     9.7175
 2105.0000     8.7059    96.8044     1.9801     0.0840   -62.0754    11.3696     8.7797     9.5403
 2105.5000     8.8637    96.7996     1.9781     0.0681   -62.0754    11.3697     8.6195     9.4533
 2106.0000     8.7054    96.7964     1.9741     0.0601   -62.0754    10.9581     8.5408     9.3667
 2106.5000     8.7052    96.7916     1.9781     0.0443   -62.0754    10.5615     8.3851     9.2811
 2107.0000     8.7050    95.9979     1.9880     0.0205   -62.0754    10.5619     8.3084     9.0283
 2107.5000     8.6653    95.9931     1.9959     0.0046   -62.0754    10.0860     8.2325     9.0287
 2108.0000     8.6651    93.6183     2.2076     0.0125   -62.0754     9.6316     8.0824     9.0291
 2108.5000     8.7044    93.6136     2.2473     0.0402   -62.0754     9.4557     7.8620     8.8643
 2109.0000     8.7042    94.4009     2.3347     0.0679   -62.0754     9.1982     7.7901     8.7834
 2109.5000     8.8621    95.9771     2.4096     0.0719   -62.0754     9.1142     7.3710     8.6234
 2110.0000     9.0991    92.8119     2.4175     0.0639   -62.0754     9.1145     7.3713     8.4660
 2110.5000     9.1781    92.0182     2.4254     0.0679   -62.0754     9.2849     7.3717     8.3887
 2111.0000     9.2568    92.8039     2.4294     0.0718   -62.0754     9.5462     7.3722     8.1601
 2111.5000     9.0195    92.8007     2.4393     0.0718   -62.0754     9.8148     7.3726     8.0855
 2112.0000     8.8216    92.0054     2.4392     0.0678   -62.0754     9.9982     7.3730     8.0859
 2112.5000     8.6827    91.2117     2.4288     0.0638   -62.0754    10.1853     7.4418     8.0864
 2113.0000     8.6740    89.6259     2.4174     0.0638   -62.0754    10.0920     7.5110     8.2375
 2113.5000     8.6652    90.4132     2.4016     0.0598   -62.0754     9.8168     7.5811     8.4693
 2114.0000     8.6564    88.0368     2.3897     0.0479   -62.0754     8.3916     7.7944     8.5480
 2114.5000     8.6477    88.0336     2.3698     0.0360   -62.0754     8.3150     8.0882     8.7886
 2115.0000     8.6389    88.0289     2.3599     0.0320   -62.0754     9.4627     8.2392     9.2044
 2115.5000     8.6302    88.0257     2.3579     0.0320   -62.0754    11.2771     8.7091     9.4634
 2116.0000     8.6214    91.1829     2.3520     0.0319   -62.0754    11.7016     8.7901     9.6403
 2116.5000     8.6127    91.9702     2.3440     0.0319   -62.0754    12.0310     9.1214     9.8202
 2117.0000     8.6039    92.7560     2.3222     0.0398   -62.0754    11.8115     9.2917    10.0967
 2117.5000     8.5952    93.5433     2.3103     0.0517   -62.0754    11.9216     9.3785    10.2853
 2118.0000     8.5864    94.3290     2.3063     0.0556   -62.0754    12.7180     9.4661    10.3811
 2118.5000     8.5776    94.3258     2.2926     0.0794   -62.0754    13.8202     9.4663    10.6730
 2119.0000     8.5689    96.6926     2.2746     0.0952   -62.0754    13.8207     9.4670    10.9734
 2119.5000     8.5601    96.6894     2.2726     0.0991   -62.2750    13.0771     9.4672    10.9740
 2120.0000     8.5514    96.6846     2.2403     0.0991   -62.6743    11.5991     9.3810    10.8738
 2120.5000     8.5426    96.6814     2.2079     0.0832   -62.8739    10.3836     9.3816    10.4803
 2121.0000     8.5339    96.6782     2.1894     0.0673   -62.8739    10.5776     9.3819    10.1945
 2121.5000     8.5251    96.6734     2.2068     0.0515   -63.0735    12.0372     9.2110    10.0087
 2122.0000     8.5163    95.8797     2.2131     0.0158   -63.0735    12.2620     9.1268     9.9171
 2122.5000     8.5076    95.0844     2.3220     0.0237   -63.2731    11.6021     9.1271     9.7363
 2123.0000     8.4988    96.6622     2.3437     0.0316   -63.4727    10.4826     8.9607     9.6476
 2123.5000     8.4901    96.6574     2.3696     0.0395   -63.6723    10.3869     8.8789     9.6480
 2124.0000     8.4806    95.8637     2.4428     0.0593   -63.8719    11.4974     8.8793     9.4720
 2124.5000     8.5005    94.2779     2.4428     0.0593   -64.2711    11.2876     8.7983     9.4724
 2125.0000     8.5397    96.6463     2.4428     0.0513   -64.2711    11.3928     8.7178     9.3860
 2125.5000     8.5697    97.4320     2.4349     0.0473   -64.4707    11.4991     8.7184     9.2149
 2126.0000     8.5789    97.4288     2.4349     0.0314   -64.4707    11.2894     8.6390     9.0468
 2126.5000     8.5788    97.4240     2.4558     0.0314   -64.4707    10.4867     8.4814     8.8818
 2127.0000     8.5786    97.4208     2.4863     0.0393   -64.6703    10.2006     8.3267     8.7200
 2127.5000     8.5783    98.2065     2.5125     0.0432   -64.6703    10.1076     8.0997     8.7204
 2128.0000     8.4991    98.2033     2.5299     0.0551   -64.8699    10.1081     8.0259     8.6406
 2128.5000     8.4989    97.4080     2.5358     0.0591   -64.8699    10.1086     8.0263     8.6413
 2129.0000     8.4987    96.6143     2.5378     0.0590   -64.8699    10.2972     7.7360     8.5624
 2129.5000     8.4985    96.6095     2.5398     0.0590   -64.8699    10.6852     7.7362     8.5626
 2130.0000     8.4983    96.6063     2.5259     0.0590   -64.8699    10.9857     7.7367     8.4845
 2130.5000     8.4586    97.3937     2.5120     0.0510   -64.8699    11.1909     7.7370     8.4070
 2131.0000     8.4979    97.3889     2.5060     0.0471   -65.0695    11.1914     7.6665     8.3304
 2131.5000     8.4977    97.3857     2.4978     0.0431   -65.0695    10.8865     7.5964     8.2543
 2132.0000     8.4975    97.3809     2.4896     0.0351   -65.0695    10.3962     7.5271     8.1790
 2132.5000     8.4973    97.3777     2.4782     0.0311   -65.0695    10.2066     7.4585     8.1792
 2133.0000     8.4971    98.1634     2.4716     0.0311   -65.0695    10.0205     7.3903     8.0303
 2133.5000     8.4969    98.9507     2.4708     0.0271   -65.0695     9.3943     7.2556     7.8840
 2134.0000     8.4967    97.3649     2.4683     0.0271   -65.0695     9.5698     7.1892     7.7401
 2134.5000     8.4965    96.5712     2.4623     0.0231   -65.0695    10.3989     7.0582     7.5991
 2135.0000     8.4963    94.1949     2.4583     0.0231   -65.0695    10.3994     7.0588     7.5994
 2135.5000     8.4961    93.4012     2.4544     0.0072   -65.0695    10.1160     7.0592     7.5301
 2136.0000     8.5354    96.5584     2.4504     0.0072   -65.0695     9.4839     7.0596     7.5304
 2136.5000     8.5353    97.3457     2.4464     0.0072   -65.0695     9.4844     7.0600     7.5310
 2137.0000     8.5350    96.5504     2.4365     0.0071   -65.0695     9.3978     7.0604     7.5313
 2137.5000     8.5349    95.7567     2.4305     0.0071   -65.0695     9.3984     6.9318     7.4626
 2138.0000     8.5346    92.5899     2.4265     0.0031   -65.0695     9.2270     6.9320     7.3946
 2138.5000     8.5345    91.0057     2.4186     0.0031   -65.0695     8.4143     6.9324     7.3270
 2139.0000     8.5342    88.6293     2.4186     0.0031   -65.0695     8.4147     6.9327     7.2601
 2139.5000     8.5341    87.8356     2.4265     0.0070   -65.0695     8.8941     6.9333     7.1938
 2140.0000     8.5338    87.8308     2.4380     0.0070   -65.0695     9.3145     6.9336     7.1281
 2140.5000     8.5337    86.2466     2.4495     0.0149   -65.0695     9.4885     6.9341     7.1286
 2141.0000     8.5335    86.2434     2.4602     0.0188   -65.0695     9.4890     6.8077     7.1290
 2141.5000     8.5333    85.4481     2.4641     0.0228   -65.0695     9.2305     6.6221     7.0640
 2142.0000     8.5331    85.4449     2.4720     0.0267   -65.0695     8.8148     6.4417     6.9995
 2142.5000     8.5329    84.6496     2.4859     0.0346   -65.0695     8.4178     6.1518     6.8087
 2143.0000     8.5327    84.6464     2.4918     0.0386   -65.0695     7.9650     5.9841     6.4425
 2143.5000     8.5325    82.2701     2.4918     0.0464   -65.0695     7.8199     5.8212     6.2670
