~VERSION INFORMATION
 VERS.                2.0:   CWLS LOG ASCII STANDARD - VERSION 2.0
 WRAP.                 NO:   ONE LINE PER DEPTH STEP
~WELL INFORMATION
#MNEM.UNIT      DATA TYPE    INFORMATION
#----------   ------------   ------------------------------
 STRT.F            7.5000:   START DEPTH
 STOP.F         5700.0000:   STOP DEPTH
 STEP.F            0.5000:   STEP LENGTH
 NULL.          -999.2500:   NO VALUE
 COMP. FLUOR DANIEL (NPOSR):   COMPANY
 WELL.   FLOUR "X" #52-10:   WELL
 FLD .             NPR #3:   FIELD
 LOC .      S10 T38N R78W:   LOCATION
 CNTY.            NATRONA:   COUNTY
 STAT.            WYOMING:   STATE
 CTRY. UNITED STATES OF AMERICA:   COUNTRY
 SRVC.      WESTERN ATLAS:   SERVICE COMPANY
 DATE.        12-JAN-1996:   LOGDATE
 API .     49025227600000:   API NUMBER
~CURVE INFORMATION
#MNEM.UNIT       API CODE    CURVE DESCRIPTION
#----------   ------------   ------------------------------
 DEPT.F                  :   
 TENR.LBS    11 635 01 00:   TENSION
 GRR .GAPI   11 310 01 00:   GAMMA RAY FROM RESISTIVITY
 LLD .OHMM   11 220 10 00:   LATEROLOG DEEP
 LLS .OHMM   11 220 09 00:   LATEROLOG SHALLOW
 SPR .MV     11 010 01 00:   SPONTANEOUS POTENTIAL
 CALD.IN     45 280 60 00:   CALIPER FROM DENSITY LOG
 TEND.LBS    45 635 01 00:   TENSION FROM DENSITY LOG
 ZCOR.G/C3   45 356 01 00:   DENSITY CORRECTION
 ZDEN.G/C3   45 350 01 00:   BULK DENSITY
 CNC .DEC    42 890 03 00:   NEUTRON POROSITY SANDSTONE
~PARAMETER INFORMATION
#MNEM.UNIT          VALUE    DESCRIPTION
#----------   ------------   ------------------------------
 EKB .F         5196.0000:   Kelly bushing
 EGL .F         5186.0000:   Ground level
 EDF .F         5195.0000:   Drilling floor
 TD  .F         5699.0000:   Total depth
 DATE.        12-JAN-1996:   Date logged
 CLNT.            A2DTECH:   Client Code
 SL  . 1032' FNL & 2536' FEL:   Surface Location
 PD  .                 GL:   Permanent Datum
 EPD .F              5186:   Elevation Permanent Datum
 LMF .                 KB:   Log Measured From
 DMF .                 KB:   Drilling Measured From
 DAPD.F                11:   Feet Above Permanent Datum
 DD  .F              5699:   Depth driller
 DL  .F              5699:   Depth logger
 BLI .F              5687:   Bottom log interval
 CS1 .IN            9.625:   Casing size
 CBD1.      9.625" @ 520':   Casing driller 1
 CBL1.F               522:   Casing logger 1
 BS1 .IN             8.75:   Bit size
 BSD1.F              5699:   Depth drilled with bit1
 DFT .               CHEM:   Type fluid in hole
 DFD .                9.8:   Density
 DFV .                 50:   Viscosity
 DFPH.                9.5:   pH
 DFL .                8.4:   Fluid loss
 MSS .           FLOWLINE:   Source of sample
 RMS .OHMM          0.515:   Rm
 MST .F                66:   Rm Meas. temp.
 RMF .OHMM          0.499:   Rmf
 MFST.F                66:   Rmf Meas. temp.
 RMC .OHMM          0.761:   Rmc
 MCST.F                66:   Rmc Meas. temp.
 MFSS.               MEAS:   Source Rmf.
 MCSS.               MEAS:   Source Rmc.
 RMB .OHMM          0.233:   Rm. at BHT
 BHT .F               174:   BHT.
 TCS .HRS               6:   Time Circ. stopped
 MRT .F               174:   Maximum recorded temp.
 LUN .            HL 6530:   Logging unit number
 LUL .             CASPER:   Logging unit location
 ENGI.        VERN RAUTIO:   Recorded By
 WITN. LAFRENIERE/OPSAL/HARDY:   Witnessed by
 ORIG.     2.5", 5" PRINT:   Origin of data
 UWI .     49025227600000:   Unique Well ID
 DICO. A2D TECHNOLOGIES, INC.:   Digitizing Company
~OTHER INFORMATION
~A    DEPT    TENR         GRR       LLD        LLS        SPR       CALD       TEND       ZCOR       ZDEN        CNC   
# ...
 4965.5000   -13.5810   113.1520    16.6980    15.2760   -84.9540    10.4070   -49.9160     0.0060     2.6740     0.1700
 4966.0000   -13.5810   112.4410    16.9000    15.2170   -85.2540    10.4070   -44.1180     0.0000     2.6740     0.1720
 4966.5000   -13.5810   110.2320    17.1650    16.9930   -85.5480    10.4070   -44.1180     0.0030     2.6840     0.1690
 4967.0000   -13.5810   108.0650    19.1670    18.2290   -85.7520    10.4070   -44.1180     0.0080     2.6930     0.1640
 4967.5000   -13.5810   105.9010    21.0120    19.4660   -85.7180    10.4070   -44.1180     0.0130     2.6960     0.1590
 4968.0000   -13.5810   103.7370    22.0520    20.5120   -85.6890    10.4070   -44.1180     0.0150     2.6890     0.1550
 4968.5000   -10.4020   101.5690    22.7710    20.7420   -85.6590    10.4070   -44.1180     0.0190     2.6880     0.1560
 4969.0000    -5.1910    99.9740    23.3040    20.9720   -85.6290    10.4070   -44.1180     0.0160     2.6910     0.1560
 4969.5000     0.0200   100.3270    22.7530    21.0460   -85.5990    10.4070   -44.1180     0.0130     2.6930     0.1570
 4970.0000     5.2310   101.0940    22.1210    21.0460   -85.5700    10.4070   -44.1180     0.0120     2.6950     0.1580
 4970.5000     4.7650   100.0340    20.6800    19.5380   -85.4090    10.4070   -44.1180     0.0120     2.6970     0.1610
 4971.0000     2.3960    99.1480    18.5940    17.5250   -85.1490    10.4070   -44.1180     0.0130     2.6960     0.1650
 4971.5000     0.0270   100.8950    17.7500    15.5120   -84.8870    10.4070   -44.1180     0.0140     2.6900     0.1690
 4972.0000    -2.3410   103.5870    17.6510    14.9110   -84.6230    10.4070   -48.1370     0.0150     2.6860     0.1740
 4972.5000    -5.0600   106.3250    17.5510    14.6630   -84.3560    10.4070   -60.5390     0.0180     2.6890     0.1780
 4973.0000    -8.1250   106.9070    17.4860    15.2990   -84.3410    10.4070   -72.9410     0.0230     2.6980     0.1800
 4973.5000   -11.1910   106.6050    18.2010    15.7850   -84.3440    10.4070   -83.3330     0.0270     2.7060     0.1760
 4974.0000   -14.7280   104.7510    18.7340    16.2720   -84.3940    10.4070   -82.6240     0.0250     2.7140     0.1730
 4974.5000   -19.9400   104.2110    19.2660    16.7470   -84.5180    10.4070   -80.7160     0.0210     2.7100     0.1700
 4975.0000   -21.1270   104.7780    20.0950    17.1650   -84.6400    10.4070   -78.8080     0.0180     2.7050     0.1680
 4975.5000   -13.5810   106.1580    21.2400    18.1340   -84.7720    10.4070   -76.9000     0.0140     2.6990     0.1660
 4976.0000   -13.5810   105.4370    22.3850    19.0180   -84.9380    10.4070   -74.9920     0.0110     2.6920     0.1610
 4976.5000   -13.5810   102.4890    23.5210    19.7240   -85.1070    10.4070   -73.0840     0.0070     2.6830     0.1550
 4977.0000   -13.5810   100.8240    23.5210    19.9650   -85.2760    10.4070   -71.1760     0.0040     2.6790     0.1520
 4977.5000   -13.5810   101.5920    23.5210    20.0930   -85.4460    10.4070   -69.2680     0.0040     2.6840     0.1540
 4978.0000   -18.0840   103.6410    23.5210    19.9650   -85.6140    10.4070   -67.3600     0.0040     2.6870     0.1580
 4978.5000   -22.5500   105.9380    23.2660    19.7720   -85.7400    10.4070   -65.4520     0.0040     2.6820     0.1620
 4979.0000   -15.1050   108.2660    22.7880    19.3740   -85.5840    10.4070   -63.7250     0.0040     2.6770     0.1630
 4979.5000   -13.5810   110.4430    22.3100    18.9760   -85.4300    10.4070   -63.7250     0.0040     2.6720     0.1650
 4980.0000   -13.5810   109.7870    21.4450    18.1590   -85.2770    10.4070   -63.7250     0.0040     2.6710     0.1660
 4980.5000   -13.5810   106.4070    20.0950    17.1040   -85.1250    10.4070   -63.7250     0.0040     2.6760     0.1690
 4981.0000   -13.5810   106.0470    18.6570    16.3040   -84.9720    10.4070   -63.7250     0.0040     2.6810     0.1720
 4981.5000   -13.5810   106.4900    18.7410    16.0550   -84.8200    10.4070   -63.7250     0.0060     2.6850     0.1750
 4982.0000   -13.5810   109.4310    18.8310    15.9380   -84.6670    10.4070   -63.7250     0.0090     2.6930     0.1760
 4982.5000   -13.5810   110.4800    20.1460    17.0420   -84.5140    10.4070   -63.7250     0.0110     2.6950     0.1690
 4983.0000   -13.5810   109.5470    21.4550    18.5460   -84.3630    10.4070   -63.7250     0.0120     2.6940     0.1630
 4983.5000   -13.5810   105.2040    22.8760    20.0510   -84.3130    10.4070   -63.7250     0.0120     2.6940     0.1570
 4984.0000   -13.5810   100.8780    24.8660    21.2420   -84.2800    10.4070   -63.7250     0.0120     2.7000     0.1520
 4984.5000   -13.5810   100.3440    23.9820    21.2420   -84.2460    10.4070   -56.7320     0.0120     2.7050     0.1530
 4985.0000    -1.5090   101.4170    22.8150    20.2650   -84.2120    10.4070   -40.1960     0.0120     2.7030     0.1590
 4985.5000    26.6600   104.6960    21.6470    18.5980   -84.1800    10.4070   -23.6600     0.0130     2.7010     0.1650
 4986.0000    46.7810   107.8740    20.4800    17.4890   -84.1530    10.4070    -4.9020     0.0180     2.7000     0.1700
 4986.5000    -3.6550   110.1840    19.9080    17.3240   -83.8820    10.4070   -40.6860     0.0210     2.7000     0.1720
 4987.0000   -42.8570   108.1610    20.3480    17.8350   -83.5910    10.4070   -82.0260     0.0260     2.7050     0.1660
 4987.5000   -68.9130   105.5620    21.9630    18.8310   -83.3010    10.4070  -102.9410     0.0280     2.7070     0.1590
 4988.0000   -58.1740   102.9200    23.5210    20.4690   -83.1460    10.4070  -102.9410     0.0280     2.7090     0.1520
 4988.5000   -46.9820   101.8100    25.6430    21.8320   -83.1870    10.4070  -102.9410     0.0270     2.7130     0.1440
 4989.0000   -59.2440   101.4230    27.6940    23.1490   -83.2250    10.4070  -102.9410     0.0270     2.7170     0.1360
 4989.5000   -71.5060    99.2960    29.7450    24.8620   -83.2640    10.4070  -102.9410     0.0190     2.7180     0.1270
 4990.0000   -84.0040    93.2710    31.7950    27.5420   -83.3030    10.4070  -102.9410     0.0110     2.7150     0.1170
 4990.5000   -25.5530    87.3050    38.7150    31.6230   -83.3410    10.4070   -83.3330     0.0080     2.7120     0.1060
 4991.0000    -3.5210    83.4920    43.9360    35.2290   -83.3800    10.4070   -56.9280     0.0090     2.7100     0.0990
 4991.5000   -13.7490    80.1640    45.4120    37.0370   -83.4190    10.4070   -73.4640     0.0110     2.7090     0.0980
 4992.0000   -35.4630    79.8160    44.8390    36.5780   -83.4580    10.4070   -90.0000     0.0120     2.7080     0.0950
 4992.5000   -54.9730    80.0400    44.0200    35.9460   -83.4980    10.4070  -102.9410     0.0130     2.7050     0.0970
 4993.0000   -62.4170    79.5800    43.3560    35.3600   -83.5300    10.4070  -102.9410     0.0140     2.6980     0.0980
 4993.5000   -47.1540    78.2630    43.4800    35.5880   -83.3880    10.4070   -71.3730     0.0160     2.6910     0.1000
 4994.0000   -17.3760    77.5070    43.5850    36.0630   -83.2370    10.4070   -21.7650     0.0140     2.6830     0.1000
 4994.5000    -3.6550    76.7260    43.6890    36.6950   -83.0870    10.4070   -31.0980     0.0120     2.6900     0.0990
 4995.0000   -38.3970    75.7870    43.7590    36.5060   -82.9380    10.4070   -70.7840     0.0110     2.6960     0.0980
 4995.5000   -50.6040    76.0240    42.8240    36.2980   -82.7880    10.4070   -85.0290     0.0090     2.6930     0.0960
 4996.0000   -44.8130    78.4900    42.1200    36.0890   -82.6390    10.4070   -87.5100     0.0070     2.6870     0.0950
 4996.5000   -48.0280    79.8030    41.4160    35.8810   -82.5230    10.4070   -89.9900     0.0060     2.6820     0.0930
 4997.0000   -53.2390    77.8340    40.7120    35.6890   -82.5250    10.4070   -92.4710     0.0040     2.6810     0.0920
 4997.5000   -58.4510    76.1110    38.0570    33.7420   -82.5230    10.4080   -94.9510     0.0070     2.6780     0.0950
 4998.0000   -63.6620    79.6750    35.0340    30.8790   -82.6290    10.4090   -97.4310     0.0100     2.6740     0.0990
 4998.5000   -68.8730    85.5010    32.9200    29.1010   -82.7690    10.4110   -99.9120     0.0100     2.6750     0.1090
