~VERSION INFORMATION
 VERS.                2.0:   CWLS LOG ASCII STANDARD - VERSION 2.0
 WRAP.                 NO:   ONE LINE PER DEPTH STEP
~WELL INFORMATION
#MNEM.UNIT      DATA TYPE    INFORMATION
#----------   ------------   ------------------------------
 STRT.F           20.0000:   START DEPTH
 STOP.F         4128.0000:   STOP DEPTH
 STEP.F            0.5000:   STEP LENGTH
 NULL.          -999.2500:   NO VALUE
 COMP. LAWRENCE-ALLISON & ASSOCIATES:   COMPANY
 WELL. LAWRENCE "X" #53-3:   WELL
 FLD .             NPR #3:   FIELD
 LOC .       S3 T38N R78W:   LOCATION
 CNTY.            NATRONA:   COUNTY
 STAT.            WYOMING:   STATE
 CTRY. UNITED STATES OF AMERICA:   COUNTRY
 SRVC.      DRESSER ATLAS:   SERVICE COMPANY
 DATE.        18-SEP-1983:   LOGDATE
 API .     49025109370000:   API NUMBER
~CURVE INFORMATION
#MNEM.UNIT       API CODE    CURVE DESCRIPTION
#----------   ------------   ------------------------------
 DEPT.F                  :   
 NPHI.DEC    42 890 03 00:   NEUTRON POROSITY SANDSTONE
 TEND.LBS    45 635 01 00:   TENSION FORM DENSITY LOG
 CORR.G/C3   45 356 01 00:   DENSITY CORRECTION
 RHOB.G/C3   45 350 01 00:   BULK DENSITY
 CALD.IN     45 280 60 00:   CALIPER FROM DENSITY LOG
 GRR .GAPI   07 310 01 00:   GAMMA RAY FROM RESISTIVITY
 TENR.LBS    06 635 01 00:   TENSION FROM RESISTIVITY
 SPR .MV     07 010 01 00:   SPONTANEOUS POTENTIAL
 RILD.OHMM   07 120 46 00:   DEEP INDUCTION RESISTIVITY
 RILM.OHMM   07 120 44 00:   INDUCTION LOG MEDIUM RESISTIVITY
 RSFL.OHMM   07 220 01 00:   SPHERICALLY FOCUSED RESISTIVITY
 TENS.LBS    60 635 01 00:   TENSION FROM SONIC
 DT  .US/F   60 520 00 00:   DELTA TIME
~PARAMETER INFORMATION
#MNEM.UNIT          VALUE    DESCRIPTION
#----------   ------------   ------------------------------
 EKB .F         5214.0000:   Kelly bushing
 EGL .F         5204.0000:   Ground level
 EDF .F            0.0000:   Drilling floor
 TD  .F         4117.0000:   Total depth
 CLNT.            A2DTECH:   Client Code
 PD  .                 GL:   Permanent Datum
 EPD .F              5204:   Elevation Permanent Datum
 LMF .                 KB:   Log Measured From
 DMF .                 KB:   Drilling Measured From
 DAPD.F                10:   Feet Above Permanent Datum
 DATE.        18-SEP-1983:   Date Logged [DD-MMM-YYYY]
 DD  .F              4117:   Depth driller
 DL  .F              4113:   Depth logger
 BLI .F              4110:   Bottom log interval
 TLI .F                 0:   Top log interval
 CS1 .IN            9.625:   Casing size
 CBD1.      9.625" @ 523':   Casing driller 1
 CBL1.F               523:   Casing logger 1
 BS1 .IN            7.875:   Bit size
 BSD1.F              4117:   Depth drilled with bit1
 DFT .            GEL KCL:   Type fluid in hole
 DFD .                9.0:   Density
 DFV .                 42:   Viscosity
 DFPH.                8.5:   pH
 DFL .                 10:   Fluid loss
 MSS .               TANK:   Source of sample
 RMS .OHMM           0.35:   Rm
 MST .F                68:   Rm Meas. temp.
 RMF .OHMM          0.266:   Rmf
 MFST.F                68:   Rmf Meas. temp.
 MFSS.               MEAS:   Source Rmf.
 RMC .OHMM          0.443:   Rmc
 MCST.F                68:   Rmc Meas. temp.
 MCSS.               CALC:   Source Rmc.
 RMB .OHMM          0.185:   Rm. at BHT
 BHT .F               130:   BHT.
 TCS .HRS               4:   Time Circ. stopped
 MRT .F               130:   Maximum recorded temp.
 LUN .               6270:   Logging unit number
 LUL .              WLSTN:   Logging unit location
 ENGI.             REEVES:   Recorded By
 WITN.             STRONG:   Witnessed by
 ORIG.           5" PRINT:   Origin of data
 UWI .     49025109370000:   Unique Well ID
 DICO. A2D TECHNOLOGIES, INC.:   Digitizing Company
~OTHER INFORMATION
~A   DEPT     NPHI       TEND       CORR       RHOB       CALD         GRR      TENR        SPR       RILD       RILM       RSFL       TENS         DT   
# ...
  982.0000     0.2610   -55.6004     0.0179     2.5008    10.2011   108.1684   -83.7314   -76.9190     7.6841     7.7791     7.6983  -999.2500  -999.2500
  982.5000     0.2607   -55.4246     0.0103     2.5045    10.2001   110.8813   -83.3160   -77.3642     7.6810     7.8327     7.6409  -999.2500  -999.2500
  983.0000     0.2592   -55.2790     0.0027     2.5090    10.1989   117.2359   -82.9006   -77.6616     7.6560     7.8294     7.5540  -999.2500  -999.2500
  983.5000     0.2586   -58.9141    -0.0033     2.5150    10.1980   120.2527   -82.4851   -77.9589     7.6207     7.8834     7.5273  -999.2500  -999.2500
  984.0000     0.2550   -58.7383     0.0118     2.5202    10.1824   123.2695   -82.0697   -78.2568     7.6179     7.8912     7.5254  -999.2500  -999.2500
  984.5000     0.2535   -58.5976     0.0269     2.5247    10.1812   125.4082   -81.6542   -78.2596     7.6148     7.9918     7.5902  -999.2500  -999.2500
  985.0000     0.2538   -62.2277     0.0404     2.5246    10.1802   126.5619   -81.5430   -78.2624     7.6122     8.0466     7.6341  -999.2500  -999.2500
  985.5000     0.2529   -62.0520     0.0344     2.5202    10.1793   126.8489   -81.5430   -78.1178     7.6096     8.1334     7.7493  -999.2500  -999.2500
  986.0000     0.2499   -61.9113     0.0268     2.5201    10.1783   126.5166   -81.5430   -77.5322     7.7175     8.2170     7.9060  -999.2500  -999.2500
  986.5000     0.2451   -65.5414     0.0129     2.5240    10.1920   127.0961   -81.5430   -77.3870     7.7707     8.2135     8.0186  -999.2500  -999.2500
  987.0000     0.2406   -65.3656    -0.0004     2.5269    10.1908   127.6813   -81.5430   -77.5377     7.8803     8.2708     8.1049  -999.2500  -999.2500
  987.5000     0.2370   -61.4542     0.0011     2.5283    10.1899   127.6586   -81.5430   -77.3809     7.9920     8.3566     8.2488  -999.2500  -999.2500
  988.0000     0.2342   -53.6207     0.0026     2.5261    10.2036   127.2582   -81.5430   -76.8075     8.1758     8.5053     8.4872  -999.2500  -999.2500
  988.5000     0.2346   -42.2841     0.0011     2.5230    10.2024   124.5681   -81.5430   -76.5157     8.5221     8.6881     8.7331  -999.2500  -999.2500
  989.0000     0.2397   -34.6020    -0.0019     2.5253    10.2014   118.7703   -81.5430   -76.2239     8.7047     8.8749     8.9216  -999.2500  -999.2500
  989.5000     0.2496   -30.6906    -0.0035     2.5275    10.2003   115.1002   -81.5430   -75.7855     8.8641     9.1312     9.3126  -999.2500  -999.2500
  990.0000     0.2571   -22.9734    -0.0052     2.5252    10.2140   109.2968   -81.5430   -75.6403     9.0236     9.4628     9.4460  -999.2500  -999.2500
  990.5000     0.2514   -26.6386    -0.0065     2.5214    10.2130   107.1464   -81.5430   -76.2329     9.4129     9.6654     9.6492  -999.2500  -999.2500
  991.0000     0.2454   -30.2687    -0.0065     2.5222    10.2118   105.6040   -81.5430   -76.8247     9.6155     9.7328     9.7868  -999.2500  -999.2500
  991.5000     0.2399   -30.0905    -0.0035     2.5214    10.2110   106.2269   -81.5430   -76.9754     9.8232     9.7998    10.0054  -999.2500  -999.2500
  992.0000     0.2344   -33.7231    -0.0020     2.5184    10.2248   107.0727   -81.5430   -76.8302     9.9617     9.8665    10.2138  -999.2500  -999.2500
  992.5000     0.2270   -37.3532     0.0025     2.5116    10.2236   106.4421   -81.5430   -76.8337    10.1029    10.0062    10.5090  -999.2500  -999.2500
  993.0000     0.2210   -37.1774     0.0055     2.5055    10.2224   104.8996   -81.5430   -76.8365    10.1927    10.1471    10.5063  -999.2500  -999.2500
  993.5000     0.2105   -44.5431     0.0085     2.5018    10.2215   103.0476   -81.5430   -76.9872    10.2427    10.1437    10.2790  -999.2500  -999.2500
  994.0000     0.2036   -44.4024     0.0070     2.5040    10.2205   104.8486   -81.5430   -77.2845    10.3125    10.2135    10.2020  -999.2500  -999.2500
  994.5000     0.2009   -48.0325    -0.0066     2.5085    10.2193   109.9931   -81.5430   -77.7290    10.2340    10.2092    10.0539  -999.2500  -999.2500
  995.0000     0.2069   -44.1176    -0.0281     2.5130    10.2037   111.2258   -81.5430   -78.0270    10.2310    10.2062    10.1236  -999.2500  -999.2500
  995.5000     0.2204   -43.9454    -0.0474     2.5167    10.2028   108.7262   -81.5430   -78.0298    10.1538    10.2025    10.1942  -999.2500  -999.2500
  996.0000     0.2405   -43.8047    -0.0504     2.5250    10.1869   102.6245   -81.5430   -77.8846    10.0772    10.1987    10.2646  -999.2500  -999.2500
  996.5000     0.2384   -43.6641    -0.0097     2.5302    10.1860    99.8662   -81.5430   -77.8881    10.0730    10.1952    10.3362  -999.2500  -999.2500
  997.0000     0.2279   -43.4883     0.0370     2.5294    10.1703   100.7497   -81.5430   -77.7435     9.9976    10.1183    10.3335  -999.2500  -999.2500
  997.5000     0.2191   -47.1536     0.0310     2.5256    10.1694   102.2468   -81.5430   -77.5990     9.9222    10.1147    10.2568  -999.2500  -999.2500
  998.0000     0.2153   -46.9778     0.0159     2.5264    10.1682   103.1416   -81.5430   -77.4551     9.9181    10.1109    10.1805  -999.2500  -999.2500
  998.5000     0.2255   -50.6079     0.0038     2.5278    10.1672   102.8085   -81.5430   -77.0168     9.8437    10.1074    10.1663  -999.2500  -999.2500
  999.0000     0.2366   -50.4321     0.0068     2.5233    10.1663   103.6928   -81.5430   -76.8716     9.7691    10.1038    10.1017  -999.2500  -999.2500
  999.5000     0.2454   -50.2915     0.0038     2.5165    10.1800   104.2837   -81.5430   -76.8750     9.7177    10.0276    10.0266  -999.2500  -999.2500
 1000.0000     0.2444   -53.9216    -0.0038     2.5149    10.1937   106.3830   -81.5430   -76.7305     9.6924    10.0238     9.9479  -999.2500  -999.2500
 1000.5000     0.2421   -53.7458    -0.0716     2.5188    10.2000   106.0480   -81.5430   -76.2998     9.7640    10.0204     9.9277  -999.2500  -999.2500
 1001.0000     0.2396   -57.3759    -0.0776     2.5240    10.2052   103.8846   -81.5430   -76.0191     9.8356    10.0168     9.9074  -999.2500  -999.2500
 1001.5000     0.2345   -57.2352    -0.0505     2.5263    10.2053   102.9442   -81.5430   -75.8829     9.9072    10.0127     9.8871  -999.2500  -999.2500
 1002.0000     0.2285   -57.0595    -0.0225     2.5240    10.2052   101.6997   -81.5430   -76.0413     9.9485     9.9378     9.8668  -999.2500  -999.2500
 1002.5000     0.2251   -57.0379     0.0084     2.5188    10.2052   101.0632   -81.5430   -76.2025     9.9400     9.9341     9.8482  -999.2500  -999.2500
 1003.0000     0.2276   -57.1821     0.0144     2.5188    10.2052   101.3314   -81.5430   -76.3608     9.9316     9.9301     9.9133  -999.2500  -999.2500
 1003.5000     0.2315   -57.3264    -0.0022     2.5255    10.2052   103.4305   -81.5430   -76.6665     9.8536     9.9090     9.9058  -999.2500  -999.2500
 1004.0000     0.2324   -61.1603    -0.0097     2.5323    10.2052   105.2256   -81.5430   -76.8249     9.8469     9.7812     9.8287  -999.2500  -999.2500
 1004.5000     0.2261   -61.1162    -0.0082     2.5383    10.2052   106.7167   -81.5430   -77.1333     9.7696     9.7358     9.7522  -999.2500  -999.2500
 1005.0000     0.2228   -61.0810    -0.0112     2.5351    10.2052   106.3770   -81.5430   -77.4390     9.7613     9.6683     9.7463  -999.2500  -999.2500
 1005.5000     0.2231   -57.2750    -0.0142     2.5225    10.2052   105.1326   -81.5430   -77.4501     9.7547     9.6312     9.7389  -999.2500  -999.2500
 1006.0000     0.2279   -53.4690    -0.0051     2.5195    10.2052   102.6724   -81.5430   -77.6085     9.6781     9.6277     9.6631  -999.2500  -999.2500
 1006.5000     0.2411   -45.8834     0.0085     2.5360    10.2052   101.1240   -81.5430   -77.9169     9.6714     9.6241     9.6576  -999.2500  -999.2500
 1007.0000     0.2396   -42.0774     0.0236     2.5495    10.2042   100.7843   -81.5430   -78.5171     9.6633     9.6208     9.6514  -999.2500  -999.2500
 1007.5000     0.2408   -38.2714     0.0432     2.5443    10.2031   101.0668   -81.5430   -78.6755     9.6773     9.6110     9.5759  -999.2500  -999.2500
