~VERSION INFORMATION
 VERS.                2.0:   CWLS LOG ASCII STANDARD - VERSION 2.0
 WRAP.                 NO:   ONE LINE PER DEPTH STEP
~WELL INFORMATION
#MNEM.UNIT      DATA TYPE    INFORMATION
#----------   ------------   ------------------------------
 STRT.F          720.0000:   START DEPTH
 STOP.F         3416.0000:   STOP DEPTH
 STEP.F            0.5000:   STEP LENGTH
 NULL.          -999.2500:   NO VALUE
 COMP.    FENIX & SCISSON:   COMPANY
 WELL.  FENIX "AX" #31-14:   WELL
 FLD .                NPR:   FIELD
 LOC .      S14 T38N R78W:   LOCATION
 CNTY.            NATRONA:   COUNTY
 STAT.            WYOMING:   STATE
 CTRY. UNITED STATES OF AMERICA:   COUNTRY
 SRVC.       SCHLUMBERGER:   SERVICE COMPANY
 DATE.        04-JUN-1981:   LOGDATE
 API .     49025108730000:   API NUMBER
~CURVE INFORMATION
#MNEM.UNIT       API CODE    CURVE DESCRIPTION
#----------   ------------   ------------------------------
 DEPT.F                  :   
 TEND.LBS    45 635 01 00:   TENSION FROM DENSITY LOG
 CORR.G/C3   45 356 01 00:   DENSITY CORRECTION
 RHOB.G/C3   45 350 01 00:   BULK DENSITY
 CALD.IN     45 280 60 00:   CALIPER FROM DENSITY LOG
 GRD .GAPI   45 310 01 00:   GAMMA RAY FROM DENSITY LOG
 SPR .MV     07 010 01 00:   SPONTANEOUS POTENTIAL
 SFL .OHMM   07 220 01 00:   SHALLOW FOCUSED LOG RESISTIVITY
 ILD .OHMM   07 120 46 00:   INDUCTION LOG DEEP RESISTIVITY
 ILM .OHMM   07 120 44 00:   INDUCTION LOG MEDIUM RESISTIVITY
 TENR.LBS    07 635 01 00:   TENSION FROM RESISTIVITY
~PARAMETER INFORMATION
#MNEM.UNIT          VALUE    DESCRIPTION
#----------   ------------   ------------------------------
 EKB .F         5196.0000:   Kelly bushing
 EGL .F         5186.0000:   Ground level
 EDF .F            0.0000:   Drilling floor
 TD  .F         3402.0000:   Total depth
 DATE.        04-JUN-1981:   Date logged
 CLNT.            A2DTECH:   Client Code
 SL  . 377' FWL & 1733' FWL:   Surface Location
 PD  .                 GL:   Permanent Datum
 DD  .F              3400:   Depth driller
 DL  .F              3402:   Depth logger
 BLI .F              3395:   Bottom log interval
 TLI .F               720:   Top log interval
 CS1 .IN            8.625:   Casing size
 CBD1.      8.625" @ 707':   Casing driller 1
 CBL1.F               751:   Casing logger 1
 BS1 .IN            7.875:   Bit size
 BSD1.F              3400:   Depth drilled with bit1
 DFT .                FGM:   Type fluid in hole
 DFD .                8.8:   Density
 DFV .                 55:   Viscosity
 DFPH.                9.5:   pH
 DFL .                  9:   Fluid loss
 MSS .           MUD TANK:   Source of sample
 RMS .OHMM            1.7:   Rm
 MST .F                78:   Rm Meas. temp.
 RMF .OHMM           1.45:   Rmf
 MFST.F                78:   Rmf Meas. temp.
 MFSS.               MEAS:   Source Rmf.
 RMB .OHMM           1.12:   Rm. at BHT
 BHT .F               118:   BHT.
 TCS .HRS            1200:   Time Circ. stopped
 TLAB.HRS            1600:   Time logger at bottom
 MRT .F               118:   Maximum recorded temp.
 LUN .               8043:   Logging unit number
 LUL .             CASPER:   Logging unit location
 ENGI.             LARSON:   Recorded By
 WITN.              FIVAS:   Witnessed by
 ORIG.      2.5" 5" PRINT:   Origin of data
 UWI .     49025108730000:   Unique Well ID
 DICO. A2D TECHNOLOGIES, INC.:   Digitizing Company
 EPD .               5186:   Elevation Permanent Datum
 LMF .                 KB:   Log Measured From
 DMF .                 KB:   Drilling Measured From
 DAPD.                 10:   Feet Above Permanent Datum
~OTHER INFORMATION
~A   DEPT     TEND       CORR       RHOB       CALD         GRD       SPR        SFL        ILD        ILM       TENR   
# ...
 1792.0000  1175.5990     0.0010     2.5510     8.4600    91.4020   -11.2260     8.9670     7.4320     6.9500  1227.5031
 1792.5000  1176.1340    -0.0020     2.5540     8.4600    90.5190   -11.3230     8.7570     7.2760     6.9730  1228.0330
 1793.0000  1176.6689    -0.0050     2.5460     8.4600    91.8760   -11.4290     8.3570     7.3040     6.9970  1228.5630
 1793.5000  1177.2040    -0.0040     2.5380     8.4600    93.3370   -11.5400     8.1600     7.3060     7.0200  1229.0940
 1794.0000  1177.7390     0.0000     2.5370     8.4600    94.5690   -11.6350     8.5310     7.3240     7.0440  1229.6240
 1794.5000  1178.2740     0.0010     2.5440     8.4600    93.7900   -11.7590     8.8000     7.3390     7.0670  1230.1550
 1795.0000  1178.8090     0.0010     2.5500     8.4600    93.3390   -11.8580     8.5250     7.3510     7.0900  1230.6851
 1795.5000  1179.3440     0.0000     2.5330     8.4600    94.3240   -11.9200     8.3150     7.3650     7.1140  1231.2159
 1796.0000  1179.8790    -0.0010     2.5270     8.4600    95.9470   -12.4110     8.3150     7.3790     7.1480  1231.7460
 1796.5000  1180.4139     0.0010     2.5370     8.4600    97.0240   -12.4760     8.3150     7.3920     7.1380  1232.2770
 1797.0000  1180.9490     0.0030     2.5450     8.4600    98.1270   -11.9180     8.4620     7.4070     7.1060  1232.8070
 1797.5000  1181.4840     0.0030     2.5360     8.4600    99.2300   -11.8630     8.6870     7.4250     7.0760  1233.3380
 1798.0000  1182.0190    -0.0010     2.5280     8.4600    98.1980   -11.7480     8.9120     7.3930     7.0460  1233.8680
 1798.5000  1182.5540    -0.0040     2.5230     8.4600    97.0060   -11.6230     9.1370     7.3410     7.0160  1234.3990
 1799.0000  1183.0890    -0.0030     2.5410     8.4600    96.8120   -11.5210     9.3120     7.2890     6.9860  1234.9290
 1799.5000  1183.6240     0.0000     2.5510     8.4600    97.7190   -11.4040     9.3120     7.2370     6.9550  1235.4590
 1800.0000  1184.2111     0.0000     2.5460     8.4600    98.1240   -11.2930     8.7360     7.1850     6.9250  1235.9900
 1800.5000  1184.7190    -0.0020     2.5390     8.4600    96.6400   -11.1810     8.1600     7.1330     6.8950  1236.5200
 1801.0000  1185.2810    -0.0030     2.5390     8.4600    95.2160   -11.0670     8.1600     7.0810     6.8650  1237.0510
 1801.5000  1185.8430    -0.0010     2.5430     8.4600    94.2590   -10.9580     8.1600     7.0290     6.8350  1237.5811
 1802.0000  1186.4050     0.0000     2.5400     8.4600    96.5760   -10.8450     8.1600     6.9780     6.8050  1238.1121
 1802.5000  1186.9670    -0.0030     2.5340     8.4600   100.2630   -10.8840     7.8340     6.9260     6.7750  1238.6420
 1803.0000  1187.5291    -0.0070     2.5280     8.4600   104.1060   -10.9790     7.7110     6.8740     6.7450  1239.1730
 1803.5000  1188.0909    -0.0070     2.5310     8.4600   105.3640   -11.0720     7.8510     6.8220     6.7140  1239.7030
 1804.0000  1188.6530     0.0020     2.5470     8.4600   101.6050   -11.1630     8.0390     6.7590     6.6840  1240.2340
 1804.5000  1189.2150     0.0120     2.5630     8.4600    96.9520   -11.2550     8.2260     6.7630     6.6540  1240.7640
 1805.0000  1189.7770     0.0200     2.5730     8.4600    94.6750   -11.3470     8.3150     6.7720     6.6240  1241.2939
 1805.5000  1190.3390     0.0160     2.5690     8.4600    93.7340   -11.4390     8.2480     6.7810     6.5940  1241.8250
 1806.0000  1190.9010     0.0080     2.5530     8.4600    94.4030   -11.5310     8.0340     6.7900     6.5640  1242.3550
 1806.5000  1191.4640     0.0010     2.5360     8.4600    96.2090   -11.6220     7.8200     6.7990     6.5340  1242.8860
 1807.0000  1192.0260     0.0000     2.5300     8.4600    98.1720   -11.7150     7.7110     6.8080     6.5060  1243.4160
 1807.5000  1192.5880     0.0000     2.5300     8.4600    97.8010   -11.8070     7.9830     6.8170     6.5060  1243.9470
 1808.0000  1193.1500     0.0020     2.5300     8.4600    96.4180   -11.8970     8.3150     6.8260     6.5060  1244.4771
 1808.5000  1193.7120     0.0040     2.5360     8.4590    95.0050   -11.9980     8.2820     6.8350     6.5060  1245.0081
 1809.0000  1194.2740     0.0020     2.5430     8.4590    94.5050   -12.0130     8.1560     6.8440     6.5060  1245.5380
 1809.5000  1194.8361     0.0000     2.5510     8.4580    94.4820   -11.9290     8.0300     6.8530     6.5060  1246.0690
 1810.0000  1195.3979     0.0010     2.5550     8.4570    95.7210   -11.8560     7.8580     6.8610     6.5060  1246.5990
 1810.5000  1195.9600     0.0020     2.5570     8.4570    97.9740   -11.7820     7.8870     6.8700     6.5060  1247.1300
 1811.0000  1196.5220     0.0050     2.5670     8.4560    98.3300   -11.7060     7.9340     6.8790     6.5060  1247.6600
 1811.5000  1197.0840     0.0130     2.5760     8.4560   100.6290   -11.6320     7.9800     6.8880     6.5060  1248.1899
 1812.0000  1197.6460     0.0130     2.5670     8.4550   103.9260   -11.5570     8.0070     6.8970     6.5060  1248.7209
 1812.5000  1198.2080     0.0080     2.5480     8.4550   106.8150   -11.4810     7.8960     6.9060     6.5060  1249.2510
 1813.0000  1198.7700     0.0040     2.5410     8.4540   106.8110   -11.4060     7.7110     6.9150     6.5070  1249.7820
 1813.5000  1199.3320     0.0080     2.5490     8.4530   102.6330   -11.3330     7.7110     6.9240     6.5070  1250.3120
 1814.0000  1199.8940     0.0120     2.5600     8.4530    98.3030   -11.2540     7.7660     6.9330     6.4780  1250.8430
 1814.5000  1200.4570     0.0130     2.5640     8.4520    97.9400   -11.2230     7.9140     6.9420     6.4020  1251.3730
 1815.0000  1201.0190     0.0090     2.5680     8.4520    99.3040   -11.2310     8.0070     6.9510     6.3810  1251.9041
 1815.5000  1201.5811     0.0060     2.5710     8.4510   100.4710   -11.3420     8.0070     6.9600     6.3890  1252.4340
 1816.0000  1202.1429     0.0020     2.5620     8.4510    98.6070   -11.4610     7.8580     6.9690     6.4770  1252.9650
 1816.5000  1202.7050    -0.0010     2.5440     8.4500    95.9440   -11.5850     7.8580     6.9780     6.5440  1253.4950
 1817.0000  1203.2670     0.0010     2.5440     8.4490    95.7770   -11.7050     7.9300     6.9870     6.6190  1254.0250
 1817.5000  1203.8290     0.0040     2.5460     8.4490    96.9220   -11.8270     8.1480     6.9960     6.7670  1254.5560
 1818.0000  1204.3910     0.0070     2.5460     8.4480    98.1840   -11.9490     8.3660     7.0050     6.7480  1255.0861
 1818.5000  1204.9530     0.0010     2.5330     8.4480    98.8610   -12.0680     8.6350     7.0120     6.7620  1255.6169
 1819.0000  1205.5150    -0.0080     2.5220     8.4470    99.8450   -12.1940     8.8000     7.0330     6.7570  1256.1470
 1819.5000  1206.0770    -0.0100     2.5210     8.4470   101.0530   -12.3090     8.8000     7.0620     6.7570  1256.6780
 1820.0000  1206.6390    -0.0090     2.5220     8.4460   101.9040   -12.4370     8.8000     7.0890     6.7570  1257.2080
 1820.5000  1207.2010     0.0010     2.5280     8.4450    99.1580   -12.3920     8.8000     7.1150     6.7570  1257.7390
 1821.0000  1207.7629     0.0000     2.5370     8.4450    95.3400   -12.3320     8.7380     7.1420     6.7570  1258.2690
 1821.5000  1208.3250     0.0080     2.5530     8.4440    93.9280   -12.2640     8.5040     7.1690     6.7570  1258.8000
 1822.0000  1208.8879     0.0210     2.5690     8.4440    95.3370   -12.2050     8.2700     7.1960     6.7570  1259.3300
 1822.5000  1209.4500     0.0280     2.5820     8.4430    97.6260   -12.1400     8.0370     7.2230     6.7560  1259.8610
 1823.0000  1210.0120     0.0190     2.5750     8.4430    99.7920   -12.0690     7.8580     7.2500     6.7560  1260.3910
 1823.5000  1210.5740     0.0100     2.5620     8.4420    99.9590   -12.0990     8.0930     7.2860     6.7570  1260.9210
 1824.0000  1211.1360     0.0010     2.5490     8.4410    97.7610   -12.2370     8.4740     7.2800     6.7570  1261.4520
 1824.5000  1211.6980    -0.0020     2.5370     8.4410    95.6350   -12.4240     8.6730     7.2510     6.7480  1261.9821
 1825.0000  1212.2600    -0.0030     2.5390     8.4400    94.7270   -12.1330     8.9670     7.2220     6.7250  1262.5129
