~VERSION INFORMATION
 VERS.                2.0:   CWLS LOG ASCII STANDARD - VERSION 2.0
 WRAP.                 NO:   ONE LINE PER DEPTH STEP
~WELL INFORMATION
#MNEM.UNIT      DATA TYPE    INFORMATION
#----------   ------------   ------------------------------
 STRT.F            0.0000:   START DEPTH
 STOP.F         4022.0000:   STOP DEPTH
 STEP.F            0.5000:   STEP LENGTH
 NULL.          -999.2500:   NO VALUE
 COMP. LAWRENCE - ALLISON:   COMPANY
 WELL. LAWRENCE NPR 3 "MX" #58-10:   WELL
 FLD .                MPR:   FIELD
 LOC .      S10 T38N R78W:   LOCATION
 CNTY.            NATRONA:   COUNTY
 STAT.            WYOMING:   STATE
 CTRY. UNITED STATES OF AMERICA:   COUNTRY
 SRVC.      DRESSER ATLAS:   SERVICE COMPANY
 DATE.        12-FEB-1984:   LOGDATE
 API .     49025109610000:   API NUMBER
~CURVE INFORMATION
#MNEM.UNIT       API CODE    CURVE DESCRIPTION
#----------   ------------   ------------------------------
 DEPT.F                  :   
 GRR .GAPI   07 310 01 00:   GAMMA RAY FROM RESISTIVITY
 SPR .MV     07 010 01 00:   SPONTANEOUS POTENTIAL
 TENR.LBS    07 635 01 00:   TENSION FROM RESISTIVITY
 ILD .OHMM   07 120 46 00:   DEEP INDUCTION RESISTIVITY
 ILM .OHMM   07 120 44 00:   INDUCTION LOG MEDIUM RESISTIVITY
 SFL .OHMM   07 220 01 00:   SHALLOW FOCUSED LOG RESISTIVITY
 DT  .US/F   60 520 00 00:   DELTA TIME
 TENS.LBS    60 635 01 00:   TENSION FROM SONIC LOG
 CNC .DEC    42 890 03 00:   NEUTRON PORISITY SANDSTONE
 CALD.IN     45 280 60 00:   CALIPER FROM DENSITY LOG
 RHOB.G/C3   45 350 01 00:   BULK DENSITY
 CORR.G/C3   45 356 01 00:   DENSITY CORRECTION
 TEND.LBS    45 635 01 00:   TENSION FROM DENSITY LOG
~PARAMETER INFORMATION
#MNEM.UNIT          VALUE    DESCRIPTION
#----------   ------------   ------------------------------
 EKB .F         5218.0000:   Kelly bushing
 EGL .F         5208.0000:   Ground level
 EDF .F         5217.0000:   Drilling floor
 TD  .F         4014.0000:   Total depth
 DATE.        12-FEB-1984:   Date logged
 CLNT.            A2DTECH:   Client Code
 SL  . 500' FSL & 2150' FEL:   Surface Location
 PD  .                 GL:   Permanent Datum
 EPD .F              5208:   Elevation Permanent Datum
 LMF .                 KB:   Log Measured From
 DMF .                 KB:   Drilling Measured From
 DD  .F              4014:   Depth driller
 DL  .F              4011:   Depth logger
 BLI .F              4009:   Bottom log interval
 CS1 .IN            8.625:   Casing size
 CBD1.      8.625" @ 526':   Casing driller 1
 CBL1.F               525:   Casing logger 1
 BS1 .IN            7.875:   Bit size
 DFT .            GEL/KCL:   Type fluid in hole
 DFD .                8.9:   Density
 DFV .                 48:   Viscosity
 DFPH.                  8:   pH
 DFL .                1.3:   Fluid loss
 MSS .           MUD/TANK:   Source of sample
 RMS .OHMM           .556:   Rm
 MST .F                61:   Rm Meas. temp.
 RMF .OHMM           .423:   Rmf
 MFST.F                61:   Rmf Meas. temp.
 RMC .OHMM           .662:   Rmc
 MCST.F                61:   Rmc Meas. temp.
 MFSS.           MUD/TANK:   Source Rmf.
 RMB .OHMM            .80:   Rm. at BHT
 BHT .F               119:   BHT.
 TCS .HRS               5:   Time Circ. stopped
 MRT .F               119:   Maximum recorded temp.
 LUN .               6302:   Logging unit number
 ENGI.              GETTY:   Recorded By
 ORIG.           5" PRINT:   Origin of data
 UWI .     49025109610000:   Unique Well ID
 DICO. A2D TECHNOLOGIES, INC.:   Digitizing Company
 TLI .F                 0:   Top log interval
~OTHER INFORMATION
~A    DEPT      GRR       SPR       TENR        ILD        ILM        SFL         DT       TENS        CNC       CALD       RHOB       CORR       TEND   
# ...
 2132.0000   118.5140   -27.5620  -115.4040     4.8970     4.6480     5.3790  -999.2500  -999.2500     0.2530     9.1980     2.4370     0.1030  -125.3740
 2132.5000   118.0810   -27.5120  -115.1030     5.0450     4.7840     5.4750  -999.2500  -999.2500     0.2490     9.1990     2.4380     0.1400  -125.3740
 2133.0000   118.8860   -28.0060  -114.2350     4.9840     4.9530     6.1170  -999.2500  -999.2500     0.2440     9.1990     2.4580     0.1420  -125.3740
 2133.5000   117.8700   -28.4780  -113.3670     4.9040     4.8540     7.0100  -999.2500  -999.2500     0.2440     9.2000     2.4800     0.1300  -125.3740
 2134.0000   116.6550   -28.9360  -112.4990     4.8230     4.7250     7.8390  -999.2500  -999.2500     0.2490     9.2010     2.4840     0.1160  -125.3740
 2134.5000   115.2600   -28.8540  -111.6310     4.7830     4.5960     7.0550  -999.2500  -999.2500     0.2560     9.2020     2.4700     0.1030  -125.3740
 2135.0000   115.6910   -28.7450  -110.7630     4.8640     4.5180     6.0530  -999.2500  -999.2500     0.2540     9.2030     2.4630     0.0960  -126.5130
 2135.5000   116.3400   -28.6400  -109.8940     4.9290     4.6580     4.8630  -999.2500  -999.2500     0.2490     9.2040     2.4720     0.1000  -130.0950
 2136.0000   113.7620   -28.5230  -109.0260     4.9940     4.8320     5.0870  -999.2500  -999.2500     0.2450     9.2050     2.4840     0.1060  -133.6780
 2136.5000   110.5840   -28.3650  -108.1580     5.0520     4.9130     5.9090  -999.2500  -999.2500     0.2490     9.2060     2.4820     0.1120  -132.3640
 2137.0000   107.3770   -28.2080  -107.2900     5.0860     4.9740     6.7320  -999.2500  -999.2500     0.2510     9.2070     2.4690     0.1140  -126.7920
 2137.5000   106.4030   -28.0520  -106.4220     5.1200     5.0350     7.3510  -999.2500  -999.2500     0.2500     9.2080     2.4640     0.1050  -121.2200
 2138.0000   106.5650   -27.9660  -105.5540     5.2390     5.2500     7.1320  -999.2500  -999.2500     0.2470     9.2090     2.4610     0.0960  -115.4040
 2138.5000   106.7230   -27.9640  -105.4340     5.4610     5.4910     6.8930  -999.2500  -999.2500     0.2460     9.2100     2.4580     0.0870  -113.4390
 2139.0000   106.4850   -27.9070  -105.4340     5.6830     5.7320     6.8930  -999.2500  -999.2500     0.2510     9.2110     2.4550     0.0780  -110.8450
 2139.5000   105.2940   -27.6700  -105.4340     5.9050     5.9510     7.1510  -999.2500  -999.2500     0.2520     9.2120     2.4510     0.0610  -108.2510
 2140.0000   106.0680   -27.4270  -105.4340     6.0620     5.9510     7.1510  -999.2500  -999.2500     0.2480     9.2130     2.4450     0.0430  -105.6570
 2140.5000   110.1090   -27.5960  -105.4340     5.6320     5.6840     6.7070  -999.2500  -999.2500     0.2450     9.2140     2.4390     0.0450  -103.0630
 2141.0000   116.0770   -27.9070  -105.4340     5.7370     5.6840     6.4050  -999.2500  -999.2500     0.2410     9.2140     2.4400     0.0610  -100.4690
 2141.5000   115.4840   -28.2270  -105.4340     5.6340     5.7370     6.4050  -999.2500  -999.2500     0.2400     9.2150     2.4430     0.0780   -97.8750
 2142.0000   111.4790   -28.5430  -105.4340     5.4390     5.2980     7.0810  -999.2500  -999.2500     0.2440     9.2160     2.4460     0.0770   -95.2810
 2142.5000   101.7140   -28.3850  -105.4340     5.2330     5.0450     7.5560  -999.2500  -999.2500     0.2510     9.2180     2.4360     0.0720   -92.6870
 2143.0000    97.5720   -28.1950  -105.4340     5.2330     5.0530     6.7710  -999.2500  -999.2500     0.2490     9.2250     2.4210     0.0660   -90.0940
 2143.5000    98.7080   -27.9980  -105.4340     5.3520     5.1050     5.9450  -999.2500  -999.2500     0.2440     9.2310     2.4060     0.0740   -87.5000
 2144.0000   105.7650   -28.1490  -105.4340     5.4570     5.2760     5.4290  -999.2500  -999.2500     0.2400     9.2370     2.4070     0.1020   -85.4940
 2144.5000   110.6220   -28.3840  -105.4340     5.5320     5.4960     5.9650  -999.2500  -999.2500     0.2450     9.2440     2.4340     0.1250   -87.5850
 2145.0000   110.9530   -28.6230  -105.4340     5.6060     5.6090     7.0920  -999.2500  -999.2500     0.2450     9.2500     2.4540     0.1180   -89.6190
 2145.5000   108.6230   -28.8630  -105.4340     5.6810     5.7230     7.9840  -999.2500  -999.2500     0.2450     9.2570     2.4540     0.1050   -91.6540
 2146.0000   106.5070   -28.8900  -105.4340     5.7560     5.8080     7.7850  -999.2500  -999.2500     0.2470     9.2630     2.4460     0.0920   -93.6880
 2146.5000   106.9240   -28.7920  -105.4340     5.8300     5.8430     7.4830  -999.2500  -999.2500     0.2510     9.2700     2.4420     0.0780   -95.7230
 2147.0000   108.8500   -28.6930  -103.6550     5.8430     5.4190     7.1810  -999.2500  -999.2500     0.2540     9.2760     2.4430     0.0660   -97.7580
 2147.5000   109.5670   -28.5860   -99.5730     5.2250     5.0910     6.8930  -999.2500  -999.2500     0.2540     9.2730     2.4440     0.0670   -99.7920
 2148.0000   107.0170   -28.7360   -95.4910     4.7830     4.7310     6.4210  -999.2500  -999.2500     0.2510     9.2680     2.4440     0.0820  -101.8270
 2148.5000   105.4820   -29.0020   -91.4080     4.4360     4.3880     5.8660  -999.2500  -999.2500     0.2440     9.2630     2.4420     0.0960  -103.8610
 2149.0000   106.6700   -28.7820   -87.3260     4.3640     4.0450     5.4250  -999.2500  -999.2500     0.2430     9.2580     2.4430     0.1030  -105.8960
 2149.5000   107.9170   -28.0080   -83.2440     4.3150     3.9370     5.0400  -999.2500  -999.2500     0.2480     9.2530     2.4400     0.1080  -107.9300
 2150.0000   108.3660   -27.2080   -79.1610     4.4520     4.0990     4.5460  -999.2500  -999.2500     0.2520     9.2480     2.4290     0.1130  -109.9650
 2150.5000   107.8510   -27.0040   -76.8140     4.5570     4.3540     4.3950  -999.2500  -999.2500     0.2520     9.2420     2.4240     0.1110  -111.9990
 2151.0000   105.0490   -26.8200   -88.6600     4.6630     4.6090     4.7630  -999.2500  -999.2500     0.2460     9.2370     2.4250     0.1060  -114.0340
 2151.5000    97.4130   -26.9230  -100.5070     4.8180     4.7310     5.8020  -999.2500  -999.2500     0.2380     9.2320     2.4460     0.1000  -113.5760
 2152.0000    89.9600   -27.1200  -112.3540     4.6890     4.5770     7.3950  -999.2500  -999.2500     0.2290     9.2270     2.4690     0.1030  -107.9820
 2152.5000    89.8560   -27.3200  -110.4190     4.4350     4.2890     8.4360  -999.2500  -999.2500     0.2250     9.2220     2.4840     0.1070  -102.3870
 2153.0000    94.1510   -27.5570  -103.7060     4.1820     3.9970     8.0180  -999.2500  -999.2500     0.2300     9.2180     2.4790     0.1100   -96.7930
 2153.5000   102.9940   -27.8040   -96.9920     3.9750     3.6860     7.3130  -999.2500  -999.2500     0.2370     9.2870     2.4590     0.1140   -96.6630
 2154.0000   105.8390   -27.9210   -99.3520     3.7830     3.3680     5.8710  -999.2500  -999.2500     0.2480     9.3610     2.4350     0.1120   -98.2370
 2154.5000   106.3830   -27.7870  -104.3870     3.5910     3.2030     4.4290  -999.2500  -999.2500     0.2620     9.4340     2.4160     0.1110   -99.8100
 2155.0000   106.8300   -27.6580  -100.7420     3.3990     3.1010     3.5590  -999.2500  -999.2500     0.2620     9.4370     2.4040     0.1100  -101.3830
 2155.5000   107.8230   -27.5280   -94.8180     3.2310     3.1500     3.5590  -999.2500  -999.2500     0.2540     9.4360     2.4010     0.1100  -102.9570
 2156.0000   108.3600   -27.3960   -88.8950     3.1580     3.2460     3.6920  -999.2500  -999.2500     0.2440     9.4360     2.4080     0.1090  -104.5300
 2156.5000   106.1300   -27.3720   -86.5650     3.0850     3.2160     4.7560  -999.2500  -999.2500     0.2390     9.4370     2.4180     0.1060  -100.6700
 2157.0000   103.4050   -27.3710   -89.0830     3.0390     3.1870     5.1380  -999.2500  -999.2500     0.2370     9.4600     2.4120     0.0950   -89.4820
 2157.5000   101.1160   -27.3710   -91.6000     3.0280     3.1010     4.9080  -999.2500  -999.2500     0.2370     9.4850     2.4050     0.0630   -78.2930
