~VERSION INFORMATION
 VERS.                2.0:   CWLS LOG ASCII STANDARD - VERSION 2.0
 WRAP.                 NO:   ONE LINE PER DEPTH STEP
~WELL INFORMATION
#MNEM.UNIT      DATA TYPE    INFORMATION
#----------   ------------   ------------------------------
 STRT.F          906.0000:   START DEPTH
 STOP.F         3426.0000:   STOP DEPTH
 STEP.F            0.5000:   STEP LENGTH
 NULL.          -999.2500:   NO VALUE
 COMP.    FENIX & SCISSON:   COMPANY
 WELL. FENIX NPR 3 "AX" #46-11:   WELL
 FLD .                NPR:   FIELD
 LOC .      S11 T38N R78W:   LOCATION
 CNTY.            NATRONA:   COUNTY
 STAT.            WYOMING:   STATE
 CTRY. UNITED STATES OF AMERICA:   COUNTRY
 SRVC.       SCHLUMBERGER:   SERVICE COMPANY
 DATE.        16-MAY-1981:   LOGDATE
 API .     49025108720000:   API NUMBER
~CURVE INFORMATION
#MNEM.UNIT       API CODE    CURVE DESCRIPTION
#----------   ------------   ------------------------------
 DEPT.F                  :   
 SPR .MV     07 010 01 00:   SPONTANEOUS POTENTIAL
 ILD .OHMM   07 120 46 00:   INDUCTION LOG DEEP RESISTIVITY
 SFL .OHMM   07 220 01 00:   SHALLOW FOCUSED LOG RESISTIVITY
 TENR.LBS    07 635 01 00:   TENSION
 ILM .OHMM   07 120 44 00:   INDUCTION LOG MEDIUM RESISTIVITY
 CALD.IN     45 280 60 00:   CALIPER FROM DENSITY LOG
 GRD .GAPI   45 310 01 00:   GAMMA RAY FROM DENSITY LOG
 RHOB.G/C3   45 350 01 00:   BULK DENSITY
 TEND.LBS    45 635 01 00:   TENSION FROM DENSITY LOG
 CORR.G/C3   45 356 01 00:   DENSITY CORRECTION
~PARAMETER INFORMATION
#MNEM.UNIT          VALUE    DESCRIPTION
#----------   ------------   ------------------------------
 EKB .F         5199.0000:   Kelly bushing
 EGL .F         5189.0000:   Ground level
 EDF .F            0.0000:   Drilling floor
 TD  .F         3422.0000:   Total depth
 DATE.        16-MAY-1981:   Date logged
 CLNT.            A2DTECH:   Client Code
 SL  . 1867' FSL & 2100' FWL:   Surface Location
 PD  .                 GL:   Permanent Datum
 EPD .F              5189:   Elevation Permanent Datum
 LMF .                 KB:   Log Measured From
 DMF .                 KB:   Drilling Measured From
 DAPD.F                10:   Feet Above Permanent Datum
 DD  .F              3421:   Depth driller
 DL  .F              3422:   Depth logger
 BLI .F              3416:   Bottom log interval
 TLI .F               926:   Top log interval
 CS1 .IN            8.625:   Casing size
 CBD1.      8.625" @ 925':   Casing driller 1
 CBL1.F               926:   Casing logger 1
 BS1 .IN            7.875:   Bit size
 BSD1.F              3421:   Depth drilled with bit1
 DFT .                FGM:   Type fluid in hole
 DFD .                8.5:   Density
 DFV .                 60:   Viscosity
 DFPH.                  9:   pH
 DFL .                 12:   Fluid loss
 MSS .               PITS:   Source of sample
 RMS .OHMM           1.17:   Rm
 MST .F                73:   Rm Meas. temp.
 RMF .OHMM           1.03:   Rmf
 MFST.F                73:   Rmf Meas. temp.
 MFSS.               MEAS:   Source Rmf.
 RMB .OHMM            .71:   Rm. at BHT
 BHT .F               120:   BHT.
 TCS .HRS            1200:   Time Circ. stopped
 TLAB.HRS            1745:   Time logger at bottom
 MRT .F               120:   Maximum recorded temp.
 LUN .               8133:   Logging unit number
 LUL .               CSPR:   Logging unit location
 ENGI.             TAYLOR:   Recorded By
 WITN.              RIVAS:   Witnessed by
 ORIG.           5" PRINT:   Origin of data
 UWI .     49025108720000:   Unique Well ID
 DICO. A2D TECHNOLOGIES, INC.:   Digitizing Company
~OTHER INFORMATION
~A   DEPT      SPR        ILD        SFL       TENR        ILM       CALD         GRD        RHOB     TEND        CORR  
# ...
 3050.0000    17.8520     8.8330     9.7920  1016.6340     9.1220     8.0100   125.3230     2.5570  1021.5410     0.0050
 3050.5000    17.8620     8.8600     9.7920  1028.9490     9.1570     8.0110   124.1410     2.5550  1032.1110     0.0000
 3051.0000    17.8720     8.8870     9.9730  1041.2640     9.1920     8.0120   122.5270     2.5580  1042.6810    -0.0010
 3051.5000    17.8820     8.9140    10.9100  1053.5790     9.2270     8.0130   119.2980     2.5750  1053.2510     0.0090
 3052.0000    17.8920     8.9360    11.6950  1063.6180     9.2610     8.0140   116.0270     2.5980  1062.4370     0.0360
 3052.5000    17.9020     8.7210    12.4800  1063.8000     9.0800     8.0150   112.2790     2.6240  1062.4370     0.0630
 3053.0000    17.9120     8.4470    13.1260  1063.9540     8.8390     8.0160   116.4000     2.6300  1052.4060     0.0690
 3053.5000    17.9220     8.1720    12.7700  1064.1071     8.5970     8.0170   128.0880     2.6160  1052.6750     0.0650
 3054.0000    17.9320     7.8980    11.9770  1064.2610     8.3560     8.0180   140.1830     2.5920  1052.9430     0.0470
 3054.5000    17.9420     7.6240     9.7120  1064.4150     8.1150     8.0190   152.3340     2.5680  1053.2120     0.0280
 3055.0000    17.9520     7.3490     7.7730  1064.5680     7.8730     8.0200   151.6390     2.5580  1053.4800     0.0200
 3055.5000    17.9620     7.1730     7.3060  1064.7220     7.7180     8.0210   144.3870     2.5650  1053.7490     0.0180
 3056.0000    17.9720     7.3170     7.5780  1064.8750     7.7180     8.0220   138.7270     2.5760  1054.0170     0.0230
 3056.5000    17.9820     7.5760    11.5470  1065.0291     7.7470     8.0230   127.1540     2.5820  1054.2860     0.0270
 3057.0000    17.9920     7.8350    11.3280  1065.1830     7.7730     8.0240   124.8650     2.5840  1054.5540     0.0310
 3057.5000    18.0020     8.0060    10.9270  1065.3361     7.7980     8.0260   123.2980     2.5800  1054.8230     0.0330
 3058.0000    18.0110     8.0060    10.5260  1065.4900     7.8230     8.0270   125.0070     2.5690  1055.0909     0.0240
 3058.5000    18.0210     8.0060    10.1250  1065.6429     7.8490     8.0280   126.5530     2.5590  1055.3600     0.0080
 3059.0000    18.0310     8.0060     9.7240  1065.7970     7.9780     8.0290   127.0400     2.5580  1055.6290     0.0030
 3059.5000    18.0410     8.0600     9.6150  1065.9510     8.1980     8.0300   124.9510     2.5600  1055.8970     0.0030
 3060.0000    18.0510     8.2250     9.9510  1066.1040     8.4190     8.0310   121.8930     2.5650  1056.1660     0.0050
 3060.5000    18.0610     8.3910    10.5940  1066.2581     8.6390     8.0320   118.8510     2.5710  1056.4340     0.0080
 3061.0000    18.0710     8.5560    11.2380  1066.4110     8.8600     8.0330   116.0220     2.5730  1056.7030     0.0120
 3061.5000    18.0810     8.7210    11.8810  1066.5649     9.1010     8.0340   117.2570     2.5740  1056.9709     0.0150
 3062.0000    18.0910     8.8870    12.1990  1066.7180     9.1010     8.0350   119.7210     2.5710  1057.2400     0.0180
 3062.5000    18.1010     9.1010    11.8990  1066.8719     9.1010     8.0360   123.3110     2.5640  1057.5081     0.0140
 3063.0000    18.1110     8.9940    11.6380  1067.0260     9.1010     8.0370   126.1440     2.5580  1057.7770     0.0100
 3063.5000    18.1210     8.7780    11.3770  1067.1790     9.1010     8.0380   127.4380     2.5530  1058.0450     0.0060
 3064.0000    18.1310     8.5630    11.1160  1067.3330     9.1010     8.0390   126.7980     2.5560  1058.3140     0.0060
 3064.5000    18.1410     8.3480    10.8700  1067.4860     8.7800     8.0400   124.9610     2.5590  1058.5830     0.0080
 3065.0000    18.1510     8.1330    10.6630  1067.6400     8.4850     8.0410   123.0600     2.5660  1058.8510     0.0110
 3065.5000    18.1610     7.9180    10.4550  1067.7939     8.1540     8.0420   122.5830     2.5680  1059.1200     0.0140
 3066.0000    18.1710     7.7180    10.0360  1067.9470     8.1080     8.0430   124.4160     2.5580  1059.3879     0.0120
 3066.5000    18.1800     7.7180     9.3840  1068.1010     8.0550     8.0440   126.4350     2.5480  1059.6570     0.0060
 3067.0000    18.1900     7.7180     8.7740  1068.2540     7.8610     8.0450   127.0720     2.5440  1059.9250     0.0030
 3067.5000    18.2000     7.7180     9.2320  1068.4080     7.8960     8.0460   127.2780     2.5500  1060.1940     0.0070
 3068.0000    18.2100     7.7180     9.6630  1068.5620     8.0310     8.0480   127.9280     2.5600  1060.4620     0.0130
 3068.5000    18.2200     7.7560    10.1580  1068.7150     8.1660     8.0490   129.8850     2.5520  1060.7310     0.0130
 3069.0000    18.2300     7.9080    10.1280  1068.8690     8.3010     8.0500   131.6620     2.5460  1060.9990     0.0060
 3069.5000    18.2400     8.0600    10.0630  1069.0220     8.4350     8.0510   129.1160     2.5510  1061.2679     0.0080
 3070.0000    18.2500     8.2110     9.9730  1069.1760     8.5700     8.0520   124.2910     2.5620  1061.5370     0.0100
 3070.5000    18.2600     8.3630    10.1140  1069.3290     8.7050     8.0530   122.6360     2.5740  1061.8051     0.0130
 3071.0000    18.2700     8.5140    10.7100  1069.4830     8.8400     8.0550   124.2530     2.5810  1062.0740     0.0150
 3071.5000    18.2800     8.6660    11.1230  1069.6370     8.9750     8.0560   125.8830     2.5820  1062.3420     0.0180
 3072.0000    18.2900     8.8180    11.5470  1069.7900     9.1100     8.0570   125.6590     2.5800  1062.8060     0.0210
 3072.5000    18.3000     8.9360    11.5000  1069.9440     9.2690     8.0590   124.8940     2.5730  1063.3760     0.0210
 3073.0000    18.3100     8.9360    11.4260  1070.0970     9.2590     8.0600   124.1530     2.5600  1063.9470     0.0150
 3073.5000    18.3200     8.8850    11.3370  1070.2510     9.2360     8.0610   124.1330     2.5510  1064.5170     0.0070
 3074.0000    18.3300     8.8350    11.3370  1070.4050     9.2130     8.0630   124.0040     2.5530  1065.0870     0.0020
 3074.5000    18.3390     8.7850    11.5670  1070.5580     9.1900     8.0640   122.8330     2.5570  1065.6570     0.0060
 3075.0000    18.3500     8.7350    11.7950  1070.7120     9.1660     8.0660   121.2210     2.5620  1066.2280     0.0110
 3075.5000    18.3580     8.6850    11.9770  1070.8650     9.1430     8.0670   119.8060     2.5660  1066.7980     0.0130
 3076.0000    18.3710     8.6140    11.5130  1071.0190     9.1200     8.0680   118.8490     2.5700  1067.3680     0.0080
 3076.5000    18.3790     8.6900    11.1250  1071.1730     9.1010     8.0700   117.8760     2.5610  1067.9380     0.0040
 3077.0000    18.3740     8.8190    10.7310  1071.3260     9.3460     8.0710   116.5440     2.5510  1068.5090     0.0000
 3077.5000    18.3960     8.9470    10.7310  1071.4800     9.5530     8.0720   113.7740     2.5390  1069.0790    -0.0040
 3078.0000    18.3430     9.0760    11.8940  1071.6331     9.7600     8.0740   110.0380     2.5470  1069.6490    -0.0040
 3078.5000    18.6940     9.2040    12.8790  1071.7870     9.9660     8.0750   106.3250     2.5570  1070.2200    -0.0020
 3079.0000    18.7650     9.3330    13.8640  1071.9399    10.1730     8.0760   103.2320     2.5680  1070.7900    -0.0010
 3079.5000    18.6250     9.4400    14.8490  1072.0940    10.3450     8.0780   104.9540     2.5750  1071.3600     0.0010
 3080.0000    18.4530     9.4400    15.7630  1072.2480    10.0880     8.0790   107.7790     2.5790  1071.9301     0.0040
 3080.5000    18.3810     9.4400    15.1360  1072.4010     9.8670     8.0800   110.4650     2.5840  1072.5081     0.0100
 3081.0000    18.4010     9.2690    14.0120  1072.5551     9.6460     8.0820   112.3300     2.5830  1082.0601     0.0160
 3081.5000    18.7540     9.0390    12.8870  1072.7080     9.4250     8.0830   114.2370     2.5720  1091.7280     0.0100
 3082.0000    18.7670     8.7970    11.7630  1072.8621     9.2040     8.0840   115.5860     2.5530  1101.3950     0.0060
 3082.5000    18.7820     8.5550    10.6390  1073.0160     8.9830     8.0860   112.7860     2.5590  1111.0630     0.0090
 3083.0000    18.7710     8.3130    10.3450  1073.1689     8.7620     8.0870   109.0260     2.5670  1104.9720     0.0150
