~VERSION INFORMATION
 VERS.                2.0:   CWLS LOG ASCII STANDARD - VERSION 2.0
 WRAP.                 NO:   ONE LINE PER DEPTH STEP
~WELL INFORMATION
#MNEM.UNIT      DATA TYPE    INFORMATION
#----------   ------------   ------------------------------
 STRT.F         2933.0000:   START DEPTH
 STOP.F         5494.0000:   STOP DEPTH
 STEP.F            0.5000:   STEP LENGTH
 NULL.          -999.2500:   NO VALUE
 COMP.    FENIX & SCISSON:   COMPANY
 WELL. FENIX "TPX" #56-10:   WELL
 FLD .        TEAPOT DOME:   FIELD
 LOC .      S10 T38N R78W:   LOCATION
 CNTY.            NATRONA:   COUNTY
 STAT.            WYOMING:   STATE
 CTRY. UNITED STATES OF AMERICA:   COUNTRY
 SRVC.       SCHLUMBERGER:   SERVICE COMPANY
 DATE.        22-MAY-1978:   LOGDATE
 API .     49025106100000:   API NUMBER
~CURVE INFORMATION
#MNEM.UNIT       API CODE    CURVE DESCRIPTION
#----------   ------------   ------------------------------
 DEPT.F                  :   
 NPHI.DEC    42 890 03 00:   NEUTRON POROSITY SANDSTONE
 GRD .GAPI   45 310 01 00:   GAMMA RAY FROM DENSITY LOG
 CALD.IN     45 280 60 00:   CALIPER FROM DENSITY LOG
 CORR.G/C3   45 356 01 00:   DENSITY CORRECTION
 RHOB.G/C3   45 350 01 00:   BULK DENSITY
 SPR .MV     07 010 01 00:   SPONTANEOUS POTENTIAL
 ILD .OHMM   07 120 46 00:   INDUCTION LOG DEEP RESISTIVITY
 ILM .OHMM   07 120 44 00:   INDUCTION LOG MEDIUM RESISTIVITY
 SFL .OHMM   07 220 01 00:   SHALLOW FOCUSED LOG RESISITIVITY
 DT  .US/F   60 520 00 00:   DELTA TIME
~PARAMETER INFORMATION
#MNEM.UNIT          VALUE    DESCRIPTION
#----------   ------------   ------------------------------
 EKB .F         5212.0000:   Kelly bushing
 EGL .F         5202.0000:   Ground level
 TD  .F         5500.0000:   Total depth
 CLNT.            A2DTECH:   Client Code
 SL  . 1270' FSL & 2130' FEL:   Surface Location
 PD  .                 GL:   Permanent Datum
 EPD .F              5202:   Elevation Permanent Datum
 LMF .                 KB:   Log Measured From
 DMF .                 KB:   Drilling Measured From
 DAPD.F                10:   Feet Above Permanent Datum
 DATE.        22-MAY-1978:   Date Logged [DD-MMM-YYYY]
 DD  .F              5500:   Depth driller
 DL  .F              5499:   Depth logger
 BLI .F              5497:   Bottom log interval
 TLI .F              2971:   Top log interval
 CS1 .IN            8.625:   Casing size
 CBD1.     8.625" @ 2972':   Casing driller 1
 CBL1.F              2971:   Casing logger 1
 BS1 .IN            7.875:   Bit size
 BSD1.F              5500:   Depth drilled with bit1
 DFT .                FGM:   Type fluid in hole
 DFD .                9.3:   Density
 DFV .                 57:   Viscosity
 DFPH.               10.5:   pH
 DFL .                  6:   Fluid loss
 MSS .           MUD TANK:   Source of sample
 RMS .OHMM           0.93:   Rm
 MST .F                58:   Rm Meas. temp.
 RMF .OHMM           0.71:   Rmf
 MFST.F                61:   Rmf Meas. temp.
 MFSS.               MEAS:   Source Rmf.
 RMB .OHMM           0.27:   Rm. at BHT
 BHT .F               198:   BHT.
 TCS .HRS            1500:   Time Circ. stopped
 TLAB.HRS            0100:   Time logger at bottom
 MRT .F               198:   Maximum recorded temp.
 LUN .               8039:   Logging unit number
 LUL .               CSPR:   Logging unit location
 ENGI.          CHALUPSKY:   Recorded By
 WITN.            RHOADES:   Witnessed by
 ORIG.      2.5" 5" PRINT:   Origin of data
 UWI .     49025106100000:   Unique Well ID
 DICO. A2D TECHNOLOGIES, INC.:   Digitizing Company
~OTHER INFORMATION
~A  DEPTH     NPHI        GRD       CALD       CORR       RHOB        SPR        ILD        ILM        SFL         DT
# ...
 4943.0000     0.1550   105.8318     9.9511     0.0040     2.7058   -41.8781    27.4662    26.3334    29.9450    61.8496
 4943.5000     0.1586   105.8467     9.9509     0.0158     2.7160   -42.4795    27.0646    25.9556    29.1085    61.8568
 4944.0000     0.1591   105.2573     9.9808     0.0188     2.7214   -42.6331    26.5183    25.9397    29.4996    61.5635
 4944.5000     0.1546   101.6468     9.9806     0.0173     2.7123   -42.7868    26.5066    25.7435    30.3141    61.2720
 4945.0000     0.1507    98.6405     9.9805     0.0098     2.6935   -42.7912    26.3122    25.5515    30.2975    61.1290
 4945.5000     0.1503    96.2195     9.9803     0.0039     2.6762   -42.4970    26.3005    25.5356    30.2809    61.2116
 4946.0000     0.1532    94.9638     9.9802    -0.0006     2.6626   -42.8000    26.6553    25.5197    30.2643    61.2942
 4946.5000     0.1580    93.8512     9.9800    -0.0021     2.6642   -42.8045    26.8314    25.6779    30.2477    61.0008
 4947.0000     0.1609    93.8671    10.0099    -0.0050     2.6693   -43.1083    26.8166    25.8443    30.4419    60.8578
 4947.5000     0.1606    93.6808    10.0097    -0.0051     2.6753   -43.4112    26.6199    25.8245    31.9569    60.8652
 4948.0000     0.1543    91.9635    10.0096    -0.0035     2.6806   -43.7141    26.2424    25.8087    33.0733    61.3990
 4948.5000     0.1522    91.2131    10.0094    -0.0020     2.6836   -43.3483    25.8703    25.2629    32.9986    61.9327
 4949.0000     0.1544    90.3001    10.0093    -0.0007     2.6866   -42.8998    25.3275    24.7287    31.0107    62.4664
 4949.5000     0.1605    93.5781    10.0091    -0.0022     2.6886   -42.6009    24.9684    24.0388    28.9140    63.3009
 4950.0000     0.1772   100.4028    10.0090    -0.0022     2.6635   -42.1525    24.6143    23.5305    26.2203    63.9098
 4950.5000     0.1938   101.4458    10.0088    -0.0028     2.6560   -42.0030    24.6032    23.0329    24.7894    63.8373
 4951.0000     0.2045   101.2357    10.0087    -0.0052     2.6531   -41.8535    24.5693    23.0188    24.0970    63.2947
 4951.5000     0.2051   100.3877    10.0086    -0.0071     2.6649   -42.0030    24.9215    23.8242    24.7623    62.0541
 4952.0000     0.2021    97.7250    10.0084    -0.0082     2.6752   -41.8535    25.7874    24.6381    27.4834    61.1593
 4952.5000     0.1855    93.1251    10.0083    -0.0039     2.6811   -41.5546    26.8687    25.5067    30.8398    60.4881
 4953.0000     0.1600    91.6314    10.0081     0.0006     2.6840   -41.4051    28.1898    27.3697    33.7304    60.3452
 4953.5000     0.1476    91.9889    10.0080     0.0035     2.6885   -41.4051    29.7812    29.4362    34.9268    60.3544
 4954.0000     0.1448    91.6646    10.0078     0.0056     2.6914   -41.4051    31.2454    30.8782    35.5877    60.3618
 4954.5000     0.1449    89.8668    10.0077     0.0065     2.6868   -41.8535    32.1082    31.5115    34.8151    60.2940
 4955.0000     0.1456    88.0689    10.0075     0.0050     2.6777   -42.4514    32.0940    31.4874    36.0134    60.0759
 4955.5000     0.1471    89.2923    10.0074     0.0019     2.6706   -42.6009    31.8586    31.2512    37.2530    60.0833
 4956.0000     0.1477    91.7240    10.0072     0.0005     2.6725   -42.6009    31.6249    31.2321    37.4876    60.2080
 4956.5000     0.1483    91.8777    10.0071    -0.0019     2.6750   -42.6009    31.1764    30.7840    37.1868    60.5501
 4957.0000     0.1489    91.7523    10.0069    -0.0025     2.6743   -42.6009    30.5224    30.3424    36.6411    60.8582
 4957.5000     0.1501    91.7686    10.0068    -0.0011     2.6705   -42.7504    29.6760    29.9071    35.6054    61.0160
 4958.0000     0.1525    92.9919     9.9766     0.0004     2.6720   -43.0493    29.2278    29.0728    34.1217    61.3241
 4958.5000     0.1597    94.2152     9.9764     0.0004     2.6734   -43.1988    28.4170    28.2619    32.2486    61.7826
 4959.0000     0.1656    94.8343     9.9763     0.0033     2.6699   -43.6472    27.6521    27.6550    31.3371    62.1659
 4959.5000     0.1668    96.6619     9.9761     0.0033     2.6651   -43.6472    26.6999    27.0558    30.8773    62.3237
 4960.0000     0.1686    97.8852     9.9760     0.0033     2.6740   -42.8998    26.1398    26.3200    30.8498    62.1807
 4960.5000     0.1716    97.9003     9.9758     0.0032     2.6867   -42.4514    25.4149    25.5858    31.2540    61.9624
 4961.0000     0.1734    97.9562     9.9756     0.0032     2.6896   -42.1339    24.7101    25.0448    31.2257    61.8195
 4961.5000     0.1760    99.2591     9.9755     0.0032     2.6864   -42.0030    24.3597    24.3462    31.1977    62.1283
 4962.0000     0.1857   102.4162     9.9754    -0.0028     2.6846   -42.0122    24.1810    23.8315    28.5926    62.4364
 4962.5000     0.1983   105.9164     9.9752    -0.0057     2.6910   -42.0151    24.1704    23.4895    26.1170    63.5716
 4963.0000     0.2120   106.4351     9.9751    -0.0028     2.6939   -42.0180    24.1597    23.1525    24.0578    63.8797
 4963.5000     0.2144   106.4501     9.9749     0.0002     2.6943   -42.0210    23.9851    23.4609    23.8754    63.6509
 4964.0000     0.2097   104.6129     9.9748     0.0060     2.6939   -41.7254    24.1387    24.2720    26.4677    63.0456
 4964.5000     0.1935    97.4193     9.9746     0.0059     2.6998   -41.5749    24.9770    24.9379    29.3480    62.3247
 4965.0000     0.1814    89.9783    10.0045     0.0043     2.7013   -41.4180    25.8449    25.6222    31.8707    61.8810
 4965.5000     0.1692    87.1725    10.0043     0.0001     2.6968   -41.1372    26.7553    26.5159    33.8965    61.4372
 4966.0000     0.1599    87.9169    10.0042    -0.0017     2.6687   -41.5886    27.6977    27.0701    34.8282    61.1420
 4966.5000     0.1578    90.1451    10.0041    -0.0069     2.6524   -42.1886    29.0295    27.9783    34.0721    61.4520
 4967.0000     0.1583    92.6190    10.0039    -0.0118     2.6583   -42.6393    30.0382    28.5521    33.3398    61.3072
 4967.5000     0.1612    93.5801    10.0038    -0.0119     2.6628   -42.6422    30.0249    28.9279    33.5498    61.0156
 4968.0000     0.1675    94.5015    10.0036    -0.0089     2.6641   -42.3466    29.8047    29.1155    34.9386    61.0230
 4968.5000     0.1758    94.5166    10.0035    -0.0075     2.6641   -42.3496    29.3820    29.4987    36.3940    61.0304
 4969.0000     0.1842    94.5347    10.0033    -0.0060     2.6664   -42.6510    29.3690    29.6854    35.8591    61.3385
 4969.5000     0.1933    94.5496    10.0032    -0.0049     2.6820   -42.8032    29.5599    29.6672    34.8455    61.6466
 4970.0000     0.1992    95.1686    10.0030     0.0043     2.6997   -43.2539    29.7553    29.6491    34.3018    61.9600
 4970.5000     0.2004    95.7877    10.0029     0.0153     2.7132   -43.5553    29.9486    29.6310    33.8305    62.2739
 4971.0000     0.1993    97.0110    10.0027     0.0153     2.7217   -43.5583    29.9321    29.7046    34.7526    62.4958
 4971.5000     0.1993    99.4428    10.0026     0.0101     2.7131   -43.5612    30.1270    29.8005    35.4450    61.9787
 4972.0000     0.1999   104.2915    10.0024    -0.0019     2.7043   -43.2656    30.1133    29.7819    36.1672    61.5350
 4972.5000     0.1954   106.7233    10.0023     0.0024     2.7037   -42.7989    30.0999    29.7634    38.1913    61.1664
 4973.0000     0.1896   105.5297    10.0021     0.0071     2.7120   -42.2274    29.8789    29.5361    40.9019    60.7979
 4973.5000     0.1881   103.7319    10.0020     0.0041     2.7165   -41.7826    29.6595    29.7276    41.4465    60.5045
 4974.0000     0.1887   101.9340    10.0018    -0.0003     2.7163   -41.7855    28.6355    30.1188    41.4004    60.8126
 4974.5000     0.1919    99.5320    10.0017    -0.0018     2.7067   -41.7885    27.4587    28.4794    39.6751    61.9478
 4975.0000     0.1990    98.3384    10.0015    -0.0033     2.7038   -41.7914    26.3304    26.3759    36.4698    63.2334
 4975.5000     0.2030    95.8957    10.0013    -0.0034     2.6993   -41.4951    25.6002    25.2878    32.1550    64.7445
 4976.0000     0.2018    93.4555    10.0012    -0.0049     2.7067   -40.9018    24.7187    24.9250    27.5738    65.3552
