~VERSION INFORMATION
 VERS.                2.0:   CWLS LOG ASCII STANDARD - VERSION 2.0
 WRAP.                 NO:   ONE LINE PER DEPTH STEP
~WELL INFORMATION
#MNEM.UNIT      DATA TYPE    INFORMATION
#----------   ------------   ------------------------------
 STRT.F          502.0000:   START DEPTH
 STOP.F         3068.0000:   STOP DEPTH
 STEP.F            0.5000:   STEP LENGTH
 NULL.          -999.2500:   NO VALUE
 COMP. LAWRENCE ALLISON AND ASSOCIATES:   COMPANY
 WELL. LAWRENCE NPR TX #85-33:   WELL
 FLD .              N P R:   FIELD
 LOC .      S33 T39N R78W:   LOCATION
 CNTY.            NATRONA:   COUNTY
 STAT.            WYOMING:   STATE
 CTRY. UNITED STATES OF AMERICA:   COUNTRY
 SRVC.       SCHLUMBERGER:   SERVICE COMPANY
 DATE.        20-JUN-1982:   LOGDATE
 API .     49025107990001:   API NUMBER
~CURVE INFORMATION
#MNEM.UNIT       API CODE    CURVE DESCRIPTION
#----------   ------------   ------------------------------
 DEPT.F                  :   
 RHOB.G/C3   45 350 01 00:   BULK DENSITY
 GRD .GAPI   45 310 01 00:   GAMMA RAY FROM DENSITY LOG
 CALD.IN     45 280 60 00:   CALIPER FROM DENSITY LOG
 CORR.G/C3   45 356 01 00:   DENSITY CORRECTION
 TEND.LBS    45 635 01 00:   TENSION FROM DENSITY LOG
 NPHI.DEC    42 890 03 00:   NEUTRON POROSITY SANDSTONE
 TENR.LBS    07 635 01 00:   TENSION FROM RESISTIVITY
 SPR .MV     07 010 01 00:   SPONTANEOUS POTENTIAL
 ILD .OHMM   07 120 46 00:   DEEP INDUCTION RESISTIVITY
 ILM .OHMM   07 120 44 00:   INDUCTION LOG MEDIUM RESISTIVITY
 SFL .OHMM   07 220 01 00:   SHALLOW FOCUSED LOG RESISTIVITY
~PARAMETER INFORMATION
#MNEM.UNIT          VALUE    DESCRIPTION
#----------   ------------   ------------------------------
 EKB .F         5123.0000:   Kelly bushing
 EGL .F         5113.0000:   Ground level
 EDF .F         5122.0000:   Drilling floor
 EPD .F         5113.0000:   Permanent datum
 TD  .F         3100.0000:   Total depth
 DATE.        20-JUN-1982:   Date logged
 CLNT.            A2DTECH:   Client Code
 SL  . 2263' FSL & 293' FEL:   Surface Location
 PD  .                 GL:   Permanent Datum
 DD  .F              3100:   Depth driller
 DL  .F              3056:   Depth logger
 BLI .F              3050:   Bottom log interval
 CS1 .IN            9.625:   Casing size
 CBD1.      9.625" @ 524':   Casing driller 1
 CBL1.F               520:   Casing logger 1
 BS1 .IN            7.875:   Bit size
 DFT .           POLY/KCL:   Type fluid in hole
 DFD .                8.4:   Density
 DFV .                 40:   Viscosity
 DFPH.                7.6:   pH
 DFL .                 10:   Fluid loss
 MSS .               TANK:   Source of sample
 RMS .OHMM            .92:   Rm
 MST .F                66:   Rm Meas. temp.
 RMF .OHMM           .603:   Rmf
 MFST.F                68:   Rmf Meas. temp.
 MFSS.               MEAS:   Source Rmf.
 RMB .OHMM           .515:   Rm. at BHT
 BHT .F               118:   BHT.
 TCS .HRS             815:   Time Circ. stopped
 MRT .F               118:   Maximum recorded temp.
 LUN .               8035:   Logging unit number
 LUL .               CSPR:   Logging unit location
 ENGI.              PENNY:   Recorded By
 WITN.           JENNINGS:   Witnessed by
 ORIG.           5" PRINT:   Origin of data
 UWI .     49025107990001:   Unique Well ID
 DICO. A2D TECHNOLOGIES, INC.:   Digitizing Company
 DAPD.                 10:   Feet Above Permanent Datum
 BSD1.               3100:   Depth drilled with bit1
 TLI .                520:   Top log interval
 TLAB.               1100:   Time logger at bottom
~OTHER INFORMATION
~A   DEPT     RHOB         GRD      CALD       CORR       TEND       NPHI       TENR        SPR        ILD        ILM        SFL   
# ...
 2881.0000     2.4660   122.9110     7.5220     0.0300  1705.4520     0.2290  1984.4180   -22.7900     3.7150     3.8460     4.2760
 2881.5000     2.4680   124.9220     7.5210     0.0320  1709.8340     0.2340  1984.0480   -22.7120     3.8310     3.9370     4.2760
 2882.0000     2.4610   126.6480     7.5210     0.0220  1714.2170     0.2440  1984.0480   -22.6340     3.9470     4.0810     4.2760
 2882.5000     2.4540   126.2850     7.5200     0.0150  1716.2700     0.2410  1984.0480   -22.6470     4.0630     4.2390     4.7460
 2883.0000     2.4620   124.9230     7.5190     0.0100  1715.5560     0.2340  1984.0480   -22.8760     4.1790     4.3970     5.3380
 2883.5000     2.4750   124.2870     7.5190     0.0150  1713.5200     0.2270  1984.0480   -23.1030     4.2960     4.5600     6.0620
 2884.0000     2.4850   125.8900     7.5180     0.0240  1711.4840     0.2250  1984.0480   -23.3300     4.4120     4.5600     6.0060
 2884.5000     2.4930   128.4460     7.5170     0.0240  1709.4480     0.2250  1984.0480   -23.5570     4.5280     4.6680     5.6930
 2885.0000     2.4970   130.9120     7.5160     0.0220  1707.4110     0.2260  1984.0480   -23.7840     4.6440     4.8050     5.6320
 2885.5000     2.5010   133.0920     7.5160     0.0190  1705.3750     0.2290  1984.0480   -24.0100     4.7310     4.9420     5.7050
 2886.0000     2.4920   133.4140     7.5150     0.0160  1703.3390     0.2290  1984.0480   -24.1710     4.6370     5.0450     5.8200
 2886.5000     2.4790   132.9620     7.5140     0.0120  1701.3030     0.2270  1984.0480   -24.0350     4.5250     4.9230     5.9360
 2887.0000     2.4760   132.5720     7.5130     0.0100  1699.2660     0.2270  1984.0480   -23.8880     4.4130     4.6370     5.9510
 2887.5000     2.4870   131.3960     7.5130     0.0240  1697.2300     0.2390  1984.0480   -23.7410     4.3000     4.3990     5.7190
 2888.0000     2.5070   130.4900     7.5120     0.0430  1695.1940     0.2490  1984.0480   -23.5940     4.1880     4.2720     5.3000
 2888.5000     2.5140   131.9160     7.5110     0.0520  1693.1580     0.2550  1984.0480   -23.4470     4.0760     4.1450     4.8800
 2889.0000     2.5000   133.8440     7.5100     0.0410  1691.1219     0.2530  1984.0480   -23.4770     3.9640     4.0180     4.6440
 2889.5000     2.4810   135.2350     7.5100     0.0260  1689.0850     0.2510  1984.0480   -23.6260     3.8520     3.9370     4.6440
 2890.0000     2.4750   135.7960     7.5090     0.0230  1687.0490     0.2520  1984.0480   -23.7820     3.7600     3.9010     4.6360
 2890.5000     2.4680   134.7320     7.5080     0.0200  1685.0129     0.2540  1984.0480   -24.0790     3.7600     3.9010     4.6250
 2891.0000     2.4600   133.7200     7.5080     0.0180  1682.9771     0.2570  1984.0480   -24.3780     3.7940     3.9530     4.6150
 2891.5000     2.4540   130.6360     7.5070     0.0170  1680.9399     0.2550  1984.0480   -24.6770     3.8280     4.0050     4.6020
 2892.0000     2.4720   127.1940     7.5060     0.0200  1678.9041     0.2490  1984.0480   -24.9480     3.8620     4.0570     4.7500
 2892.5000     2.4960   126.7750     7.5050     0.0260  1676.8680     0.2420  1984.0480   -24.9530     3.8950     4.1090     4.9830
 2893.0000     2.5200   129.2010     7.5050     0.0320  1676.5870     0.2340  1984.0480   -24.9510     3.9290     4.1610     5.2170
 2893.5000     2.5260   130.9450     7.5040     0.0340  1676.5870     0.2300  1984.0480   -24.9510     3.9630     4.1980     5.4290
 2894.0000     2.5090   131.1410     7.5030     0.0310  1676.5870     0.2400  1984.0480   -24.9510     3.9970     4.1980     5.4290
 2894.5000     2.4920   129.3630     7.5020     0.0260  1676.5870     0.2490  1984.0480   -24.9510     4.0310     4.1780     5.0410
 2895.0000     2.4740   129.3750     7.5020     0.0210  1676.5870     0.2530  1984.0480   -24.9510     4.0470     4.1380     5.0150
 2895.5000     2.4600   133.7950     7.5010     0.0160  1676.5870     0.2570  1984.0480   -24.9520     4.0000     4.0980     4.9200
 2896.0000     2.4490   138.7580     7.5000     0.0120  1676.5870     0.2590  1984.0480   -24.9520     3.9160     4.0580     4.6980
 2896.5000     2.4480   140.2440     7.5000     0.0110  1676.5870     0.2660  1984.0480   -25.0300     3.8300     4.0190     4.4810
 2897.0000     2.4510   136.7890     7.4990     0.0190  1676.5870     0.2690  1984.0480   -25.1580     3.8300     3.9790     4.2760
 2897.5000     2.4570   131.6320     7.4980     0.0280  1676.5870     0.2610  1984.0480   -25.2870     3.8190     3.9390     4.2760
 2898.0000     2.4690   130.7040     7.4970     0.0330  1676.5870     0.2510  1984.0480   -25.4170     3.8080     3.9010     4.4900
 2898.5000     2.4820   132.9270     7.4980     0.0310  1676.5870     0.2430  1984.0480   -25.5360     3.7970     3.9010     4.7060
 2899.0000     2.4770   135.5510     7.4990     0.0260  1676.5870     0.2470  1984.0480   -25.5390     3.7860     3.8960     4.9080
 2899.5000     2.4640   137.9540     7.5000     0.0200  1676.5870     0.2510  1984.0480   -25.5380     3.7740     3.8920     4.7770
 2900.0000     2.4500   140.4330     7.5010     0.0150  1676.5870     0.2520  1984.0480   -25.5380     3.7600     3.8880     4.4770
 2900.5000     2.4490   141.3390     7.5020     0.0180  1676.5870     0.2520  1984.0480   -25.5740     3.7600     3.8830     4.5650
 2901.0000     2.4520   140.4560     7.5030     0.0230  1676.7490     0.2530  1984.0480   -25.8670     3.7600     3.8790     4.6620
 2901.5000     2.4600   137.6600     7.5040     0.0270  1677.9930     0.2560  1984.0480   -26.1650     3.7010     3.8750     4.6870
 2902.0000     2.4740   135.0510     7.5050     0.0300  1679.2380     0.2600  1984.0480   -26.4610     3.6370     3.8700     4.4770
 2902.5000     2.4880   133.7560     7.5060     0.0350  1680.4821     0.2590  1984.0480   -26.7570     3.5730     3.8660     4.5180
 2903.0000     2.4980   136.5280     7.5070     0.0400  1681.7260     0.2570  1984.0480   -27.0540     3.5100     3.7870     4.5710
 2903.5000     2.4930   139.4050     7.5080     0.0390  1682.9709     0.2610  1984.0480   -27.3480     3.4460     3.6880     4.6020
 2904.0000     2.4770   142.4540     7.5100     0.0290  1684.2150     0.2720  1984.0480   -27.6450     3.3820     3.5890     4.4280
 2904.5000     2.4580   145.7510     7.5110     0.0170  1685.4600     0.2800  1984.0480   -27.3870     3.3190     3.4900     4.1460
 2905.0000     2.4510   148.6550     7.5120     0.0160  1686.7040     0.2770  1984.0480   -27.0240     3.2550     3.3900     4.0060
 2905.5000     2.4470   151.2390     7.5130     0.0150  1687.9480     0.2740  1984.0480   -26.6530     3.1910     3.2910     3.9440
 2906.0000     2.4410   154.9710     7.5140     0.0150  1689.1930     0.2740  1984.0480   -26.3230     3.1280     3.1920     3.8640
 2906.5000     2.4370   156.3630     7.5150     0.0140  1690.4370     0.2820  1984.0480   -26.3860     3.0640     3.0920     3.7570
 2907.0000     2.4370   154.4540     7.5160     0.0120  1691.6810     0.2900  1984.0480   -26.5110     3.0000     2.9890     3.6510
 2907.5000     2.4390   151.3550     7.5150     0.0110  1692.9260     0.2950  1984.0480   -26.6350     2.9360     2.9890     3.5590
 2908.0000     2.4430   148.6830     7.5120     0.0150  1694.1700     0.2950  1984.0480   -26.7600     2.8810     3.0010     3.6690
 2908.5000     2.4480   146.0340     7.5080     0.0190  1695.4139     0.2850  1984.0480   -26.8870     2.8810     3.0370     3.7860
 2909.0000     2.4520   143.5750     7.5040     0.0230  1696.4290     0.2760  1984.0480   -26.8740     2.8810     3.0730     3.9030
 2909.5000     2.4560   141.1890     7.5000     0.0250  1693.8070     0.2710  1984.0480   -26.8330     2.9080     3.1090     3.9730
 2910.0000     2.4610   138.9860     7.4960     0.0240  1691.1550     0.2700  1984.0480   -26.7920     2.9530     3.1450     3.9330
 2910.5000     2.4650   138.4090     7.4930     0.0250  1688.5031     0.2700  1984.0480   -26.7500     2.9980     3.2110     3.9010
 2911.0000     2.4760   138.3790     7.4890     0.0330  1685.8500     0.2690  1984.0480   -26.7080     3.0430     3.2960     3.9640
