~VERSION INFORMATION
 VERS.                2.0:   CWLS LOG ASCII STANDARD - VERSION 2.0
 WRAP.                 NO:   ONE LINE PER DEPTH STEP
~WELL INFORMATION
#MNEM.UNIT      DATA TYPE    INFORMATION
#----------   ------------   ------------------------------
 STRT.F           60.0000:   START DEPTH
 STOP.F         3758.0000:   STOP DEPTH
 STEP.F            0.5000:   STEP LENGTH
 NULL.          -999.2500:   NO VALUE
 COMP. LAWRENCE ALLISON & ASSOCIATES:   COMPANY
 WELL. LAWRENCE "MX" #72-10:   WELL
 FLD .            N P R 3:   FIELD
 LOC .      S10 T38N R78W:   LOCATION
 CNTY.            NATRONA:   COUNTY
 STAT.            WYOMING:   STATE
 CTRY. UNITED STATES OF AMERICA:   COUNTRY
 SRVC.       SCHLUMBERGER:   SERVICE COMPANY
 DATE.        03-JUL-1982:   LOGDATE
 API .     49025108910000:   API NUMBER
~CURVE INFORMATION
#MNEM.UNIT       API CODE    CURVE DESCRIPTION
#----------   ------------   ------------------------------
 DEPT.F                  :   
 GRD .GAPI   45 310 01 00:   GAMMA RAY FROM DENSITY LOG
 NPHI.DEC    42 890 03 00:   NEUTRON POROSITY SANDSTONE
 CALD.IN     45 280 60 00:   CALIPER FROM DENSITY LOG
 RHOB.G/C3   45 350 01 00:   BULK DENSITY
 DRHO.G/C3   45 356 01 00:   DENSITY CORRECTION
 TEND.LBS    45 635 01 00:   TENSION FROM DENSITY LOG
 SPR .MV     07 010 01 00:   SPONTANEOUS POTENTIAL
 SFL .OHMM   07 220 01 00:   SHALLOW FOCUSED LOG RESISTIVITY
 ILD .OHMM   07 120 46 00:   DEEP INDUCTION RESISTIVITY
 ILM .OHMM   07 120 44 00:   INDUCTION LOG MEDIUM RESISTIVITY
 TENR.LBS    07 635 01 00:   TENSION FROM RESISTIVITY
~PARAMETER INFORMATION
#MNEM.UNIT          VALUE    DESCRIPTION
#----------   ------------   ------------------------------
 EKB .F         5182.0000:   Kelly bushing
 EGL .F         5172.0000:   Ground level
 EDF .F            0.0000:   Drilling floor
 EPD .F            0.0000:   Permanent datum
 TD  .F         3770.0000:   Total depth
 DATE.        03-JUL-1982:   Date logged
 CLNT.            A2DTECH:   Client Code
 SL  . 1119' FNL & 21' FEL:   Surface Location
 PD  .                 GL:   Permanent Datum
 DD  .F              3770:   Depth driller
 DL  .F              3750:   Depth logger
 BLI .F              3744:   Bottom log interval
 CS1 .IN            9.625:   Casing size
 CBD1.      9.625" @ 473':   Casing driller 1
 CBL1.F               482:   Casing logger 1
 BS1 .IN            7.875:   Bit size
 DFT .                GEL:   Type fluid in hole
 DFD .                9.1:   Density
 DFV .                 34:   Viscosity
 DFPH.               10.5:   pH
 DFL .                 12:   Fluid loss
 MSS .            MUD PIT:   Source of sample
 RMS .OHMM           1.50:   Rm
 MST .F                84:   Rm Meas. temp.
 RMF .OHMM           1.37:   Rmf
 MFST.F                83:   Rmf Meas. temp.
 RMC .OHMM           1.20:   Rmc
 MCST.F                83:   Rmc Meas. temp.
 MFSS.               MEAS:   Source Rmf.
 RMB .OHMM              1:   Rm. at BHT
 BHT .F               130:   BHT.
 TCS .HRS            1500:   Time Circ. stopped
 MRT .F               130:   Maximum recorded temp.
 LUN .               8039:   Logging unit number
 LUL .               CSPR:   Logging unit location
 ENGI. CONOSCENTI/PIRAKIS:   Recorded By
 WITN.             STRONG:   Witnessed by
 ORIG.       2.5"5" PRINT:   Origin of data
 UWI .     49025108910000:   Unique Well ID
 DICO. A2D TECHNOLOGIES, INC.:   Digitizing Company
 DAPD.                 10:   Feet Above Permanent Datum
 BSD1.               3770:   Depth drilled with bit1
 MCSS.               CALC:   Source Rmc.
 TLI .                482:   Top log interval
 TLAB.HR             1800:   Time logger at bottom
~OTHER INFORMATION
~A   DEPT      GRD       NPHI       CALD       RHOB       DRHO       TEND        SPR        SFL        ILD        ILM       TENR   
# ...
 3506.5000   167.3120     0.3230     8.2940     2.3760     0.0060  1900.0000   -35.5200     9.9640     7.6090     7.7360  1773.2469
 3507.0000   161.5110     0.3250     8.2940     2.3860     0.0000  1900.0000   -35.5300    10.6080     7.5910     7.7120  1773.5120
 3507.5000   159.2570     0.3120     8.2940     2.4000     0.0020  1900.0000   -35.5400    11.3590     7.5740     7.6950  1778.1880
 3508.0000   158.0260     0.3050     8.2940     2.4120     0.0060  1900.0000   -35.5490    12.1100     7.5540     7.8240  1783.5250
 3508.5000   159.0820     0.2980     8.2940     2.4260     0.0100  1900.0000   -35.5590    12.7380     7.7010     7.9840  1788.8621
 3509.0000   160.2400     0.2860     8.2940     2.4270     0.0140  1900.0000   -35.5690    12.2980     7.9120     8.0180  1793.8240
 3509.5000   164.7830     0.2880     8.2940     2.4200     0.0140  1900.0000   -35.5780    11.8580     8.1230     8.0580  1795.8940
 3510.0000   167.7780     0.2940     8.2940     2.4130     0.0140  1900.0000   -35.5880    11.4180     8.3330     8.2600  1797.9630
 3510.5000   169.1060     0.2980     8.2940     2.4110     0.0110  1900.0000   -35.5980    11.1310     8.5960     8.4770  1800.0330
 3511.0000   169.4640     0.2970     8.2940     2.4140     0.0090  1900.0000   -35.6080    12.5780     8.5400     8.6940  1802.1021
 3511.5000   166.0840     0.2920     8.2940     2.4170     0.0060  1900.0000   -35.6170    13.6530     8.4390     8.9110  1804.1720
 3512.0000   164.2760     0.2810     8.2940     2.4190     0.0030  1900.0000   -35.6270    14.5520     8.0620     9.0850  1806.2410
 3512.5000   166.8400     0.2690     8.2940     2.4230     0.0040  1900.0000   -35.6370    15.2330     7.6770     8.5530  1808.3101
 3513.0000   169.4810     0.2560     8.2940     2.4400     0.0090  1900.0000   -35.6460    14.3710     7.2910     8.0150  1810.3800
 3513.5000   170.9990     0.2590     8.2940     2.4570     0.0220  1900.0000   -35.6570    12.8800     6.9050     7.4770  1812.4490
 3514.0000   171.3840     0.2650     8.2940     2.4600     0.0340  1900.0000   -35.6350    10.6600     6.5200     6.9390  1819.8680
 3514.5000   170.8110     0.2780     8.2940     2.4600     0.0520  1900.0000   -35.6060     8.0180     6.3000     6.6390  1834.3540
 3515.0000   166.2160     0.3030     8.2940     2.4470     0.0470  1900.0000   -35.5770     6.5170     6.2230     6.8970  1848.8409
 3515.5000   160.8770     0.3320     8.2940     2.4280     0.0280  1900.0000   -35.5480     8.8090     6.6180     7.1050  1863.3270
 3516.0000   147.9380     0.3200     8.2940     2.4120     0.0130  1900.0000   -35.5190    12.1690     6.9920     7.3130  1871.4709
 3516.5000   150.0820     0.2760     8.2940     2.3930     0.0030  1900.0000   -35.4900    14.5460     7.3650     7.5210  1863.3590
 3517.0000   153.4080     0.2720     8.2940     2.3980     0.0070  1900.0000   -35.4610    14.2160     7.7870     7.9740  1855.2460
 3517.5000   157.4620     0.2710     8.2940     2.4060     0.0100  1900.0000   -35.4320    13.8900     8.3220     8.6720  1847.1340
 3518.0000   155.1890     0.2740     8.2910     2.3980     0.0110  1900.0000   -35.4030    14.2140     8.8570     9.3690  1839.0220
 3518.5000   149.9710     0.2770     8.2880     2.3940     0.0080  1900.0000   -35.3740    14.6620     9.3920     9.8160  1829.5310
 3519.0000   144.4620     0.2720     8.2840     2.3940     0.0060  1900.0000   -35.3450    15.1100     9.9270    10.0560  1817.3630
 3519.5000   143.4430     0.2620     8.2800     2.4140     0.0040  1900.0000   -35.3160    15.5580    10.2200    10.3570  1805.1940
 3520.0000   148.6450     0.2540     8.2770     2.4450     0.0050  1900.0000   -35.2880    15.6990    10.5130    10.6720  1793.0260
 3520.5000   152.3120     0.2580     8.2730     2.4720     0.0140  1900.0000   -35.2860    15.7480    10.8050    11.0280  1780.8580
 3521.0000   150.1220     0.2630     8.2690     2.4740     0.0250  1900.0000   -35.3880    15.7970    11.0980    11.5420  1773.1949
 3521.5000   144.4190     0.2680     8.2650     2.4630     0.0310  1900.0000   -35.4890    16.1530    11.4430    12.0600  1772.3130
 3522.0000   137.7450     0.2610     8.2620     2.4550     0.0290  1900.0000   -35.5890    17.7850    11.2730    12.5780  1771.4320
 3522.5000   128.8460     0.2500     8.2580     2.4570     0.0290  1900.0000   -35.6890    21.0590    11.0130    13.0210  1770.5500
 3523.0000   131.1380     0.2380     8.2540     2.4620     0.0280  1900.0000   -35.7870    24.1650    10.6650    12.2000  1769.6680
 3523.5000   139.0860     0.2250     8.2510     2.4680     0.0300  1900.0000   -35.8100    26.5020    10.3380    11.1580  1768.7860
 3524.0000   149.2310     0.2390     8.2470     2.4730     0.0350  1900.0000   -35.6480    19.5450     9.3590     9.7820  1767.9050
 3524.5000   152.0050     0.2620     8.2430     2.4770     0.0410  1900.0000   -35.4920    13.0020     8.5170    10.0570  1767.0229
 3525.0000   141.9080     0.2900     8.2390     2.4640     0.0400  1900.0000   -35.4620     9.6920     9.6920    10.4400  1766.1410
 3525.5000   131.7240     0.2800     8.2360     2.4510     0.0300  1900.0000   -35.4790    15.2770     9.7820    10.9270  1765.2590
 3526.0000   129.2240     0.2610     8.2320     2.4540     0.0220  1900.0000   -35.5020    21.4740     9.1930    10.5440  1764.3770
 3526.5000   133.6890     0.2440     8.2280     2.4610     0.0180  1900.0000   -35.5240    24.6160     8.6620     9.8050  1763.4960
 3527.0000   144.6210     0.2470     8.2240     2.4570     0.0190  1900.0000   -35.5460    21.2910     8.1320     9.0660  1762.6140
 3527.5000   154.5130     0.2520     8.2210     2.4450     0.0190  1900.0000   -35.5680    17.7420     7.6020     8.3260  1761.7321
 3528.0000   165.6730     0.2600     8.2170     2.4350     0.0200  1900.0000   -35.5910    14.1930     7.0720     7.5870  1760.8500
 3528.5000   183.5300     0.2680     8.2160     2.4240     0.0210  1900.0000   -35.6130    10.6440     6.8030     6.8480  1759.9690
 3529.0000   192.7290     0.3190     8.2180     2.4130     0.0210  1900.0000   -35.6350     7.0820     6.5440     6.3980  1759.0870
 3529.5000   194.0550     0.3300     8.2190     2.4010     0.0220  1900.0000   -35.6570     6.7000     6.2850     6.3340  1758.2050
 3530.0000   191.6640     0.3370     8.2200     2.3940     0.0230  1900.0000   -35.6800     8.5400     6.0260     6.3100  1757.3230
 3530.5000   189.6020     0.3310     8.2210     2.4060     0.0250  1900.0000   -35.7020    10.3650     5.7670     6.2850  1756.4420
 3531.0000   188.5530     0.3250     8.2230     2.4180     0.0270  1900.0000   -35.7240    11.0280     5.4690     6.1270  1755.5601
 3531.5000   188.4110     0.3240     8.2240     2.4310     0.0290  1900.0000   -35.7460    10.6300     5.4900     5.9070  1754.6780
 3532.0000   188.2460     0.3230     8.2250     2.4370     0.0300  1900.0000   -35.7680    10.0560     5.5200     5.6870  1753.7960
 3532.5000   187.9260     0.3040     8.2260     2.4320     0.0280  1900.0000   -35.7910     8.6350     5.3580     5.5710  1756.3170
 3533.0000   187.6560     0.2960     8.2280     2.4210     0.0270  1900.0000   -35.8130     7.3040     5.1920     5.7170  1760.4980
 3533.5000   182.1090     0.3070     8.2290     2.4210     0.0260  1900.0000   -35.8350     5.3200     5.3480     5.9300  1764.6801
 3534.0000   174.9920     0.3100     8.2300     2.4220     0.0250  1900.0000   -35.8510     7.0680     5.5420     6.1440  1768.8610
 3534.5000   168.1270     0.3100     8.2310     2.4230     0.0230  1900.0000   -35.8270    10.4960     5.7370     6.3580  1773.0430
 3535.0000   169.8120     0.3040     8.2330     2.4200     0.0220  1900.0000   -35.8020    12.9020     5.9430     6.5450  1777.2250
 3535.5000   173.8740     0.2920     8.2340     2.4140     0.0170  1900.0000   -35.7770    12.5350     6.3940     6.8190  1781.4060
 3536.0000   177.2090     0.2950     8.2350     2.4070     0.0150  1900.0000   -35.7520    10.8270     6.8730     7.1500  1785.5880
 3536.5000   178.8360     0.2980     8.2360     2.4120     0.0180  1900.0000   -35.7270    10.6560     7.3530     7.4810  1789.7690
