~VERSION INFORMATION
 VERS.                2.0:   CWLS LOG ASCII STANDARD - VERSION 2.0
 WRAP.                 NO:   ONE LINE PER DEPTH STEP
~WELL INFORMATION
#MNEM.UNIT      DATA TYPE    INFORMATION
#----------   ------------   ------------------------------
 STRT.F           30.0000:   START DEPTH
 STOP.F         5698.0000:   STOP DEPTH
 STEP.F            0.5000:   STEP LENGTH
 NULL.          -999.2500:   NO VALUE
 COMP. LAWRRENCE-ALLISON & ASSOCIATES:   COMPANY
 WELL. LAWERNCE "X" #41-3:   WELL
 FLD .           N P R #3:   FIELD
 LOC .       S3 T38N R78W:   LOCATION
 CNTY.            NATRONA:   COUNTY
 STAT.            WYOMING:   STATE
 CTRY. UNITED STATES OF AMERICA:   COUNTRY
 SRVC.      DRESSER ATLAS:   SERVICE COMPANY
 DATE.        04-JUN-1983:   LOGDATE
 API .     49025109200000:   API NUMBER
~CURVE INFORMATION
#MNEM.UNIT       API CODE    CURVE DESCRIPTION
#----------   ------------   ------------------------------
 DEPT.F                  :   
 TENS.LBS    60 635 01 00:   TENSION FROM SONIC
 DT  .US/F   60 520 00 00:   DELTA TIME
 SPR .MV     11 010 01 00:   SPONTANEOUS POTENTIAL FROM RES.
 TENR.LBS    11 635 01 00:   TENSION FROM RES. LOG
 GRR .GAPI   11 310 01 00:   GAMMA RAY FROM RES.
 CALR.IN     11 280 01 00:   CALIPER FROM RES.
 RMLL.OHMM   11 270 04 00:   MICRO LATEROLOG
 RD  .OHMM   11 220 10 00:   RESISTIVITY DEEP
 RS  .OHMM   11 220 09 00:   RESISTIVITY SHALLOW
 TEND.LBS    45 635 01 00:   TENSION FROM DENSITY LOG
 CORR.G/C3   45 356 01 00:   DENSITY CORRECTION
 RHOB.G/C3   45 350 01 00:   BULK DENSITY
 NPHI.DEC    42 890 03 00:   NEUTRON POROSITY SANDSTONE
~PARAMETER INFORMATION
#MNEM.UNIT          VALUE    DESCRIPTION
#----------   ------------   ------------------------------
 EKB .F         5157.5000:   Kelly bushing
 EGL .F         5147.5000:   Ground level
 EDF .F            0.0000:   Drilling floor
 TD  .F         5690.0000:   Total depth
 DATE.        04-JUN-1983:   Date logged
 CLNT.            A2DTECH:   Client Code
 SL  . 2218' FWL & 287' FNL:   Surface Location
 PD  .                 GL:   Permanent Datum
 EPD .F            5147.5:   Elevation Permanent Datum
 LMF .                 KB:   Log Measured From
 DMF .                 KB:   Drilling Measured From
 DD  .F              5690:   Depth driller
 DL  .F              5685:   Depth logger
 BLI .F              5682:   Bottom log interval
 CS1 .IN            9.625:   Casing size
 CBD1.       9.625 @ 568':   Casing driller 1
 CBL1.F               568:   Casing logger 1
 BS1 .IN             8.75:   Bit size
 DFT .        KCL-DRISPAC:   Type fluid in hole
 DFD .                9.1:   Density
 DFV .                 37:   Viscosity
 DFPH.                  8:   pH
 DFL .                3.8:   Fluid loss
 MSS .               TANK:   Source of sample
 RMS .OHMM           0.41:   Rm
 MST .F                75:   Rm Meas. temp.
 RMF .OHMM           0.28:   Rmf
 MFST.F                70:   Rmf Meas. temp.
 RMC .OHMM           0.53:   Rmc
 MCST.F                75:   Rmc Meas. temp.
 MFSS.               MEAS:   Source Rmf.
 RMB .OHMM           0.18:   Rm. at BHT
 BHT .F               160:   BHT.
 TCS .HRS               5:   Time Circ. stopped
 MRT .F               166:   Maximum recorded temp.
 LUN .               6274:   Logging unit number
 LUL .               GLTE:   Logging unit location
 ENGI.             RAUTIO:   Recorded By
 WITN.             STRONG:   Witnessed by
 ORIG.     2.5", 5" PRINT:   Origin of data
 UWI .     49025109200000:   Unique Well ID
 DICO. A2D TECHNOLOGIES, INC.:   Digitizing Company
 MCSS.               CALC:   Source Rmc.
 DAPD.                 10:   Feet Above Permanent Datum
 BSD1.               5690:   Depth drilled with bit1
~OTHER INFORMATION
~A   DEPT     TENS         DT        SPR       TENR         GRR      CALR       RMLL         RD         RS       TEND       CORR       RHOB       NPHI   
# ...
 5646.0000   -36.8610    46.5840   -23.6160    -4.5290    22.1660     9.9970    84.3960   173.4800    93.2070   236.9610     0.1090     2.7330     0.1130
 5646.5000   -36.8610    46.6050   -23.2840   -18.6780    21.5360     9.9850   181.0180   180.3030    92.6370   246.1520     0.1060     2.7200     0.1150
 5647.0000   -36.8610    46.7700   -22.9500   -28.5540    20.8280     9.8680   150.1770   187.1260    94.6430   249.2400     0.1070     2.7430     0.1170
 5647.5000   -36.8610    46.7700   -22.6110   -28.3240    20.1680     9.6870   109.6140   193.9490   102.2380   252.3280     0.1090     2.7660     0.1190
 5648.0000   -36.8610    47.0030   -22.3710   -27.9620    19.4080     9.5090    69.0510   201.8210   109.8330   254.9020     0.1100     2.7900     0.1210
 5648.5000   -36.8610    47.6310   -22.3620   -27.3160    18.8860     9.3370    28.4880   199.8450   117.1510   246.6630     0.1220     2.7990     0.1200
 5649.0000   -36.8610    48.3290   -22.3470   -26.7030    18.2390     9.1450    13.0860   187.9410   113.7180   239.6000     0.1370     2.7940     0.1200
 5649.5000   -36.8610    49.4780   -22.3370   -26.1370    18.7630     9.0450    12.3700   171.7060   108.2830   232.5380     0.1510     2.7460     0.1190
 5650.0000   -36.5140    50.6260   -22.3260   -25.5200    19.2770     9.0680    12.3700   165.3300   102.8470   225.4760     0.1330     2.7060     0.1260
 5650.5000   -35.3780    51.1590   -22.3150   -24.9230    19.9700     9.0720    23.9390   166.3390    97.4110   218.4130     0.0970     2.6620     0.1320
 5651.0000   -34.2410    51.1840   -22.3050   -24.3220    20.6360     9.1100    33.5610   167.5990    90.8890   222.4400     0.0580     2.6440     0.1350
 5651.5000   -33.1050    50.9830   -22.2930   -23.7230    20.4050     9.2320    43.1820   179.8990    99.6570   233.4420     0.0580     2.6540     0.1310
 5652.0000   -31.9690    50.4790   -22.2830   -23.1250    20.3260     9.3440    51.3450   208.7590   125.9630   244.4440     0.0600     2.6910     0.1220
 5652.5000   -32.9700    49.9490   -22.2720   -22.5440    20.2110     9.4360    66.9070   237.6190   138.5990   254.9020     0.0660     2.7490     0.1100
 5653.0000   -34.2310    49.5500   -22.2610   -21.9220    20.0820     9.5470    77.3610   266.4790   152.5870   280.8820     0.0800     2.7650     0.0980
 5653.5000   -35.4930    49.4970   -22.2500   -21.3400    19.9800     9.5100    82.2030   295.3390   166.5760   305.6370     0.1320     2.7550     0.0900
 5654.0000   -36.8610    49.5790   -22.2390   -20.7810    19.8570     9.4510    86.0770   335.5920   177.7660   333.3330     0.1120     2.7410     0.0930
 5654.5000   -25.3110    49.2320   -22.2280   -19.9830    19.9730     9.3920   143.8890   375.8450   211.4460   320.2450     0.0630     2.7450     0.0910
 5655.0000   -16.8000    48.8540   -22.2170   -19.7770    20.1150     9.3360   192.0660   416.0970   239.5130   303.9220     0.0090     2.7580     0.0890
 5655.5000   -18.0540    48.4380   -22.2060   -18.8070    20.2650     9.3930   220.9720   456.3500   267.5800   290.5390     0.0220     2.7670     0.0870
 5656.0000   -19.6310    48.0120   -22.1950   -16.9520    20.4100     9.4620   220.9720   443.7380   292.6860   274.5100     0.0530     2.7670     0.0860
 5656.5000   -21.2080    47.8740   -22.1840     4.2600    20.5540     9.5590   225.0150   422.7180   295.3390   286.9430     0.0230     2.7670     0.0870
 5657.0000   -18.4940    47.8740   -22.1720    10.0850    20.7020     9.5160   256.7320   401.6980   291.4310   300.4460     0.0330     2.7660     0.0870
 5657.5000   -13.0880    48.0830   -22.1610    -2.0050    20.8500     9.2380   302.7330   380.6780   284.9160   313.9480     0.0280     2.7640     0.0890
 5658.0000   -22.9550    48.4620   -22.1500   -12.8160    20.9800     9.0150   348.7340   380.6780   279.7040   327.4510     0.0400     2.7550     0.0910
 5658.5000   -37.6710    48.5760   -22.1390   -19.3150    21.1590     8.7410   394.7350   380.6780   298.6290   333.3330     0.0580     2.7570     0.0930
 5659.0000   -45.8810    48.5640   -22.1280   -18.5810    21.2660     9.0570   394.7350   380.6780   317.5540   333.3330     0.0510     2.7470     0.1010
 5659.5000   -43.1780    48.4520   -22.1170   -20.3710    21.3030     9.1400   373.6250   339.3800   317.5540   333.3330     0.0320     2.7220     0.1140
 5660.0000   -40.4750    48.3410   -22.1060   -22.5980    20.0380     9.1210   338.5810   311.8480   259.7570   333.3330     0.0290     2.6970     0.1260
 5660.5000   -37.7720    48.2300   -22.0950   -24.6670    18.9040     9.0650   261.5200   238.7490   201.9590   333.3330     0.0470     2.6720     0.1320
 5661.0000   -33.7260    48.1180   -22.0840   -26.8510    18.2610     9.0510   121.4350   177.8340   144.1620   333.3330     0.0620     2.6480     0.1350
 5661.5000   -28.9960    48.3780   -22.0730   -28.9690    18.8810     9.0160    33.1350   116.9180    86.3640   333.3330     0.0780     2.6220     0.1350
 5662.0000   -24.2660    48.8830   -22.0620   -31.1220    19.4000     8.9860    23.7590    92.5520    62.1090   325.6130     0.0940     2.5990     0.1270
 5662.5000   -19.5360    49.5240   -22.0510   -33.2590    20.1360     8.9760    27.8680    98.9790    63.6820   316.3300     0.0970     2.5770     0.1110
 5663.0000   -14.8060    50.7630   -22.0400   -35.3530  -999.2500     8.9770    40.1960   107.0120    67.6130   307.0470     0.1000     2.5540     0.0950
 5663.5000   -12.5180    52.5600   -22.0290   -37.6530  -999.2500     8.9770    37.6190   115.0460    73.1180   326.9120     0.1020     2.5340     0.0830
 5664.0000   -14.5450    54.2930   -22.0180   -37.7120  -999.2500     8.9770    32.9820   109.9600    71.8160   361.5690     0.1050     2.5200     0.0830
 5664.5000   -16.5720    55.4690   -22.0070   -36.1690  -999.2500     8.9770    28.3460   101.4840    65.9470   366.2070     0.1060     2.5040     0.0830
 5665.0000   -18.6000    56.6040   -21.9970   -34.8560  -999.2500     8.9770    24.6370    93.0070    60.2400   356.9240     0.1040     2.4900     0.0840
 5665.5000   -20.6270    57.6300   -21.9850   -33.4170  -999.2500     8.9770    24.1980    84.5310    54.5320   347.6410     0.0960     2.4720     0.0840
 5666.0000   -22.6540    58.2220   -21.9850   -32.1850  -999.2500     8.9770    23.7590    79.4990    49.9650   344.5530     0.0670     2.4510     0.0830
 5666.5000   -24.6810    58.2760   -21.9840   -30.7110  -999.2500     8.9770    24.1940    74.4670    47.0340   347.3040     0.0330     2.4480     0.0800
 5667.0000   -26.8300    58.4980   -21.9850   -28.9280  -999.2500     8.9770    25.5840    69.4350    44.5920   350.0540     0.0070     2.4580     0.0770
 5667.5000   -25.6450    58.9070   -21.9840   -34.8040  -999.2500     8.9770    26.9740    64.4030    42.1500   352.9410     0.0160     2.4660     0.0770
 5668.0000   -24.3840    59.3170   -21.9840   -47.3230  -999.2500     8.9770    27.4680    63.2460    40.1960   359.8040     0.0310     2.4730     0.0810
 5668.5000   -23.1220    59.6090   -21.9840   -37.9240  -999.2500     8.9770    22.6220  -999.2500  -999.2500   372.1810     0.0470     2.4650     0.0860
 5669.0000   -21.8150    59.6700   -21.9840   -30.6750  -999.2500     8.9770    17.7770  -999.2500  -999.2500   384.5590     0.0530     2.4540     0.0920
 5669.5000   -26.3750    59.7300   -21.9840   -21.1250  -999.2500     8.9770    17.4600  -999.2500  -999.2500   396.9360     0.0600     2.4470  -999.2500
 5670.0000   -31.1050    59.7900   -21.9840   -24.2780  -999.2500     8.9770    17.1440  -999.2500  -999.2500   401.9610     0.0670     2.4530  -999.2500
 5670.5000   -35.8350    59.8490   -21.9840   -35.5430  -999.2500     8.9770    19.8780  -999.2500  -999.2500   414.6710     0.0710     2.4560  -999.2500
 5671.0000   -40.5650    59.9100   -21.9840   -47.1780  -999.2500     8.9770    21.7000  -999.2500  -999.2500   425.2800     0.0640     2.4530  -999.2500
 5671.5000   -44.4160    60.4790   -21.9840   -47.5980  -999.2500     8.9770    22.9820  -999.2500  -999.2500   432.2160     0.0290     2.4490  -999.2500
