~VERSION INFORMATION
 VERS.                2.0:   CWLS LOG ASCII STANDARD - VERSION 2.0
 WRAP.                 NO:   ONE LINE PER DEPTH STEP
~WELL INFORMATION
#MNEM.UNIT      DATA TYPE    INFORMATION
#----------   ------------   ------------------------------
 STRT.F          620.0000:   START DEPTH
 STOP.F         4350.5000:   STOP DEPTH
 STEP.F            0.5000:   STEP LENGTH
 NULL.          -999.2500:   NO VALUE
 COMP.    FENIX & SCISSON:   COMPANY
 WELL. FENIX NPR 3 "LX" #25-10:   WELL
 FLD .                NPR:   FIELD
 LOC .      S10 T38N R78W:   LOCATION
 CNTY.            NATRONA:   COUNTY
 STAT.            WYOMING:   STATE
 CTRY. UNITED STATES OF AMERICA:   COUNTRY
 SRVC.              WELEX:   SERVICE COMPANY
 DATE.        06-MAR-1980:   LOGDATE
 API .     49025108070000:   API NUMBER
~CURVE INFORMATION
#MNEM.UNIT       API CODE    CURVE DESCRIPTION
#----------   ------------   ------------------------------
 DEPT.F                  :   
 CALD.IN     45 280 60 00:   CALIPER FROM DENSITY LOG
 GRD .GAPI   45 310 01 00:   GAMMA RAY FROM DENSITY LOG
 RHOB.G/C3   45 350 01 00:   BULK DENSITY
 CORR.G/C3   45 356 01 00:   DENSITY CORRECTION
 NPHI.DEC    42 890 03 00:   NEUTRON POROSITY SANDSTONE
 SPR .MV     07 010 01 00:   SPONTANEOUS POTENTIAL
 ILD .OHMM   07 120 46 00:   DEEP INDUCTION RESISTIVITY
 ILM .OHMM   07 120 44 00:   INDUCTION LOG MEDIUM RESISTIVITY
 SGRD.OHMM   07 220 05 00:   SHALLOW SHORT GUARD RESISTIVITY
~PARAMETER INFORMATION
#MNEM.UNIT          VALUE    DESCRIPTION
#----------   ------------   ------------------------------
 EKB .F         5247.0000:   Kelly bushing
 EGL .F         5237.0000:   Ground level
 EDF .F            0.0000:   Drilling floor
 TD  .F         4352.0000:   Total depth
 DATE.        06-MAR-1980:   Date logged
 CLNT.            A2DTECH:   Client Code
 SL  . 1075' FWL & 2450' FSL:   Surface Location
 PD  .                 GL:   Permanent Datum
 EPD .F              5237:   Elevation Permanent Datum
 LMF .                 KB:   Log Measured From
 DMF .                 KB:   Drilling Measured From
 DAPD.F                10:   Feet Above Permanent Datum
 DD  .F              4350:   Depth driller
 DL  .F              4352:   Depth logger
 BLI .F              4350:   Bottom log interval
 TLI .F               630:   Top log interval
 CS1 .IN            8.625:   Casing size
 CBD1.      8.625" @ 600':   Casing driller 1
 CBL1.F               632:   Casing logger 1
 BS1 .IN            7.875:   Bit size
 BSD1.F              4350:   Depth drilled with bit1
 DFT .           CHEM/GEL:   Type fluid in hole
 DFD .                8.9:   Density
 DFV .                 47:   Viscosity
 DFPH.               10.3:   pH
 DFL .                 10:   Fluid loss
 MSS .           FLOWLINE:   Source of sample
 RMS .OHMM            .89:   Rm
 MST .F                90:   Rm Meas. temp.
 RMF .OHMM            .71:   Rmf
 MFST.F                90:   Rmf Meas. temp.
 RMC .OHMM           1.06:   Rmc
 MCST.F                90:   Rmc Meas. temp.
 MFSS.               MEAS:   Source Rmf.
 MCSS.               MEAS:   Source Rmc.
 RMB .OHMM            .60:   Rm. at BHT
 BHT .F               112:   BHT.
 TCS .HRS               1:   Time Circ. stopped
 MRT .F               132:   Maximum recorded temp.
 LUN .               1892:   Logging unit number
 LUL .             CASPER:   Logging unit location
 ENGI.               REIN:   Recorded By
 WITN.           DINSMORE:   Witnessed by
 ORIG.           5" PRINT:   Origin of data
 UWI .     49025108070000:   Unique Well ID
 DICO. A2D TECHNOLOGIES, INC.:   Digitizing Company
~OTHER INFORMATION
~A   DEPT     CALD        GRD       RHOB       CORR       NPHI         SPR       ILD        ILM         SGRD 
# ...
 1094.5000    14.2860    71.4900     2.1860     0.0040     0.2300   -20.5350     6.7850     7.2470     6.9900
 1095.0000    14.2850    72.1870     2.1780     0.0000     0.2310   -19.9810     6.8060     7.2470     7.0010
 1095.5000    14.2850    72.8490     2.1710    -0.0050     0.2310   -20.0430     6.8270     7.2470     7.0120
 1096.0000    14.2840    72.3920     2.1690    -0.0100     0.2310   -20.1290     6.8480     7.2470     7.0220
 1096.5000    14.2840    71.9300     2.1680    -0.0150     0.2310   -20.2420     6.8680     7.2470     7.0330
 1097.0000    14.2830    71.3820     2.1660    -0.0190     0.2290   -20.3370     6.8890     7.2470     7.0440
 1097.5000    14.2820    71.1070     2.1620    -0.0240     0.2270   -20.4390     6.9100     7.2470     7.0550
 1098.0000    14.2820    71.1700     2.1500    -0.0280     0.2240   -20.5400     6.9310     7.2470     7.0650
 1098.5000    14.2810    71.2940     2.1390    -0.0340     0.2220   -20.6400     6.9520     7.2470     7.0760
 1099.0000    14.2810    71.4300     2.1320    -0.0410     0.2190   -20.7410     6.9830     7.2470     7.0870
 1099.5000    14.2800    71.5620     2.1250    -0.0470     0.2180   -20.8410     6.9770     7.2470     7.0970
 1100.0000    14.2800    71.7130     2.1220    -0.0480     0.2190   -20.9420     6.9560     7.2470     7.1090
 1100.5000    14.2790    71.7250     2.1270    -0.0480     0.2200   -21.0430     6.9350     7.2470     7.1150
 1101.0000    14.2790    71.7280     2.1340    -0.0440     0.2220   -21.1430     6.9140     7.2470     7.1140
 1101.5000    14.2780    71.7240     2.1410    -0.0380     0.2210   -21.2440     6.8940     7.2470     7.1140
 1102.0000    14.2770    71.7260     2.1490    -0.0310     0.2200   -21.3460     6.8740     7.2470     7.1140
 1102.5000    14.2770    71.7270     2.1590    -0.0250     0.2220   -21.4420     6.8530     7.2470     7.1140
 1103.0000    14.2760    71.7220     2.1590    -0.0180     0.2230   -21.5510     6.8330     7.2470     7.1140
 1103.5000    14.2760    71.7320     2.1510    -0.0120     0.2230   -21.6440     6.8120     7.2470     7.1140
 1104.0000    14.2750    71.7400     2.1460    -0.0080     0.2260   -21.6950     6.7920     7.2470     7.1140
 1104.5000    14.2750    72.3270     2.1420    -0.0040     0.2290   -21.3330     6.7710     7.2470     7.1140
 1105.0000    14.2740    73.3190     2.1400     0.0010     0.2330   -21.0310     6.7510     7.2470     7.1140
 1105.5000    14.2730    74.2940     2.1410     0.0050     0.2370   -20.7020     6.7310     7.2470     7.1140
 1106.0000    14.2690    75.3140     2.1450     0.0070     0.2410   -20.3900     6.7100     7.2470     7.1140
 1106.5000    14.2660    76.2910     2.1490     0.0020     0.2430   -20.0620     6.6900     7.2470     7.1140
 1107.0000    14.2630    76.9850     2.1540    -0.0030     0.2440   -19.9290     6.6690     7.2470     7.1140
 1107.5000    14.2600    75.9190     2.1590    -0.0080     0.2440   -19.9440     6.6490     7.2470     7.1150
 1108.0000    14.2570    75.0760     2.1660    -0.0130     0.2430   -19.9430     6.6280     7.2470     7.1140
 1108.5000    14.2540    74.1350     2.1840    -0.0180     0.2410   -20.0650     6.6080     7.2480     7.1490
 1109.0000    14.2510    74.2670     2.1930    -0.0190     0.2390   -20.2270     6.6970     7.2760     7.2350
 1109.5000    14.2480    74.5300     2.1980    -0.0160     0.2380   -20.3870     6.7850     7.3030     7.3210
 1110.0000    14.2450    74.8200     2.2010    -0.0140     0.2360   -20.5460     6.8560     7.3320     7.4070
 1110.5000    14.2420    75.0840     2.1970    -0.0120     0.2340   -20.7060     8.0960     7.3600     7.4930
 1111.0000    14.2380    75.2420     2.1880    -0.0090     0.2320   -20.8660     8.0830     7.3890     7.5790
 1111.5000    14.2350    74.6520     2.1790    -0.0090     0.2320   -21.0240     8.0700     7.4170     7.6650
 1112.0000    14.2320    73.7310     2.1710    -0.0110     0.2310   -21.1850     8.0580     7.4450     7.8020
 1112.5000    14.2290    72.6990     2.1610    -0.0130     0.2310   -21.3440     8.0450     7.4740     7.7990
 1113.0000    14.2260    72.2710     2.1510    -0.0150     0.2310   -21.4990     8.0320     7.5040     7.7920
 1113.5000    14.2230    72.3850     2.1500    -0.0170     0.2320   -21.6740     8.0200     7.5170     7.7840
 1114.0000    14.2200    71.7810     2.1520    -0.0190     0.2320   -21.6450     8.0070     7.5050     7.7770
 1114.5000    14.2170    70.7140     2.1570    -0.0210     0.2330   -21.4690     7.9940     7.4950     7.7690
 1115.0000    14.2140    69.9630     2.1620    -0.0240     0.2330   -21.3110     7.9820     7.4860     7.7620
 1115.5000    14.2110    70.2810     2.1680    -0.0230     0.2330   -21.1540     7.9690     7.4760     7.7550
 1116.0000    14.2070    70.6730     2.1710    -0.0230     0.2340   -20.9920     7.9560     7.4660     7.7470
 1116.5000    14.2040    71.1010     2.1660    -0.0220     0.2350   -20.8330     7.9440     7.4560     7.7400
 1117.0000    14.2010    71.5110     2.1550    -0.0210     0.2370   -20.6750     7.9310     7.4460     7.7320
 1117.5000    14.1980    71.9230     2.1440    -0.0200     0.2380   -20.5130     7.9180     7.4360     7.7250
 1118.0000    14.1950    72.3330     2.1360    -0.0190     0.2380   -20.3550     7.9060     7.4270     7.7170
 1118.5000    14.1960    72.7670     2.1300    -0.0190     0.2360   -20.1980     7.8930     7.4170     7.7100
 1119.0000    14.1970    72.9080     2.1280    -0.0180     0.2350   -20.0220     7.8810     7.4070     7.7030
 1119.5000    14.1990    72.6930     2.1280    -0.0170     0.2330   -19.9850     7.8680     7.3970     7.6950
 1120.0000    14.2010    72.4190     2.1270    -0.0160     0.2320   -20.1390     7.8550     7.3870     7.6880
 1120.5000    14.2020    73.6710     2.1260    -0.0160     0.2330   -20.2750     7.8430     7.3770     7.6800
 1121.0000    14.2040    75.7330     2.1190    -0.0150     0.2340   -20.4140     7.8300     7.3670     7.6730
 1121.5000    14.2060    75.8750     2.1200    -0.0140     0.2350   -20.5550     7.8170     7.3570     7.6650
 1122.0000    14.2070    75.8240     2.1240    -0.0130     0.2360   -20.6930     7.8020     7.3480     7.6570
 1122.5000    14.2090    74.6560     2.1310    -0.0130     0.2370   -20.8330     7.7780     7.3380     7.6270
 1123.0000    14.2110    73.7360     2.1440    -0.0120     0.2390   -20.9740     7.7470     7.3280     7.6010
 1123.5000    14.2120    72.7210     2.1590    -0.0150     0.2380   -21.1110     7.7160     7.3180     7.5740
 1124.0000    14.2140    72.0160     2.1610    -0.0020     0.2370   -21.2530     7.6850     7.3080     7.5470
 1124.5000    14.2160    71.5230     2.1560     0.0040     0.2350   -21.3920     7.6540     7.2980     7.5210
 1125.0000    14.2170    71.2070     2.1530     0.0010     0.2330   -21.5250     7.6220     7.2880     7.4940
 1125.5000    14.2190    71.8660     2.1460    -0.0020     0.2300   -21.6900     7.5900     7.2780     7.4670
 1126.0000    14.2210    72.2310     2.1360    -0.0040     0.2280   -21.5620     7.5580     7.2680     7.4410
 1126.5000    14.2220    71.3970     2.1270    -0.0060     0.2270   -21.2210     7.5240     7.2590     7.4140
 1127.0000    14.2240    70.7100     2.1290    -0.0090     0.2290   -20.9110     7.6540     7.2480     7.3820
 1127.5000    14.2260    69.9720     2.1310    -0.0110     0.2310   -20.6000     7.6920     7.2470     7.3990
 1128.0000    14.2270    69.9500     2.1340    -0.0120     0.2300   -20.2860     7.7250     7.2470     7.4180
 1128.5000    14.2290    69.9330     2.1350    -0.0110     0.2340   -19.9680     7.7580     7.2470     7.4390
 1129.0000    14.2310    69.9410     2.1320    -0.0040     0.2330   -19.6620     7.7900     7.2470     7.4590
 1129.5000    14.2320    69.9470     2.1260     0.0040     0.2350   -19.3660     7.8220     7.2470     7.4800
 1130.0000    14.2340    69.9280     2.1230     0.0030     0.2350   -19.4180     7.8540     7.2470     7.5000
 1130.5000    14.2340    69.9470     2.1190     0.0020     0.2380   -19.4790     7.8850     7.2470     7.5210
