~VERSION INFORMATION
 VERS.                2.0:   CWLS LOG ASCII STANDARD - VERSION 2.0
 WRAP.                 NO:   ONE LINE PER DEPTH STEP
~WELL INFORMATION
#MNEM.UNIT      DATA TYPE    INFORMATION
#----------   ------------   ------------------------------
 STRT.F            0.0000:   START DEPTH
 STOP.F         3358.0000:   STOP DEPTH
 STEP.F            0.5000:   STEP LENGTH
 NULL.          -999.2500:   NO VALUE
 COMP. LAWRENCE ALLISON & ASSOC.:   COMPANY
 WELL. LAWRENCE NPR 3 "X" #14-11:   WELL
 FLD .                NPR:   FIELD
 LOC .      S11 T38N R78W:   LOCATION
 CNTY.            NATRONA:   COUNTY
 STAT.            WYOMING:   STATE
 CTRY. UNITED STATES OF AMERICA:   COUNTRY
 SRVC.      DRESSER ATLAS:   SERVICE COMPANY
 DATE.        25-SEP-1985:   LOGDATE
 API .     49025110470000:   API NUMBER
~CURVE INFORMATION
#MNEM.UNIT       API CODE    CURVE DESCRIPTION
#----------   ------------   ------------------------------
 DEPT.F                  :   
 TENR.LBS    07 635 01 00:   TENSION
 SPR .MV     07 010 01 00:   SPONTANEOUS POTENTIAL
 SFL .OHMM   07 220 01 00:   SHALLOW FOCUSED LOG RESISTIVITY
 ILD .OHMM   07 120 46 00:   DEEP INDUCTION RESISTIVITY
 ILM .OHMM   07 120 44 00:   INDUCTION LOG MEDIUM RESISTIVITY
 TENS.LBS    60 635 01 00:   TENSION FROM SONIC LOG
 DT  .US/F   60 520 00 00:   DELTA TIME
 TEND.LBS    45 635 01 00:   TENSION FROM DENSITY LOG
 RHOB.G/C3   45 350 01 00:   BULK DENSITY
 CORR.G/C3   45 356 01 00:   DENSITY CORRECTION
 NPHI.DEC    42 890 01 00:   NEUTRON POROSITY LIMESTONE
 GRR .GAPI   07 310 01 00:   GAMMA RAY FROM RESISTIVITY
~PARAMETER INFORMATION
#MNEM.UNIT          VALUE    DESCRIPTION
#----------   ------------   ------------------------------
 EKB .F         5184.0000:   Kelly bushing
 EGL .F         5173.0000:   Ground level
 EDF .F            0.0000:   Drilling floor
 TD  .F         3353.0000:   Total depth
 DATE.        25-SEP-1985:   Date logged
 CLNT.            A2DTECH:   Client Code
 SL  . 473' FWL & 2360' FNL:   Surface Location
 PD  .                 GL:   Permanent Datum
 EPD .F              5173:   Elevation Permanent Datum
 LMF .                 KB:   Log Measured From
 DMF .                 KB:   Drilling Measured From
 DAPD.F                11:   Feet Above Permanent Datum
 DD  .F              3353:   Depth driller
 DL  .F              3346:   Depth logger
 BLI .F              3344:   Bottom log interval
 CS1 .IN            8.625:   Casing size
 CBD1.      8.625" @ 586':   Casing driller 1
 CBL1.F               585:   Casing logger 1
 BS1 .IN            7.875:   Bit size
 BSD1.F              3353:   Depth drilled with bit1
 DFT .     GEL/KCL/STAFLO:   Type fluid in hole
 DFD .                8.9:   Density
 DFV .                 39:   Viscosity
 DFPH.                  8:   pH
 DFL .                8.9:   Fluid loss
 MSS .           FLOWLINE:   Source of sample
 RMS .OHMM            .45:   Rm
 MST .F                80:   Rm Meas. temp.
 RMF .OHMM            .33:   Rmf
 MFST.F                80:   Rmf Meas. temp.
 RMC .OHMM            .56:   Rmc
 MCST.F                80:   Rmc Meas. temp.
 MFSS.               CALC:   Source Rmf.
 MCSS.               CALC:   Source Rmc.
 RMB .OHMM            .27:   Rm. at BHT
 BHT .F               130:   BHT.
 TCS .HRS               3:   Time Circ. stopped
 MRT .F               135:   Maximum recorded temp.
 LUN .               6274:   Logging unit number
 LUL .               GLTE:   Logging unit location
 ENGI.               MACK:   Recorded By
 WITN.             STRONG:   Witnessed by
 ORIG.           5" PRINT:   Origin of data
 UWI .     49025110470000:   Unique Well ID
 DICO. A2D TECHNOLOGIES, INC.:   Digitizing Company
~OTHER INFORMATION
~A    DEPT    TENR        SPR        SFL        ILD        ILM       TENS         DT       TEND       RHOB       CORR       NPHI         GRR  
# ...
 2240.0000   -80.8540   -56.5330     6.0780     4.7950     4.7940  -999.2500  -999.2500  -999.2500  -999.2500  -999.2500  -999.2500    54.6420
 2240.5000   -80.7060   -56.3040     5.9990     4.5210     4.4770  -999.2500  -999.2500  -999.2500  -999.2500  -999.2500  -999.2500    55.1480
 2241.0000   -80.5580   -55.9990     5.7450     4.2100     4.1600  -999.2500  -999.2500  -999.2500  -999.2500  -999.2500  -999.2500    54.7100
 2241.5000   -80.4100   -55.8080     5.3060     3.9200     3.9920  -999.2500  -999.2500  -999.2500  -999.2500  -999.2500  -999.2500    54.2820
 2242.0000   -80.2620   -55.3950     4.8680     3.9200     3.9920  -999.2500  -999.2500  -999.2500  -999.2500  -999.2500  -999.2500    54.0040
 2242.5000   -80.1140   -54.7870     4.3750     3.9200     3.9920  -999.2500  -999.2500  -999.2500  -999.2500  -999.2500  -999.2500    53.7160
 2243.0000   -79.9670   -54.2490     4.5040     3.9200     3.9920  -999.2500  -999.2500  -999.2500  -999.2500  -999.2500  -999.2500    53.4100
 2243.5000   -79.8190   -54.3260     4.6990     3.9200     3.9920  -999.2500  -999.2500  -999.2500  -999.2500  -999.2500  -999.2500    53.1200
 2244.0000   -79.6710   -54.5180     4.8940     3.9920     4.0660  -999.2500  -999.2500  -999.2500  -999.2500  -999.2500  -999.2500    52.8300
 2244.5000   -79.5230   -54.7180     5.1590     3.9920     4.0660  -999.2500  -999.2500  -999.2500  -999.2500  -999.2500  -999.2500    52.5290
 2245.0000   -79.3750   -54.8970     5.1340     3.9920     4.0810  -999.2500  -999.2500  -999.2500  -999.2500  -999.2500  -999.2500    52.1780
 2245.5000   -79.2270   -55.0930     5.0950     4.0440     4.1410  -999.2500  -999.2500  -999.2500  -999.2500  -999.2500  -999.2500    51.4100
 2246.0000   -79.0800   -55.2790     5.0650     4.1410     4.2180  -999.2500  -999.2500  -999.2500  -999.2500  -999.2500  -999.2500    50.2590
 2246.5000   -78.9320   -55.4690     5.1090     4.1100     4.1560  -999.2500  -999.2500  -999.2500  -999.2500  -999.2500  -999.2500    50.1280
 2247.0000   -78.7840   -55.6590     5.2110     4.0370     4.0820  -999.2500  -999.2500  -999.2500  -999.2500  -999.2500  -999.2500    50.8790
 2247.5000   -78.6360   -55.8430     5.3130     3.9640     4.0080  -999.2500  -999.2500  -999.2500  -999.2500  -999.2500  -999.2500    52.7260
 2248.0000   -78.4880   -56.0530     5.3510     3.8910     3.9200  -999.2500  -999.2500  -999.2500  -999.2500  -999.2500  -999.2500    54.1670
 2248.5000   -78.3410   -56.1180     4.8640     3.7790     3.8490  -999.2500  -999.2500  -999.2500  -999.2500  -999.2500  -999.2500    55.1870
 2249.0000   -78.1930   -55.9960     4.7080     3.8060     3.8790  -999.2500  -999.2500  -999.2500  -999.2500  -999.2500  -999.2500    56.3880
 2249.5000   -78.0450   -55.9000     4.7950     3.8500     3.9280  -999.2500  -999.2500  -999.2500  -999.2500  -999.2500  -999.2500    55.7600
 2250.0000   -77.8970   -55.7930     4.7950     3.8950     3.9770  -999.2500  -999.2500  -999.2500  -999.2500  -999.2500  -999.2500    54.8880
 2250.5000   -77.7490   -55.6890     4.6670     3.9390     4.0260  -999.2500  -999.2500  -999.2500  -999.2500  -999.2500  -999.2500    53.6660
 2251.0000   -77.6010   -55.5850     4.5380     3.9920     4.0660  -999.2500  -999.2500  -999.2500  -999.2500  -999.2500  -999.2500    53.6720
 2251.5000   -77.4540   -55.4810     4.3750     3.9920     4.0660  -999.2500  -999.2500  -999.2500  -999.2500  -999.2500  -999.2500    54.0900
 2252.0000   -77.3060   -55.3770     4.9750     3.9920     4.0660  -999.2500  -999.2500  -999.2500  -999.2500  -999.2500  -999.2500    52.4120
 2252.5000   -77.1580   -55.2730     5.5830     3.9140     4.0660  -999.2500  -999.2500  -999.2500  -999.2500  -999.2500  -999.2500    51.1660
 2253.0000   -77.0100   -55.1680     6.0830     3.8470     3.9620  -999.2500  -999.2500  -999.2500  -999.2500  -999.2500  -999.2500    51.6530
 2253.5000   -76.8620   -55.0630     5.6350     3.7790     3.8490  -999.2500  -999.2500  -999.2500  -999.2500  -999.2500  -999.2500    52.3000
 2254.0000   -76.7140   -54.9590     5.0560     3.7790     3.8490  -999.2500  -999.2500  -999.2500  -999.2500  -999.2500  -999.2500    52.6430
 2254.5000   -76.5670   -54.8520     4.4780     3.8990     4.0350  -999.2500  -999.2500  -999.2500  -999.2500  -999.2500  -999.2500    52.5560
 2255.0000   -76.4190   -54.7540     3.9920     4.0550     4.2960  -999.2500  -999.2500  -999.2500  -999.2500  -999.2500  -999.2500    52.4420
 2255.5000   -76.2710   -54.6400     4.3090     4.2180     4.2610  -999.2500  -999.2500  -999.2500  -999.2500  -999.2500  -999.2500    50.7770
 2256.0000   -76.1230   -54.5580     4.9870     4.1410     4.2180  -999.2500  -999.2500  -999.2500  -999.2500  -999.2500  -999.2500    49.6020
 2256.5000   -75.9750   -54.2100     5.6650     4.2140     4.3760  -999.2500  -999.2500  -999.2500  -999.2500  -999.2500  -999.2500    49.0730
 2257.0000   -75.8270   -53.7540     5.9730     4.4210     4.5870  -999.2500  -999.2500  -999.2500  -999.2500  -999.2500  -999.2500    51.3260
 2257.5000   -75.6800   -53.3090     5.7320     4.6280     4.7980  -999.2500  -999.2500  -999.2500  -999.2500  -999.2500  -999.2500    53.5290
 2258.0000   -75.5320   -52.8290     5.5510     4.9730     5.0600  -999.2500  -999.2500  -999.2500  -999.2500  -999.2500  -999.2500    55.2770
 2258.5000   -75.3840   -52.5930     5.6380     4.9510     5.0500  -999.2500  -999.2500  -999.2500  -999.2500  -999.2500  -999.2500    54.0610
 2259.0000   -75.2360   -53.0920     5.8640     4.8830     5.0290  -999.2500  -999.2500  -999.2500  -999.2500  -999.2500  -999.2500    52.2880
 2259.5000   -75.0880   -53.5670     5.7610     4.8150     5.0080  -999.2500  -999.2500  -999.2500  -999.2500  -999.2500  -999.2500    51.3540
 2260.0000   -74.9400   -54.0730     5.4410     4.7480     4.9880  -999.2500  -999.2500  -999.2500  -999.2500  -999.2500  -999.2500    51.7330
 2260.5000   -74.7930   -54.5640     5.3510     4.6800     4.8830  -999.2500  -999.2500  -999.2500  -999.2500  -999.2500  -999.2500    51.7070
 2261.0000   -74.6450   -55.0550     5.5460     4.6120     4.7340  -999.2500  -999.2500  -999.2500  -999.2500  -999.2500  -999.2500    51.5570
 2261.5000   -74.4970   -55.5590     5.7590     4.5380     4.5380  -999.2500  -999.2500  -999.2500  -999.2500  -999.2500  -999.2500    51.4430
 2262.0000   -74.3490   -56.0370     5.8640     4.4560     4.5650  -999.2500  -999.2500  -999.2500  -999.2500  -999.2500  -999.2500    51.8710
 2262.5000   -74.2010   -56.5290     5.0690     4.5140     4.6180  -999.2500  -999.2500  -999.2500  -999.2500  -999.2500  -999.2500    52.4250
 2263.0000   -74.0530   -56.3500     4.6220     4.5660     4.6720  -999.2500  -999.2500  -999.2500  -999.2500  -999.2500  -999.2500    52.0740
 2263.5000   -73.9060   -55.9770     4.9870     4.6180     4.7250  -999.2500  -999.2500  -999.2500  -999.2500  -999.2500  -999.2500    51.0700
 2264.0000   -73.7580   -55.6200     5.5130     4.6700     4.7780  -999.2500  -999.2500  -999.2500  -999.2500  -999.2500  -999.2500    51.7690
 2264.5000   -73.6100   -55.2780     6.0380     4.7230     4.8320  -999.2500  -999.2500  -999.2500  -999.2500  -999.2500  -999.2500    52.4220
 2265.0000   -73.4620   -54.9150     6.3100     4.7770     4.8830  -999.2500  -999.2500  -999.2500  -999.2500  -999.2500  -999.2500    53.3880
 2265.5000   -73.3140   -54.5500     6.1580     4.7950     4.8050  -999.2500  -999.2500  -999.2500  -999.2500  -999.2500  -999.2500    52.5310
 2266.0000   -73.1660   -54.2030     6.0830     4.5530     4.5250  -999.2500  -999.2500  -999.2500  -999.2500  -999.2500  -999.2500    50.8630
 2266.5000   -73.0190   -54.4460     5.7480     4.2780     4.2440  -999.2500  -999.2500  -999.2500  -999.2500  -999.2500  -999.2500    50.2730
 2267.0000   -72.8710   -54.6440     5.3150     4.0020     3.9630  -999.2500  -999.2500  -999.2500  -999.2500  -999.2500  -999.2500    50.3190
 2267.5000   -72.7230   -54.8820     4.8830     3.7260     3.6430  -999.2500  -999.2500  -999.2500  -999.2500  -999.2500  -999.2500    51.6490
