~VERSION INFORMATION
 VERS.                2.0:   CWLS LOG ASCII STANDARD - VERSION 2.0
 WRAP.                 NO:   ONE LINE PER DEPTH STEP
~WELL INFORMATION
#MNEM.UNIT      DATA TYPE    INFORMATION
#----------   ------------   ------------------------------
 STRT.F           85.5000:   START DEPTH
 STOP.F         3267.0000:   STOP DEPTH
 STEP.F            0.5000:   STEP LENGTH
 NULL.          -999.2500:   NO VALUE
 COMP. LAWRENCE ALLISON & ASSOCIATES:   COMPANY
 WELL. LAWRENCE "X" #78-33:   WELL
 FLD .           N P R #3:   FIELD
 LOC .      S33 T39N R78W:   LOCATION
 CNTY.            NATRONA:   COUNTY
 STAT.            WYOMING:   STATE
 CTRY. UNITED STATES OF AMERICA:   COUNTRY
 SRVC.      DRESSER ATLAS:   SERVICE COMPANY
 DATE.        04-FEB-1986:   LOGDATE
 API .     49025110630000:   API NUMBER
~CURVE INFORMATION
#MNEM.UNIT       API CODE    CURVE DESCRIPTION
#----------   ------------   ------------------------------
 DEPT.F                  :   
 CNC .DEC    42 890 03 00:   NEUTRON PORISITY SANDSTONE
 DEN .G/C3   45 350 01 00:   BULK DENSITY
 DCOR.G/C3   45 356 01 00:   DENSITY CORRECTION
 TEND.LBS    45 635 01 00:   TENSION FROM DENSITY LOG
 GRR .GAPI   07 310 01 00:   GAMMA RAY FROM RESISTIVITY
 CALR.IN     07 280 01 00:   CALIPER FROM RESISTIVITY
 RILM.OHMM   07 120 44 00:   INDUCTION LOG MEDIUM RESISTIVITY
 RILD.OHMM   07 120 46 00:   DEEP INDUCTION RESISTIVITY
 RFOC.OHMM   07 220 04 00:   RESISTIVITY FOCUSED LOG RES.
 TENR.LBS    07 635 01 00:   TENSION FROM RESISTIVITY
 DT  .US/F   60 520 00 00:   DELTA TIME
 TENS.LBS    60 635 01 00:   TENSION FROM SONIC
 SPR .MV     07 010 01 00:   SPONTANEOUS POTENTIAL
~PARAMETER INFORMATION
#MNEM.UNIT          VALUE    DESCRIPTION
#----------   ------------   ------------------------------
 EKB .F            0.0000:   Kelly bushing
 EGL .F         5150.0000:   Ground level
 EDF .F         5161.0000:   Drilling floor
 TD  .F         3260.0000:   Total depth
 DATE.        04-FEB-1986:   Date logged
 CLNT.            A2DTECH:   Client Code
 SL  . 1200' FEL & 650' FEL:   Surface Location
 PD  .                 GL:   Permanent Datum
 DD  .F              3260:   Depth driller
 DL  .F              3260:   Depth logger
 BLI .F              3258:   Bottom log interval
 CS1 .IN            8.625:   Casing size
 CBD1.      8.625" @ 566':   Casing driller 1
 CBL1.F               566:   Casing logger 1
 BS1 .IN            7.875:   Bit size
 DFT .        POLYMER-KCL:   Type fluid in hole
 DFD .                9.0:   Density
 DFV .                 36:   Viscosity
 DFPH.                8.5:   pH
 DFL .                 14:   Fluid loss
 MSS .           FLOWLINE:   Source of sample
 RMS .OHMM          0.367:   Rm
 MST .F                65:   Rm Meas. temp.
 RMF .OHMM          0.275:   Rmf
 MFST.F                65:   Rmf Meas. temp.
 RMC .OHMM          0.459:   Rmc
 MCST.F                65:   Rmc Meas. temp.
 MFSS.               CALC:   Source Rmf.
 RMB .OHMM          0.227:   Rm. at BHT
 BHT .F               105:   BHT.
 TCS .HRS               6:   Time Circ. stopped
 MRT .F               105:   Maximum recorded temp.
 LUN .               6274:   Logging unit number
 LUL .           GILLETTE:   Logging unit location
 ENGI.             MILLER:   Recorded By
 WITN.             STRONG:   Witnessed by
 ORIG.           5" PRINT:   Origin of data
 UWI .     49025110630000:   Unique Well ID
 DICO. A2D TECHNOLOGIES, INC.:   Digitizing Company
 DAPD.                 11:   Feet Above Permanent Datum
 BSD1.               3260:   Depth drilled with bit1
 MCSS.               CALC:   Source Rmc.
 EPD .F              5150:   Elevation Permanent Datum
 LMF .                 KB:   Log Measured From
 DMF .                 KB:   Drilling Measured From
 TLI .                566:   Top log interval
~OTHER INFORMATION
~A   DEPT      CNC        DEN       DCOR       TEND         GRR      CALR       RILM       RILD       RFOC       TENR         DT       TENS        SPR   
# ...
 3049.5000     0.2290     2.4480    -0.0210   -71.8520    99.1670     9.0500     3.6050     3.5820     4.2100   -22.4520    84.5950   -27.6650   -59.9920
 3050.0000     0.2330     2.4520    -0.0100   -73.0060    99.0390     9.0540     3.6620     3.5570     4.3070   -25.8080    84.1010   -30.5740   -59.9530
 3050.5000     0.2350     2.4560     0.0050   -72.8400    98.9610     9.0700     3.7180     3.6310     4.3960   -29.1650    83.4850   -33.4830   -60.5710
 3051.0000     0.2310     2.4600     0.0180   -71.3280    98.1330     9.0790     3.7750     3.7140     4.3720   -32.5220    82.7460   -32.3780   -61.3890
 3051.5000     0.2220     2.4650     0.0130   -69.8160    97.7600     9.0830     3.8290     3.7340     4.3550   -35.0000    82.0070   -26.9000   -62.3560
 3052.0000     0.2190     2.4690     0.0000   -68.3040    99.2080     9.0890     3.7800     3.6820     4.7900   -18.0360    81.5570   -21.4220   -63.2570
 3052.5000     0.2350     2.4700     0.0010   -66.7920   102.9580     9.0940     3.7350     3.6290     5.2850    -5.0000    81.6250   -15.9440   -63.1140
 3053.0000     0.2360     2.4700     0.0150   -65.2800   104.2090     9.0990     3.6900     3.5760     4.9800    -9.2330    81.8990   -13.2260   -62.6940
 3053.5000     0.2390     2.4690     0.0280   -63.7680   101.8600     9.1040     3.6020     3.5240     4.8520   -13.3420    82.4420   -11.0830   -62.4680
 3054.0000     0.2310     2.4630     0.0120   -73.5890    99.9340     9.1090     3.5160     3.4540     4.8320   -17.4500    83.0470    -8.9390   -62.1000
 3054.5000     0.2270     2.4460    -0.0200   -65.1040    99.5750     9.1140     3.4280     3.3960     4.8200   -21.5580    83.6520    -6.7960   -61.9670
 3055.0000     0.2310     2.4380    -0.0160   -63.5080   100.3990     9.1200     3.4180     3.3760     4.5420   -25.0000    84.2570    -5.0000   -62.0480
 3055.5000     0.2350     2.4390    -0.0080   -63.5080   100.5830     9.1250     3.4090     3.3580     4.3060   -20.0170    84.6500    -5.0000   -62.1220
 3056.0000     0.2290     2.4450     0.0010   -63.5080   100.8560     9.1310     3.3990     3.3410     4.0830   -15.7300    84.5840    -5.0000   -62.2240
 3056.5000     0.2210     2.4500    -0.0050   -63.5080   102.5980     9.1460     3.3890     3.3230     4.1590   -11.4430    84.1910    -8.5310   -62.3170
 3057.0000     0.2190     2.4470    -0.0140   -63.5080   102.5410     9.1660     3.3790     3.3060     4.3030    -7.1570    83.6980   -12.3230   -62.3300
 3057.5000     0.2310     2.4410    -0.0180   -66.6210   100.0650     9.1860     3.3690     3.2880     4.5050    -6.2560    83.3520   -15.0000   -62.3210
 3058.0000     0.2310     2.4370     0.0000   -75.4270   100.7510     9.2060     3.3600     3.2710     4.7320    -8.7850    83.5160    -6.0330   -62.3260
 3058.5000     0.2290     2.4370    -0.0070   -84.2330   106.0330     9.2260     3.3500     3.2530     4.7320   -11.3130    84.1070    -2.3060   -62.3250
 3059.0000     0.2310     2.4420    -0.0030   -93.7500   107.4440     9.2460     3.3400     3.2290     4.4340   -13.8410    84.6990     0.7750   -62.3240
 3059.5000     0.2330     2.4490     0.0070   -86.1060   103.3800     9.2660     3.3180     3.1980     4.1590   -16.3690    85.1500     3.8560   -62.2950
 3060.0000     0.2290     2.4500     0.0080   -77.7890   103.3420     9.2850     3.2820     3.1670     4.1590   -18.8970    85.2630    -1.2000   -62.2650
 3060.5000     0.2190     2.4570     0.0040   -69.4720   108.2760     9.3070     3.2460     3.1360     4.1210   -21.4260    85.3220   -11.0600   -62.2430
 3061.0000     0.2270     2.4560     0.0000   -65.8600   109.9360     9.3290     3.2090     3.1040     4.0090   -23.9540    85.1870   -20.9200   -62.2110
 3061.5000     0.2390     2.4560    -0.0030   -74.1770   106.2790     9.3450     3.1730     3.0730     4.0090   -14.6790    85.0500   -10.5500   -62.1890
 3062.0000     0.2510     2.4580    -0.0040   -82.4930   102.2460     9.3630     3.1370     3.0420     4.2910     2.9290    85.3290    15.0000   -62.1580
 3062.5000     0.2620     2.4600     0.0110   -82.5980   101.7680     9.3820     3.1000     3.0110     4.4770    25.0000    85.6140    16.9790   -62.1290
 3063.0000     0.2660     2.4610     0.0250   -81.3510   103.7860     9.4000     3.0640     2.9790     4.2370    25.0000    85.9000    19.0330   -62.1260
 3063.5000     0.2670     2.4630     0.0280   -80.1030   104.9610     9.4190     3.0270     2.9450     3.9840    25.0000    86.1260    21.0880   -62.1290
 3064.0000     0.2570     2.4660     0.0050   -78.8560   104.7140     9.4370     2.9910     2.9040     3.7590    25.0000    85.8810    23.1420   -62.1270
 3064.5000     0.2370     2.4660    -0.0120   -77.6080   103.4550     9.4560     2.9580     2.8630     3.8890    25.0000    85.2470    25.0000   -62.1270
 3065.0000     0.2370     2.4660    -0.0090   -76.3610   103.4830     9.4740     2.9060     2.8250     4.0730    25.0000    84.7500    16.6190   -62.1310
 3065.5000     0.2490     2.4670     0.0030   -75.1130   106.8310     9.4930     2.8470     2.7720     4.2580    18.3370    85.1500     7.2290   -62.1770
 3066.0000     0.2590     2.4690     0.0190   -73.8660   112.0820     9.5100     2.7880     2.7230     4.3550    13.1470    85.9490    -2.1620   -62.2720
 3066.5000     0.2520     2.4700     0.0280   -78.9760   116.0640     9.5300     2.7290     2.6740     4.1590     7.9580    87.0140   -11.5520   -62.3370
 3067.0000     0.2480     2.4670     0.0260   -88.3320   116.4550     9.5600     2.6700     2.6250     3.9390     5.0000    88.5240    -8.3140   -62.4360
 3067.5000     0.2560     2.4560     0.0270   -97.6880   116.5480     9.5930     2.6000     2.5760     3.7270     5.0000    90.0340     2.2500   -62.5190
 3068.0000     0.2610     2.4400     0.0280  -101.6890   117.0990     9.6220     2.6000     2.5610     3.5160     5.0000    91.5500    12.8140   -62.4020
 3068.5000     0.2640     2.4080     0.0220   -95.4510   114.3760     9.6490     2.6000     2.5420     3.3040     5.0000    91.8500     8.8260   -62.2480
 3069.0000     0.2640     2.4040     0.0100   -89.2140   109.7340     9.6780     2.6000     2.5220     3.2140     5.0000    91.2850     1.0420   -62.0840
 3069.5000     0.2650     2.4140    -0.0030   -83.6690   104.3400     9.7040     2.6000     2.5030     3.4280     5.0000    90.2070    -6.7420   -61.9390
 3070.0000     0.2650     2.4250    -0.0150   -89.1130   100.5550     9.7290     2.5820     2.4840     3.5730     8.3750    88.9750   -15.0000   -62.0220
 3070.5000     0.2520     2.4300    -0.0230   -95.1010   104.2500     9.7550     2.5580     2.4640     3.7670    15.0000    88.5050    -8.9500   -62.1510
 3071.0000     0.2520     2.4270    -0.0190  -101.0890   110.4110     9.7630     2.5340     2.4450     3.8720    15.0000    88.6620    -0.7330   -62.2430
 3071.5000     0.2570     2.4210    -0.0110  -107.0770   111.6350     9.7550     2.5090     2.4250     3.7930    15.0000    89.5880     7.4830   -62.3640
 3072.0000     0.2640     2.4160    -0.0010  -113.0650   111.8060     9.7470     2.4850     2.4020     3.5910    15.0000    90.3770    15.0000   -62.4650
 3072.5000     0.2700     2.4100    -0.0070  -103.8310   113.1570     9.7400     2.4610     2.3760     3.3340    15.0000    90.9950    17.6750   -62.5780
 3073.0000     0.2700     2.4040    -0.0180   -92.0900   113.3630     9.7310     2.4360     2.3490     3.3340    30.7000    91.1500    20.1400   -62.6840
 3073.5000     0.2630     2.4020    -0.0180   -80.3490   113.0690     9.7210     2.4120     2.3220     3.3040    45.0000    90.9820    22.6050   -62.7970
 3074.0000     0.2550     2.4050    -0.0080   -78.1250   112.7910     9.7070     2.3930     2.2950     3.3650    34.6500    90.3590    25.0700   -62.9180
 3074.5000     0.2610     2.4140     0.0000   -88.8180   110.4000     9.6930     2.3510     2.2680     3.5060    22.3250    89.9910    27.5350   -62.9540
 3075.0000     0.2630     2.4160    -0.0060   -99.5100   108.9420     9.6790     2.3170     2.2410     3.5890    21.6670    90.2000    30.0000   -62.9750
