~VERSION INFORMATION
 VERS.                2.0:   CWLS LOG ASCII STANDARD - VERSION 2.0
 WRAP.                 NO:   ONE LINE PER DEPTH STEP
~WELL INFORMATION
#MNEM.UNIT      DATA TYPE    INFORMATION
#----------   ------------   ------------------------------
 STRT.F            0.5000:   START DEPTH
 STOP.F         4149.0000:   STOP DEPTH
 STEP.F            0.5000:   STEP LENGTH
 NULL.          -999.2500:   NO VALUE
 COMP. LAWRENCE ALLISON & ASSOSCIATES:   COMPANY
 WELL. LAWRENCE "X" #34-3:   WELL
 FLD .             NPR #3:   FIELD
 LOC .       S3 T38N R78W:   LOCATION
 CNTY.            NATRONA:   COUNTY
 STAT.            WYOMING:   STATE
 CTRY. UNITED STATES OF AMERICA:   COUNTRY
 SRVC.      DRESSER ATLAS:   SERVICE COMPANY
 DATE.        19-NOV-1983:   LOGDATE
 API .     49025109500000:   API NUMBER
~CURVE INFORMATION
#MNEM.UNIT       API CODE    CURVE DESCRIPTION
#----------   ------------   ------------------------------
 DEPT.F                  :   
 CALD.IN     45 280 60 00:   CALIPER FROM DENSITY LOG
 TEND.LBS    45 635 01 00:   TENSION FORM DENSITY LOG
 DEN .G/C3   45 350 01 00:   BULK DENSITY
 CNC .DEC    42 890 01 00:   NEUTRON POROSITY LIMESTONE
 CORR.G/C3   45 356 01 00:   DENSITY CORRECTION
 TENR.LBS    06 635 01 00:   TENSION FROM RESISTIVITY
 GRR .GAPI   07 310 01 00:   GAMMA RAY FROM RESISTIVITY
 RFOC.OHMM   07 220 04 00:   RESISTIVITY FOCUSED LOG RES.
 RILD.OHMM   07 120 46 00:   DEEP INDUCTION RESISTIVITY
 RILM.OHMM   07 120 44 00:   INDUCTION LOG MEDIUM RESISTIVITY
 SPR .MV     07 010 01 00:   SPONTANEOUS POTENTIAL
 TENS.LBS    60 635 01 00:   TENSION FROM SONIC
 DT  .US/F   60 520 00 00:   DELTA TIME
~PARAMETER INFORMATION
#MNEM.UNIT          VALUE    DESCRIPTION
#----------   ------------   ------------------------------
 EKB .F         5187.0000:   Kelly bushing
 EGL .F         5174.0000:   Ground level
 TD  .F         4140.0000:   Total depth
 CLNT.            A2DTECH:   Client Code
 SL  . 1621' FWL & 1958' FNL:   Surface Location
 PD  .                 GL:   Permanent Datum
 EPD .F              5174:   Elevation Permanent Datum
 LMF .                 KB:   Log Measured From
 DMF .                 KB:   Drilling Measured From
 DAPD.F                13:   Feet Above Permanent Datum
 DATE.        19-NOV-1983:   Date Logged [DD-MMM-YYYY]
 DD  .F              4136:   Depth driller
 DL  .F              4140:   Depth logger
 BLI .F              4138:   Bottom log interval
 TLI .F                 0:   Top log interval
 CS1 .IN            8.625:   Casing size
 CBD1.      8.625" @ 615':   Casing driller 1
 CBL1.F               615:   Casing logger 1
 BS1 .IN            7.875:   Bit size
 BSD1.F              4136:   Depth drilled with bit1
 DFT .            GEL-KCL:   Type fluid in hole
 DFD .                  9:   Density
 DFV .                 45:   Viscosity
 DFPH.                8.5:   pH
 DFL .                 12:   Fluid loss
 MSS .           FLOWLINE:   Source of sample
 RMS .OHMM          0.768:   Rm
 MST .F                74:   Rm Meas. temp.
 RMF .OHMM          0.576:   Rmf
 MFST.F                74:   Rmf Meas. temp.
 MFSS.               CALC:   Source Rmf.
 RMC .OHMM           0.96:   Rmc
 MCST.F                74:   Rmc Meas. temp.
 MCSS.               CALC:   Source Rmc.
 RMB .OHMM          0.418:   Rm. at BHT
 BHT .F               136:   BHT.
 TCS .HRS               4:   Time Circ. stopped
 MRT .F               136:   Maximum recorded temp.
 LUN .               6307:   Logging unit number
 LUL .               GLTE:   Logging unit location
 ENGI.           FAHLSING:   Recorded By
 WITN.           JENNINGS:   Witnessed by
 ORIG.      2.5" 5" PRINT:   Origin of data
 UWI .     49025109500000:   Unique Well ID
 DICO. A2D TECHNOLOGIES, INC.:   Digitizing Company
~OTHER INFORMATION
~A    DEPT    CALD       TEND        DEN        CNC       CORR       TENR         GRR      RFOC       RILD       RILM        SPR       TENS         DT   
# ...
 2470.5000     8.3790     0.0000     2.5864     0.2208     0.0559   -29.3981   122.3034     6.4280     5.5443     5.7546   -82.5778  -999.2500  -999.2500
 2471.0000     8.3793     0.0000     2.5624     0.2304     0.0470   -29.4753   121.5866     6.2513     5.5073     5.7991   -82.7214  -999.2500  -999.2500
 2471.5000     8.3500     0.0000     2.5535     0.2305     0.0478   -29.5525   123.2603     6.2109     5.4318     5.7213   -82.7067  -999.2500  -999.2500
 2472.0000     8.3503     0.0000     2.5535     0.2280     0.0710   -29.6432   125.5822     6.4418     5.3955     5.6860   -83.0000  -999.2500  -999.2500
 2472.5000     8.3338     0.0000     2.5610     0.2238     0.0708   -37.4337   125.7994     6.8246     5.3594     5.6495   -82.9881  -999.2500  -999.2500
 2473.0000     8.3213     0.0000     2.5700     0.2262     0.0681   -45.2161   125.3577     7.0268     5.2860     5.5693   -83.2812  -999.2500  -999.2500
 2473.5000     8.3217     0.0000     2.5745     0.2328     0.0647   -45.2932   125.1445     6.8336     5.1706     5.4222   -83.8792  -999.2500  -999.2500
 2474.0000     8.2923     0.0000     2.5805     0.2453     0.0545   -45.3728   124.9275     6.4587     4.9985     5.2736   -84.3218  -999.2500  -999.2500
 2474.5000     8.2927     0.0000     2.5852     0.2555     0.0347   -45.4475   125.4043     6.1922     4.8604     5.1290   -84.4654  -999.2500  -999.2500
 2475.0000     8.2633     0.0000     2.5927     0.2567     0.0357   -45.5247   126.3345     5.7696     4.8624     5.0592   -84.7561  -999.2500  -999.2500
 2475.5000     8.2637     0.0000     2.6019     0.2572     0.0581   -37.8799   129.5513     5.4531     4.7956     5.0640   -85.0487  -999.2500  -999.2500
 2476.0000     8.2639     0.0000     2.6125     0.2560     0.1023   -30.2382   131.4267     5.5022     4.7977     5.0679   -84.8638  -999.2500  -999.2500
 2476.5000     8.2642     0.0000     2.6134     0.2477     0.1041   -30.3241   133.2435     5.9493     4.8688     5.1447   -84.7174  -999.2500  -999.2500
 2477.0000     8.2349     0.0000     2.6085     0.2398     0.0974   -30.4056   130.0578     6.3935     4.9406     5.2635   -84.7057  -999.2500  -999.2500
 2477.5000     8.2352     0.0000     2.5999     0.2218     0.0944   -30.4799   127.1008     6.8708     5.0133     5.5467   -84.3890  -999.2500  -999.2500
 2478.0000     8.2355     0.0000     2.5841     0.2076     0.0922   -30.5555   124.6011     7.2791     5.2339     6.0347   -84.0724  -999.2500  -999.2500
 2478.5000     8.2358     0.0000     2.5805     0.2101     0.0692   -30.6327   121.8728     7.9349     5.5819     6.5796   -83.4509  -999.2500  -999.2500
 2479.0000     8.2361     0.0000     2.5867     0.2118     0.0293   -30.7217   120.0365     8.6499     6.2123     7.1736   -82.9768  -999.2500  -999.2500
 2479.5000     8.2364     0.0000     2.5966     0.2124     0.0303   -30.7960   118.0206     9.2965     6.8898     7.6011   -82.5098  -999.2500  -999.2500
 2480.0000     8.2367     0.0000     2.6053     0.2114     0.0343   -30.8642   116.2069     9.5897     7.2703     7.7163   -82.4980  -999.2500  -999.2500
 2480.5000     8.2370     0.0000     2.6109     0.2064     0.0434   -21.1243   114.1645     9.7861     7.3774     7.7222   -82.4863  -999.2500  -999.2500
 2481.0000     8.2373     0.0000     2.6154     0.1985     0.0618   -15.5864   111.8935     9.7213     7.3804     7.7835   -82.4745  -999.2500  -999.2500
 2481.5000     8.2376     0.0000     2.6209     0.1803     0.0856   -15.6636   107.7932     9.4541     7.4891     8.0726   -82.4628  -999.2500  -999.2500
 2482.0000     8.2379     0.0000     2.6340     0.1363     0.1013   -15.7407    98.8910     9.6665     8.1592     8.5552   -82.4510  -999.2500  -999.2500
 2482.5000     8.2382     0.0000     2.6512     0.1358     0.0873   -14.2075    78.5560    10.7654     8.9106     9.2612   -82.1341  -999.2500  -999.2500
 2483.0000     8.2385     0.0000     2.6584     0.1436     0.0528    -0.4710    62.4719    16.5280     9.6855    10.1698   -82.1197  -999.2500  -999.2500
 2483.5000     8.2388     0.0000     2.6549     0.1559     0.0194    -0.5454    44.2883    83.5289    10.2563    10.6991   -82.1079  -999.2500  -999.2500
 2484.0000     8.2391     0.0000     2.6512     0.1782     0.0041    -0.6173    49.3382    93.0262     9.9729    10.1853   -82.0962  -999.2500  -999.2500
 2484.5000     8.2393     0.0000     2.6301     0.2067    -0.0005    -0.6944    56.8995    77.3388     9.1614     9.4907   -82.3893  -999.2500  -999.2500
 2485.0000     8.2396     0.0000     2.6047     0.2211     0.0130    -0.7716    70.8632    51.5318     8.5364     9.0994   -82.3776  -999.2500  -999.2500
 2485.5000     8.2103     0.0000     2.5879     0.2233     0.0311    -0.8615    98.7751    19.9654     8.0116     8.6010   -82.6707  -999.2500  -999.2500
 2486.0000     8.2107     0.0000     2.5665     0.2216     0.0325    -8.6519   115.2541    10.6637     7.5183     7.9892   -83.6139  -999.2500  -999.2500
 2486.5000     8.2405     0.0000     2.5544     0.2215     0.0388   -10.3041   120.3001     8.1368     7.1057     7.2590   -84.4735  -999.2500  -999.2500
 2487.0000     8.2408     0.0000     2.5697     0.2226     0.0496   -16.5167   122.1449     6.8609     6.8112     6.7640   -84.7696  -999.2500  -999.2500
 2487.5000     8.2411     0.0000     2.5891     0.2254     0.0872    -8.8735   123.0755     6.5309     6.6237     6.3933   -84.7549  -999.2500  -999.2500
 2488.0000     8.2359     0.0000     2.5988     0.2278     0.1044    -8.9506   122.1799     6.3027     6.4407     6.3063   -84.5907  -999.2500  -999.2500
 2488.5000     8.2121     0.0000     2.5932     0.2308     0.0805    -9.0278   120.8235     6.1778     6.3524     6.4952   -84.1216  -999.2500  -999.2500
 2489.0000     8.2124     0.0000     2.5876     0.2347     0.0693    -9.1049   120.3779     6.1818     6.3556     6.5936   -83.9524  -999.2500  -999.2500
 2489.5000     8.2127     0.0000     2.5942     0.2368     0.0925    -9.1911   122.2266     6.2302     6.4492     6.7898   -83.7903  -999.2500  -999.2500
 2490.0000     8.2130     0.0000     2.6016     0.2383     0.0925    -9.2592   120.8702     6.3239     6.5442     6.8962   -83.3212   -12.4383    83.0852
 2490.5000     8.2133     0.0000     2.6046     0.2389     0.0895    -9.3364   121.3431     6.3280     6.6406     7.0980   -83.0046   -13.5947    83.7911
 2491.0000     8.2136     0.0000     2.6017     0.2379     0.0836    -9.4142   123.8739     6.4232     6.8349     7.2068   -82.5355    -6.7076    84.6171
 2491.5000     8.2139     0.0000     2.5987     0.2307     0.0656   -17.2068   125.4901     6.5198     7.0356     7.2640   -82.0664     0.4113    85.0914
 2492.0000     8.2142     0.0000     2.5957     0.2266     0.0558    -9.5630   123.8144     6.6179     7.2414     7.3216   -81.9022    -0.7451    85.3727
 2492.5000     8.2145     0.0000     2.6002     0.2218     0.0686    -9.6559   120.2659     6.8141     7.2953     7.4326   -81.8902    -1.6705    85.2780
 2493.0000     8.2148     0.0000     2.6062     0.2170     0.0806    -9.7222   117.3089     6.9175     7.2471     7.4383   -81.7234    -2.5955    85.0420
 2493.5000     8.2151     0.0000     2.6032     0.2134     0.0777    -9.7994   115.9486     7.0215     7.2502     7.4437   -81.5592    -3.5209    84.6593
 2494.0000     8.2154     0.0000     2.5882     0.2086     0.0717    -9.8765   118.7119     7.1271     7.2538     7.4506   -81.5474    -4.4459    84.4157
 2494.5000     8.2157     0.0000     2.5823     0.2044     0.0687    -9.9537   122.1573     7.1318     7.2568     7.5097   -81.5357    -5.3709    84.1963
 2495.0000     8.2160     0.0000     2.5853     0.2020     0.0687   -10.0309   124.2308     7.1365     7.2597     7.5693   -81.6763    -6.2964    84.0385
 2495.5000     8.2163     0.0000     2.5868     0.2002     0.0687   -10.1207   126.5330     7.0399     7.2627     7.6293   -81.6646   -15.0338    83.8808
 2496.0000     8.2166     0.0000     2.5853     0.2014     0.0717   -10.1951   129.7500     7.0447     7.2657     7.6899   -81.8053   -23.7718    83.6139
