~VERSION INFORMATION
 VERS.                2.0:   CWLS LOG ASCII STANDARD - VERSION 2.0
 WRAP.                 NO:   ONE LINE PER DEPTH STEP
~WELL INFORMATION
#MNEM.UNIT      DATA TYPE    INFORMATION
#----------   ------------   ------------------------------
 STRT.F          200.0000:   START DEPTH
 STOP.F         3160.0000:   STOP DEPTH
 STEP.F            0.5000:   STEP LENGTH
 NULL.          -999.2500:   NO VALUE
 COMP.    FENIX & SCISSON:   COMPANY
 WELL. FENIX NPR 3 "AX" #72-3:   WELL
 FLD .             TEAPOT:   FIELD
 LOC .       S3 T38N R78W:   LOCATION
 CNTY.            NATRONA:   COUNTY
 STAT.            WYOMING:   STATE
 CTRY. UNITED STATES OF AMERICA:   COUNTRY
 SRVC.           BIRDWELL:   SERVICE COMPANY
 DATE.        10-JAN-1978:   LOGDATE
 API .     49025105530000:   API NUMBER
~CURVE INFORMATION
#MNEM.UNIT       API CODE    CURVE DESCRIPTION
#----------   ------------   ------------------------------
 DEPT.F                  :   
 CALD.IN     45 280 60 00:   CALIPER FROM DENSITY LOG
 GRD .GAPI   45 310 01 00:   GAMMA RAY FROM DENSITY LOG
 DEN .LBS    45 635 01 00:   BUCK DENSITY
 CORR.G/C3   45 356 01 00:   DENSITY CORRECTION
 SPR .MV     07 010 01 00:   SPONTANEOUS POTENTIAL
 ILD .OHMM   07 120 46 00:   DEEP INDUCTION RESISTIVITY
 ILM .OHMM   07 120 44 00:   INDUCTION LOG MEDIUM RESISTIVITY
~PARAMETER INFORMATION
#MNEM.UNIT          VALUE    DESCRIPTION
#----------   ------------   ------------------------------
 EKB .F         5164.0000:   Kelly bushing
 EGL .F         5153.0000:   Ground level
 TD  .F         3157.0000:   Total depth
 DATE.        10-JAN-1978:   Date logged
 CLNT.            A2DTECH:   Client Code
 SL  . 900' FNL & 900' FEL:   Surface Location
 PD  .                 GL:   Permanent Datum
 EPD .F              5153:   Elevation Permanent Datum
 LMF .                 KB:   Log Measured From
 DMF .                 KB:   Drilling Measured From
 DAPD.F                11:   Feet Above Permanent Datum
 DD  .F              3156:   Depth driller
 DL  .F              3157:   Depth logger
 BLI .F              3157:   Bottom log interval
 TLI .F               200:   Top log interval
 CS1 .IN            8.625:   Casing size
 CBD1.      8.625" @ 222':   Casing driller 1
 CBL1.F               220:   Casing logger 1
 BS1 .IN            7.875:   Bit size
 BSD1.F              3156:   Depth drilled with bit1
 DFT .                KCL:   Type fluid in hole
 DFD .                8.5:   Density
 DFV .                 36:   Viscosity
 DFPH.                 10:   pH
 DFL .                8.8:   Fluid loss
 MSS .           FLOWLINE:   Source of sample
 RMS .OHMM            1.4:   Rm
 MST .F                66:   Rm Meas. temp.
 RMF .OHMM            .85:   Rmf
 MFST.F                74:   Rmf Meas. temp.
 RMC .OHMM            1.4:   Rmc
 MCST.F                72:   Rmc Meas. temp.
 MFSS.               MEAS:   Source Rmf.
 MCSS.               MEAS:   Source Rmc.
 RMB .OHMM            .83:   Rm. at BHT
 BHT .F               112:   BHT.
 TCS .HRS               4:   Time Circ. stopped
 MRT .F               112:   Maximum recorded temp.
 LUN .               2958:   Logging unit number
 LUL .             CASPER:   Logging unit location
 ENGI.            POINTER:   Recorded By
 WITN.         HARRINGTON:   Witnessed by
 ORIG.           5" PRINT:   Origin of data
 UWI .     49025105530000:   Unique Well ID
 DICO. A2D TECHNOLOGIES, INC.:   Digitizing Company
~OTHER INFORMATION
~A   DEPT     CALD        GRD          DEN     CORR        SPR        ILD        ILM   
  200.0000  -999.2500  -999.2500     2.3300  -999.2500  -999.2500  -999.2500  -999.2500
  200.5000  -999.2500  -999.2500     2.3260    -0.2600  -999.2500  -999.2500  -999.2500
  201.0000  -999.2500  -999.2500     2.3350    -0.2599  -999.2500  -999.2500  -999.2500
  201.5000  -999.2500  -999.2500     2.3550    -0.2659  -999.2500  -999.2500  -999.2500
  202.0000  -999.2500    60.8835     2.3851    -0.2759  -999.2500  -999.2500  -999.2500
  202.5000  -999.2500    61.4794     2.3971    -0.2739  -999.2500  -999.2500  -999.2500
  203.0000  -999.2500    62.8659     2.3991    -0.2738  -999.2500  -999.2500  -999.2500
  203.5000  -999.2500    64.0546     2.3961    -0.2738  -999.2500  -999.2500  -999.2500
  204.0000  -999.2500    65.4405     2.3871    -0.2838  -999.2500  -999.2500  -999.2500
  204.5000  -999.2500    69.0009     2.3861    -0.2857  -999.2500  -999.2500  -999.2500
  205.0000  -999.2500    69.9920     2.3891    -0.2877  -999.2500  -999.2500  -999.2500
  205.5000  -999.2500    69.9950     2.3982    -0.2877  -999.2500  -999.2500  -999.2500
  206.0000  -999.2500    69.9980     2.3882    -0.2876  -999.2500  -999.2500  -999.2500
  206.5000  -999.2500    70.1986     2.3792    -0.2836  -999.2500  -999.2500  -999.2500
  207.0000  -999.2500    72.1779     2.3762    -0.2776  -999.2500  -999.2500  -999.2500
  207.5000  -999.2500    75.7383     2.3772    -0.2736  -999.2500  -999.2500  -999.2500
  208.0000  -999.2500    81.2744     2.3682    -0.2735  -999.2500  -999.2500  -999.2500
  208.5000  -999.2500    86.4165     2.3633    -0.2755  -999.2500  -999.2500  -999.2500
  209.0000  -999.2500   103.8082     2.3633    -0.2855  -999.2500  -999.2500  -999.2500
  209.5000  -999.2500   107.1704     2.3573    -0.2894  -999.2500  -999.2500  -999.2500
  210.0000  -999.2500   106.5805     2.3383    -0.2914  -999.2500  -999.2500  -999.2500
  210.5000  -999.2500   107.1764     2.3263    -0.2914  -999.2500  -999.2500  -999.2500
  211.0000  -999.2500   113.3083     2.3013    -0.2913  -999.2500  -999.2500  -999.2500
  211.5000  -999.2500   115.8782     2.2823    -0.2913  -999.2500  -999.2500  -999.2500
  212.0000  -999.2500   114.6954     2.2444    -0.2993  -999.2500  -999.2500  -999.2500
  212.5000  -999.2500   113.7102     2.2314    -0.3073  -999.2500  -999.2500  -999.2500
  213.0000  -999.2500   104.4268     2.2074    -0.3212  -999.2500  -999.2500  -999.2500
  213.5000  -999.2500    94.1535     2.1984    -0.3332  -999.2500  -999.2500  -999.2500
  214.0000  -999.2500    90.2038     2.1764    -0.3452  -999.2500  -999.2500  -999.2500
  214.5000  -999.2500    78.3488     2.1654    -0.3451  -999.2500  -999.2500  -999.2500
  215.0000  -999.2500    71.2370     2.1334    -0.3211  -999.2500  -999.2500  -999.2500
  215.5000  -999.2500    64.1258     2.1085    -0.2751  -999.2500  -999.2500  -999.2500
  216.0000  -999.2500    62.1501     2.0865    -0.2290  -999.2500  -999.2500  -999.2500
  216.5000  -999.2500    61.7578     2.0515    -0.2150  -999.2500  -999.2500  -999.2500
  217.0000  -999.2500    70.2608     1.9955    -0.2030  -999.2500  -999.2500  -999.2500
  217.5000  -999.2500    80.7383     1.9885    -0.1850  -999.2500  -999.2500  -999.2500
  218.0000  -999.2500    91.8082     1.9905    -0.1449  -999.2500  -999.2500  -999.2500
  218.5000  -999.2500   109.0046     2.0486    -0.1049  -999.2500  -999.2500  -999.2500
  219.0000  -999.2500   119.2846     2.0536    -0.0489  -999.2500     2.9655  -999.2500
  219.5000  -999.2500   120.0781     2.0526     0.0072  -999.2500     2.9655     1.5198
  220.0000     7.9794   120.0811     2.0506     0.0612  -999.2500  2761.8225    19.6560
  220.5000     7.9809   120.0840     2.0486     0.2252  -999.2500  2781.0583  2804.1194
  221.0000     8.8145   117.1225     2.0476     0.2613  -999.2500  2822.2888  2822.1362
  221.5000     8.8308   114.9516     2.0366     0.2593  -999.2500  1554.1056  1568.6602
  222.0000     8.8917   113.9664     2.0247     0.2553  -999.2500     9.7849    87.4123
  222.5000     8.9971   110.0167     2.1207     0.2553  -999.2500    11.1642    49.6172
  223.0000     9.6526   107.0552     2.1077     0.2594  -999.2500    11.6389     1.7682
  223.5000     9.7135   101.9203     2.0957     0.2814  -999.2500     9.7849     3.4908
  224.0000     9.7743    98.3659     2.0977     0.2894  -999.2500    11.2419     3.4908
  224.5000     9.8798    94.0210     2.0867     0.3055  -999.2500    11.9666     4.8710
  225.0000     9.9704    92.4429     2.0587     0.3055  -999.2500    11.9666    11.2727
  225.5000    10.0610    90.2719     2.0598     0.2815  -999.2500    12.2184    12.1760
  226.0000    10.0924    88.6938     2.0908     0.2536  -999.2500    12.3035    12.2608
  226.5000    10.0785    85.3371     2.1498     0.1896  -100.1342    12.3035    12.1760
  227.0000     9.9764    84.7472     2.2188     0.1596   -93.3695    12.3035    11.8427
  227.5000     9.6064    84.7501     2.3148     0.1356   -90.5806    12.3035    11.8427
  228.0000    10.0387    84.9508     2.3058     0.1157   -83.0171    12.3035    11.9251
  228.5000    10.0848    86.1396     2.2749     0.0977   -81.6220    12.2184    12.1760
  229.0000    10.0865    87.7236     2.2539     0.0957   -84.2019    12.2184    11.8427
  229.5000    10.0726    88.9124     2.2259     0.1018   -84.7933    12.1711    12.1760
  230.0000    10.0448    89.1130     2.2019     0.1178   -85.5836    12.0973    12.4322
  230.5000    10.0462    87.1397     2.1539     0.1438   -89.3569    12.0235    11.9251
  231.0000    10.0477    85.7592     2.0989     0.2019   -93.1312    11.9497    11.8427
  231.5000    10.0491    85.7622     2.0469     0.2619   -94.1195    11.8759    11.9251
  232.0000    10.0354    86.5551     2.0160     0.2599   -94.1144    11.8021    12.1760
  232.5000    10.0371    87.7439     2.0010     0.2599   -94.5061    11.7200    12.1760
  233.0000    10.0388    87.7469     2.0010     0.2580   -94.5021    11.6873    11.7607
  233.5000    10.0401    88.1452     2.0010     0.2440   -94.4971    11.6479    11.5986
  234.0000    10.0417    90.3221     2.1060     0.2120   -94.2931    11.7591    12.1760
  234.5000    10.0431    93.2896     2.1540     0.1981   -92.8959    11.6544    11.9251
  235.0000    10.0446    94.0831     2.1740     0.1781   -92.8908    11.5507    11.6794
  235.5000    10.0463    93.8885     2.2291     0.1301   -92.8858    11.7690    11.9251
  236.0000    10.0327    93.4962     2.3431     0.0802   -92.8807    11.9921    12.2608
  236.5000    10.0342    91.9181     2.4082     0.0562   -92.6768    11.8413    11.9251
  237.0000    10.0298    90.7353     2.4871     0.0522   -92.4728    11.8439    11.8427
  237.5000    10.0221    89.7501     2.4821     0.0482   -92.4677    11.8473    12.0082
  238.0000    10.0238    89.5555     2.4405     0.0483   -92.6616    11.8506    12.1760
  238.5000    10.0255    90.7443     2.4161     0.0483   -92.6565    11.8546    12.1760
  239.0000    10.0267    91.3402     2.4392     0.0483   -92.6515    11.8572    12.1760
  239.5000    10.0432    91.5408     2.4332     0.0524   -92.6464    11.8611    12.0918
  240.0000    10.0446    91.3462     2.4242     0.0564   -92.6413    11.7558    11.8427
  240.5000    10.0461    91.9420     2.4232     0.0544   -92.6363    11.6512    11.8427
  241.0000    10.0478    92.9332     2.4202     0.0565   -92.4323    11.6545    11.6794
  241.5000    10.0490    92.9356     2.4192     0.0585   -92.4272    11.6577    11.7607
  242.0000    10.0553    92.9386     2.4263     0.0585   -92.4221    11.6610    11.7607
  242.5000    10.0519    93.3368     2.4333     0.0565   -92.2182    11.6643    11.8427
  243.0000    10.0236    94.9209     2.4343     0.0526   -91.8152    11.6676    11.8427
  243.5000    10.0256    97.0978     2.4373     0.0506   -92.0101    11.5625    11.8427
  244.0000    10.0270    97.1008     2.4403     0.0466   -92.0040    11.5670    11.8427
  244.5000    10.0284    94.5346     2.4403     0.0467   -91.8000    11.5703    11.6794
  245.0000    10.0299    90.7825     2.4363     0.0487   -91.3971    11.5735    11.5184
