~VERSION INFORMATION
 VERS.                2.0:   CWLS LOG ASCII STANDARD - VERSION 2.0
 WRAP.                 NO:   ONE LINE PER DEPTH STEP
~WELL INFORMATION
#MNEM.UNIT      DATA TYPE    INFORMATION
#----------   ------------   ------------------------------
 STRT.F           50.5000:   START DEPTH
 STOP.F         5694.0000:   STOP DEPTH
 STEP.F            0.5000:   STEP LENGTH
 NULL.          -999.2500:   NO VALUE
 COMP. LAWRENCE ALLISON AND ASSOCIATES WEST:   COMPANY
 WELL. LAWRENCE "TX" #57-28:   WELL
 FLD .        TEAPOT DOME:   FIELD
 LOC .      S28 T39N R78W:   LOCATION
 CNTY.            NATRONA:   COUNTY
 STAT.            WYOMING:   STATE
 CTRY. UNITED STATES OF AMERICA:   COUNTRY
 SRVC.       SCHLUMBERGER:   SERVICE COMPANY
 DATE.        26-FEB-1982:   LOGDATE
 API .     49025108850000:   API NUMBER
~CURVE INFORMATION
#MNEM.UNIT       API CODE    CURVE DESCRIPTION
#----------   ------------   ------------------------------
 DEPT.F                  :   
 GRR .GAPI   11 310 01 00:   GAMMA RAY FROM RES.
 CALD.IN     45 280 60 00:   CALIPER FROM DENSITY LOG
 TEND.LBS    45 635 01 00:   TENSION FORM DENSITY LOG
 CORR.G/C3   45 356 01 00:   DENSITY CORRECTION
 RHOB.G/C3   45 350 01 00:   BULK DENSITY
 NPHI.DEC    42 890 03 00:   NEUTRON POROSITY SANDSTONE
 TENR.LBS    06 635 01 00:   TENSION FROM RESISTIVITY
 SPR .MV     11 010 01 00:   SPONTANEOUS POTENTIAL FROM RES.
 LLS .OHMM   11 220 09 00:   LATEROLOG LOG SHALLOW
 LLD .OHMM   11 220 10 00:   LATEROLOG DEEP
 MSFL.OHMM   11 270 04 00:   MICRO SPHERICALLY FOCUSED
~PARAMETER INFORMATION
#MNEM.UNIT          VALUE    DESCRIPTION
#----------   ------------   ------------------------------
 EKB .F         5101.0000:   Kelly bushing
 EGL .F         5091.0000:   Ground level
 EDF .F            0.0000:   Drilling floor
 TD  .F         3248.0000:   Total depth
 CLNT.            A2DTECH:   Client Code
 SL  . 950' FSL & 2100' FEL:   Surface Location
 PD  .                 GL:   Permanent Datum
 EPD .F              5091:   Elevation Permanent Datum
 LMF .                 KB:   Log Measured From
 DMF .                 KB:   Drilling Measured From
 DAPD.F                10:   Feet Above Permanent Datum
 DATE.        26-FEB-1982:   Date Logged [DD-MMM-YYYY]
 DD  .F              3243:   Depth driller
 DL  .F              3248:   Depth logger
 BLI .F              3216:   Bottom log interval
 TLI .F                 0:   Top log interval
 CS1 .IN            9.625:   Casing size
 CBD1.      9.625" @ 401':   Casing driller 1
 CBL1.F               401:   Casing logger 1
 BS1 .IN            7.875:   Bit size
 BSD1.F              3243:   Depth drilled with bit1
 DFT .           CHEM GEL:   Type fluid in hole
 DFD .                8.9:   Density
 DFV .                 55:   Viscosity
 DFPH.                9.5:   pH
 DFL .                 10:   Fluid loss
 MSS .            MUD PIT:   Source of sample
 RMS .OHMM           1.82:   Rm
 MST .F                76:   Rm Meas. temp.
 RMF .OHMM           1.64:   Rmf
 MFST.F                75:   Rmf Meas. temp.
 MFSS.               MEAS:   Source Rmf.
 RMB .OHMM           1.15:   Rm. at BHT
 BHT .F               120:   BHT.
 TCS .HRS            1330:   Time Circ. stopped
 TLAB.HRS            1715:   Time logger at bottom
 MRT .F               120:   Maximum recorded temp.
 LUN .               8043:   Logging unit number
 LUL .               CSPR:   Logging unit location
 ENGI.             TAYLOR:   Recorded By
 WITN.       FIVAS/STRONG:   Witnessed by
 ORIG.      1" 2.5" PRINT:   Origin of data
 UWI .     49025108850000:   Unique Well ID
 DICO. A2D TECHNOLOGIES, INC.:   Digitizing Company
~OTHER INFORMATION
~A   DEPT       GRR      CALD       TEND       CORR       RHOB       NPHI       TENR        SPR        LLS        LLD       MSFL   
# ...
  813.0000    98.0792     9.9225   564.1539     0.0015     2.4944     0.2853   578.7513   -71.4847     7.8748     8.2551     8.9032
  813.5000    99.4223     9.9218   565.9575     0.0072     2.4997     0.2775   578.1517   -71.4969     7.6568     8.1399     8.7786
  814.0000   100.6214     9.9212   567.7812     0.0159     2.5101     0.2702   577.5519   -71.5115     7.5494     8.3669     8.6558
  814.5000   101.8446     9.9206   569.6049     0.0227     2.5176     0.2702   576.9517   -71.5232     7.5478     8.7417     8.5345
  815.0000   102.4899     9.9200   571.4286     0.0226     2.5282     0.2745   576.3510   -71.8417     7.5323     8.9633     8.5107
  815.5000   102.9993     9.9233   573.2523     0.0241     2.5358     0.2864   575.7498   -71.8534     7.4170     8.5636     8.2971
  816.0000   100.9512     9.9496   575.4346     0.0256     2.5292     0.2891   575.1486   -71.8651     7.3358     8.2026     8.1390
  816.5000   100.0113     9.9489   577.1701     0.0257     2.5187     0.2816   574.5474   -71.8773     7.3343     8.0180     8.0144
  817.0000    98.3557     9.9483   578.9056     0.0286     2.5165     0.2736   573.9462   -71.8896     7.2313     8.0164     7.7834
  817.5000    98.0295     9.9477   580.6411     0.0281     2.5095     0.2748   573.3450   -71.9018     7.2295     8.1265     7.7339
  818.0000   100.4481     9.9470   582.3766     0.0242     2.4937     0.2783   572.7438   -71.9141     7.2280     8.3528     7.9487
  818.5000   103.4765     9.9772   584.1121     0.0140     2.4718     0.2819   572.1427   -71.9264     7.2267     8.5857     8.1694
  819.0000   105.2854     9.9766   555.4525     0.0011     2.4763     0.2862   571.5415   -71.9386     7.2251     8.7037     8.5133
  819.5000   105.8747     9.9760   557.4468    -0.0050     2.4884     0.2887   570.9404   -71.6442     7.2237     8.6974     8.5110
  820.0000   105.8130     9.9754   559.2706     0.0071     2.4989     0.2850   570.3392   -71.6580     7.2222     8.5339     8.3612
  820.5000   104.9299     9.9748   561.0942     0.0162     2.5051     0.2826   569.7380   -71.6697     7.2207     7.9548     8.0233
  821.0000   101.2259     9.9742   563.2621     0.0286     2.5097     0.2814   569.1368   -71.6564     7.2192     7.6773     7.7920
  821.5000    94.1560     9.9735   564.9976     0.0314     2.5113     0.2837   568.5356   -71.6932     7.2177     7.8742     7.8702
  822.0000    90.7927     9.9420   536.1701     0.0273     2.5145     0.2959   567.9345   -71.6728     7.2162     8.1694     8.0993
  822.5000    96.1129     9.9414   507.6783     0.0209     2.5183     0.2948   567.3333   -71.4099     7.2147     8.5712     8.4964
  823.0000    98.0264     9.9409   509.4225     0.0199     2.5223     0.2915   566.7322   -71.7301     7.1131     8.2208     8.1490
  823.5000    97.7746     9.9403   511.2462     0.0221     2.5229     0.2870   566.1310   -71.7423     7.1117     8.1061     7.7084
  824.0000    97.1444     9.9397   513.0698     0.0221     2.5168     0.2797   565.5298   -71.9018     7.1102     7.8831     7.6005
  824.5000    97.1240     9.9391   514.8937     0.0190     2.5122     0.2804   564.9286   -72.0736     7.1088     7.7731     7.8116
  825.0000    97.7134     9.9385   516.7173     0.0144     2.5046     0.2810   564.3275   -72.3946     7.1074     7.8983     8.0378
  825.5000   100.1880     9.9378   518.5411     0.0080     2.4855     0.2792   563.7263   -72.4063     7.1059     8.1401     8.3871
  826.0000   100.7214     9.9372   520.6945     0.0030     2.4738     0.2844   563.1251   -72.7248     7.1044     8.5917     8.7514
  826.5000    99.9178     9.9365   522.4300    -0.0014     2.4770     0.2871   562.5240   -72.7365     7.1029     8.7980     8.8376
  827.0000    98.0102     9.9051   524.1655    -0.0024     2.4829     0.2870   561.9228   -72.7485     7.1201     8.4472     8.5391
  827.5000    96.7124     9.9046   525.9010     0.0008     2.4916     0.2827   561.3217   -72.7607     7.1996     8.0928     8.1790
  828.0000    97.3171     9.9040   527.6597     0.0082     2.5043     0.2744   560.7205   -72.7730     7.1981     7.8698     8.0148
  828.5000    98.1702     9.9034   559.8784     0.0142     2.5194     0.2740   560.1193   -72.5828     7.1963     7.8412     7.9026
  829.0000    99.9791     9.9028   531.1075     0.0188     2.5269     0.2927   559.5181   -72.4884     7.1949     7.9764     8.0106
  829.5000   102.3978     9.9022   533.1307     0.0218     2.5269     0.3062   558.9169   -72.5031     7.2944     8.0861     8.0085
  830.0000   104.2066     9.9015   534.9543     0.0217     2.5221     0.2973   558.3158   -72.5177     7.2929     8.3153     8.0063
  830.5000   105.4541     9.9009   536.7781     0.0213     2.5162     0.2861   557.7146   -72.2209     7.2915     8.5432     8.2433
  831.0000   107.3599     9.8694   538.9172     0.0196     2.5196     0.2728   557.1135   -71.9276     7.3923     8.6607     8.4572
  831.5000   108.4138     9.8381   540.6527     0.0172     2.5185     0.2701   556.5123   -71.9394     7.3907     8.7797     8.6104
  832.0000   106.0001     9.8375   542.3882     0.0140     2.5123     0.2728   555.9111   -71.6442     7.2560     8.6076     8.8108
  832.5000   102.3934     9.8369   544.1235     0.0109     2.5039     0.2765   555.3099   -71.3493     7.1448     8.5360     8.5078
  833.0000    99.2093     9.8363   545.8589     0.0063     2.5069     0.2832   554.7088   -71.3620     7.0837     8.4165     8.1039
  833.5000    96.7366     9.8357   517.1993     0.0033     2.5083     0.2887   554.1076   -71.3742     6.8873     8.2991     7.9905
  834.0000    94.8870     9.8659   519.1489     0.0064     2.5068     0.2868   553.5064   -71.3865     6.7906     8.1833     7.9884
  834.5000    94.2568     9.8961   520.9727     0.0126     2.5021     0.2788   552.9053   -71.0920     6.6953     8.0692     7.9377
  835.0000    96.0657     9.8954   492.4012     0.0162     2.5036     0.2758   552.3041   -71.1043     6.6013     8.0676     7.8214
  835.5000    98.4843     9.9254   494.2249     0.0189     2.5055     0.2775   551.7029   -70.8098     6.5087     8.0659     7.7068
  836.0000    99.7155     9.9248   496.3493     0.0206     2.5086     0.2837   551.1017   -70.5153     6.4173     8.0642     7.6555
  836.5000   100.3608     9.9550   498.0848     0.0183     2.5125     0.2882   550.5006   -70.8354     6.4160     8.0626     7.6534
  837.0000   101.0060     9.9544   530.2155     0.0198     2.5156     0.2973   549.8994   -71.4607     6.4146     8.0609     7.6513
  837.5000   102.0613     9.9538   531.9510     0.0215     2.5095     0.3046   549.2982   -73.0061     6.3246     8.0592     7.6491
  838.0000   104.1260     9.9532   535.5633     0.0152     2.5018     0.3059   548.6971   -73.3538     6.3232     8.0575     7.6470
  838.5000   106.3080     9.9526   565.9574     0.0119     2.4973     0.2948   548.0959   -73.6431     6.3219     8.0556     7.7514
  839.0000   108.6973     9.9520   567.7811     0.0060     2.4987     0.2816   547.4948   -73.3481     6.3203     8.1665     7.8571
  839.5000   109.0376     9.9514   569.6049     0.0029     2.5035     0.2807   546.8936   -73.3620     6.3191     8.1647     7.9643
  840.0000   102.5589     9.9199   571.4285     0.0035     2.5102     0.2993   546.2924   -73.3742     6.3178     8.1631     7.9621
  840.5000   105.5873     9.9193   573.2523     0.0098     2.5182     0.3046   545.6912   -73.3006     6.3166     8.1614     7.9599
  841.0000   108.6157     9.9187   575.3623     0.0180     2.5256     0.2957   545.0901   -72.7873     6.4039     8.0475     7.9577
  841.5000   111.6441     9.9181   546.7027     0.0195     2.5319     0.2793   544.4889   -72.7990     6.4026     8.0458     7.9317
  842.0000   112.8432     9.9175   548.4382     0.0225     2.5440     0.2737   543.8877   -72.8108     6.4012     8.0442     7.7031
  842.5000   111.4381     9.9169   550.1736     0.0271     2.5424     0.2812   543.2866   -72.8225     6.3999     7.9319     7.5852
  843.0000   109.5305     9.9163   551.9757     0.0254     2.5302     0.2882   542.6854   -72.5275     6.3986     7.8211     7.5212
