~VERSION INFORMATION
 VERS.                2.0:   CWLS LOG ASCII STANDARD - VERSION 2.0
 WRAP.                 NO:   ONE LINE PER DEPTH STEP
~WELL INFORMATION
#MNEM.UNIT      DATA TYPE    INFORMATION
#----------   ------------   ------------------------------
 STRT.F           31.5000:   START DEPTH
 STOP.F         4204.0000:   STOP DEPTH
 STEP.F            0.5000:   STEP LENGTH
 NULL.          -999.2500:   NO VALUE
 COMP.   LAWRENCE ALLISON:   COMPANY
 WELL. LAWRENCE 3 "X" #32-10:   WELL
 FLD .                NPR:   FIELD
 LOC .      S10 T38N R78W:   LOCATION
 CNTY.            NATRONA:   COUNTY
 STAT.            WYOMING:   STATE
 CTRY. UNITED STATES OF AMERICA:   COUNTRY
 SRVC.      DRESSER ATLAS:   SERVICE COMPANY
 DATE.        05-NOV-1983:   LOGDATE
 API .     49025109460000:   API NUMBER
~CURVE INFORMATION
#MNEM.UNIT       API CODE    CURVE DESCRIPTION
#----------   ------------   ------------------------------
 DEPT.F                  :   
 CALD.IN     45 280 60 00:   CALIPER FROM DENSITY LOG
 CNC .DEC    42 890 01 00:   NEUTRON POROSITY LIMESTONE
 CORR.G/C3   45 356 01 00:   DENSITY CORRECTION
 TEND.LBS    45 635 01 00:   TENSION FORM DENSITY LOG
 RHOB.G/C3   45 350 01 00:   BULK DENSITY
 DT  .US/F   60 520 00 00:   DELTA TIME
 TENS.LBS    60 635 01 00:   TENSION FROM SONIC
 GRR .GAPI   07 310 01 00:   GAMMA RAY FROM RESISTIVITY
 TENR.LBS    06 635 01 00:   TENSION FROM RESISTIVITY
 RFOC.OHMM   07 220 04 00:   RESISTIVITY FOCUSED LOG RES.
 RILM.OHMM   07 120 44 00:   INDUCTION LOG MEDIUM RESISTIVITY
 RILD.OHMM   07 120 46 00:   DEEP INDUCTION RESISTIVITY
 SPR .MV     07 010 01 00:   SPONTANEOUS POTENTIAL
~PARAMETER INFORMATION
#MNEM.UNIT          VALUE    DESCRIPTION
#----------   ------------   ------------------------------
 EKB .F         5237.0000:   Kelly bushing
 EGL .F         5227.0000:   Ground level
 TD  .F         4202.0000:   Total depth
 CLNT.            A2DTECH:   Client Code
 SL  . 1871' FWL & 1152' FNL:   Surface Location
 PD  .                 GL:   Permanent Datum
 EPD .F              5227:   Elevation Permanent Datum
 LMF .                 KB:   Log Measured From
 DMF .                 KB:   Drilling Measured From
 DAPD.F                10:   Feet Above Permanent Datum
 DATE.        05-NOV-1983:   Date Logged [DD-MMM-YYYY]
 DD  .F              4200:   Depth driller
 DL  .F              4202:   Depth logger
 BLI .F              4200:   Bottom log interval
 TLI .F                30:   Top log interval
 CS1 .IN            8.625:   Casing size
 CBD1.      8.625" @ 545':   Casing driller 1
 CBL1.F               545:   Casing logger 1
 BS1 .IN            7.875:   Bit size
 BSD1.F              4200:   Depth drilled with bit1
 DFT .            GEL KCL:   Type fluid in hole
 DFD .                8.9:   Density
 DFV .                 42:   Viscosity
 DFPH.                8.5:   pH
 DFL .               12.4:   Fluid loss
 MSS .           FLOWLINE:   Source of sample
 RMS .OHMM           0.43:   Rm
 MST .F                97:   Rm Meas. temp.
 RMF .OHMM           0.42:   Rmf
 MFST.F                74:   Rmf Meas. temp.
 MFSS.               MEAS:   Source Rmf.
 RMC .OHMM           0.53:   Rmc
 MCST.F                97:   Rmc Meas. temp.
 MCSS.               CALC:   Source Rmc.
 RMB .OHMM           0.32:   Rm. at BHT
 BHT .F               131:   BHT.
 TCS .HRS               3:   Time Circ. stopped
 MRT .F               131:   Maximum recorded temp.
 LUN .               6307:   Logging unit number
 LUL .               GLTE:   Logging unit location
 ENGI.            DEYOUNG:   Recorded By
 WITN.             STRONG:   Witnessed by
 ORIG.        2" 5" PRINT:   Origin of data
 UWI .     49025109460000:   Unique Well ID
 DICO. A2D TECHNOLOGIES, INC.:   Digitizing Company
~OTHER INFORMATION
~A   DEPT     CALD        CNC       CORR       TEND       RHOB         DT       TENS         GRR      TENR       RFOC       RILM       RILD        SPR   
# ...
  551.5000    12.1702     0.2988     0.0932   -14.4813     2.5012  -999.2500  -999.2500    98.0676   -19.1180     7.2778     9.3086     7.2729   -38.3187
  552.0000    12.2001     0.2957     0.1009   -11.6421     2.5029  -999.2500  -999.2500    95.9577   -18.1641     9.1207     9.6416     7.5882   -38.9160
  552.5000    12.2009     0.2984     0.0932    -8.7423     2.4702  -999.2500  -999.2500    90.5345   -17.2101     9.7199     9.8469     7.7510   -39.3636
  553.0000    12.2016     0.3012    -0.0250   -12.1271     2.4164  -999.2500  -999.2500    89.1779   -16.2562     9.7879     9.8462     7.9172   -39.5119
  553.5000    12.2024     0.3227    -0.0557   -15.4513     2.3871  -999.2500  -999.2500    92.1881   -15.3023     9.6503     9.3058     7.9734   -39.5104
  554.0000    12.2031     0.3428    -0.0849   -18.7754     2.3777  -999.2500  -999.2500    94.4457   -14.3484     9.2507     8.3718     8.0353   -39.5090
  554.5000    12.1887     0.3580    -0.1048   -19.0179     2.3746  -999.2500  -999.2500    96.1008   -13.3945     8.6824     7.6924     8.0870   -39.3545
  555.0000    12.1895     0.3630    -0.1094   -19.2604     2.3754  -999.2500  -999.2500    96.2751   -12.4406     8.0352     7.5310     8.0300   -38.8897
  555.5000    12.1749     0.3642    -0.0994   -19.5069     2.3785  -999.2500  -999.2500    93.8388   -11.4867     7.7025     7.5837     7.9172   -38.1569
  556.0000    12.1758     0.3495    -0.0573   -19.7535     2.3893  -999.2500  -999.2500    89.3193   -10.5328     8.4397     7.5832     7.8614   -36.0596
  556.5000    12.1614     0.3399    -0.0343   -20.0485     2.4093  -999.2500  -999.2500    85.1009    -9.5788     9.5786     7.6363     7.6963   -34.1121
  557.0000    12.1773     0.3286    -0.0327   -17.1487     2.4232  -999.2500  -999.2500    87.2427    -8.6249    10.5695     7.6357     7.6963   -33.2124
  557.5000    12.1781     0.3147    -0.0358   -17.4518     2.4378  -999.2500  -999.2500    89.9422    -7.7869    10.4210     7.7454     7.6963   -33.6600
  558.0000    12.1788     0.2904    -0.0205   -20.7760     2.4486  -999.2500  -999.2500    88.0781    -8.0015     9.1164     7.8529     7.6963   -34.5568
  558.5000    12.1947     0.2837     0.0010   -17.8762     2.4594  -999.2500  -999.2500    83.2324    -8.4190     7.8084     7.9638     7.8060   -35.1541
  559.0000    12.1955     0.2883     0.0118   -15.0370     2.4625  -999.2500  -999.2500    85.2437    -8.8364     7.5912     8.0862     7.9069   -35.4520
  559.5000    12.1962     0.3400     0.0133   -15.3401     2.4618  -999.2500  -999.2500    88.8567    -9.2538     7.5907     8.2482     8.0870   -35.6003
  560.0000    12.1818     0.3525     0.0041   -18.6643     2.4564  -999.2500  -999.2500    92.0178    -9.6713     7.8068     8.3061     8.2023   -35.5988
  560.5000    12.1656     0.3540     0.0056   -18.9068     2.4526  -999.2500  -999.2500    94.1248   -10.0887     8.1429     8.3053     8.3191   -35.7471
  561.0000    12.1530     0.3504     0.0041   -19.1493     2.4549  -999.2500  -999.2500    93.8221   -10.5062     8.6170     8.3048     8.3782   -36.0446
  561.5000    12.1083     0.3374    -0.0082   -22.4734     2.4557  -999.2500  -999.2500    92.7664   -10.9236     9.0527     8.1305     8.3191   -36.9414
  562.0000    12.0939     0.3196    -0.0064   -22.7159     2.4504  -999.2500  -999.2500    91.1083   -11.3411     9.1756     7.9039     8.3782   -37.9878
  562.5000    12.0494     0.3091     0.0109   -22.9584     2.4512  -999.2500  -999.2500    87.0405   -11.7585     9.1000     7.6298     8.2023   -39.3337
  563.0000    11.9592     0.3061     0.0332   -23.2049     2.4520  -999.2500  -999.2500    83.7258   -12.1759     8.8570     7.4696     8.1414   -39.9314
  563.5000    11.7933     0.3311     0.0439   -23.4515     2.4497  -999.2500  -999.2500    86.4351   -12.5934     8.6106     7.4167     7.9734   -40.0796
  564.0000    11.6577     0.3350     0.0163   -23.7465     2.4467  -999.2500  -999.2500    91.5541   -13.0108     8.2541     7.3641     7.9083   -39.9281
  564.5000    11.5522     0.3230    -0.0328   -23.9890     2.4421  -999.2500  -999.2500    95.7695   -13.4283     7.8018     7.2095     7.6963   -39.7769
  565.0000    11.4470     0.3177    -0.0359   -21.1498     2.4452  -999.2500  -999.2500    98.0270   -13.8457     7.3742     6.9594     7.4816   -39.4735
  565.5000    11.3417     0.3171    -0.0221   -21.3923     2.4514  -999.2500  -999.2500    98.0783   -14.2631     6.8727     6.5775     7.3245   -39.1585
  566.0000    11.2516     0.3552     0.0101   -21.6348     2.4529  -999.2500  -999.2500    96.5180   -14.6806     6.4961     6.1295     7.0700   -38.5746
  566.5000    11.1614     0.3798     0.0500   -18.7350     2.4530  -999.2500  -999.2500    95.4623   -15.0980     6.3154     5.5925     6.6339   -37.8246
  567.0000    11.0864     0.3983     0.0654   -22.1198     2.4483  -999.2500  -999.2500    94.8435   -15.5155     6.1830     4.5265     6.1808   -37.3740
  567.5000    11.0114     0.4196     0.0684   -22.3623     2.4372  -999.2500  -999.2500    94.2545   -15.9329     6.0535     3.6896     4.5921   -36.9235
  568.0000    10.9515     0.4432     0.0531   -19.4625     2.4108  -999.2500  -999.2500    96.6323   -17.3110     5.7217     3.1106     3.2932   -36.9220
  568.5000    10.8917     0.4604    -0.0038   -16.6233     2.3547  -999.2500  -999.2500   101.3722   -18.8219     5.0763     2.4151     2.6261   -36.6211
  569.0000    10.8466     0.4708     0.0001   -16.9264     2.3163  -999.2500  -999.2500   105.8461   -20.3328     4.3480     2.2810     2.3121   -36.4700
  569.5000    10.7999     0.4662     0.0254   -17.1689     2.2565  -999.2500  -999.2500   107.3510   -21.8437     3.7505     2.1393     2.1090   -36.4685
  570.0000    10.7253     0.3681     0.0315   -17.4114     2.1594  -999.2500  -999.2500    96.8070   -23.3545     3.1014     2.0841     2.0793   -36.9162
  570.5000    10.6438     0.3143     0.0285   -17.6579     2.1527  -999.2500  -999.2500    97.7091   -24.8654     2.5646     2.1894     2.2004   -37.8313
  571.0000    10.5015     0.3079     0.0254   -15.4905     2.1773  -999.2500  -999.2500    95.5992   -26.3763     2.5286     2.5384     2.4124   -39.2057
  571.5000    10.4721     0.3127     0.0192   -15.0572     2.2534  -999.2500  -999.2500    93.4893   -27.8872     2.6195     2.8613     2.6447   -40.6539
  572.0000    10.4727     0.3162     0.0116   -15.2997     2.4126  -999.2500  -999.2500    91.9818   -29.3981     3.0859     3.2710     2.9631   -42.5986
  572.5000    10.4886     0.3103     0.0039   -12.4808     2.4533  -999.2500  -999.2500    92.4321   -30.9090     3.7944     4.0981     3.7550   -44.8426
  573.0000    10.5046     0.3125    -0.0161   -12.7636     2.4849  -999.2500  -999.2500    94.2378   -32.4199     4.4884     4.6849     4.5835   -47.0867
  573.5000    10.5129     0.3063    -0.0314   -12.9738     2.4934  -999.2500  -999.2500    97.5496   -33.9308     5.1085     5.2807     5.3230   -48.4325
  574.0000    10.5364     0.3035    -0.0299   -13.2486     2.4965  -999.2500  -999.2500   102.8192   -35.4416     5.4805     5.6659     5.9660   -49.4789
  574.5000    10.5372     0.3023    -0.0238   -13.4911     2.4827  -999.2500  -999.2500   105.0767   -36.4754     5.9630     5.9941     6.1372   -50.3757
  575.0000    10.5379     0.3026    -0.0130    -7.5703     2.4804  -999.2500  -999.2500   104.4728   -36.8631     6.3972     6.2086     6.3134   -51.1227
  575.5000    10.5690     0.2915     0.0132    -4.7311     2.4812  -999.2500  -999.2500   100.5557   -37.4103     6.6726     6.4763     6.4033   -51.5722
  576.0000    10.5848     0.2888     0.0591    -1.8920     2.4935  -999.2500  -999.2500    98.1446   -37.9575     6.9110     6.5217     6.4946   -51.5689
  576.5000    10.6008     0.2854     0.0437    -2.1344     2.5074  -999.2500  -999.2500    99.7997   -38.5047     7.1078     6.3848     6.5407   -51.1180
  577.0000    10.6015     0.2823     0.0514     0.7088     2.4864  -999.2500  -999.2500   102.6698   -39.0518     7.2082     6.3395     6.6339   -50.5177
