~VERSION INFORMATION
 VERS.                2.0:   CWLS LOG ASCII STANDARD - VERSION 2.0
 WRAP.                 NO:   ONE LINE PER DEPTH STEP
~WELL INFORMATION
#MNEM.UNIT      DATA TYPE    INFORMATION
#----------   ------------   ------------------------------
 STRT.F           12.0000:   START DEPTH
 STOP.F          900.0000:   STOP DEPTH
 STEP.F            0.5000:   STEP LENGTH
 NULL.          -999.2500:   NO VALUE
 COMP. FLUOR DANIEL - NPSOR:   COMPANY
 WELL. FLUOR NPR "X" #82-34:   WELL
 FLD .              NPR 3:   FIELD
 LOC .      S34 T39N R78W:   LOCATION
 CNTY.            NATRONA:   COUNTY
 STAT.            WYOMING:   STATE
 CTRY. UNITED STATES OF AMERICA:   COUNTRY
 SRVC.      WESTERN ATLAS:   SERVICE COMPANY
 DATE.        06-SEP-1994:   LOGDATE
 API .     49025226350000:   API NUMBER
~CURVE INFORMATION
#MNEM.UNIT       API CODE    CURVE DESCRIPTION
#----------   ------------   ------------------------------
 DEPT.F                  :   
 RILD.OHMM   07 120 46 00:   INDUCTION LOG DEEP RESISTIVITY
 TENR.LBS    07 635 01 00:   TENSION
 RILM.OHMM   07 120 44 00:   INDUCTION LOG MEDIUM RESISTIVITY
 GRR .GAPI   07 310 01 00:   GAMMA RAY FROM RESISTIVITY
~PARAMETER INFORMATION
#MNEM.UNIT          VALUE    DESCRIPTION
#----------   ------------   ------------------------------
 EKB .F         5084.0000:   Kelly bushing
 EGL .F         5074.0000:   Ground level
 EDF .F         5083.0000:   Drilling floor
 EPD .F            0.0000:   Permanent datum
 TD  .F          918.0000:   Total depth
 DATE.        06-SEP-1994:   Date logged
 CLNT.            A2DTECH:   Client Code
 SL  . 990' FNL & 330' FEL:   Surface Location
 PD  .                 GL:   Permanent Datum
 DAPD.F                10:   Feet Above Permanent Datum
 DD  .F               918:   Depth driller
 DL  .F               807:   Depth logger
 BLI .F               889:   Bottom log interval
 CS1 .IN            9.625:   Casing size
 CBD1.       9.625" @ 54':   Casing driller 1
 CBL1.F                54:   Casing logger 1
 BS1 .IN             8.75:   Bit size
 BSD1.F               918:   Depth drilled with bit1
 DFT .                AIR:   Type fluid in hole
 LUN .            HL-6321:   Logging unit number
 LUL .       ROCK SPRINGS:   Logging unit location
 ENGI.           VERCIMAK:   Recorded By
 WITN.          G. STRONG:   Witnessed by
 ORIG.           5" PRINT:   Origin of data
 UWI .     49025226350000:   Unique Well ID
 DICO. A2D TECHNOLOGIES, INC.:   Digitizing Company
~OTHER INFORMATION
~A   DEPT     RILD       TENR       RILM         GRR  
# ...
  596.0000     5.1480   -12.8830     5.3150   127.2380
  596.5000     5.1050   -12.5460     5.1050   128.8320
  597.0000     5.1050   -12.2090     5.1050   126.3030
  597.5000     5.1050   -11.8720     5.2140   121.5570
  598.0000     5.1050   -11.5350     5.3530   119.8030
  598.5000     5.1970   -11.1980     5.4930   120.2800
  599.0000     5.3400   -10.8610     5.6330   124.5310
  599.5000     5.4840   -10.5240     5.7720   128.8470
  600.0000     5.6280   -10.1870     5.9120   126.0930
  600.5000     5.7730    -9.8500     6.1030   123.1630
  601.0000     5.9170    -9.5130     6.0970   120.7330
  601.5000     5.9950    -9.1760     6.0760   123.5960
  602.0000     5.9950    -8.8390     6.0540   126.9220
  602.5000     5.9540    -8.5020     6.0320   128.4540
  603.0000     5.9100    -8.1650     6.0100   124.9030
  603.5000     5.8650    -7.8280     5.9880   121.7170
  604.0000     5.8200    -7.6790     5.9660   119.8250
  604.5000     5.7850    -7.5850     5.9440   121.6260
  605.0000     5.6820    -7.4900     5.9220   123.2240
  605.5000     5.6300    -7.3960     5.9000   124.8860
  606.0000     5.4300    -7.3020     5.7730   126.6890
  606.5000     5.2290    -7.2080     5.5290   128.0010
  607.0000     5.0280    -7.1130     5.2850   128.3840
  607.5000     4.8270    -7.0190     5.0420   129.9550
  608.0000     4.6260    -6.9250     4.7980   132.0330
  608.5000     4.4260    -6.8310     4.5540   131.9000
  609.0000     4.4260    -6.7360     4.2710   130.3860
  609.5000     4.4260    -6.6420     4.4410   128.9240
  610.0000     4.5870    -6.5480     4.6450   127.4950
  610.5000     4.6690    -6.4530     4.8490   126.1760
  611.0000     4.8410    -6.3590     5.0530   126.7870
  611.5000     4.9970    -6.2650     5.2570   128.8650
  612.0000     5.1530    -6.1710     5.4610   130.7770
  612.5000     5.3090    -6.0760     5.6650   132.2230
  613.0000     5.4660    -5.9820     5.7850   129.9690
  613.5000     5.6220    -5.8880     5.8650   127.9170
  614.0000     5.7780    -5.7940     5.9430   127.6270
  614.5000     5.8890    -5.6990     6.0220   129.6290
  615.0000     5.9610    -5.6050     6.1000   131.4480
  615.5000     6.0410    -5.5110     6.1780   133.2320
  616.0000     6.1210    -5.4160     6.2570   134.7320
  616.5000     6.2020    -5.3220     6.3350   134.4280
  617.0000     6.2820    -5.2280     6.4130   134.0640
  617.5000     6.3620    -5.1340     6.4920   134.1450
  618.0000     6.4420    -5.0390     6.5700   137.2900
  618.5000     6.5230    -4.9450     6.6490   138.8770
  619.0000     6.6030    -4.8510     6.6750   139.0310
  619.5000     6.6720    -4.7570     6.6830   139.3760
  620.0000     6.6830    -4.6620     6.6920   138.6510
  620.5000     6.6920    -4.5680     6.7000   136.1930
  621.0000     6.7020    -4.4740     6.7080   133.8360
  621.5000     6.7110    -4.3790     6.7170   131.2570
  622.0000     6.7200    -4.2850     6.7250   130.4030
  622.5000     6.7300    -4.1910     6.7330   131.6390
  623.0000     6.7390    -4.0970     6.7420   132.7060
  623.5000     6.7480    -4.0020     6.7500   133.7300
  624.0000     6.7580    -3.9080     6.7580   134.7920
  624.5000     6.7670    -3.8140     6.7660   136.0540
  625.0000     6.7760    -3.7200     6.7750   134.5410
  625.5000     6.7900    -3.6250     6.7830   130.9670
  626.0000     6.7340    -3.5310     6.7930   131.6950
  626.5000     6.4940    -3.4370     6.6720   132.9840
  627.0000     6.2540    -3.3420     6.4040   130.6880
  627.5000     6.0140    -3.2480     6.1530   128.4070
  628.0000     5.7730    -3.1540     5.8890   129.1610
  628.5000     5.5330    -3.0600     5.7850   130.0560
  629.0000     5.2930    -2.9650     5.3380   129.1210
  629.5000     4.9550    -2.8710     4.8930   128.6060
  630.0000     4.5530    -2.7770     4.4480   129.6600
  630.5000     4.1510    -2.6820     4.0030   131.4300
  631.0000     3.7480    -2.5880     3.5580   129.9400
  631.5000     3.3460    -2.4940     3.1140   127.8220
  632.0000     2.9440    -2.4000     2.6690   127.4270
  632.5000     2.5410    -2.3050     2.2060   128.8680
  633.0000     2.1390    -2.2110     2.1670   128.5220
  633.5000     2.0540    -2.1170     2.1670   126.7320
  634.0000     2.0910    -2.0230     2.1290   123.4360
  634.5000     2.1290    -1.9280     2.1290   118.9100
  635.0000     2.4620    -1.8340     2.2060   119.3430
  635.5000     2.9060    -1.7400     2.2460   120.6220
  636.0000     3.3510    -1.6450     2.6870   125.0390
  636.5000     3.7950    -1.5510     3.2500   131.6490
  637.0000     4.2390    -1.4570     3.8130   135.0020
  637.5000     4.6830    -1.3630     4.3760   137.4500
  638.0000     5.1280    -1.2680     4.9260   138.5880
  638.5000     5.3060    -1.1740     5.0310   137.7890
  639.0000     5.3310    -1.0800     5.0990   137.3950
  639.5000     5.3550    -0.9860     5.1670   136.6750
  640.0000     5.3800    -0.8910     5.2350   139.8540
  640.5000     5.4050    -0.7970     5.3030   143.8220
  641.0000     5.4290    -0.7030     5.3710   143.2960
  641.5000     5.4540    -0.6080     5.4830   142.5310
  642.0000     5.4830    -0.5140     5.4830   141.8260
  642.5000     5.4830    -0.4200     5.4830   143.4740
  643.0000     5.4830    -0.3260     5.4830   144.7670
  643.5000     5.1900    -0.2310     5.2410   144.1870
  644.0000     4.8530    -0.1370     4.9360   143.5860
  644.5000     4.5150    -0.0430     4.6300   144.2590
  645.0000     4.1770     0.0510     4.3250   146.2550
  645.5000     3.8400     0.1460     4.0200   144.5870
  646.0000     3.5720     0.2400     3.7690   142.8000
  646.5000     3.5090     0.3340     3.6370   144.2780
  647.0000     3.4470     0.4290     3.6370   145.9410
  647.5000     3.4470     0.5230     3.6370   145.7350
  648.0000     3.4470     0.6170     3.6370   142.6360
  648.5000     3.5900     0.7110     3.8480   141.1360
  649.0000     3.8410     0.8060     4.0940   140.3270
  649.5000     4.0920     0.9000     4.3410   139.5510
  650.0000     4.3430     0.9940     4.5870   139.5020
  650.5000     4.5940     1.0880     4.8330   143.6680
  651.0000     4.8450     1.1830     5.0800   145.8030
  651.5000     5.0970     1.2770     5.3260   144.4810
  652.0000     5.3100     1.3710     5.5720   142.5700
  652.5000     5.4990     1.4660     5.8190   141.7290
  653.0000     5.6880     1.5600     6.0650   141.7890
  653.5000     5.8760     1.6540     6.2130   142.5990
  654.0000     6.0650     1.7480     6.1820   145.5610
  654.5000     6.1030     1.8430     6.1520   149.2550
  655.0000     6.1030     1.9370     6.1220   147.1940
  655.5000     6.1030     2.0310     6.0920   142.8230
  656.0000     6.1030     2.1260     6.0610   138.2520
  656.5000     5.9320     2.2200     6.0310   139.5900
  657.0000     5.7750     2.3140     6.0010   141.5550
  657.5000     5.6180     2.4080     5.8380   141.4850
  658.0000     5.4600     2.5030     5.6420   140.7170
  658.5000     5.3030     2.5970     5.4460   139.8930
  659.0000     5.1460     2.6910     5.2500   142.7820
  659.5000     4.9890     2.7850     5.0530   147.5170
  660.0000     4.7810     2.8800     4.8570   149.4240
  660.5000     4.5400     2.9740     4.6610   145.8230
  661.0000     4.3470     3.0680     4.4650   142.6310
  661.5000     4.2710     3.1630     4.3470   138.5100
  662.0000     4.3720     3.2570     4.2710   141.1510
  662.5000     4.5400     3.3510     4.3470   147.3860
  663.0000     4.7090     3.4450     4.5880   147.4200
  663.5000     4.8770     3.5400     4.8290   142.4880
  664.0000     5.0460     3.6340     5.0700   137.9920
  664.5000     5.2150     3.7280     5.3110   139.8630
  665.0000     5.3830     3.8220     5.5520   142.7260
  665.5000     5.5520     3.9170     5.7920   144.2620
  666.0000     5.7200     4.0110     5.9950   143.4690
  666.5000     5.8890     4.1050     6.0200   142.9400
  667.0000     5.9170     4.2000     6.0520   142.3950
  667.5000     5.9450     4.2940     6.0840   141.8190
  668.0000     5.9730     4.3880     6.1150   141.2810
  668.5000     6.0010     4.4820     6.1470   140.9790
