~VERSION INFORMATION
 VERS.                2.0:   CWLS LOG ASCII STANDARD - VERSION 2.0
 WRAP.                 NO:   ONE LINE PER DEPTH STEP
~WELL INFORMATION
#MNEM.UNIT      DATA TYPE    INFORMATION
#----------   ------------   ------------------------------
 STRT.F            0.0000:   START DEPTH
 STOP.F         5576.0000:   STOP DEPTH
 STEP.F            0.5000:   STEP LENGTH
 NULL.          -999.2500:   NO VALUE
 COMP.      FLUCOR DANIEL:   COMPANY
 WELL.  FLUCOR "X" #76-10:   WELL
 FLD .          N.P.R. #3:   FIELD
 LOC .      S10 T38N R78W:   LOCATION
 CNTY.            NATRONA:   COUNTY
 STAT.            WYOMING:   STATE
 CTRY. UNITED STATES OF AMERICA:   COUNTRY
 SRVC. ATLAS WIRELINE SERVICES:   SERVICE COMPANY
 DATE.        16-MAR-1995:   LOGDATE
 API .     49025226860000:   API NUMBER
~CURVE INFORMATION
#MNEM.UNIT       API CODE    CURVE DESCRIPTION
#----------   ------------   ------------------------------
 DEPT.F                  :   
 CNC .DEC    42 890 01 00:   NEUTRON POROSITY LIMESTONE
 CALD.IN     45 280 60 00:   CALIPER FROM DENSITY LOG
 ZDEN.G/C3   45 350 01 00:   BULK DENSITY
 ZCOR.G/C3   45 356 01 00:   DENSITY CORRECTION
 RILD.OHMM   07 120 46 00:   INDUCTION LOG DEEP RESISTIVITY
 RILM.OHMM   07 120 44 00:   INDUCTION LOG MEDIUM RESISTIVITY
 RS  .OHMM   11 220 10 00:   RESISTIVITY SHALLOW
 RD  .OHMM   11 220 09 00:   RESISTIVITY DEEP
 GRR .GAPI   07 310 01 00:   GAMMA RAY
 TENR.LBS    07 635 01 00:   TENSION FROM RESISTIVITY
~PARAMETER INFORMATION
#MNEM.UNIT          VALUE    DESCRIPTION
#----------   ------------   ------------------------------
 EKB .F         5191.0000:   Kelly bushing
 EGL .F         5101.0000:   Ground level
 EDF .F         5190.0000:   Drilling floor
 TD  .F         5582.0000:   Total depth
 CLNT.            A2DTECH:   Client Code
 SL  . 1896' FSL & 832' FEL:   Surface Location
 PD  .                 GL:   Permanent Datum
 EPD .F              5181:   Elevation Permanent Datum
 LMF .                 KB:   Log Measured From
 DMF .                 KB:   Drilling Measured From
 DAPD.F                10:   Feet Above Permanent Datum
 DATE.        16-MAR-1995:   Date Logged [DD-MMM-YYYY]
 DD  .F              5582:   Depth driller
 DL  .F              5578:   Depth logger
 BLI .F              5566:   Bottom log interval
 TLI .F               518:   Top log interval
 CS1 .IN            8.625:   Casing size
 CBD1.      8.625" @ 519':   Casing driller 1
 CBL1.F               518:   Casing logger 1
 BS1 .IN             8.75:   Bit size
 BSD1.F              5582:   Depth drilled with bit1
 DFT .               LSND:   Type fluid in hole
 DFD .               10.1:   Density
 DFV .                 52:   Viscosity
 DFPH.                9.5:   pH
 DFL .                7.2:   Fluid loss
 MSS .           FLOWLINE:   Source of sample
 RMS .OHMM          0.536:   Rm
 MST .F                70:   Rm Meas. temp.
 RMF .OHMM          0.415:   Rmf
 MFST.F                70:   Rmf Meas. temp.
 MFSS.               MEAS:   Source Rmf.
 RMC .OHMM          0.646:   Rmc
 MCST.F                70:   Rmc Meas. temp.
 MCSS.               MEAS:   Source Rmc.
 RMB .OHMM          0.228:   Rm. at BHT
 BHT .F               165:   BHT.
 TCS .HRS             6.5:   Time Circ. stopped
 MRT .F               165:   Maximum recorded temp.
 LUN .            HL-6530:   Logging unit number
 LUL .             CASPER:   Logging unit location
 ENGI.      PAT RASMUSSEN:   Recorded By
 WITN.        GARY STRONG:   Witnessed by
 ORIG.           5" PRINT:   Origin of data
 UWI .     49025226860000:   Unique Well ID
 DICO. A2D TECHNOLOGIES, INC.:   Digitizing Company
~OTHER INFORMATION
~A  DEPTH      CNC       CALD       ZDEN       ZCOR       RILD       RILM         RS         RD        GRR       TENR
# ...
 1172.5000     0.2958    10.6833     2.5186     0.0200  -999.2500  -999.2500     7.6739    10.7111    80.9695   -18.4387
 1173.0000     0.3034    10.6830     2.5179     0.0288  -999.2500  -999.2500     7.7238    10.6367    79.1372   -18.1203
 1173.5000     0.3059    10.6827     2.5186     0.0318  -999.2500  -999.2500     7.8837    10.7815    80.6412   -17.8018
 1174.0000     0.3022    10.6824     2.5231     0.0348  -999.2500  -999.2500     7.9910    11.0814    81.2364   -17.5188
 1174.5000     0.2962    10.6821     2.5269     0.0348  -999.2500  -999.2500     8.0437    11.3886    78.7977   -18.1584
 1175.0000     0.2932    10.6818     2.5261     0.0302  -999.2500  -999.2500     7.9841    11.5448    78.7865   -24.4479
 1175.5000     0.2965    10.6815     2.5182     0.0211  -999.2500  -999.2500     7.9810    11.4593    79.3813   -24.1177
 1176.0000     0.3044    10.6812     2.5056     0.0135  -999.2500  -999.2500     7.9218    11.2172    79.9761   -16.3158
 1176.5000     0.3035    10.6961     2.5034     0.0105  -999.2500  -999.2500     7.8639    10.9813    79.0530   -15.9620
 1177.0000     0.3035    10.6957     2.5086     0.0210  -999.2500  -999.2500     7.7276    10.7503    76.9206    -8.1601
 1177.5000     0.3069    10.6954     2.5170     0.0316  -999.2500  -999.2500     7.5884    10.5142    75.6970    -7.8770
 1178.0000     0.3124    10.6951     2.5231     0.0346  -999.2500  -999.2500     7.4288    10.3019    77.5013    -0.0752
 1178.5000     0.3133    10.6797     2.5222     0.0300  -999.2500  -999.2500     7.2222    10.0852    79.3083     0.2256
 1179.0000     0.3126    10.6794     2.5184     0.0239  -999.2500  -999.2500     7.1189    10.0105    79.9228     0.5263
 1179.5000     0.3097    10.6639     2.5139     0.0179  -999.2500  -999.2500     7.1659     9.9372    81.4042     0.8447
 1180.0000     0.3097    10.6636     2.5093     0.0148  -999.2500  -999.2500     7.3141     9.9334    82.9081     1.1279
 1180.5000     0.3091    10.6785     2.5040     0.0133  -999.2500  -999.2500     7.4255    10.1380    84.7151     4.5614
 1181.0000     0.3067    10.6781     2.5032     0.0132  -999.2500  -999.2500     7.6200    10.2770    82.8829     9.2127
 1181.5000     0.3055    10.6778     2.5062     0.0132  -999.2500  -999.2500     7.6702    10.5619    80.4474     2.0301
 1182.0000     0.3073    10.6775     2.5138     0.0147  -999.2500  -999.2500     7.7200    10.7057    76.7998    -5.1880
 1182.5000     0.3070    10.6773     2.5244     0.0192  -999.2500  -999.2500     7.6628    10.8515    74.9676   -12.4060
 1183.0000     0.3068    10.6921     2.5395     0.0222  -999.2500  -999.2500     7.5016    10.6223    75.5652   -13.5130
 1183.5000     0.3074    10.7070     2.5455     0.0252  -999.2500  -999.2500     7.3951    10.3911    76.7633   -19.3528
 1184.0000     0.3095    10.7218     2.5402     0.0251  -999.2500  -999.2500     7.1887    10.1086    78.5675   -19.0226
 1184.5000     0.3129    10.7215     2.5205     0.0236  -999.2500  -999.2500     7.1859    10.0347    79.4653   -18.6688
 1185.0000     0.3123    10.7212     2.5069     0.0190  -999.2500  -999.2500     7.1831     9.9612    80.9692   -18.3856
 1185.5000     0.3074    10.7209     2.5054     0.0190  -999.2500  -999.2500     7.1797    10.0259    82.7762   -18.1026
 1186.0000     0.2944    10.7054     2.5122     0.0205  -999.2500  -999.2500     7.2270    10.0930    84.5803   -17.8196
 1186.5000     0.2935    10.6900     2.5227     0.0250  -999.2500  -999.2500     7.2747    10.1585    86.6903   -17.5188
 1187.0000     0.2990    10.6897     2.5280     0.0265  -999.2500  -999.2500     7.3737    10.2255    88.8003   -17.2181
 1187.5000     0.2927    10.6742     2.5295     0.0279  -999.2500  -999.2500     7.4223    10.5090    86.3620   -16.9173
 1188.0000     0.2881    10.6739     2.5265     0.0249  -999.2500  -999.2500     7.3673    10.5049    85.1386   -16.6165
 1188.5000     0.2942    10.6736     2.5242     0.0218  -999.2500  -999.2500     7.3579    10.4998    84.5212   -16.2627
 1189.0000     0.3075    10.6885     2.5242     0.0188  -999.2500  -999.2500     7.2088    10.4175    83.9013   -15.9796
 1189.5000     0.3064    10.6882     2.5211     0.0142  -999.2500  -999.2500     7.1561    10.3468    82.6779   -15.7143
 1190.0000     0.3015    10.7031     2.5220     0.0142  -999.2500  -999.2500     7.1037    10.1989    79.6364   -15.4135
 1190.5000     0.3003    10.7179     2.5279     0.0157  -999.2500  -999.2500     7.1499    10.1949    80.2312   -15.0597
 1191.0000     0.3003    10.7024     2.5309     0.0172  -999.2500  -999.2500     7.1471    10.0502    80.8260   -14.7767
 1191.5000     0.2965    10.6869     2.5362     0.0202  -999.2500  -999.2500     7.1443     9.9073    80.2059   -14.5113
 1192.0000     0.2925    10.6866     2.5423     0.0262  -999.2500  -999.2500     6.9934     9.9027    78.9798   -14.2105
 1192.5000     0.2925    10.6863     2.5453     0.0352  -999.2500  -999.2500     6.8463     9.7621    80.1806   -13.9098
 1193.0000     0.2955    10.6861     2.5422     0.0412  -999.2500  -999.2500     6.8436     9.6226    83.1997   -13.5736
 1193.5000     0.3016    10.6858     2.5399     0.0276  -999.2500  -999.2500     6.7458     9.6189    84.4006   -13.2906
 1194.0000     0.3001    10.6703     2.5369     0.0152  -999.2500  -999.2500     6.8384     9.6152    84.9954   -20.5263
 1194.5000     0.2992    10.6700     2.5346     0.0154  -999.2500  -999.2500     6.9309     9.7461    84.6784   -27.7621
 1195.0000     0.2937    10.6697     2.5330     0.0184  -999.2500  -999.2500     7.1236     9.8779    83.7552   -27.4082
 1195.5000     0.2932    10.6694     2.5308     0.0199  -999.2500  -999.2500     7.3211     9.9430    81.9258   -34.7147
 1196.0000     0.2962    10.6691     2.5262     0.0184  -999.2500  -999.2500     7.3182    10.0784    81.9146   -34.3609
 1196.5000     0.2993    10.6839     2.5164     0.0032  -999.2500  -999.2500     7.1636    10.1448    84.1306   -41.5966
 1197.0000     0.3023    10.6836     2.5096    -0.0013  -999.2500  -999.2500     7.0619     9.8617    87.3439   -41.2428
 1197.5000     0.3110    10.6833     2.5080    -0.0029  -999.2500  -999.2500     6.9616     9.7216    88.8478   -40.9597
 1198.0000     0.3184    10.6982     2.5110    -0.0014  -999.2500  -999.2500     6.9107     9.5827    89.7456   -40.6767
 1198.5000     0.3127    10.6979     2.5178     0.0032  -999.2500  -999.2500     6.9074     9.5790    89.1255   -40.3229
 1199.0000     0.3030    10.6975     2.5193     0.0167  -999.2500  -999.2500     7.0014     9.7791    88.5082   -40.0398
 1199.5000     0.2979    10.6972     2.5117     0.0136  -999.2500  -999.2500     7.0968     9.9094    88.4970   -39.7568
 1200.0000     0.2894    10.6899     2.5079     0.0060  -999.2500  -999.2500     7.1934    10.0871    86.6183   -39.4737
 1200.5000     0.2867    10.6943     2.5087     0.0045  -999.2500  -999.2500     7.3421    10.3241    85.9795   -36.2925
 1201.0000     0.2824    10.6984     2.5125     0.0078  -999.2500  -999.2500     7.3398    10.3921    85.4162   -32.2246
 1201.5000     0.2807    10.7025     2.5170     0.0180  -999.2500  -999.2500     7.2864    10.3870    85.0961   -28.1567
 1202.0000     0.2843    10.7066     2.5147     0.0271  -999.2500  -999.2500     7.2835    10.3422    82.8970   -24.0889
 1202.5000     0.2910    10.7107     2.5094     0.0331  -999.2500  -999.2500     7.2811    10.2346    81.1226   -20.0210
 1203.0000     0.2934    10.7147     2.5056     0.0300  -999.2500  -999.2500     7.1782    10.0892    82.3134   -15.5410
 1203.5000     0.2959    10.7136     2.5025     0.0086  -999.2500  -999.2500     7.1255    10.0853    83.2055    -7.8078
 1204.0000     0.2990    10.7127     2.5018     0.0118  -999.2500  -999.2500     7.0738     9.9411    84.7838   -15.1121
 1204.5000     0.3016    10.7119     2.5086     0.0179  -999.2500  -999.2500     7.0715     9.9372    85.8987    -7.3252
 1205.0000     0.3019    10.6959     2.5229     0.0193  -999.2500  -999.2500     7.0692    10.0735    83.4531    -7.1107
 1205.5000     0.3019    10.6647     2.5267     0.0193  -999.2500  -999.2500     7.1659    10.0685    82.2240    -6.8962
