~VERSION INFORMATION
 VERS.                2.0:   CWLS LOG ASCII STANDARD - VERSION 2.0
 WRAP.                 NO:   ONE LINE PER DEPTH STEP
~WELL INFORMATION
#MNEM.UNIT      DATA TYPE    INFORMATION
#----------   ------------   ------------------------------
 STRT.F          206.0000:   START DEPTH
 STOP.F         3080.5000:   STOP DEPTH
 STEP.F            0.5000:   STEP LENGTH
 NULL.          -999.2500:   NO VALUE
 COMP.    FENIX & SCISSON:   COMPANY
 WELL.   FENIX "A" #61-28:   WELL
 FLD .           N P R #3:   FIELD
 LOC .      S28 T39N R78W:   LOCATION
 CNTY.            NATRONA:   COUNTY
 STAT.            WYOMING:   STATE
 CTRY. UNITED STATES OF AMERICA:   COUNTRY
 SRVC.        SCHLUMBEGER:   SERVICE COMPANY
 DATE.        16-MAY-1977:   LOGDATE
 API .     49025103680000:   API NUMBER
~CURVE INFORMATION
#MNEM.UNIT       API CODE    CURVE DESCRIPTION
#----------   ------------   ------------------------------
 DEPT.F                  :   
 SPR .MV     07 010 01 00:   SPONTANEOUS POTENTIAL
 LL8 .OHMM   07 220 08 00:   LATEROLOG-8 RES.
 ILM .OHMM   07 120 44 00:   INDUCTION LOG MEDIUM RESISTIVITY
 ILD .OHMM   07 120 46 00:   DEEP INDUCTION RESISTIVITY
 CALD.IN     45 280 60 00:   CALIPER FROM DENSITY LOG
 GRD .GAPI   45 310 01 00:   GAMMA RAY FROM DENSITY LOG
 RHOB.G/C3   45 350 01 00:   BULK DENSITY
 CORR.G/C3   45 356 01 00:   DENSITY CORRECTION
~PARAMETER INFORMATION
#MNEM.UNIT          VALUE    DESCRIPTION
#----------   ------------   ------------------------------
 EKB .F         5019.0000:   Kelly bushing
 EGL .F         5009.0000:   Ground level
 EDF .F            0.0000:   Drilling floor
 TD  .F         3050.0000:   Total depth
 DATE.        16-MAY-1977:   Date logged
 CLNT.            A2DTECH:   Client Code
 SL  . 330' FNL & 1650' FEL:   Surface Location
 PD  .                 GL:   Permanent Datum
 DD  .F              3050:   Depth driller
 DL  .F              3079:   Depth logger
 BLI .F              3072:   Bottom log interval
 CS1 .IN            8.625:   Casing size
 CBD1.      8.625" @ 213':   Casing driller 1
 CBL1.F               213:   Casing logger 1
 BS1 .IN            7.875:   Bit size
 DFT .            KCL-MUD:   Type fluid in hole
 DFD .                9.2:   Density
 DFV .                 32:   Viscosity
 DFPH.                  8:   pH
 DFL .                7.6:   Fluid loss
 MSS .              CIRC.:   Source of sample
 RMS .OHMM          0.128:   Rm
 MST .F                62:   Rm Meas. temp.
 RMF .OHMM          0.126:   Rmf
 MFST.F                62:   Rmf Meas. temp.
 RMC .OHMM          0.192:   Rmc
 MCST.F                62:   Rmc Meas. temp.
 MFSS.               MEAS:   Source Rmf.
 RMB .OHMM           0.07:   Rm. at BHT
 BHT .F               112:   BHT.
 TCS .HRS            0900:   Time Circ. stopped
 MRT .F               112:   Maximum recorded temp.
 LUN .               7711:   Logging unit number
 LUL .               CSPR:   Logging unit location
 ENGI.             SAYLER:   Recorded By
 WITN.         PETTINGILL:   Witnessed by
 ORIG.           5" PRINT:   Origin of data
 UWI .     49025103680000:   Unique Well ID
 DICO. A2D TECHNOLOGIES, INC.:   Digitizing Company
 DAPD.                 10:   Feet Above Permanent Datum
 BSD1.               3050:   Depth drilled with bit1
 MCSS.               CALC:   Source Rmc.
 EPD .F              5009:   Elevation Permanent Datum
 LMF .                 KB:   Log Measured From
 DMF .                 KB:   Drilling Measured From
 TLI .F               213:   Top log interval
 TLAB.               1100:   Time logger at bottom
~OTHER INFORMATION
~A   DEPT      SPR        LL8        ILM        ILD       CALD         GRD      RHOB       CORR   
# ...
 1704.5000   -43.8000     8.4770     7.7310     7.5490     9.5370   128.0870     2.5350    -0.0030
 1705.0000   -43.8000     8.6100     7.7600     7.5490     9.5020   129.1340     2.5270    -0.0090
 1705.5000   -43.8000     8.7420     7.7870     7.5490     9.4960   131.2660     2.5210    -0.0100
 1706.0000   -43.8000     8.9070     7.8150     7.5490     9.4960   132.6350     2.5310    -0.0040
 1706.5000   -43.8000     8.8460     7.8420     7.5480     9.4960   132.7430     2.5350    -0.0020
 1707.0000   -43.8000     8.6710     7.8700     7.5630     9.4960   133.2120     2.5280    -0.0060
 1707.5000   -43.8000     8.4970     7.8980     7.5930     9.4960   133.7830     2.5200    -0.0110
 1708.0000   -43.8000     8.2950     7.9250     7.6220     9.4960   132.6040     2.5240    -0.0080
 1708.5000   -43.8000     8.3360     7.9530     7.6510     9.4960   131.1100     2.5340    -0.0010
 1709.0000   -43.8000     8.4190     7.9770     7.6800     9.4960   130.0630     2.5380    -0.0010
 1709.5000   -43.8000     8.5020     7.9820     7.7090     9.4960   132.0590     2.5340     0.0000
 1710.0000   -43.8000     8.5850     7.9990     7.7370     9.4960   134.2810     2.5310     0.0020
 1710.5000   -43.8000     8.6670     8.0160     7.7660     9.4960   134.6700     2.5370     0.0100
 1711.0000   -43.8000     8.7500     8.0330     7.7950     9.4960   133.7570     2.5340     0.0100
 1711.5000   -43.8000     8.8330     8.0490     7.8230     9.4960   133.9090     2.5400     0.0050
 1712.0000   -43.8000     8.9070     8.0650     7.8530     9.5090   133.3180     2.5520     0.0000
 1712.5000   -43.8000     9.1470     8.0830     7.8810     9.5240   131.2660     2.5560    -0.0040
 1713.0000   -43.8000     9.2520     8.1010     7.9100     9.5380   129.6070     2.5410    -0.0080
 1713.5000   -43.8000     9.3580     8.1210     7.9390     9.5530   129.0970     2.5300    -0.0050
 1714.0000   -43.8000     9.4120     8.0600     7.9770     9.5670   128.5190     2.5220    -0.0030
 1714.5000   -43.8000     9.1460     7.9230     7.8800     9.5820   126.5510     2.5300     0.0000
 1715.0000   -43.8000     8.9010     7.7840     7.7390     9.5960   124.4060     2.5280    -0.0030
 1715.5000   -43.8000     8.6560     7.6480     7.5980     9.6090   124.5530     2.5270    -0.0050
 1716.0000   -43.8000     8.4290     7.5110     7.4580     9.6210   126.4430     2.5350    -0.0020
 1716.5000   -43.8000     8.2760     7.4110     7.2760     9.6330   128.9650     2.5430     0.0010
 1717.0000   -43.8000     8.2460     7.4110     7.2690     9.6460   130.4320     2.5390    -0.0030
 1717.5000   -43.8000     8.2120     7.4110     7.2530     9.6560   131.2890     2.5340    -0.0030
 1718.0000   -43.8000     8.1780     7.4110     7.2370     9.6580   127.8630     2.5350     0.0020
 1718.5000   -43.8000     8.1440     7.4110     7.2210     9.6590   125.7670     2.5320     0.0030
 1719.0000   -43.8000     8.1250     7.4110     7.2050     9.6610   126.9950     2.5270    -0.0010
 1719.5000   -43.8000     8.0880     7.4110     7.1890     9.6630   129.9370     2.5220    -0.0040
 1720.0000   -43.8000     8.0320     7.4110     7.1730     9.6650   132.8940     2.5230    -0.0040
 1720.5000   -43.8000     7.9760     7.4110     7.1570     9.6670   134.9790     2.5250    -0.0010
 1721.0000   -43.8000     7.9200     7.4110     7.1410     9.6680   136.4430     2.5220     0.0010
 1721.5000   -43.8000     7.8640     7.4110     7.1250     9.6700   137.9960     2.5370     0.0030
 1722.0000   -43.8000     7.8310     7.4110     7.1090     9.6720   138.3030     2.5510     0.0040
 1722.5000   -43.8000     7.8310     7.4120     7.0930     9.6740   133.8150     2.5350    -0.0010
 1723.0000   -43.8000     7.8810     7.4110     7.0770     9.6750   132.0140     2.5200     0.0020
 1723.5000   -43.8000     7.9420     7.4110     7.0610     9.6750   133.3580     2.5200     0.0070
 1724.0000   -43.8000     8.0040     7.4110     7.0450     9.6750   134.3510     2.5250     0.0100
 1724.5000   -43.8000     8.0670     7.2960     7.0300     9.6750   132.2490     2.5260     0.0040
 1725.0000   -43.8000     8.1300     7.1050     7.0140     9.6750   130.2000     2.5270     0.0040
 1725.5000   -43.8000     8.1200     6.9150     6.7800     9.6750   130.5440     2.5330     0.0090
 1726.0000   -43.8000     8.1250     6.7250     6.5470     9.6750   131.2540     2.5460     0.0140
 1726.5000   -43.8000     7.9770     6.5340     6.3140     9.6690   133.1390     2.5450     0.0120
 1727.0000   -43.8000     7.6890     6.3440     6.0810     9.6630   135.5420     2.5380     0.0060
 1727.5000   -43.8000     7.2150     6.1540     5.8480     9.6560   138.0150     2.5310     0.0010
 1728.0000   -43.8000     6.4020     5.9630     5.6150     9.6370   137.6350     2.5270     0.0000
 1728.5000   -43.8000     5.7290     5.7730     5.4220     9.6160   134.3310     2.5240    -0.0010
 1729.0000   -43.8000     6.2410     5.9350     5.6200     9.5960   131.0310     2.5210    -0.0030
 1729.5000   -43.8000     6.6770     6.2010     5.7880     9.5910   127.7830     2.5180     0.0030
 1730.0000   -43.8000     7.1130     6.4680     5.9570     9.5870   126.0060     2.5160     0.0080
 1730.5000   -43.8000     7.5490     6.7340     6.1250     9.5820   125.2180     2.5130     0.0120
 1731.0000   -43.8000     7.8310     7.0010     6.4050     9.5770   127.0460     2.5130     0.0090
 1731.5000   -43.8000     7.9480     7.2670     6.7210     9.5730   131.3100     2.5320     0.0160
 1732.0000   -43.8000     8.0710     7.5340     7.0370     9.5700   135.5940     2.5390     0.0070
 1732.5000   -43.8000     8.1940     7.8000     7.3530     9.5670   136.9580     2.5280     0.0000
 1733.0000   -43.8000     8.2760     7.9770     7.6890     9.5640   134.9930     2.5170    -0.0010
 1733.5000   -43.8000     8.3480     7.8630     7.6890     9.5610   135.0460     2.5130    -0.0020
 1734.0000   -43.8000     8.4250     7.6490     7.4680     9.5580   136.1750     2.5140     0.0030
 1734.5000   -43.8000     8.5020     7.4350     7.2740     9.5560   137.1800     2.5250     0.0140
 1735.0000   -43.8000     8.5850     7.2210     7.0790     9.5560   136.3840     2.5250     0.0120
 1735.5000   -43.8000     8.0280     7.0070     6.8840     9.5560   134.4490     2.5190     0.0060
 1736.0000   -43.8000     7.4210     6.7930     6.6890     9.5560   133.9260     2.5120    -0.0010
 1736.5000   -43.8000     6.6530     6.5790     6.4950     9.5560   134.5890     2.5140    -0.0050
 1737.0000   -43.8000     6.6910     6.3980     6.2810     9.5560   135.1270     2.5170    -0.0010
 1737.5000   -43.8000     6.7600     6.3980     6.4490     9.5560   132.7490     2.5130     0.0030
 1738.0000   -43.8000     7.2600     6.6750     6.6350     9.5560   130.1010     2.5110     0.0170
 1738.5000   -43.8000     7.7150     6.9280     6.8200     9.5560   128.0460     2.5300     0.0390
 1739.0000   -43.8000     8.1690     7.1800     7.0060     9.5560   127.8440     2.5250     0.0350
 1739.5000   -43.8000     8.5850     7.4110     7.1920     9.5560   130.1690     2.5200     0.0260
 1740.0000   -43.8000     8.5330     7.6020     7.3770     9.5560   131.6280     2.5280     0.0170
 1740.5000   -43.8000     8.4560     7.7780     7.5490     9.5560   132.0390     2.5360     0.0130
 1741.0000   -43.8000     8.3780     7.9770     7.6250     9.5560   129.5560     2.5420     0.0120
 1741.5000   -43.8000     8.2760     7.9290     7.6950     9.5560   127.1330     2.5290     0.0080
 1742.0000   -43.8000     8.3710     7.8750     7.7650     9.5560   124.7810     2.5160     0.0010
 1742.5000   -43.8000     8.5140     7.8200     7.8310     9.5560   126.8160     2.5120     0.0000
 1743.0000   -43.8000     8.6570     7.7660     7.8120     9.5600   129.4120     2.5170     0.0010
 1743.5000   -43.8000     8.8000     7.7110     7.7370     9.5630   131.3280     2.5220     0.0020
 1744.0000   -43.8000     8.8730     7.6570     7.6610     9.5670   131.1370     2.5250     0.0030
 1744.5000   -43.8000     8.7370     7.6020     7.5860     9.5710   131.9160     2.5220     0.0010
