~VERSION INFORMATION
 VERS.                2.0:   CWLS LOG ASCII STANDARD - VERSION 2.0
 WRAP.                 NO:   ONE LINE PER DEPTH STEP
~WELL INFORMATION
#MNEM.UNIT      DATA TYPE    INFORMATION
#----------   ------------   ------------------------------
 STRT.F            4.5000:   START DEPTH
 STOP.F         3216.0000:   STOP DEPTH
 STEP.F            0.5000:   STEP LENGTH
 NULL.          -999.2500:   NO VALUE
 COMP. LAWRENCE ALLISON & ASSCOCIATES:   COMPANY
 WELL. LAWRENCE ALLISON #38-34:   WELL
 FLD . NAVAL PET. RES. NO. 3:   FIELD
 LOC .      S34 T39N R78W:   LOCATION
 CNTY.            NATRONA:   COUNTY
 STAT.            WYOMING:   STATE
 CTRY. UNITED STATES OF AMERICA:   COUNTRY
 SRVC.      DRESSER ATLAS:   SERVICE COMPANY
 DATE.        12-OCT-1986:   LOGDATE
 API .     49025111120000:   API NUMBER
~CURVE INFORMATION
#MNEM.UNIT       API CODE    CURVE DESCRIPTION
#----------   ------------   ------------------------------
 DEPT.F                  :   
 CALD.IN     45 280 60 00:   CALIPER FROM DENSITY LOG
 RHOB.G/C3   45 350 01 00:   BULK DENSITY
 CORR.G/C3   45 356 01 00:   DENSITY CORRECTION
 CNC .DEC    42 890 01 00:   NEUTRON POROSITY
 SPR .MV     07 010 01 00:   SPONTANEOUS POTENTIAL
 TENR.LBS    06 635 01 00:   TENSION FROM RESISTIVITY
 GRR .GAPI   07 310 01 00:   GAMMA RAY FROM RESISTIVITY
 ILD .OHMM   07 120 46 00:   DEEP INDUCTION RESISTIVITY
 ILM .OHMM   07 120 44 00:   INDUCTION LOG MEDIUM RESISTIVITY
 SFL .OHMM   07 220 01 00:   SHALLOW FOCUSED LOG RESISITIVITY
~PARAMETER INFORMATION
#MNEM.UNIT          VALUE    DESCRIPTION
#----------   ------------   ------------------------------
 EKB .F         5229.5000:   Kelly bushing
 EGL .F         5217.7000:   Ground level
 TD  .F         3200.0000:   Total depth
 CLNT.            A2DTECH:   Client Code
 SL  . 1338' FWL & 132' FSL:   Surface Location
 PD  .                 GL:   Permanent Datum
 EPD .F            5217.7:   Elevation Permanent Datum
 LMF .                 KB:   Log Measured From
 DMF .                 KB:   Drilling Measured From
 DAPD.F              11.8:   Feet Above Permanent Datum
 DATE.        12-OCT-1986:   Date Logged [DD-MMM-YYYY]
 DD  .F              3200:   Depth driller
 DL  .F              3200:   Depth logger
 BLI .F              3194:   Bottom log interval
 TLI .F                 0:   Top log interval
 CS1 .IN            8.625:   Casing size
 CBD1.      8.625" @ 668':   Casing driller 1
 CBL1.F               668:   Casing logger 1
 BS1 .IN            7.875:   Bit size
 BSD1.F              3200:   Depth drilled with bit1
 DFT .        KCL POLYMER:   Type fluid in hole
 DFD .                  9:   Density
 DFV .                 36:   Viscosity
 DFPH.                9.5:   pH
 MSS .           FLOWLINE:   Source of sample
 RMS .OHMM           0.25:   Rm
 MST .F                70:   Rm Meas. temp.
 RMF .OHMM          0.191:   Rmf
 MFST.F                70:   Rmf Meas. temp.
 MFSS.               MEAS:   Source Rmf.
 RMB .OHMM          0.132:   Rm. at BHT
 BHT .F               132:   BHT.
 TCS .HRS               3:   Time Circ. stopped
 MRT .F               132:   Maximum recorded temp.
 LUN .               6274:   Logging unit number
 ENGI.             RAUTIO:   Recorded By
 ORIG.   1" 2.5" 5" PRINT:   Origin of data
 UWI .     49025111120000:   Unique Well ID
 DICO. A2D TECHNOLOGIES, INC.:   Digitizing Company
 LUL .               CLIT:   Logging unit location
 RMC .OHMM           0.31:   Rmc
 MCST.F                70:   Rmc Meas. temp.
 MCSS.               CALC:   Source Rmc.
~OTHER INFORMATION
~A    DEPT    CALD       RHOB       CORR        CNC        SPR       TENR        GRR        ILD        ILM        SFL   
# ...
 1679.5000  -999.2500  -999.2500  -999.2500  -999.2500   -86.6342   -25.7500   103.9835     6.8708     6.7205     7.6170
 1680.0000  -999.2500  -999.2500  -999.2500  -999.2500   -86.5863   -25.7500   111.2037     6.8704     6.8133     7.6154
 1680.5000  -999.2500  -999.2500  -999.2500  -999.2500   -86.5375   -25.7500   113.6045     6.8699     6.8119     7.6138
 1681.0000  -999.2500  -999.2500  -999.2500  -999.2500   -86.4907   -25.7500   110.5837     6.8730     6.8199     7.6585
 1681.5000  -999.2500  -999.2500  -999.2500  -999.2500   -86.4343   -25.7500   106.3580     6.9652     6.9045     7.8784
 1682.0000  -999.2500  -999.2500  -999.2500  -999.2500   -86.3802   -25.7500   102.1324     6.9647     6.9998     7.9334
 1682.5000  -999.2500  -999.2500  -999.2500  -999.2500   -86.3251   -25.7500   100.8987     7.0618     6.9982     7.9317
 1683.0000  -999.2500  -999.2500  -999.2500  -999.2500   -86.2705   -25.7500    99.0583     7.0613     6.9968     7.9298
 1683.5000  -999.2500  -999.2500  -999.2500  -999.2500   -86.2158   -25.7500    96.5271     7.1598     6.9615     8.0392
 1684.0000  -999.2500  -999.2500  -999.2500  -999.2500   -86.1611   -25.7500    94.1526     7.1940     6.8972     8.0376
 1684.5000  -999.2500  -999.2500  -999.2500  -999.2500   -86.1064   -25.7500    94.6960     7.2591     6.8529     8.0360
 1685.0000  -999.2500  -999.2500  -999.2500  -999.2500   -86.0516   -25.7500    99.5489     7.1582     6.7991     8.0343
 1685.5000  -999.2500  -999.2500  -999.2500  -999.2500   -85.9968   -25.7500   107.3603     7.0588     6.7037     7.9217
 1686.0000  -999.2500  -999.2500  -999.2500  -999.2500   -85.9423   -25.7500   111.6988     7.0044     6.6095     7.7028
 1686.5000  -999.2500  -999.2500  -999.2500  -999.2500   -85.8869   -25.7500   108.7137     6.9603     6.5168     7.5948
 1687.0000  -999.2500  -999.2500  -999.2500  -999.2500   -85.8330   -25.7500   105.6242     6.8636     6.4255     7.3848
 1687.5000  -999.2500  -999.2500  -999.2500  -999.2500   -85.7783   -25.7500   104.4428     6.7683     6.3354     7.3919
 1688.0000  -999.2500  -999.2500  -999.2500  -999.2500   -85.7184   -25.7500   106.2394     6.7679     6.3341     7.4853
 1688.5000  -999.2500  -999.2500  -999.2500  -999.2500   -85.6891   -25.7500   108.0378     6.7674     6.2453     7.3802
 1689.0000  -999.2500  -999.2500  -999.2500  -999.2500   -85.7179   -25.7500   108.0290     6.7670     6.2441     7.2767
 1689.5000  -999.2500  -999.2500  -999.2500  -999.2500   -85.7408   -25.7500   108.6227     6.7665     6.2428     7.2752
 1690.0000  -999.2500  -999.2500  -999.2500  -999.2500   -85.7647   -25.7500   109.8187     6.7660     6.2415     7.4100
 1690.5000  -999.2500  -999.2500  -999.2500  -999.2500   -85.7893   -25.7500   103.1834     6.7656     6.2446     7.5175
 1691.0000  -999.2500  -999.2500  -999.2500  -999.2500   -85.8132   -25.7500   101.3674     6.7651     6.3264     7.5805
 1691.5000  -999.2500  -999.2500  -999.2500  -999.2500   -85.8374   -25.7500   103.7682     6.7646     6.3250     7.5790
 1692.0000  -999.2500  -999.2500  -999.2500  -999.2500   -85.8615   -25.7500   104.3619     6.7642     6.3414     7.5216
 1692.5000  -999.2500  -999.2500  -999.2500  -999.2500   -85.8857   -25.7500   103.6598     6.7637     6.4111     7.4711
 1693.0000  -999.2500  -999.2500  -999.2500  -999.2500   -85.9098   -25.7500   103.1385     6.7632     6.4096     7.4693
 1693.5000  -999.2500  -999.2500  -999.2500  -999.2500   -85.9339   -25.7500   103.8905     6.7628     6.4083     7.3646
 1694.0000  -999.2500  -999.2500  -999.2500  -999.2500   -85.9581   -25.7500   104.9291     6.8277     6.4069     7.3631
 1694.5000  -999.2500  -999.2500  -999.2500  -999.2500   -85.9820   -25.7500   103.7139     6.8565     6.4056     7.3616
 1695.0000  -999.2500  -999.2500  -999.2500  -999.2500   -86.0065   -25.7500   104.8295     6.8561     6.4042     7.4632
 1695.5000  -999.2500  -999.2500  -999.2500  -999.2500   -86.0304   -25.7500   106.6957     6.8556     6.4029     7.4617
 1696.0000  -999.2500  -999.2500  -999.2500  -999.2500   -86.0539   -25.7500   109.4940     6.8551     6.4910     7.4602
 1696.5000  -999.2500  -999.2500  -999.2500  -999.2500   -86.0810   -25.7500   111.5073     6.8546     6.5806     7.4587
 1697.0000  -999.2500  -999.2500  -999.2500  -999.2500   -86.0712   -25.7500   110.8961     6.8541     6.5793     7.3541
 1697.5000  -999.2500  -999.2500  -999.2500  -999.2500   -86.0324   -25.7500   107.8753     6.9497     6.6701     7.5689
 1698.0000  -999.2500  -999.2500  -999.2500  -999.2500   -85.9970   -25.7500   101.8424     6.9492     6.6687     7.8807
 1698.5000  -999.2500  -999.2500  -999.2500  -999.2500   -85.9619   -25.7500   100.6288     6.9487     6.6674     7.8789
 1699.0000  -999.2500  -999.2500  -999.2500  -999.2500   -85.9258   -25.7500   101.2224     6.9482     6.5739     7.7434
 1699.5000  -999.2500  -999.2500  -999.2500  -999.2500   -85.8903   -25.7500   104.8281     7.0451     6.6646     7.6296
 1700.0000  -999.2500  -999.2500  -999.2500  -999.2500   -85.8547   -25.7500   113.8530     7.0446     6.6633     7.5521
 1700.5000  -999.2500  -999.2500  -999.2500  -999.2500   -85.8190   -25.7500   113.2361     7.0237     6.6924     7.5498
 1701.0000  -999.2500  -999.2500  -999.2500  -999.2500   -85.7834   -25.7500   111.4143     7.0027     6.7215     7.4435
 1701.5000  -999.2500  -999.2500  -999.2500  -999.2500   -85.7478   -25.7500   108.3877     6.9818     6.7523     7.4415
 1702.0000  -999.2500  -999.2500  -999.2500  -999.2500   -85.7122   -25.7500   105.9635     6.9608     6.8456     7.5437
 1702.5000  -999.2500  -999.2500  -999.2500  -999.2500   -85.6765   -25.7500   103.5392     6.9400     6.8442     7.8667
 1703.0000  -999.2500  -999.2500  -999.2500  -999.2500   -85.6409   -25.7500   103.5241     6.9386     6.7482     8.0828
 1703.5000  -999.2500  -999.2500  -999.2500  -999.2500   -85.6053   -25.7500   103.5090     7.0345     6.7468     7.9490
 1704.0000  -999.2500  -999.2500  -999.2500  -999.2500   -85.5697   -25.7500   103.9273     7.0329     6.7454     7.7209
 1704.5000  -999.2500  -999.2500  -999.2500  -999.2500   -85.5340   -25.7500   108.6736     7.0314     6.7440     7.5332
 1705.0000  -999.2500  -999.2500  -999.2500  -999.2500   -85.4984   -25.7500   105.0901     7.0299     6.7426     7.6794
 1705.5000  -999.2500  -999.2500  -999.2500  -999.2500   -85.4626   -25.7500   104.8739     7.0285     6.7411     7.9020
 1706.0000  -999.2500  -999.2500  -999.2500  -999.2500   -85.4270   -25.7500   106.4458     7.0270     6.6907     7.9577
 1706.5000  -999.2500  -999.2500  -999.2500  -999.2500   -85.3918   -25.7500   104.6206     6.9285     6.7383     7.9551
 1707.0000  -999.2500  -999.2500  -999.2500  -999.2500   -85.3545   -25.7500   102.1964     6.9268     6.6436     7.8431
 1707.5000  -999.2500  -999.2500  -999.2500  -999.2500   -85.3216   -25.7500   105.1939     6.9254     6.6423     7.6258
 1708.0000  -999.2500  -999.2500  -999.2500  -999.2500   -85.2872   -25.7500   108.7938     6.9240     6.6410     7.6238
 1708.5000  -999.2500  -999.2500  -999.2500  -999.2500   -85.3499   -25.7500   110.5865     6.9226     6.6396     7.7285
 1709.0000  -999.2500  -999.2500  -999.2500  -999.2500   -85.4214   -25.7437   111.1747     6.9212     6.6383     7.8347
 1709.5000  -999.2500  -999.2500  -999.2500  -999.2500   -85.4949   -25.7769   109.3183     6.9198     6.7299     7.8325
 1710.0000  -999.2500  -999.2500  -999.2500  -999.2500   -85.5666   -25.8862   104.2164     7.0153     6.7285     7.8303
 1710.5000  -999.2500  -999.2500  -999.2500  -999.2500   -85.6447   -26.1260   100.1826     7.0138     6.7271     7.8281
 1711.0000  -999.2500  -999.2500  -999.2500  -999.2500   -85.6896   -26.4368   101.7690     7.0124     6.7257     7.8260
 1711.5000  -999.2500  -999.2500  -999.2500  -999.2500   -85.6846   -26.7735   103.2704     7.1093     6.7243     7.8625
 1712.0000  -999.2500  -999.2500  -999.2500  -999.2500   -85.6857   -27.0061   103.0199     7.1421     6.7593     7.9312
 1712.5000  -999.2500  -999.2500  -999.2500  -999.2500   -85.6860    -7.5474   102.0331     7.2478     6.8157     7.9845
