~VERSION INFORMATION
 VERS.                2.0:   CWLS LOG ASCII STANDARD - VERSION 2.0
 WRAP.                 NO:   ONE LINE PER DEPTH STEP
~WELL INFORMATION
#MNEM.UNIT      DATA TYPE    INFORMATION
#----------   ------------   ------------------------------
 STRT.F          444.0000:   START DEPTH
 STOP.F         3018.0000:   STOP DEPTH
 STEP.F            0.5000:   STEP LENGTH
 NULL.          -999.2500:   NO VALUE
 COMP.    FENIX & SCISSON:   COMPANY
 WELL.  FENIX "AX" #25-28:   WELL
 FLD .             TEAPOT:   FIELD
 LOC .      S28 T39N R78W:   LOCATION
 CNTY.            NATRONA:   COUNTY
 STAT.            WYOMING:   STATE
 CTRY. UNITED STATES OF AMERICA:   COUNTRY
 SRVC.              WELEX:   SERVICE COMPANY
 DATE.        01-DEC-1979:   LOGDATE
 API .     49025107940000:   API NUMBER
~CURVE INFORMATION
#MNEM.UNIT       API CODE    CURVE DESCRIPTION
#----------   ------------   ------------------------------
 DEPT.F                  :   
 SPR .MV     07 010 01 00:   SPONTANEOUS POTENTIAL
 RILM.OHMM   07 120 44 00:   INDUCTION LOG MEDIUM RESISTIVITY
 RILD.OHMM   07 120 46 00:   DEEP INDUCTION RESISTIVITY
 SGRD.OHMM   07 220 05 00:   SHALLOW GUARD LOG RESISTIVITY
 TENR.LBS    07 635 01 00:   TENSION FROM RESISTIVITY
 NPHI.DEC    42 890 03 00:   NEUTRON POROSITY SANDSTONE
 GRD .GAPI   45 310 01 00:   GAMMA RAY FROM DENSITY LOG
 CALD.IN     45 280 60 00:   CALIPER FROM DENSITY LOG
 RHOB.G/C3   45 350 01 00:   BULK DENSITY
 DCOR.G/C3   45 356 01 00:   DENSITY CORRECTION
 TEND.LBS    45 635 01 00:   TENSION FROM DENSITY LOG
~PARAMETER INFORMATION
#MNEM.UNIT          VALUE    DESCRIPTION
#----------   ------------   ------------------------------
 EKB .F         5092.0000:   Kelly bushing
 EGL .F         5082.0000:   Ground level
 EDF .F            0.0000:   Drilling floor
 TD  .F         3013.5000:   Total depth
 DATE.        01-DEC-1979:   Date logged
 CLNT.            A2DTECH:   Client Code
 SL  . 2267' FSL & 1070' FWL:   Surface Location
 PD  .                 GL:   Permanent Datum
 EPD .F              5082:   Elevation Permanent Datum
 LMF .                 KB:   Log Measured From
 DMF .                 KB:   Drilling Measured From
 DAPD.F                10:   Feet Above Permanent Datum
 DD  .F              3000:   Depth driller
 DL  .F            3013.5:   Depth logger
 BLI .F              3013:   Bottom log interval
 TLI .F               350:   Top log interval
 CS1 .IN            8.625:   Casing size
 CBD1.      8.625" @ 465':   Casing driller 1
 CBL1.F               462:   Casing logger 1
 BS1 .IN            7.875:   Bit size
 BSD1.F              3000:   Depth drilled with bit1
 DFT .           CHEM GEL:   Type fluid in hole
 DFD .                8.8:   Density
 DFV .                 55:   Viscosity
 DFPH.                  9:   pH
 DFL .                6.4:   Fluid loss
 MSS .           FLOWLINE:   Source of sample
 RMS .OHMM           1.53:   Rm
 MST .F                75:   Rm Meas. temp.
 RMF .OHMM           1.24:   Rmf
 MFST.F                75:   Rmf Meas. temp.
 RMC .OHMM           1.83:   Rmc
 MCST.F                75:   Rmc Meas. temp.
 MFSS.               MEAS:   Source Rmf.
 MCSS.               MEAS:   Source Rmc.
 RMB .OHMM           1.09:   Rm. at BHT
 BHT .F               105:   BHT.
 TCS .HRS             2.5:   Time Circ. stopped
 MRT .F               105:   Maximum recorded temp.
 LUN .                965:   Logging unit number
 LUL .             CASPER:   Logging unit location
 ENGI.            BENTSEN:   Recorded By
 WITN.           P. AMEND:   Witnessed by
 ORIG.           5" PRINT:   Origin of data
 UWI .     49025107940000:   Unique Well ID
 DICO. A2D TECHNOLOGIES, INC.:   Digitizing Company
~OTHER INFORMATION
~A   DEPT      SPR       RILM       RILD       SGRD       TENR       NPHI         GRD      CALD       RHOB       DCOR       TEND   
# ...
  779.5000   -55.7350     9.4230     8.9220     9.8310   674.0240     0.2520    67.2510     8.9150     2.5100     0.0390  1096.8380
  780.0000   -55.6330     9.3800     8.8600     9.7630   674.5580     0.2520    65.4320     8.9080     2.5020     0.0300  1096.8380
  780.5000   -55.4890     9.3370     8.7970     9.6970   675.0930     0.2540    66.8910     8.8930     2.4880     0.0170  1096.8380
  781.0000   -55.3440     9.2950     8.7500     9.7380   675.6280     0.2560    68.6650     8.8770     2.4820     0.0100  1096.8380
  781.5000   -55.1970     9.2540     8.8080     9.7780   676.1620     0.2590    67.3980     8.8620     2.4760     0.0090  1096.8380
  782.0000   -55.2090     9.2880     8.8550     9.8180   676.6970     0.2570    68.6290     8.8460     2.4790     0.0140  1096.8380
  782.5000   -55.3180     9.3210     8.9020     9.8570   677.2310     0.2580    67.9640     8.8230     2.4950     0.0310  1096.8380
  783.0000   -55.4270     9.3530     8.9490     9.8970   677.7660     0.2560    67.5660     8.8160     2.5130     0.0470  1096.8380
  783.5000   -55.5370     9.3850     8.9970     9.9370   678.3000     0.2550    68.5740     8.8160     2.5180     0.0450  1096.8380
  784.0000   -55.6470     9.4180     9.0440     9.9740   678.8350     0.2570    67.7830     8.8160     2.5200     0.0420  1096.8380
  784.5000   -55.7580     9.4500     9.0910     9.9890   679.3700     0.2540    67.2660     8.8160     2.5160     0.0430  1096.8380
  785.0000   -55.8650     9.4820     9.1380    10.0040   680.9850     0.2530    67.0490     8.8170     2.5030     0.0330  1096.8380
  785.5000   -55.9040     9.5140     9.1850    10.0180   682.9970     0.2510    65.1420     8.8190     2.4990     0.0330  1096.8380
  786.0000   -55.7060     9.5470     9.2320    10.0330   685.0100     0.2510    66.3240     8.8220     2.5060     0.0390  1096.8380
  786.5000   -55.5160     9.5790     9.2790    10.0480   687.0220     0.2510    66.9270     8.8240     2.5250     0.0580  1096.8380
  787.0000   -55.3250     9.6110     9.3260    10.0630   689.0350     0.2500    66.9250     8.8270     2.5300     0.0640  1100.1610
  787.5000   -55.1350     9.6440     9.3730    10.0780   691.0470     0.2500    67.6950     8.8290     2.5340     0.0650  1104.3530
  788.0000   -54.9420     9.6760     9.4290    10.0920   693.0600     0.2510    68.6450     8.8320     2.5350     0.0630  1108.5450
  788.5000   -54.7480     9.7080     9.4200    10.1070   695.0720     0.2520    69.1030     8.8340     2.5290     0.0590  1112.7371
  789.0000   -54.9150     9.7400     9.4070    10.1220   697.0850     0.2530    65.6350     8.8310     2.5270     0.0550  1116.9290
  789.5000   -55.1120     9.7730     9.3930    10.1370   699.0970     0.2550    65.6210     8.8000     2.5330     0.0620  1121.1210
  790.0000   -55.3080     9.8050     9.3790    10.1510   668.6950     0.2570    66.2080     8.7700     2.5390     0.0690  1125.3130
  790.5000   -55.5030     9.8370     9.3650    10.1660   622.4230     0.2600    69.5080     8.7570     2.5350     0.0670  1129.5050
  791.0000   -55.7050     9.8800     9.3510    10.1810   636.4190     0.2610    68.0830     8.7570     2.5280     0.0610  1133.6970
  791.5000   -55.6420     9.8510     9.3380    10.1960   650.4150     0.2600    69.1540     8.7570     2.5210     0.0640  1137.8890
  792.0000   -55.5090     9.8100     9.3240    10.2110   664.4110     0.2590    67.1940     8.7570     2.5200     0.0610  1142.0811
  792.5000   -55.3730     9.7690     9.3100    10.2250   679.5130     0.2590    66.6500     8.7490     2.5240     0.0660  1146.2729
  793.0000   -55.2370     9.7280     9.2960    10.2400   680.7570     0.2600    65.9910     8.7390     2.5160     0.0630  1150.4650
  793.5000   -55.1010     9.6870     9.2820    10.2550   682.1070     0.2620    65.6340     8.7290     2.5180     0.0600  1154.6570
  794.0000   -54.9540     9.6460     9.2690    10.2250   683.4580     0.2640    65.8210     8.7180     2.5130     0.0530  1154.9110
  794.5000   -55.2730     9.6050     9.2540    10.1930   684.8080     0.2650    66.7370     8.7420     2.4940     0.0420  1153.0389
  795.0000   -55.3400     9.5640     9.2030    10.1600   686.1590     0.2660    67.0330     8.7710     2.4830     0.0330  1151.1670
  795.5000   -55.3430     9.5230     9.1490    10.1280   687.5090     0.2660    68.8530     8.8000     2.4770     0.0250  1149.2950
  796.0000   -55.3440     9.4820     9.0960    10.0950   688.8600     0.2670    69.0070     8.8200     2.4760     0.0300  1147.4230
  796.5000   -55.3750     9.4410     9.0430    10.0630   690.2100     0.2680    69.3440     8.8290     2.4810     0.0280  1145.5510
  797.0000   -55.4070     9.4000     8.9890    10.0300   691.5610     0.2700    68.2930     8.8370     2.4720     0.0190  1143.6801
  797.5000   -55.4390     9.3590     8.9360     9.9980   692.9110     0.2680    68.1860     8.8460     2.4870     0.0270  1141.8080
  798.0000   -55.4710     9.3180     8.8830     9.9660   694.2620     0.2660    69.1310     8.8540     2.5000     0.0350  1139.9360
  798.5000   -55.5030     9.2770     8.8290     9.9330   695.6120     0.2630    67.6050     8.8800     2.4960     0.0260  1138.0640
  799.0000   -55.5360     9.2360     8.7760     9.9010   696.9630     0.2570    68.9960     8.9150     2.4880     0.0130  1136.3640
  799.5000   -55.5280     9.1950     8.7230     9.8680   698.3130     0.2540    69.3100     8.9500     2.4860     0.0110  1131.8510
  800.0000   -55.5040     9.1540     8.6690     9.8360   699.7970     0.2510    70.2850     8.9770     2.4910     0.0190  1126.7939
  800.5000   -55.4800     9.1130     8.6160     9.8030   699.7970     0.2480    70.6270     8.9860     2.4990     0.0280  1121.7371
  801.0000   -55.4560     9.0780     8.5630     9.7710   699.7970     0.2490    68.9310     8.9950     2.5080     0.0360  1116.6801
  801.5000   -55.4330     9.0620     8.5090     9.7390   699.7970     0.2500    67.9960     9.0040     2.5180     0.0440  1111.6230
  802.0000   -55.4090     9.0450     8.4560     9.7060   699.7970     0.2530    68.3470     9.0130     2.5250     0.0430  1106.5660
  802.5000   -55.3850     9.0280     8.4020     9.6740   699.7970     0.2560    66.6470     9.0220     2.5160     0.0340  1101.5090
  803.0000   -55.3610     9.0120     8.3510     9.6410   699.7970     0.2600    67.9660     9.0310     2.5080     0.0290  1096.8380
  803.5000   -55.3370     8.9930     8.3580     9.6090   699.7970     0.2630    68.7550     9.0220     2.5110     0.0340  1098.3960
  804.0000   -55.3130     8.9670     8.3650     9.5760   699.7970     0.2630    69.6960     8.9980     2.5130     0.0310  1099.8430
  804.5000   -55.2900     8.9420     8.3720     9.5440   699.7970     0.2620    67.0030     8.9740     2.5020     0.0200  1101.2900
  805.0000   -55.2660     8.9160     8.3780     9.5170   699.7970     0.2620    65.7220     8.9500     2.4910     0.0170  1102.7380
  805.5000   -55.2420     8.8910     8.3850     9.5010   699.7970     0.2660    66.2630     8.9260     2.4940     0.0190  1104.1851
  806.0000   -55.2180     8.8650     8.3920     9.4800   699.7970     0.2690    66.9770     8.9020     2.4990     0.0200  1105.6320
  806.5000   -55.1940     8.8390     8.3990     9.4600   699.7970     0.2720    66.0620     8.8780     2.5050     0.0240  1107.0800
  807.0000   -55.1700     8.8140     8.4060     9.4390   699.7970     0.2740    64.1460     8.8550     2.4990     0.0210  1108.5270
  807.5000   -55.1470     8.7880     8.4130     9.3770   699.7970     0.2740    65.2320     8.8410     2.5110     0.0320  1109.9740
  808.0000   -55.1230     8.7630     8.4200     9.2160   699.7970     0.2750    65.1460     8.8270     2.5210     0.0430  1111.4220
  808.5000   -55.0990     8.7470     8.4280     9.1680   699.7970     0.2760    66.8230     8.8130     2.5110     0.0410  1112.8690
  809.0000   -55.0750     8.7410     8.4160     9.2880   699.7970     0.2800    68.9340     8.8000     2.5090     0.0370  1114.3160
  809.5000   -55.0510     8.7340     8.3980     9.3800   699.7970     0.2820    68.4090     8.7860     2.5070     0.0330  1115.7640
