~VERSION INFORMATION
 VERS.                2.0:   CWLS LOG ASCII STANDARD - VERSION 2.0
 WRAP.                 NO:   ONE LINE PER DEPTH STEP
~WELL INFORMATION
#MNEM.UNIT      DATA TYPE    INFORMATION
#----------   ------------   ------------------------------
 STRT.F          500.0000:   START DEPTH
 STOP.F         2517.0000:   STOP DEPTH
 STEP.F            0.5000:   STEP LENGTH
 NULL.          -999.2500:   NO VALUE
 COMP.    FENIX & SCISSON:   COMPANY
 WELL. FENIX & SCISSON SHX #46-33:   WELL
 FLD .  TEAPOT DOME NPR-3:   FIELD
 LOC .      S33 T39N R78W:   LOCATION
 CNTY.            NATRONA:   COUNTY
 STAT.            WYOMING:   STATE
 CTRY. UNITED STATES OF AMERICA:   COUNTRY
 SRVC.           BIRDWELL:   SERVICE COMPANY
 DATE.        04-APR-1979:   LOGDATE
 API .     49025107670000:   API NUMBER
~CURVE INFORMATION
#MNEM.UNIT       API CODE    CURVE DESCRIPTION
#----------   ------------   ------------------------------
 DEPT.F                  :   
 GRD .GAPI   45 310 01 00:   GAMMA RAY FROM DENSITY LOG
 CALD.IN     45 280 60 00:   CALIPER FROM DENSITY LOG
 CORR.G/C3   45 356 01 00:   DENSITY CORRECTION
 RHOB.G/C3   45 350 01 00:   BULK DENSITY
~PARAMETER INFORMATION
#MNEM.UNIT          VALUE    DESCRIPTION
#----------   ------------   ------------------------------
 EKB .F         5217.0000:   Kelly bushing
 EGL .F         5207.0000:   Ground level
 EDF .F            0.0000:   Drilling floor
 TD  .F         2630.0000:   Total depth
 CLNT.            A2DTECH:   Client Code
 SL  . 1955' FSL & 1970' FWL:   Surface Location
 PD  .                 GL:   Permanent Datum
 EPD .F              5207:   Elevation Permanent Datum
 LMF .                 KB:   Log Measured From
 DMF .                 KB:   Drilling Measured From
 DAPD.                 10:   Feet Above Permanent Datum
 DATE.        04-APR-1979:   Date Logged [DD-MMM-YYYY]
 DD  .F              2630:   Depth driller
 DL  .F              2517:   Depth logger
 BLI .F              2517:   Bottom log interval
 TLI .F               504:   Top log interval
 CS1 .              9.625:   Casing size
 CBD1.      9.625" @ 300':   Casing driller 1
 CBL1.IN              306:   Casing logger 1
 BS1 .IN            7.875:   Bit size
 BSD1.F              2630:   Depth drilled with bit1
 DFT .                OIL:   Type fluid in hole
 LUL .             CASPER:   Logging unit location
 ENGI.            ROLLINS:   Recorded By
 ORIG.           5" PRINT:   Origin of data
 UWI .     49025107670000:   Unique Well ID
 DICO. A2D TECHNOLOGIES ,INC.:   Digitizing Company
 WITN.              AMUND:   Witnessed by
~OTHER INFORMATION
~A   DEPT      GRD       CALD       CORR       RHOB   
# ...
 1303.0000    17.9113    10.2328     0.2688     2.5253
 1303.5000    17.8944    10.2491     0.3338     2.5291
 1304.0000    18.6808    10.2654     0.4050     2.5361
 1304.5000    17.9511    10.2967     0.4448     2.5755
 1305.0000    18.8559    10.3280     0.4643     2.6574
 1305.5000    20.8059    10.3293     0.4341     2.6900
 1306.0000    19.1308    10.3306     0.2969     2.6493
 1306.5000    18.3013    10.3469     0.2752     2.6047
 1307.0000    18.1467    10.3330     0.2741     2.5950
 1307.5000    17.8579    10.2598     0.3323     2.6034
 1308.0000    19.0873    10.2013     0.3340     2.6384
 1308.5000    19.9888    10.2026     0.3342     2.6460
 1309.0000    17.9252    10.2189     0.3710     2.6749
 1309.5000    17.7865    10.2502     0.3971     2.6977
 1310.0000    21.5178    10.2665     0.3028     2.6600
 1310.5000    25.8401    10.2828     0.2633     2.6268
 1311.0000    30.9054    10.2841     0.2604     2.6201
 1311.5000    32.1041    10.2702     0.2698     2.6035
 1312.0000    27.5144    10.1654     0.3127     2.5976
 1312.5000    24.2554    10.0162     0.3876     2.6014
 1313.0000    25.1635     9.9152     0.4366     2.6212
 1313.5000    26.0683     9.9359     0.4734     2.6524
 1314.0000    26.3787    10.0429     0.4995     2.7191
 1314.5000    25.2033    10.2040     0.4799     2.7389
 1315.0000    20.6103    10.2802     0.4206     2.7178
 1315.5000    19.7287    10.3564     0.3156     2.6596
 1316.0000    21.5284    10.3877     0.3005     2.5999
 1316.5000    26.1479    10.4339     0.3191     2.5955
 1317.0000    27.0527    10.4652     0.3376     2.6024
 1317.5000    27.0659    10.4965     0.3362     2.6037
 1318.0000    26.7820    10.4978     0.3258     2.5769
 1318.5000    23.5263    10.4991     0.3213     2.5906
 1319.0000    21.9051    10.5154     0.3383     2.6762
 1319.5000    20.2839    10.5318     0.3111     2.6892
 1320.0000    21.4859    10.5481     0.2473     2.6462
 1320.5000    23.2923    10.5793     0.2139     2.6289
 1321.0000    24.5043    10.6106     0.2202     2.6320
 1321.5000    25.7160    10.6419     0.2631     2.6321
 1322.0000    23.9665    10.6881     0.2816     2.6444
 1322.5000    22.1223    10.7194     0.2970     2.6720
 1323.0000    23.2032    10.7357     0.2987     2.6864
 1323.5000    25.1482    10.7520     0.2563     2.6901
 1324.0000    23.9727    10.7683     0.2138     2.6660
 1324.5000    23.5369    10.7846     0.1926     2.6085
 1325.0000    23.1077    10.8010     0.2050     2.5708
 1325.5000    21.4865    10.8771     0.2525     2.5497
 1326.0000    20.1592    11.3875     0.3777     2.5831
 1326.5000    22.2560    11.7032     0.4175     2.6385
 1327.0000    25.5382    11.5398     0.3888     2.6605
 1327.5000    27.4831    11.1969     0.2640     2.6493
 1328.0000    26.0105    10.9431     0.1681     2.5979
 1328.5000    26.1723    10.8097     0.1759     2.5329
 1329.0000    26.0370    10.7967     0.2082     2.4869
 1329.5000    21.8898    10.8760     0.2937     2.4627
 1330.0000    16.1081    11.0789     0.4357     2.4507
 1330.5000    13.0010    11.3943     0.4679     2.4758
 1331.0000    10.7854    11.5356     0.4605     2.4948
 1331.5000    11.2445    11.4171     0.3982     2.5025
 1332.0000    12.0007    11.4334     0.3191     2.4852
 1332.5000    15.2829    11.1956     0.2583     2.5148
 1333.0000    19.0108    10.9424     0.2509     2.5679
 1333.5000    21.8473    10.7941     0.2526     2.6089
 1334.0000    22.9007    10.7056     0.2574     2.6234
 1334.5000    24.9942    10.6321     0.2530     2.6236
 1335.0000    25.7504    10.6634     0.2471     2.5835
 1335.5000    25.1495    10.7695     0.2473     2.5556
 1336.0000    22.9141    10.8307     0.2978     2.5519
 1336.5000    23.9334    10.8320     0.3483     2.5994
 1337.0000    26.3978    10.5939     0.3577     2.6273
 1337.5000    25.4953    10.3856     0.3533     2.6370
 1338.0000    23.9016    10.0127     0.3167     2.6010
 1338.5000    19.0115     9.9239     0.2973     2.5480
 1339.0000    16.2015    10.4495     0.3819     2.5103
 1339.5000    14.8742    10.5706     0.4620     2.4966
 1340.0000    16.6738    10.5719     0.5000     2.5240
 1340.5000    20.8476    10.4535     0.5000     2.5854
 1341.0000    21.1580    10.5596     0.5000     2.6181
 1341.5000    23.9945    10.8005     0.5000     2.6311
 1342.0000    26.9795    10.9965     0.5000     2.6402
 1342.5000    26.8442    11.0479     0.4013     2.5351
 1343.0000    27.0060    10.7895     0.4125     2.5057
 1343.5000    27.7622    10.6685     0.4684     2.5815
 1344.0000    29.7038    10.8820     0.4976     2.6157
 1344.5000    27.1944    10.9733     0.4994     2.5992
 1345.0000    24.2359    11.0344     0.4995     2.6651
 1345.5000    23.3543    11.0358     0.4982     2.7016
 1346.0000    26.3426    10.9580     0.3719     2.7047
 1346.5000    26.6531    10.6101     0.2913     2.6011
 1347.0000    27.1121    10.3248     0.2824     2.5823
 1347.5000    29.6514    10.1728     0.3481     2.5937
 1348.0000    30.1104    10.3691     0.3986     2.6173
 1348.5000    29.9748    10.4753     0.3744     2.6341
 1349.0000    31.6228    10.4912     0.3334     2.5925
 1349.5000    33.7163    10.4477     0.3093     2.5654
 1350.0000    33.2838    10.4493     0.3369     2.5753
 1350.5000    33.1485    10.4507     0.3676     2.6034
 1351.0000    33.6177    10.4520     0.3739     2.6278
 1351.5000    34.4088    10.4533     0.3617     2.6506
 1352.0000    39.2814    10.2601     0.3302     2.6310
 1352.5000    40.4834     9.9153     0.2722     2.5773
 1353.0000    37.5248    10.0064     0.2754     2.5949
 1353.5000    35.1607    10.1871     0.2863     2.6131
 1354.0000    34.4310    10.3677     0.3230     2.6284
 1354.5000    35.3437    10.2640     0.3521     2.6565
 1355.0000    36.5678     9.7560     0.3432     2.6633
 1355.5000    37.9205     9.6822     0.3220     2.6105
 1356.0000    38.8369     9.7431     0.3069     2.5803
 1356.5000    39.7261     9.9987     0.3452     2.5266
 1357.0000    38.8228    10.0446     0.4261     2.4821
 1357.5000    33.1896    10.1654     0.4705     2.4572
 1358.0000    30.0825    10.1688     0.5000     2.4747
 1358.5000    30.5415    10.2274     0.5000     2.5558
 1359.0000    31.1491    10.1959     0.5000     2.5839
 1359.5000    29.6765    10.1845     0.5000     2.5862
 1360.0000    28.7949    10.2307     0.4648     2.4918
 1360.5000    30.5945    10.2318     0.4273     2.4902
 1361.0000    32.6880    10.1879     0.4809     2.5529
 1361.5000    34.4843    10.1737     0.4902     2.5846
 1362.0000    32.1201    10.2199     0.4400     2.5774
 1362.5000    33.7678    10.2209     0.4158     2.5573
 1363.0000    35.7127    10.1022     0.4144     2.5930
 1363.5000    36.0231     9.9685     0.3948     2.6030
 1364.0000    35.7392     9.9394     0.3706     2.6152
 1364.5000    35.1581     9.9107     0.3204     2.5593
 1365.0000    32.6453     9.8818     0.3068     2.5389
 1365.5000    27.4580     9.8529     0.3711     2.5367
 1366.0000    24.6480     9.8839     0.4185     2.5800
 1366.5000    27.4844     9.9747     0.4690     2.6323
 1367.0000    33.1599    10.1255     0.4935     2.6733
 1367.5000    34.0488    10.2612     0.4861     2.6893
 1368.0000    30.1988    10.3072     0.4344     2.6235
 1368.5000    32.1658    10.3091     0.4300     2.5918
 1369.0000    32.6032    10.3258     0.4302     2.5503
 1369.5000    32.1734    10.3402     0.4303     2.5019
 1370.0000    29.0663    10.3565     0.4777     2.4604
 1370.5000    25.5134    10.3575     0.5000     2.4423
 1371.0000    24.0375    10.3433     0.5000     2.4393
 1371.5000    24.3512    10.3144     0.5000     2.5108
 1372.0000    24.0673    10.3307     0.5000     2.5867
 1372.5000    23.7800    10.4066     0.4988     2.5833
 1373.0000    28.2542    10.4525     0.3736     2.4523
 1373.5000    31.2392    10.4985     0.2366     2.1538
 1374.0000    32.4412    10.5295     0.2062     2.2561
 1374.5000    33.3460    10.5305     0.3512     2.3614
 1375.0000    32.4677     9.9327     0.3011     2.3441
 1375.5000    31.5894     9.7089     0.2814     2.3283
