~VERSION INFORMATION
 VERS.                2.0:   CWLS LOG ASCII STANDARD - VERSION 2.0
 WRAP.                 NO:   ONE LINE PER DEPTH STEP
~WELL INFORMATION
#MNEM.UNIT      DATA TYPE    INFORMATION
#----------   ------------   ------------------------------
 STRT.F            1.0000:   START DEPTH
 STOP.F         2854.0000:   STOP DEPTH
 STEP.F            0.5000:   STEP LENGTH
 NULL.          -999.2500:   NO VALUE
 COMP.          INTEX OIL:   COMPANY
 WELL. INTEX N.P.R. "AX" #42-29:   WELL
 FLD .             TEAPOT:   FIELD
 LOC .      S29 T39N R78W:   LOCATION
 CNTY.            NATRONA:   COUNTY
 STAT.            WYOMING:   STATE
 CTRY. UNITED STATES OF AMERICA:   COUNTRY
 SRVC.       SCHLUMBERGER:   SERVICE COMPANY
 DATE.        30-MAY-1986:   LOGDATE
 API .     49025095240000:   API NUMBER
~CURVE INFORMATION
#MNEM.UNIT       API CODE    CURVE DESCRIPTION
#----------   ------------   ------------------------------
 DEPT.F                  :   
 SPR .MV     05 010 01 00:   SPONTANEOUS POTENTIAL FROM RES.
 ASN .OHMM   05 041 16 00:   AMPLIFIED SHORT NORMAL 16"
 ILD .OHMM   05 120 46 00:   INDUCTION LOG DEEP
 GRD .GAPI   45 310 01 00:   GAMMA RAY FROM DENSITY LOG
 CALD.IN     45 280 60 00:   CALIPER FROM DENSITY LOG
 CORR.G/C3   45 356 01 00:   DENSITY CORRECTION
 RHOB.G/C3   45 350 01 00:   BULK DENSITY
 CALI.IN     30 280 01 00:   CALIPER FROM GAMMA RAY LOG
 GR  .GAPI   30 310 01 00:   GAMMA RAY
~PARAMETER INFORMATION
#MNEM.UNIT          VALUE    DESCRIPTION
#----------   ------------   ------------------------------
 EKB .F         5020.3000:   Kelly bushing
 EGL .F         5010.0000:   Ground level
 EDF .F            0.0000:   Drilling floor
 TD  .F         2860.0000:   Total depth
 CLNT.            A2DTECH:   Client Code
 DATE.        30-MAY-1986:   Date Logged [DD-MMM-YYYY]
 DD  .F              2860:   Depth driller
 DL  .F              2855:   Depth logger
 BLI .F              2854:   Bottom log interval
 TLI .F               164:   Top log interval
 CS1 .              8.625:   Casing size
 CBD1.      8.625" @ 167':   Casing driller 1
 CBL1.IN              164:   Casing logger 1
 BS1 .IN            7.875:   Bit size
 BSD1.F              2860:   Depth drilled with bit1
 DFT .  LIGND-SULFATE LCM:   Type fluid in hole
 DFD .                8.9:   Density
 DFV .                 33:   Viscosity
 DFPH.               11.0:   pH
 DFL .                9.2:   Fluid loss
 MSS .           FLOWLINE:   Source of sample
 RMS .OHMM           1.47:   Rm
 MST .F                55:   Rm Meas. temp.
 RMF .OHMM           1.13:   Rmf
 MFST.F                75:   Rmf Meas. temp.
 RMB .OHMM           0.78:   Rm. at BHT
 BHT .F               108:   BHT.
 TCS .HRS               3:   Time Circ. stopped
 MRT .F               108:   Maximum recorded temp.
 LUN .               3527:   Logging unit number
 LUL .               CSPR:   Logging unit location
 ENGI.            MANGOLO:   Recorded By
 WITN.             TUTTLE:   Witnessed by
 ORIG.      1" 2.5" PRINT:   Origin of data
 UWI .     49025095240000:   Unique Well ID
 DICO. A2D TECHNOLOGIES, INC.:   Digitizing Company
 PD  .                 GL:   Permanent Datum
 EPD .               5010:   Elevation Permanent Datum
 LMF .                 KB:   Log Measured From
 DMF .                 KB:   Drilling Measured From
 DAPD.              10.32:   Feet Above Permanent Datum
 MFSS.         MEAS PRESS:   Source Rmf.
~OTHER INFORMATION
~A    DEPT     SPR        ASN        ILD        GRD       CALD       CORR       RHOB        CALI        GR   
# ...
 2410.0000   -39.2682    21.9608    16.3235    77.7698     8.3742     0.0732     2.4628  -999.2500  -999.2500
 2410.5000   -39.0562    21.4809    15.2965    72.0257     8.4040     0.0686     2.4898  -999.2500  -999.2500
 2411.0000   -38.6525    21.1258    14.7108    68.8251     8.4031     0.0655     2.4944  -999.2500  -999.2500
 2411.5000   -38.1446    21.1309    14.1323    66.6584     8.4020     0.0701     2.5153  -999.2500  -999.2500
 2412.0000   -37.8412    21.1353    13.8431    72.6290     8.4011     0.0747     2.5011  -999.2500  -999.2500
 2412.5000   -37.7287    21.1397    13.5539    77.8850     8.4308     0.0488     2.4514  -999.2500  -999.2500
 2413.0000   -37.2345    21.1441    13.2646    80.5293     8.4299     0.0381     2.4406  -999.2500  -999.2500
 2413.5000   -37.1128    21.0007    13.1225    81.0439     8.4597     0.0310     2.4432  -999.2500  -999.2500
 2414.0000   -37.3659    20.6569    12.9803    82.9477     8.4587     0.0206     2.4599  -999.2500  -999.2500
 2414.5000   -37.8491    20.3084    12.6911    84.6554     8.4885     0.0192     2.4736  -999.2500  -999.2500
 2415.0000   -37.8506    19.9265    12.4259    84.5769     8.5183     0.0222     2.4694  -999.2500  -999.2500
 2415.5000   -38.1570    19.6349    12.2598    84.1038     8.5173     0.0084     2.4562  -999.2500  -999.2500
 2416.0000   -38.1585    19.4902    12.1463    82.9482     8.5472     0.0267     2.4661  -999.2500  -999.2500
 2416.5000   -38.4649    19.4103    12.1544    80.8500     8.5462     0.0203     2.4683  -999.2500  -999.2500
 2417.0000   -38.3111    19.4147    12.3088    81.5358     8.5453     0.0145     2.4574  -999.2500  -999.2500
 2417.5000   -38.1631    19.4191    12.3530    84.2194     8.5444     0.0129     2.4476  -999.2500  -999.2500
 2418.0000   -38.1646    19.4236    12.4706    84.9703     8.5434     0.0129     2.4486  -999.2500  -999.2500
 2418.5000   -38.1661    19.5750    12.6250    81.8467     8.5425     0.0152     2.4612  -999.2500  -999.2500
 2419.0000   -38.1677    19.7265    12.7794    78.8584     8.5416     0.0260     2.4751  -999.2500  -999.2500
 2419.5000   -38.1692    19.8779    12.8334    78.0127     8.5100     0.0326     2.4758  -999.2500  -999.2500
 2420.0000   -38.1710    19.8824    12.9412    79.4769     8.4784     0.0229     2.4639  -999.2500  -999.2500
 2420.5000   -38.4774    19.8868    13.0000    79.8358     8.4775     0.0158     2.4575  -999.2500  -999.2500
 2421.0000   -38.4789    19.8911    13.1030    78.8029     8.4153     0.0332     2.4823  -999.2500  -999.2500
 2421.5000   -38.4805    19.8956    13.1103    78.4282     8.4143     0.0404     2.4922  -999.2500  -999.2500
 2422.0000   -38.4820    19.9000    12.9691    80.8246     8.4134     0.0439     2.5005  -999.2500  -999.2500
 2422.5000   -38.4835    19.9053    12.9779    81.6359     8.4125     0.0541     2.5070  -999.2500  -999.2500
 2423.0000   -38.4850    19.9097    12.8383    81.6231     8.4423     0.0516     2.5122  -999.2500  -999.2500
 2423.5000   -38.4865    19.9133    12.7794    82.8601     8.4414     0.0462     2.5023  -999.2500  -999.2500
 2424.0000   -38.7929    19.9177    12.7059    84.3706     8.4711     0.0528     2.4943  -999.2500  -999.2500
 2424.5000   -38.7944    19.7750    12.5662    83.4346     8.5009     0.0553     2.4886  -999.2500  -999.2500
 2425.0000   -38.1862    19.6324    12.5735    84.2305     8.5306     0.0505     2.4829  -999.2500  -999.2500
 2425.5000   -37.8828    19.4897    12.5050    86.8774     8.5297     0.0445     2.4832  -999.2500  -999.2500
 2426.0000   -37.5794    19.4941    12.4412    86.5107     8.5595     0.0250     2.4867  -999.2500  -999.2500
 2426.5000   -37.8858    19.3457    12.4485    86.1577     8.5586     0.0122     2.4859  -999.2500  -999.2500
 2427.0000   -38.1922    19.0616    12.3088    86.0215     8.5883     0.0110     2.4824  -999.2500  -999.2500
 2427.5000   -37.8889    18.9190    12.3162    83.5731     8.5874     0.0125     2.4847  -999.2500  -999.2500
 2428.0000   -37.8904    18.9236    12.3250    83.3555     8.5251     0.0148     2.4975  -999.2500  -999.2500
 2428.5000   -37.8919    18.9279    12.3323    85.5831     8.5242     0.0228     2.5151  -999.2500  -999.2500
 2429.0000   -38.8080    19.0794    12.4866    88.2137     8.4926     0.0319     2.5234  -999.2500  -999.2500
 2429.5000   -39.1144    19.2309    12.4939    86.9288     8.4917     0.0429     2.5156  -999.2500  -999.2500
 2430.0000   -39.1159    19.3824    12.6483    83.9541     8.4908     0.0325     2.4950  -999.2500  -999.2500
 2430.5000   -38.5077    19.4083    12.6556    82.2321     8.4899     0.0260     2.4861  -999.2500  -999.2500
 2431.0000   -38.2043    19.5383    12.8099    81.9000     8.4873     0.0312     2.4909  -999.2500  -999.2500
 2431.5000   -37.9010    19.5427    12.8172    84.4617     8.4574     0.0296     2.4983  -999.2500  -999.2500
 2432.0000   -37.9025    19.5470    12.8245    89.5384     8.4565     0.0207     2.4577  -999.2500  -999.2500
 2432.5000   -37.9040    19.5514    12.8309    92.9442     8.4527     0.0161     2.4485  -999.2500  -999.2500
 2433.0000   -37.9055    19.5559    12.6908    92.0122     8.4239     0.0122     2.4401  -999.2500  -999.2500
 2433.5000   -37.9070    19.4127    12.6813    89.5339     8.4195     0.0107     2.4444  -999.2500  -999.2500
 2434.0000   -37.9085    19.4176    12.5583    88.1355     8.3914     0.0254     2.4495  -999.2500  -999.2500
 2434.5000   -37.9100    19.3848    12.5662    87.3597     8.3905     0.0304     2.4384  -999.2500  -999.2500
 2435.0000   -37.9115    19.2788    12.4259    88.8925     8.3895     0.0210     2.4236  -999.2500  -999.2500
 2435.5000   -37.9131    19.2838    12.4339    89.6726     8.3886     0.0099     2.4381  -999.2500  -999.2500
 2436.0000   -37.9147    19.2451    12.4411    90.0944     8.3930     0.0075     2.4605  -999.2500  -999.2500
 2436.5000   -37.9162    19.1449    12.4485    86.0516     8.4176     0.0162     2.4781  -999.2500  -999.2500
 2437.0000   -37.8841    19.1970    12.4559    84.9923     8.4166     0.0272     2.4903  -999.2500  -999.2500
 2437.5000   -37.6142    19.3014    12.6103    84.9808     8.4464     0.0372     2.4987  -999.2500  -999.2500
 2438.0000   -37.6158    19.4530    12.7647    84.7938     8.4387     0.0433     2.5048  -999.2500  -999.2500
 2438.5000   -37.6174    19.5103    12.9191    84.4962     8.4138     0.0298     2.5121  -999.2500  -999.2500
 2439.0000   -37.9238    19.6638    12.9705    84.4846     8.4129     0.0222     2.5169  -999.2500  -999.2500
 2439.5000   -37.9818    19.8172    13.1274    85.7605     8.4120     0.0180     2.5209  -999.2500  -999.2500
 2440.0000   -37.9267    20.0588    13.2353    87.6002     8.4111     0.0134     2.5151  -999.2500  -999.2500
 2440.5000   -37.9284    20.0632    13.0441    88.9778     8.4102     0.0196     2.5038  -999.2500  -999.2500
 2441.0000   -37.9299    20.0676    12.8075    89.7877     8.4092     0.0279     2.5047  -999.2500  -999.2500
 2441.5000   -37.8567    19.8603    12.6128    89.5038     8.4083     0.0332     2.5108  -999.2500  -999.2500
 2442.0000   -37.6279    19.5686    12.3236    90.3417     8.4382     0.0360     2.5196  -999.2500  -999.2500
 2442.5000   -39.1540    19.2084    12.2426    91.9846     8.4371     0.0447     2.5190  -999.2500  -999.2500
 2443.0000   -39.0671    18.8382    12.0393    92.7000     8.4362     0.0360     2.5123  -999.2500  -999.2500
 2443.5000   -38.7591    18.5466    11.7500    90.4409     8.4353     0.0300     2.5031  -999.2500  -999.2500
 2444.0000   -38.5485    18.4765    11.6765    88.1171     8.4344     0.0300     2.4922  -999.2500  -999.2500
 2444.5000   -38.5503    18.4044    11.5367    87.1269     8.4334     0.0300     2.4821  -999.2500  -999.2500
 2445.0000   -38.2467    18.3383    11.5441    87.7847     8.4325     0.0300     2.4766  -999.2500  -999.2500
 2445.5000   -38.2485    18.4897    11.6985    88.4885     8.4316     0.0284     2.4825  -999.2500  -999.2500
 2446.0000   -38.2500    18.5765    11.7843    86.9171     8.4613     0.0269     2.4944  -999.2500  -999.2500
