~VERSION INFORMATION
 VERS.                2.0:   CWLS LOG ASCII STANDARD - VERSION 2.0
 WRAP.                 NO:   ONE LINE PER DEPTH STEP
~WELL INFORMATION
#MNEM.UNIT      DATA TYPE    INFORMATION
#----------   ------------   ------------------------------
 STRT.F          190.0000:   START DEPTH
 STOP.F         3215.0000:   STOP DEPTH
 STEP.F            0.5000:   STEP LENGTH
 NULL.          -999.2500:   NO VALUE
 COMP.    FENIX & SCISSON:   COMPANY
 WELL.  FENIX "AX" #78-34:   WELL
 FLD . NAVAL PET. RES. NO. 3:   FIELD
 LOC .      S34 T39N R78W:   LOCATION
 CNTY.            NATRONA:   COUNTY
 STAT.            WYOMING:   STATE
 CTRY. UNITED STATES OF AMERICA:   COUNTRY
 SRVC.       SCHLUMBERGER:   SERVICE COMPANY
 DATE.        16-DEC-1980:   LOGDATE
 API .     49025108670000:   API NUMBER
~CURVE INFORMATION
#MNEM.UNIT       API CODE    CURVE DESCRIPTION
#----------   ------------   ------------------------------
 DEPT.F                  :   
 TEND.LBS    45 635 01 00:   TENSION FORM DENSITY LOG
 GRD .GAPI   45 310 01 00:   GAMMA RAY FROM DENSITY LOG
 CALD.IN     45 280 60 00:   CALIPER FROM DENSITY LOG
 CORR.G/C3   45 356 01 00:   DENSITY CORRECTION
 RHOB.G/C3   45 350 01 00:   BULK DENSITY
 SPR .MV     07 010 01 00:   SPONTANEOUS POTENTIAL
 TENR.LBS    07 635 01 00:   TENSION FROM RESISTIVITY
 ILD .OHMM   07 120 46 00:   DEEP INDUCTION RESISTIVITY
 ILM .OHMM   07 120 44 00:   INDUCTION LOG MEDIUM RESISTIVITY
 SFL .OHMM   07 220 01 00:   SHALLOW FOCUSED LOG RESISTIVITY
~PARAMETER INFORMATION
#MNEM.UNIT          VALUE    DESCRIPTION
#----------   ------------   ------------------------------
 EKB .F         5068.0000:   Kelly bushing
 EGL .F         5058.0000:   Ground level
 EDF .F            0.0000:   Drilling floor
 EPD .F            0.0000:   Permanent datum
 TD  .F         3202.0000:   Total depth
 CLNT.            A2DTECH:   Client Code
 SL  . 542' FSL & 693' FEL:   Surface Location
 PD  .                 GL:   Permanent Datum
 DAPD.F                10:   Feet Above Permanent Datum
 DATE.        16-DEC-1980:   Date Logged [DD-MMM-YYYY]
 DD  .F              3200:   Depth driller
 DL  .F              3202:   Depth logger
 BLI .F              3199:   Bottom log interval
 TLI .F               193:   Top log interval
 CS1 .IN            8.625:   Casing size
 CBD1.      8.625" @ 215':   Casing driller 1
 CBL1.F               193:   Casing logger 1
 BS1 .IN            7.875:   Bit size
 BSD1.F              3200:   Depth drilled with bit1
 DFT .               LSND:   Type fluid in hole
 DFD .                9.1:   Density
 DFV .                 35:   Viscosity
 DFPH.                  8:   pH
 DFL .                 16:   Fluid loss
 MSS .            MUD PIT:   Source of sample
 RMS .OHMM            2.9:   Rm
 MST .F                56:   Rm Meas. temp.
 RMF .OHMM            2.4:   Rmf
 MFST.F                56:   Rmf Meas. temp.
 MFSS.               MEAS:   Source Rmf.
 RMC .OHMM            2.7:   Rmc
 MCST.F                56:   Rmc Meas. temp.
 MCSS.               CALC:   Source Rmc.
 RMB .OHMM           1.35:   Rm. at BHT
 BHT .F               120:   BHT.
 TCS .HRS            2100:   Time Circ. stopped
 MRT .F               120:   Maximum recorded temp.
 LUN .               8161:   Logging unit number
 ENGI.             SITTON:   Recorded By
 WITN.              FIVAS:   Witnessed by
 ORIG.           5" PRINT:   Origin of data
 UWI .     49025108670000:   Unique Well ID
 DICO. A2D TECHNOLOGIES, INC.:   Digitizing Company
~OTHER INFORMATION
~A   DEPT     TEND         GRD      CALD       CORR       RHOB        SPR       TENR        ILD        ILM        SFL   
# ...
 1965.5000   572.2892   114.1962     8.9387     0.0405     2.5181   -42.0585   519.4542     5.0590     5.0862     6.4474
 1966.0000   572.2892   115.0969     8.9687     0.0499     2.5204   -42.3145   513.2353     5.1328     5.1954     5.8949
 1966.5000   572.2892   115.9976     8.9841     0.0515     2.5129   -42.4970   508.4746     5.1360     5.3069     5.6962
 1967.0000   572.2892   116.0120     8.9526     0.0422     2.5009   -42.6467   508.4746     5.1391     5.3835     5.8189
 1967.5000   572.2892   114.8301     8.8969     0.0313     2.4865   -42.5984   508.4746     5.1423     5.3123     6.0266
 1968.0000   572.2892   114.2683     8.8678     0.0204     2.4837   -42.3281   508.4746     5.0746     5.2421     6.4170
 1968.5000   572.2892   114.8772     8.8833     0.0158     2.5003   -41.7317   508.4746     4.9732     5.1018     6.7387
 1969.0000   572.2892   115.4824     8.9133     0.0198     2.5154   -41.0365   508.4746     4.8401     4.9652     6.9792
 1969.5000   572.2892   113.3355     8.9434     0.0370     2.5176   -40.4983   508.4746     4.6780     4.8323     6.9849
 1970.0000   572.2892   107.8315     8.9735     0.0581     2.4838   -40.1541   508.4706     4.4901     4.7030     5.7451
 1970.5000   572.2892   105.7780     8.9888     0.0597     2.3928   -39.7895   508.4768     4.3996     4.5456     4.7670
 1971.0000   572.2892   105.4934     8.9599     0.0203     2.3552   -39.5031   508.4210     4.3725     4.5480     4.4884
 1971.5000   572.2892   107.8748     8.8570     0.0153     2.3590   -39.5075   513.8850     4.4057     4.5508     4.7796
 1972.0000   559.0361   118.8198     8.7972     0.0255     2.4082   -39.5000   520.5184     4.5011     4.5847     5.4921
 1972.5000   552.2089   124.7427     8.7699     0.0506     2.4939   -39.2887   527.1519     4.5997     4.6188     5.7674
 1973.0000   552.2089   124.1662     8.7854     0.0537     2.4901   -39.4890   516.0212     4.7638     4.7507     5.8094
 1973.5000   552.2089   120.3402     8.8007     0.0475     2.4728   -39.8467   500.7133     4.9510     4.9543     5.7718
 1974.0000   552.2089   116.5141     8.8308     0.0304     2.4676   -40.1094   492.6022     5.4047     5.3853     5.8963
 1974.5000   552.2089   115.0310     8.8608     0.0054     2.4699   -40.7132   505.3762     5.7964     5.6161     6.4545
 1975.0000   552.2089   114.7704     8.8467     0.0023     2.4797   -41.4191   490.0683     6.0885     6.0627     7.2140
 1975.5000   552.2089   118.0381     8.8028     0.0055     2.5098   -42.0177   474.7603     6.3072     6.3663     7.8973
 1976.0000   552.2089   122.4838     8.7741     0.0126     2.5234   -42.4153   472.0896     6.4886     6.5030     8.0717
 1976.5000   572.2892   125.1571     8.7599     0.0220     2.5257   -42.5330   477.9427     6.6291     6.6426     8.2499
 1977.0000   572.2892   126.0577     8.7457     0.0188     2.5265   -42.5280   483.7957     6.6793     6.6950     8.3012
 1977.5000   572.2892   126.0722     8.7630     0.0151     2.5288   -42.4612   488.5344     6.7300     6.7887     8.3048
 1978.0000   572.2892   126.3820     8.8060     0.0136     2.5333   -42.2463   488.5344     6.7341     6.8391     8.1942
 1978.5000   557.6974   126.9873     8.8066     0.0285     2.5401   -41.9292   488.5344     6.6906     6.6569     8.1404
 1979.0000   552.2089   127.2971     8.8219     0.0418     2.5455   -41.6203   488.5236     6.3785     6.4342     8.1448
 1979.5000   552.2089   126.7207     8.8077     0.0473     2.5432   -41.1031   482.4301     6.0379     6.2188     7.7093
 1980.0000   552.2089   126.7749     8.8083     0.0513     2.5275   -40.4838   476.2050     5.7156     5.9693     7.2970
 1980.5000   552.2089   133.5478     8.7646     0.0372     2.4989   -39.6794   469.9776     5.3730     5.6512     6.8118
 1981.0000   552.2089   135.0394     8.7503     0.0545     2.4847   -39.1758   474.5456     5.0124     5.3132     6.5829
 1981.5000   552.2089   136.5309     8.7510     0.0834     2.4954   -38.4269   482.1996     4.6077     4.7925     6.4446
 1982.0000   552.2089   144.8183     8.7516     0.1217     2.5013   -38.1385   488.5344     4.2963     4.4134     6.1286
 1982.5000   552.2089   171.1252     8.7679     0.1343     2.4727   -37.8608   488.5344     4.0820     4.1782     4.9286
 1983.0000   532.1285   187.9786     8.7823     0.1226     2.4261   -38.2577   496.5769     4.0556     4.0664     4.2340
 1983.5000   532.1285   189.7655     8.7534     0.0735     2.4156   -38.7402   504.8687     4.0870     4.0708     4.1771
 1984.0000   532.1285   188.8937     8.6951     0.0298     2.4172   -39.4070   504.9601     4.3228     4.1940     4.2377
 1984.5000   532.1285   188.6091     8.6367     0.0150     2.4307   -40.2959   498.7413     4.6361     4.5179     4.4811
 1985.0000   532.1285   189.2180     8.5781     0.0127     2.4594   -41.2791   492.5224     5.2924     4.9450     5.8325
 1985.5000   532.1285   189.2724     8.5639     0.0174     2.4714   -41.8334   488.5344     5.8762     5.6604     9.6738
 1986.0000   603.8781   187.4743     8.5794     0.0221     2.4715   -42.4022   488.5344     6.6156     6.6412    11.6679
 1986.5000   552.4919   184.8133     8.6095     0.0174     2.4668   -42.8575   488.5344     7.3455     7.6221    11.9181
 1987.0000   552.5203   183.6180     8.6395     0.0095     2.4565   -43.2395   488.5344     8.5024     8.6030    12.3466
 1987.5000   552.3307   180.1357     8.6401     0.0074     2.4498   -43.2892   488.5344     9.7059     9.5838    13.0869
 1988.0000   532.1096   172.1737     8.5817     0.0145     2.4476   -43.5729   488.5344    10.5547    10.3174    14.2897
 1988.5000   534.1643   166.8705     8.5529     0.0224     2.4514   -43.8851   488.5344    10.7867    10.5388    15.0044
 1989.0000   536.6787   167.1804     8.5239     0.0302     2.4612   -44.2230   496.3775    10.7899    10.7650    14.6009
 1989.5000   539.1972   171.9216     8.5246     0.0318     2.4657   -44.2204   504.6693    10.7219    10.7705    14.2083
 1990.0000   541.7366   187.8887     8.5252     0.0280     2.4673   -44.2158   508.4746    10.5807    10.7761    13.9238
 1990.5000   544.2682   199.9097     8.5700     0.0241     2.4650   -44.2168   508.4746    10.5889    10.7817    13.8323
 1991.0000   546.7999   202.9852     8.6000     0.0195     2.4590   -44.2207   508.4746    10.5205    10.7883    13.4618
 1991.5000   549.3315   205.6584     8.6449     0.0140     2.4591   -44.1684   508.4746    10.5286    10.7938    13.0998
 1992.0000   551.8632   207.1499     8.6455     0.0117     2.4576   -43.9693   508.4746    10.5351    10.7993    13.1055
 1992.5000   554.3948   202.7331     8.6470     0.0118     2.4479   -43.6307   508.4746    10.6149    10.8048    13.3873
 1993.0000   556.9265   199.7957     8.6020     0.0118     2.4329   -43.4043   508.4746    10.8448    10.8852    14.2828
 1993.5000   559.4581   196.8559     8.5734     0.0119     2.4231   -43.2268   508.4800    11.2343    11.0423    15.2842
 1994.0000   561.9897   195.0978     8.5445     0.0119     2.4209   -43.1766   508.4818    11.5575    11.2793    15.1854
 1994.5000   564.5214   193.0443     8.5452     0.0120     2.4240   -43.2480   508.4746    11.8899    11.6013    15.0856
 1995.0000   567.0530   185.6732     8.5753     0.0120     2.4300   -43.2280   502.4925    12.0634    11.9325    15.4107
 1995.5000   569.5847   173.8707     8.6201     0.0136     2.4392   -43.4256   494.2007    12.3246    12.2731    15.9607
 1996.0000   572.2892   160.5912     8.6502     0.0262     2.4533   -43.4344   494.8355    12.5915    12.6271    16.8773
 1996.5000   572.2892   143.7667     8.5918     0.0357     2.4655   -43.8294   508.4746    12.6869    12.8058    16.8848
 1997.0000   572.2892   136.0490     8.5481     0.0439     2.4693   -43.9675   508.4746    12.6947    12.8137    16.8922
 1997.5000   572.2892   134.6375     8.5192     0.0521     2.4678   -44.4169   508.4746    12.6147    12.8203    16.5520
 1998.0000   572.2892   135.8372     8.5050     0.0467     2.4634   -44.4084   504.0628    12.6225    12.7368    16.1070
 1998.5000   572.2892   139.1012     8.5204     0.0397     2.4596   -44.6000   497.8440    12.3574    12.4835    15.4440
