~VERSION INFORMATION
 VERS.                2.0:   CWLS LOG ASCII STANDARD - VERSION 2.0
 WRAP.                 NO:   ONE LINE PER DEPTH STEP
~WELL INFORMATION
#MNEM.UNIT      DATA TYPE    INFORMATION
#----------   ------------   ------------------------------
 STRT.F          200.5000:   START DEPTH
 STOP.F         3118.5000:   STOP DEPTH
 STEP.F            0.5000:   STEP LENGTH
 NULL.          -999.2500:   NO VALUE
 COMP.    FENIX & SCISSON:   COMPANY
 WELL. FENIX SCISSON "A" #16-27:   WELL
 FLD .                NPR:   FIELD
 LOC .      S27 T39N R78W:   LOCATION
 CNTY.            NATRONA:   COUNTY
 STAT.            WYOMING:   STATE
 CTRY. UNITED STATES OF AMERICA:   COUNTRY
 SRVC.       SCHLUMBERGER:   SERVICE COMPANY
 DATE.        31-AUG-1977:   LOGDATE
 API .     49025104180000:   API NUMBER
~CURVE INFORMATION
#MNEM.UNIT       API CODE    CURVE DESCRIPTION
#----------   ------------   ------------------------------
 DEPT.F                  :   
 CALD.IN     45 280 60 00:   CALIPER FROM DENSITY LOG
 GRD .GAPI   45 310 01 00:   GAMMA RAY FROM DENSITY LOG
 DPHI.DEC    42 890 03 00:   DENSITY POROSITY SANDSTONE
 RHOB.G/C3   45 350 01 00:   BULK DENSITY
 CORR.G/C3   45 356 01 00:   DENSITY CORRECTION
 SPR .MV     07 010 01 00:   SPONTANEOUS POTENTIAL
 GURD.OHMM   07 220 05 00:   GUARD LOG RESISTIVITY
 ILD .OHMM   07 120 46 00:   DEEP INDUCTION RESISTIVITY
 ILM .OHMM   07 120 44 00:   INDUCTION LOG MEDIUM RESISTIVITY
~PARAMETER INFORMATION
#MNEM.UNIT          VALUE    DESCRIPTION
#----------   ------------   ------------------------------
 EKB .F         5095.0000:   Kelly bushing
 EGL .F         5085.0000:   Ground level
 EDF .F            0.0000:   Drilling floor
 TD  .F         3121.0000:   Total depth
 DATE.        31-AUG-1977:   Date logged
 CLNT.            A2DTECH:   Client Code
 SL  . 1430' FSL & 330' FNL:   Surface Location
 PD  .                 GL:   Permanent Datum
 EPD .F              5085:   Elevation Permanent Datum
 LMF .                 KB:   Log Measured From
 DMF .                 KB:   Drilling Measured From
 DAPD.F                10:   Feet Above Permanent Datum
 DD  .F              3120:   Depth driller
 DL  .F              3121:   Depth logger
 BLI .F              3119:   Bottom log interval
 TLI .F               200:   Top log interval
 CS1 .IN            8.625:   Casing size
 CBD1.      8.625" @ 206':   Casing driller 1
 CBL1.F               215:   Casing logger 1
 BS1 .IN            7.875:   Bit size
 BSD1.F              3120:   Depth drilled with bit1
 DFT .            KCL/MUD:   Type fluid in hole
 DFD .                  9:   Density
 DFV .                 36:   Viscosity
 DFPH.                 11:   pH
 DFL .                8.4:   Fluid loss
 MSS .           FLOWLINE:   Source of sample
 RMS .OHMM            2.5:   Rm
 MST .F                89:   Rm Meas. temp.
 RMF .OHMM           2.45:   Rmf
 MFST.F                89:   Rmf Meas. temp.
 RMC .OHMM           3.30:   Rmc
 MCST.F                89:   Rmc Meas. temp.
 MFSS.               FANN:   Source Rmf.
 MCSS.                KIT:   Source Rmc.
 RMB .OHMM           1.91:   Rm. at BHT
 BHT .F               116:   BHT.
 TCS .HRS              12:   Time Circ. stopped
 MRT .F               116:   Maximum recorded temp.
 LUN .               9585:   Logging unit number
 LUL .             CASPEN:   Logging unit location
 ENGI.         G. BENTSEN:   Recorded By
 WITN.      W. PETTINGILL:   Witnessed by
 ORIG.           5" PRINT:   Origin of data
 UWI .     49025104180000:   Unique Well ID
 DICO. A2D TECHNOLOGIES, INC.:   Digitizing Company
~OTHER INFORMATION
~A   DEPT     CALD         GRD      DPHI       RHOB        CORR       SPR       GURD        ILD        ILM   
# ...
 3084.0000     7.9038    93.4120     0.1128     2.4671     0.0227   -62.7172     4.1486     3.3276     4.0000
 3084.5000     7.9036    94.5937     0.1152     2.4651     0.0227   -62.7192     4.4235     3.3271     3.9994
 3085.0000     7.9034    94.9858     0.1156     2.4601     0.0207   -62.7200     4.6309     3.3267     3.9990
 3085.5000     7.9032    94.1913     0.1173     2.4561     0.0206   -62.9205     4.9834     3.3262     3.8537
 3086.0000     7.9030    94.5826     0.1195     2.4521     0.0206   -62.9225     4.7153     3.3257     3.7483
 3086.5000     7.8831    95.7659     0.1195     2.4502     0.0205   -62.7272     4.2616     3.2345     3.7133
 3087.0000     7.9026    98.1294     0.1219     2.4501     0.0185   -62.5314     4.1070     3.2341     3.7819
 3087.5000     7.9222    98.1279     0.1251     2.4501     0.0085   -62.7312     4.0691     3.1745     3.7122
 3088.0000     8.0208    96.5429     0.1279     2.4332     0.0085   -62.7328     4.0685     3.1450     3.5123
 3088.5000     8.0206    94.5627     0.1299     2.4302     0.0065   -62.7348     4.0678     3.0871     3.4476
 3089.0000     8.0402    93.7635     0.1339     2.4282     0.0044   -62.7368     4.1046     3.0584     3.4472
 3089.5000     8.0795    93.7596     0.1383     2.4197     0.0044   -62.5414     4.1041     3.0298     3.4786
 3090.0000     8.1188    97.7080     0.1402     2.4148     0.0024   -62.5430     4.1414     3.0295     3.5425
 3090.5000     8.1186    97.7040     0.1387     2.4120     0.0023   -62.5442     4.1408     3.0289     3.5748
 3091.0000     8.0987    96.5143     0.1363     2.4123     0.0023   -62.5462     4.1025     3.0284     3.5743
 3091.5000     8.0985    95.3246     0.1347     2.4125     0.0022   -62.3521     3.9539     3.0003     3.5738
 3092.0000     8.0192    95.3207     0.1327     2.4151     0.0022   -62.3537     3.8455     2.9998     3.5733
 3092.5000     8.0190    96.1072     0.1311     2.4168     0.0021   -62.1579     3.8099     2.9993     3.5728
 3093.0000     7.9793   100.0556     0.1295     2.4193     0.0041   -62.1607     3.8092     2.9713     3.5722
 3093.5000     7.9987   100.8421     0.1276     2.4219     0.0080   -62.3601     3.8793     2.9709     3.4110
 3094.0000     7.9787   100.0477     0.1248     2.4258     0.0080   -62.3613     3.9146     2.9432     3.2270
 3094.5000     7.9587   101.6247     0.1212     2.4313     0.0079   -62.3629     3.9141     2.9428     3.1969
 3095.0000     7.9585   104.3874     0.1200     2.4376     0.0079   -62.3657     3.8777     2.9153     3.3165
 3095.5000     7.9583   103.9882     0.1180     2.4468     0.0118   -62.3677     3.9128     2.8882     3.4722
 3096.0000     7.9581   101.6127     0.1184     2.4508     0.0118   -62.5666     4.3685     2.8613     3.4083
 3096.5000     7.9579    98.8468     0.1204     2.4466     0.0117   -62.5686     4.0582     2.7828     3.0792
 3097.0000     7.9380   102.4000     0.1228     2.4356     0.0117   -62.5710     3.8399     2.7316     3.0790
 3097.5000     7.9180   104.7683     0.1252     2.4277     0.0116   -62.3749     3.7692     2.7061     3.0786
 3098.0000     7.9178   107.9263     0.1280     2.4249     0.0116   -62.3769     3.2234     2.6564     2.7560
 3098.5000     7.9176   111.4803     0.1284     2.4252     0.0116   -62.1815     3.0500     2.6559     2.8591
 3099.0000     7.9174   112.2660     0.1256     2.4277     0.0075   -62.1835     3.1638     2.6801     3.1633
 3099.5000     7.9172   109.4953     0.1232     2.4287     0.0075   -61.9890     4.0921     2.7045     3.2515
 3100.0000     7.8057  -999.2500     0.1205     2.4342     0.0035   -61.9902     4.2059     2.7543     3.3115
 3100.5000     7.8075  -999.2500  -999.2500     2.4382     0.0045   -61.8252     3.9864     2.7779     3.4302
 3101.0000     7.8093  -999.2500  -999.2500     2.4444     0.0060   -61.5618     3.9500     2.8372     3.5391
 3101.5000     7.8111  -999.2500  -999.2500     2.4507     0.0075   -61.5462     3.9179     2.8925     3.5428
 3102.0000     7.8130  -999.2500  -999.2500     2.4540     0.0105   -61.5266     3.9227     2.9768     3.8175
 3102.5000     7.7999  -999.2500  -999.2500     2.4572     0.0120   -61.1044     3.9259     3.1211     3.9639
 3103.0000     7.8018  -999.2500  -999.2500     2.4627     0.0135   -60.8913     4.4701     3.2715     4.4720
 3103.5000     7.8036  -999.2500  -999.2500     2.4667     0.0135   -60.8504     5.4261     3.3978     4.7732
 3104.0000     7.8057  -999.2500  -999.2500     2.4729     0.0135   -61.0322     6.5846     3.4965     5.0497
 3104.5000     7.8072  -999.2500  -999.2500     2.4762     0.0135   -61.2101     6.3529     3.7320     5.0993
 3105.0000     7.7939  -999.2500  -999.2500     2.4772     0.0120   -61.3841     7.0985     3.9115     5.1041
 3105.5000     7.7660  -999.2500  -999.2500     2.4745     0.0075   -60.9735     7.7871     3.9873     5.1090
 3106.0000     7.7684  -999.2500  -999.2500     2.4688     0.0030   -60.3577     4.9737     3.9914     4.8861
 3106.5000     7.7554  -999.2500  -999.2500     2.4645     0.0000   -60.3421     3.3882     3.9227     4.6287
 3107.0000     7.7572  -999.2500  -999.2500     2.4618    -0.0045   -60.1251     4.7166     3.8908     4.7625
 3107.5000     7.7591  -999.2500  -999.2500     2.4605    -0.0045   -59.9081     6.8726     3.8956     5.1776
 3108.0000     7.7609  -999.2500  -999.2500     2.4683    -0.0030   -59.6872     8.8879     3.8987     6.1682
 3108.5000     7.7626  -999.2500  -999.2500     2.4805     0.0030   -59.6716     7.9708     4.0486     6.2307
 3109.0000     7.7645  -999.2500  -999.2500     2.4898     0.0075   -59.6520     6.5821     4.1657     6.4692
 3109.5000     7.7667  -999.2500  -999.2500     2.4968     0.0120   -60.0448     7.4203     4.2092     7.7069
 3110.0000     7.7685  -999.2500  -999.2500     2.5038     0.0180   -60.0214     8.2871     4.2513     8.0000
 3110.5000     7.7703  -999.2500  -999.2500     2.5123     0.0255   -60.2287     9.2484     4.3763     8.0081
 3111.0000     7.7722  -999.2500  -999.2500     2.5170     0.0360   -55.9186    10.1250     4.5695     7.9926
 3111.5000     7.7740  -999.2500  -999.2500     2.5157     0.0390   -53.1858    11.1893     4.9590     7.9150
 3112.0000     7.7756  -999.2500  -999.2500     2.5130     0.0420   -28.6248    10.2992     5.3818     7.9094
 3112.5000     7.7589  -999.2500  -999.2500     2.5095     0.0435  -999.2500     9.2218     5.8408     7.7620
 3113.0000     7.7348  -999.2500  -999.2500     2.5053     0.0435  -999.2500     9.1326     6.8835     7.7565
 3113.5000     7.7367  -999.2500  -999.2500     2.5018     0.0480  -999.2500     9.1284     7.4709     8.1135
 3114.0000     7.7234  -999.2500  -999.2500     2.5021     0.0570  -999.2500     8.9556     7.8897     8.0357
 3114.5000     7.7258  -999.2500  -999.2500     2.5024     0.0600  -999.2500     8.5498     7.4610     7.8121
 3115.0000     7.7276  -999.2500  -999.2500     2.4892     0.0600  -999.2500     7.9404     7.1224     7.3211
 3115.5000     7.7295  -999.2500  -999.2500     2.4790     0.0645  -999.2500     7.3741     6.7989     6.8616
 3116.0000     7.7016  -999.2500  -999.2500     2.4762     0.0720  -999.2500     7.0407     6.6103     6.5491
 3116.5000     7.6882  -999.2500  -999.2500     2.4765     0.0810  -999.2500     6.9739     6.4261     6.6082
 3117.0000     7.6752  -999.2500  -999.2500     2.4768     0.0915  -999.2500     6.5335     6.1333     6.3088
 3117.5000     7.6325  -999.2500  -999.2500     2.4800     0.1079  -999.2500     6.5311     5.8545     6.0236
 3118.0000     7.6049  -999.2500  -999.2500     2.4930  -999.2500  -999.2500  -999.2500  -999.2500  -999.2500
 3118.5000     7.5176  -999.2500  -999.2500  -999.2500  -999.2500  -999.2500  -999.2500  -999.2500  -999.2500
