~VERSION INFORMATION
 VERS.                2.0:   CWLS LOG ASCII STANDARD - VERSION 2.0
 WRAP.                 NO:   ONE LINE PER DEPTH STEP
~WELL INFORMATION
#MNEM.UNIT      DATA TYPE    INFORMATION
#----------   ------------   ------------------------------
 STRT.F           60.0000:   START DEPTH
 STOP.F         5768.0000:   STOP DEPTH
 STEP.F            0.5000:   STEP LENGTH
 NULL.          -999.2500:   NO VALUE
 COMP.              RMOTC:   COMPANY
 WELL. RMOTC NPR-3 61 "X" #2-15:   WELL
 FLD .            N P R-3:   FIELD
 LOC .      S15 T38N R78W:   LOCATION
 CNTY.            NATRONA:   COUNTY
 STAT.            WYOMING:   STATE
 CTRY. UNITED STATES OF AMERICA:   COUNTRY
 SRVC.       SCHLUMBERGER:   SERVICE COMPANY
 DATE.        07-JAN-2002:   LOGDATE
 API .     49025230310000:   API NUMBER
~CURVE INFORMATION
#MNEM.UNIT       API CODE    CURVE DESCRIPTION
#----------   ------------   ------------------------------
 DEPT.F                  :   
 CALD.IN     45 280 60 00:   CALIPER FROM DENSITY LOG
 TEND.LBS    45 635 01 00:   TENSION FROM DENSITY LOG
 PEFZ.B/E    45 358 01 00:   HILT PHOTOELECTRIC FACTOR
 RHOZ.G/C3   45 350 01 00:   HILT BULK DENSITY
 NPOR.DEC    42 890 03 00:   ALPHA PROCESSED NEUTRON POROSITY
 HDRA.G/C3   45 356 01 00:   DELTA RHO HIP TOOL
 GRS .GAPI   60 310 01 00:   GAMMA RAY FROM SONIC LOG
 DTSM.US/F   61 523 00 00:   SHEAR-WAVE INTERVAL TRANSIT TIME DELTA-T
 GRR .GAPI   07 310 01 00:   GAMMA RAY FROM RESISTIVITY
 TENR.LBS    01 635 01 00:   TENSION FROM RES.
 SPR .MV     07 010 01 00:   SPONTANEOUS POTENTIAL
 HLLD.OHMM   11 220 10 00:   LATEROLOG DEEP RES.
 HLLS.OHMM   11 220 09 00:   LATEROLOG SHALLOW RES.
 HRLD.OHMM   11 220 10 00:   HIGH RESOLUTION DEEP RESISTIVITY
~PARAMETER INFORMATION
#MNEM.UNIT          VALUE    DESCRIPTION
#----------   ------------   ------------------------------
 EKB .F         5244.0000:   Kelly bushing
 EGL .F         5227.0000:   Ground level
 EDF .F         5243.0000:   Drilling floor
 EPD .F            0.0000:   Permanent datum
 TD  .F         5756.0000:   Total depth
 DATE.        07-JAN-2002:   Date logged
 CLNT.            A2DTECH:   Client Code
 SL  . 189' FNL & 1895' FEL:   Surface Location
 PD  .                 GL:   Permanent Datum
 DD  .F              5750:   Depth driller
 DL  .F              5756:   Depth logger
 BLI .F              5748:   Bottom log interval
 CS1 .IN             3054:   Casing size
 CBD1.     9.625" @ 3052':   Casing driller 1
 CBL1.F              3054:   Casing logger 1
 BS1 .IN            8.750:   Bit size
 DFT .             3% KCL:   Type fluid in hole
 DFD .                9.3:   Density
 DFV .                 42:   Viscosity
 DFPH.                  8:   pH
 DFL .                 28:   Fluid loss
 MSS .           FLOWLINE:   Source of sample
 RMS .OHMM          0.413:   Rm
 MST .F                74:   Rm Meas. temp.
 RMF .OHMM          0.305:   Rmf
 MFST.F                74:   Rmf Meas. temp.
 RMC .OHMM          0.637:   Rmc
 MCST.F                74:   Rmc Meas. temp.
 MFSS.               CALC:   Source Rmf.
 RMB .OHMM          0.187:   Rm. at BHT
 BHT .F               172:   BHT.
 TCS .HRS            0800:   Time Circ. stopped
 MRT .F               172:   Maximum recorded temp.
 LUN .               2211:   Logging unit number
 LUL .             CASPER:   Logging unit location
 ENGI.        J.L. FLORES:   Recorded By
 WITN.      MARK MILLIKEN:   Witnessed by
 ORIG.           5" PRINT:   Origin of data
 UWI .     49025230310000:   Unique Well ID
 DICO. A2D TECHNOLOGIES, INC.:   Digitizing Company
 DAPD.                 17:   Feet Above Permanent Datum
 BSD1.               5750:   Depth drilled with bit1
 MCSS.               CALC:   Source Rmc.
 LMF .                 KB:   Log Measured From
 DMF .                 KB:   Drilling Measured From
 TLI .               3054:   Top log interval
~OTHER INFORMATION
~A   DEPT     CALD       TEND       PEFZ       RHOZ       NPOR       HDRA        GRS       DTSM         GRR      TENR        SPR       HLLD       HLLS       HRLD   
# ...
 3416.5000    10.8590  2176.9380     2.5350     2.4480     0.3090    -0.0010   151.5720  -999.2500   167.2540  2174.7771   -32.8110     3.5180     4.3020     3.3920
 3417.0000    10.8310  2176.9380     2.5110     2.4550     0.3030    -0.0010   147.8090  -999.2500   168.8610  2197.1201   -32.9080     3.4860     4.3150     3.4990
 3417.5000    10.7650  2176.9380     2.4840     2.4580     0.2900    -0.0010   143.9200  -999.2500   165.8510  2204.5681   -32.7850     4.0730     4.3330     3.7730
 3418.0000    10.7190  2176.9380     2.4530     2.4560     0.2930    -0.0010   142.1490  -999.2500   160.7750  2187.6860   -32.6830     3.9300     4.3420     3.8600
 3418.5000    10.7350  2176.9380     2.4220     2.4470     0.3000    -0.0020   143.2890  -999.2500   156.0320  2177.7561   -32.5830     3.7260     4.3010     3.7140
 3419.0000    10.7360  2176.9380     2.4150     2.4500     0.3050    -0.0020   143.9640  -999.2500   155.9570  2133.0691   -32.4820     3.5670     4.2420     3.5830
 3419.5000    10.6520  2176.9380     2.4180     2.4600     0.3080    -0.0030   142.7930  -999.2500   154.5910  2138.3650   -32.3810     3.5980     4.2620     3.5970
 3420.0000    10.6180  2176.9380     2.5120     2.4670     0.3030    -0.0040   140.8080  -999.2500   151.5630  2171.4661   -32.2820     3.6830     4.3380     3.6160
 3420.5000    10.6450  2176.9380     2.5320     2.4690     0.2950    -0.0040   137.6010  -999.2500   147.6880  2194.6379   -32.1790     4.0350     4.4220     3.9310
 3421.0000    10.6610  2176.9380     2.4750     2.4620     0.3040    -0.0030   134.4180  -999.2500   147.6840  2170.3630   -32.1830     4.0730     4.4630     3.9980
 3421.5000    10.5590  2176.9380     2.4140     2.4520     0.3030    -0.0020   132.5770  -999.2500   148.5120  2154.9160   -32.4630     4.0050     4.4630     3.9440
 3422.0000    10.5200  2176.9380     2.2750     2.4470     0.2950    -0.0010   134.9680  -999.2500   150.2740  2205.9871   -32.7470     3.9260     4.4630     3.8900
 3422.5000    10.5310  2176.9380     2.1930     2.4300     0.2820    -0.0010   147.5230  -999.2500   159.8100  2234.3589   -33.0270     3.9260     4.2880     3.8360
 3423.0000    10.5800  2176.9380     2.3040     2.3910     0.2890     0.0120   152.2430  -999.2500   171.0520  2185.8101   -33.3110     3.8320     4.0370     3.8400
 3423.5000    10.6530  2176.9380     2.5060     2.3390     0.3190     0.0280   152.3720  -999.2500   184.2400  2154.9160   -33.3590     3.5170     3.4620     3.5480
 3424.0000    10.6900  2176.9380     2.7540     2.3600     0.3760     0.0600   151.7420  -999.2500   188.4510  2154.9160   -32.8250     2.7500     2.5340     2.5240
 3424.5000    11.2010  2176.9380     2.8710     2.4720     0.4260     0.0870   134.0130  -999.2500   172.5660  2154.9160   -32.2910     1.6930     2.0700     1.6100
 3425.0000    10.2770  2176.9380     2.8370     2.5380     0.3740     0.0730   116.2180  -999.2500   159.9030  2154.9160   -31.7540     3.5230     3.9680     3.4380
 3425.5000    10.2350  2176.9380     2.6940     2.5250     0.2920     0.0370   112.6860  -999.2500   141.5240  2151.6050   -31.2240     6.1380     7.1800     7.3800
 3426.0000    10.2510  2176.9380     2.5580     2.5090     0.2610     0.0030   116.6890  -999.2500   130.6990  2140.5720   -30.6840     7.1800     7.2460     7.0720
 3426.5000    10.2590  2176.9380     2.5340     2.4990     0.2540     0.0020   120.6820  -999.2500   126.4060  2137.3459   -30.1080     6.7550     6.7620     6.7290
 3427.0000    10.2580  2176.9380     2.5700     2.4810     0.2850     0.0150   124.3730  -999.2500   129.5310  2144.9851   -30.1390     6.3690     6.3220     6.3860
 3427.5000    10.2570  2176.9380     2.6330     2.4310     0.3110     0.0410   126.2570  -999.2500   135.8570  2152.6240   -30.1880     5.9830     5.9260     5.9850
 3428.0000    10.3300  2176.9380     2.7140     2.4000     0.3160     0.1020   128.2290  -999.2500   142.2750  2154.9160   -30.2240     5.2680     4.6810     5.0190
 3428.5000    10.4220  2176.9380     2.8540     2.4040     0.3990     0.1520   128.3660  -999.2500   148.0200  2154.9160   -30.2720     3.7840     3.5490     3.0530
 3429.0000    11.2060  2177.4619     2.9420     2.4620     0.3860     0.1520   121.0770  -999.2500   147.9710  2154.9160   -30.3030     2.3000     2.5200     1.6930
 3429.5000    10.3670  2179.8911     2.9710     2.5200     0.3550     0.0950   117.6770  -999.2500   140.6670  2154.9160   -30.4590     2.5110     2.5080     1.7400
 3430.0000    10.3960  2182.3210     2.8770     2.5780     0.3250     0.0610   118.4210  -999.2500   133.3610  2154.9160   -30.5910     3.8570     3.7130     3.6280
 3430.5000    10.3740  2184.7500     2.7630     2.5930     0.3130     0.0520   124.7560  -999.2500   127.1490  2154.9160   -30.7060     5.2040     5.3100     5.3450
 3431.0000    10.3840  2187.1790     2.6470     2.5780     0.3020     0.0400   131.8240  -999.2500   128.3390  2154.9160   -31.8590     6.2030     5.4080     6.1290
 3431.5000    10.3940  2189.6089     2.5340     2.5300     0.2820     0.0290   141.2320  -999.2500   147.6230  2154.9160   -32.9090     5.8770     5.4080     5.9810
 3432.0000    10.4220  2192.0381     2.5020     2.4620     0.2740     0.0300   149.9410  -999.2500   163.8520  2154.9160   -32.8470     5.4570     5.3580     5.8180
 3432.5000    10.4240  2194.4670     2.5580     2.3920     0.3160     0.0370   152.2510  -999.2500   183.8000  2160.8740   -33.0180     4.3260     4.3860     4.6240
 3433.0000    10.6020  2196.8191     2.6570     2.3240     0.3150     0.0650   151.7080  -999.2500   201.3740  2180.7351   -33.2020     3.2970     3.5020     3.2970
 3433.5000    10.7960  2178.1311     2.7540     2.2820     0.3950     0.0960   151.0540  -999.2500   202.6770  2194.6379   -33.3060     2.2680     2.6180     1.8380
 3434.0000    10.8170  2160.0220     2.8370     2.3170     0.4120     0.1020   145.8150  -999.2500   193.1980  2168.5701   -33.1190     1.9410     2.2890     1.6260
 3434.5000    11.0210  2160.6970     2.9090     2.3900     0.3600     0.0890   131.9310  -999.2500   173.5720  2135.0549   -32.9040     1.9590     2.7300     2.1050
 3435.0000    10.5080  2176.0210     2.8400     2.4600     0.3170     0.0530   118.9720  -999.2500   159.2160  2135.0549   -33.0200     4.0250     3.6940     4.2020
 3435.5000    10.5170  2191.3440     2.7670     2.4860     0.3100     0.0180   124.2780  -999.2500   147.2000  2166.2649   -33.1480     6.0900     5.3280     6.0900
 3436.0000    10.5200  2196.8191     2.6960     2.4840     0.3040     0.0010   127.8920  -999.2500   145.1710  2194.6379   -33.2940     6.2890     6.0100     6.3040
 3436.5000    10.5240  2194.1909     2.6930     2.4860     0.2930    -0.0010   128.7680  -999.2500   148.1170  2174.7771   -33.4260     6.3860     6.2030     6.4990
 3437.0000    10.5490  2191.0791     2.6940     2.4840     0.2840     0.0000   128.9360  -999.2500   153.0580  2154.9160   -33.5790     6.6130     6.4340     6.6740
 3437.5000    10.5740  2187.9661     2.6920     2.4820     0.2910     0.0000   130.8970  -999.2500   158.0290  2154.9160   -33.7040     6.3840     6.2930     6.4700
 3438.0000    10.5980  2184.8530     2.7680     2.5000     0.2980     0.0080   130.1220  -999.2500   157.8630  2154.9160   -33.2960     6.0900     6.0100     6.1800
 3438.5000    10.5750  2181.7410     2.8930     2.5340     0.2930     0.0260   129.9490  -999.2500   155.4820  2154.9160   -32.8500     6.5250     6.2090     6.6690
 3439.0000    10.5720  2178.6279     2.9610     2.5730     0.3070     0.0590   134.0960  -999.2500   153.6100  2160.2629   -32.4590     6.1270     6.2720     6.4070
 3439.5000    10.6760  2176.9380     3.0050     2.5620     0.3180     0.0700   139.5540  -999.2500   154.1120  2167.9021   -32.0860     4.9100     5.5350     5.4880
 3440.0000    10.7000  2190.6819     2.9120     2.5430     0.3270     0.0470   137.3680  -999.2500   154.9850  2174.7771   -32.2690     4.5450     5.1660     4.5690
 3440.5000    10.6700  2203.6741     2.6960     2.5020     0.3010     0.0150   133.3700  -999.2500   155.6100  2174.7771   -32.3080     5.5200     5.7650     4.7140
