~VERSION INFORMATION
 VERS.                2.0:   CWLS LOG ASCII STANDARD - VERSION 2.0
 WRAP.                 NO:   ONE LINE PER DEPTH STEP
~WELL INFORMATION
#MNEM.UNIT      DATA TYPE    INFORMATION
#----------   ------------   ------------------------------
 STRT.F            0.0000:   START DEPTH
 STOP.F         2870.0000:   STOP DEPTH
 STEP.F            0.5000:   STEP LENGTH
 NULL.          -999.2500:   NO VALUE
 COMP.  FENIX AND SCISSON:   COMPANY
 WELL.  FENIX "A" #304-28:   WELL
 FLD .             NPR #3:   FIELD
 LOC .      S28 T39N R78W:   LOCATION
 CNTY.            NATRONA:   COUNTY
 STAT.            WYOMING:   STATE
 CTRY. UNITED STATES OF AMERICA:   COUNTRY
 SRVC.         MCCULLOUGH:   SERVICE COMPANY
 DATE.        21-DEC-1977:   LOGDATE
 API .     49025105600000:   API NUMBER
~CURVE INFORMATION
#MNEM.UNIT       API CODE    CURVE DESCRIPTION
#----------   ------------   ------------------------------
 DEPT.F                  :   
 GR  .GAPI   30 310 01 00:   GAMMA RAY
 CALI.IN     70 280 01 00:   CALIPER
~PARAMETER INFORMATION
#MNEM.UNIT          VALUE    DESCRIPTION
#----------   ------------   ------------------------------
 EKB .F            0.0000:   Kelly bushing
 EGL .F            0.0000:   Ground level
 EDF .F         5074.7000:   Drilling floor
 EPD .F         5074.7000:   Permanent datum
 TD  .F         2868.0000:   Total depth
 DATE.        21-DEC-1977:   Date logged
 CLNT.            A2DTECH:   Client Code
 DL  .F              2868:   Depth logger
 BLI .F              2866:   Bottom log interval
 TLI .F              2000:   Top log interval
 CS1 .IN             6.25:   Casing size
 CBD1.     6.625" @ 2935':   Casing driller 1
 BS1 .IN             6.25:   Bit size
 BSD1.F              2868:   Depth drilled with bit1
 DFT .              WATER:   Type fluid in hole
 TCS .HRS             1.5:   Time Circ. stopped
 ENGI.             CONLEY:   Recorded By
 WITN.           HARRISON:   Witnessed by
 ORIG.           5" PRINT:   Origin of data
 UWI .     49025105600000:   Unique Well ID
 DICO. A2D TECHNOLOGIES, INC.:   Digitizing Company
~OTHER INFORMATION
~A    DEPT      GR         CALI 
    0.0000  -999.2500     6.8470
    0.5000  -999.2500     7.0750
    1.0000  -999.2500     7.0290
    1.5000  -999.2500     7.1280
    2.0000  -999.2500     7.1530
    2.5000  -999.2500     7.1390
    3.0000  -999.2500     7.0680
    3.5000  -999.2500     7.0280
    4.0000  -999.2500     6.9840
    4.5000  -999.2500     6.9870
    5.0000  -999.2500     6.9880
    5.5000  -999.2500     6.9860
    6.0000  -999.2500     6.9880
    6.5000  -999.2500     6.9910
    7.0000  -999.2500     6.9690
    7.5000  -999.2500     6.9560
    8.0000  -999.2500     6.9290
    8.5000  -999.2500     6.9200
    9.0000  -999.2500     6.8810
    9.5000  -999.2500     6.8670
   10.0000  -999.2500     6.8580
   10.5000  -999.2500     6.8520
   11.0000  -999.2500     6.8480
   11.5000  -999.2500     6.8460
   12.0000  -999.2500     6.8460
   12.5000  -999.2500     6.8460
   13.0000  -999.2500     6.8450
   13.5000  -999.2500     6.8470
   14.0000  -999.2500     6.8480
   14.5000  -999.2500     6.8410
   15.0000  -999.2500     6.8370
   15.5000  -999.2500     6.8360
   16.0000  -999.2500     6.8280
   16.5000  -999.2500     6.8230
   17.0000  -999.2500     6.8220
   17.5000  -999.2500     6.8210
   18.0000  -999.2500     6.8200
   18.5000  -999.2500     6.8290
   19.0000  -999.2500     6.9470
   19.5000  -999.2500     6.7920
   20.0000  -999.2500     6.7350
   20.5000  -999.2500     6.7480
   21.0000  -999.2500     6.7330
   21.5000  -999.2500     6.7190
   22.0000  -999.2500     6.7320
   22.5000  -999.2500     6.7240
   23.0000  -999.2500     6.7100
   23.5000  -999.2500     6.6970
   24.0000  -999.2500     6.6970
   24.5000  -999.2500     6.6990
   25.0000  -999.2500     6.7070
   25.5000  -999.2500     6.7060
   26.0000  -999.2500     6.7030
   26.5000  -999.2500     6.7000
   27.0000  -999.2500     6.7040
   27.5000  -999.2500     6.7080
   28.0000  -999.2500     6.7160
   28.5000  -999.2500     6.7220
   29.0000  -999.2500     6.7200
   29.5000  -999.2500     6.7000
   30.0000  -999.2500     6.6820
   30.5000  -999.2500     6.6690
   31.0000  -999.2500     6.6640
   31.5000  -999.2500     6.6580
   32.0000  -999.2500     6.6550
   32.5000  -999.2500     6.6530
   33.0000  -999.2500     6.6510
   33.5000  -999.2500     6.6590
   34.0000  -999.2500     6.6620
   34.5000  -999.2500     6.6620
   35.0000  -999.2500     6.6650
   35.5000  -999.2500     6.6740
   36.0000  -999.2500     6.6710
   36.5000  -999.2500     6.6630
   37.0000  -999.2500     6.6770
   37.5000  -999.2500     6.6730
   38.0000  -999.2500     6.9680
   38.5000  -999.2500     6.6750
   39.0000  -999.2500     6.6710
   39.5000  -999.2500     6.6560
   40.0000  -999.2500     6.6460
   40.5000  -999.2500     6.6660
   41.0000  -999.2500     6.6630
   41.5000  -999.2500     6.6620
   42.0000  -999.2500     6.6610
   42.5000  -999.2500     6.6570
   43.0000  -999.2500     6.6550
   43.5000  -999.2500     6.6550
   44.0000  -999.2500     6.6540
   44.5000  -999.2500     6.6520
   45.0000  -999.2500     6.6520
   45.5000  -999.2500     6.6490
   46.0000  -999.2500     6.6490
   46.5000  -999.2500     6.6490
   47.0000  -999.2500     6.6490
   47.5000  -999.2500     6.6420
   48.0000  -999.2500     6.6330
   48.5000  -999.2500     6.6340
   49.0000  -999.2500     6.6360
   49.5000  -999.2500     6.6350
   50.0000  -999.2500     6.6290
   50.5000  -999.2500     6.6240
   51.0000  -999.2500     6.6240
   51.5000  -999.2500     6.6230
   52.0000  -999.2500     6.6210
   52.5000  -999.2500     6.6230
   53.0000  -999.2500     6.6240
   53.5000  -999.2500     6.6260
   54.0000  -999.2500     6.6260
   54.5000  -999.2500     6.6270
   55.0000  -999.2500     6.6300
   55.5000  -999.2500     6.6310
   56.0000  -999.2500     6.6330
   56.5000  -999.2500     6.6480
   57.0000  -999.2500     6.6520
   57.5000  -999.2500     6.6480
   58.0000  -999.2500     6.6440
   58.5000  -999.2500     6.6400
   59.0000  -999.2500     6.6230
   59.5000  -999.2500     6.6340
   60.0000  -999.2500     6.7900
   60.5000  -999.2500     6.7730
   61.0000  -999.2500     6.7670
   61.5000  -999.2500     6.7670
   62.0000  -999.2500     6.7480
   62.5000  -999.2500     6.7460
   63.0000  -999.2500     6.7680
   63.5000  -999.2500     6.7620
   64.0000  -999.2500     6.7580
   64.5000  -999.2500     6.7560
   65.0000  -999.2500     6.7460
   65.5000  -999.2500     6.7440
   66.0000  -999.2500     6.7490
   66.5000  -999.2500     6.7510
   67.0000  -999.2500     6.7490
   67.5000  -999.2500     6.7490
   68.0000  -999.2500     6.7570
   68.5000  -999.2500     6.7630
   69.0000  -999.2500     6.7530
   69.5000  -999.2500     6.7420
   70.0000  -999.2500     6.7430
   70.5000  -999.2500     6.7440
   71.0000  -999.2500     6.7450
   71.5000  -999.2500     6.7470
   72.0000  -999.2500     6.7460
   72.5000  -999.2500     6.7430
   73.0000  -999.2500     6.7420
   73.5000  -999.2500     6.7420
   74.0000  -999.2500     6.7590
   74.5000  -999.2500     6.7750
   75.0000  -999.2500     6.7750
   75.5000  -999.2500     6.7830
   76.0000  -999.2500     6.7880
   76.5000  -999.2500     6.7780
   77.0000  -999.2500     6.7680
   77.5000  -999.2500     6.7580
   78.0000  -999.2500     6.7830
   78.5000  -999.2500     6.7920
   79.0000  -999.2500     6.7920
   79.5000  -999.2500     6.7840
   80.0000  -999.2500     6.7810
   80.5000  -999.2500     6.7740
   81.0000  -999.2500     6.7680
   81.5000  -999.2500     6.7740
   82.0000  -999.2500     6.7910
   82.5000  -999.2500     7.0030
   83.0000  -999.2500     6.7600
   83.5000  -999.2500     6.7640
   84.0000  -999.2500     6.7040
   84.5000  -999.2500     6.6990
   85.0000  -999.2500     6.6970
   85.5000  -999.2500     6.6980
   86.0000  -999.2500     6.6840
   86.5000  -999.2500     6.6820
   87.0000  -999.2500     6.6800
   87.5000  -999.2500     6.6770
   88.0000  -999.2500     6.6650
   88.5000  -999.2500     6.6600
   89.0000  -999.2500     6.6590
   89.5000  -999.2500     6.6520
   90.0000  -999.2500     6.6410
   90.5000  -999.2500     6.6290
   91.0000  -999.2500     6.6220
   91.5000  -999.2500     6.6210
   92.0000  -999.2500     6.6290
   92.5000  -999.2500     6.6350
   93.0000  -999.2500     6.6380
   93.5000  -999.2500     6.6440
   94.0000  -999.2500     6.6420
   94.5000  -999.2500     6.6440
   95.0000  -999.2500     6.6490
   95.5000  -999.2500     6.6540
   96.0000  -999.2500     6.6540
   96.5000  -999.2500     6.6530
   97.0000  -999.2500     6.6540
   97.5000  -999.2500     6.6540
   98.0000  -999.2500     6.6500
   98.5000  -999.2500     6.6400
   99.0000  -999.2500     6.6370
   99.5000  -999.2500     6.6350
  100.0000  -999.2500     6.6370
  100.5000  -999.2500     6.6380
  101.0000  -999.2500     6.6340
  101.5000  -999.2500     6.6360
  102.0000  -999.2500     6.6340
  102.5000  -999.2500     6.6330
  103.0000  -999.2500     6.6350
  103.5000  -999.2500     6.6370
  104.0000  -999.2500     6.6510
  104.5000  -999.2500     6.6470
  105.0000  -999.2500     6.6540
  105.5000  -999.2500     6.6730
  106.0000  -999.2500     6.6870
  106.5000  -999.2500     6.8960
  107.0000  -999.2500     6.8860
  107.5000  -999.2500     6.9040
  108.0000  -999.2500     6.8620
  108.5000  -999.2500     6.8530
  109.0000  -999.2500     6.8650
  109.5000  -999.2500     6.8270
  110.0000  -999.2500     6.8230
  110.5000  -999.2500     6.8020
  111.0000  -999.2500     6.8050
  111.5000  -999.2500     6.8070
  112.0000  -999.2500     6.8220
  112.5000  -999.2500     6.8190
  113.0000  -999.2500     6.8340
  113.5000  -999.2500     6.8670
  114.0000  -999.2500     6.8340
  114.5000  -999.2500     6.8450
  115.0000  -999.2500     6.8390
  115.5000  -999.2500     6.8290
  116.0000  -999.2500     6.8450
  116.5000  -999.2500     6.8490
  117.0000  -999.2500     6.8390
  117.5000  -999.2500     6.8150
  118.0000  -999.2500     6.8120
  118.5000  -999.2500     6.8330
  119.0000  -999.2500     6.8230
  119.5000  -999.2500     6.8090
  120.0000  -999.2500     6.8030
  120.5000  -999.2500     6.8060
  121.0000  -999.2500     6.8020
