~VERSION INFORMATION
 VERS.                2.0:   CWLS LOG ASCII STANDARD - VERSION 2.0
 WRAP.                 NO:   ONE LINE PER DEPTH STEP
~WELL INFORMATION
#MNEM.UNIT      DATA TYPE    INFORMATION
#----------   ------------   ------------------------------
 STRT.F          508.0000:   START DEPTH
 STOP.F         3170.0000:   STOP DEPTH
 STEP.F            0.5000:   STEP LENGTH
 NULL.          -999.2500:   NO VALUE
 COMP. FENIX & SCISSON - U.S. NAVY:   COMPANY
 WELL. FENIX NPR-3 "A" #58-34:   WELL
 FLD .                NPR:   FIELD
 LOC .      S34 T39N R78W:   LOCATION
 CNTY.            NATRONA:   COUNTY
 STAT.            WYOMING:   STATE
 CTRY. UNITED STATES OF AMERICA:   COUNTRY
 SRVC.       SCHLUMBERGER:   SERVICE COMPANY
 DATE.        15-MAR-1977:   LOGDATE
 API .     49025103180000:   API NUMBER
~CURVE INFORMATION
#MNEM.UNIT       API CODE    CURVE DESCRIPTION
#----------   ------------   ------------------------------
 DEPT.F                  :   
 CALD.IN     45 280 60 00:   CALIPER FROM DENSITY LOG
 GRD .GAPI   45 310 01 00:   GAMMA RAY FROM DENSITY LOG
 RHOB.G/C3   45 350 01 00:   BULK DENSITY
 CORR.G/C3   45 356 01 00:   DENSITY CORRECTION
 SPR .MV     07 010 01 00:   SPONTANEOUS POTENTIAL
 LL8 .OHMM   07 220 08 00:   LATEROLOG-8 RES.
 ILD .OHMM   07 120 46 00:   DEEP INDUCTION RESISTIVITY
 ILM .OHMM   07 120 44 00:   INDUCTION LOG MEDIUM RESISTIVITY
~PARAMETER INFORMATION
#MNEM.UNIT          VALUE    DESCRIPTION
#----------   ------------   ------------------------------
 EKB .F         5129.0000:   Kelly bushing
 EGL .F         5117.0000:   Ground level
 EDF .F            0.0000:   Drilling floor
 EPD .F            0.0000:   Permanent datum
 TD  .F         3170.0000:   Total depth
 DATE.        15-MAR-1977:   Date logged
 CLNT.            A2DTECH:   Client Code
 SL  . 2310' FEL & 330' FSL:   Surface Location
 PD  .                 GL:   Permanent Datum
 DAPD.F                12:   Feet Above Permanent Datum
 DD  .F              3170:   Depth driller
 DL  .F              3170:   Depth logger
 BLI .F              3169:   Bottom log interval
 TLI .F               508:   Top log interval
 CS1 .IN            8.625:   Casing size
 CBD1.      8.625" @ 524':   Casing driller 1
 CBL1.F               522:   Casing logger 1
 BS1 .IN            7.875:   Bit size
 BSD1.F              3170:   Depth drilled with bit1
 DFT .                KCL:   Type fluid in hole
 DFD .                9.2:   Density
 DFV .                 36:   Viscosity
 DFPH.                  9:   pH
 DFL .                  9:   Fluid loss
 MSS .                PIT:   Source of sample
 RMS .OHMM             .3:   Rm
 MST .F                58:   Rm Meas. temp.
 RMF .OHMM            .29:   Rmf
 MFST.F                58:   Rmf Meas. temp.
 MFSS.               MEAS:   Source Rmf.
 RMB .OHMM            .15:   Rm. at BHT
 BHT .F               120:   BHT.
 TCS .HRS               6:   Time Circ. stopped
 MRT .F               120:   Maximum recorded temp.
 LUN .               7711:   Logging unit number
 LUL .               CSPR:   Logging unit location
 ENGI.             SAYLER:   Recorded By
 WITN.               JAPP:   Witnessed by
 ORIG.           5" PRINT:   Origin of data
 UWI .     49025103180000:   Unique Well ID
 DICO. A2D TECHNOLOGIES, INC.:   Digitizing Company
~OTHER INFORMATION
~A   DEPT       CALD       GRD      RHOB        CORR       SPR        LL8        ILD        ILM   
# ...
 3140.5000     8.0615   158.7033     2.5323     0.0496   -39.6456     4.1108     3.3977     3.8645
 3141.0000     8.0627   159.9037     2.5204     0.0376   -40.3139     4.1107     3.3976     3.7940
 3141.5000     8.0440   160.3125     2.4954     0.0337   -40.5388     4.0731     3.3664     3.7248
 3142.0000     8.1042   159.5326     2.4954     0.0297   -40.7637     4.0729     3.3050     3.6568
 3142.5000     8.0463   161.3308     2.4925     0.0298   -41.1633     3.9988     3.2747     3.5901
 3143.0000     8.0474   162.9304     2.4845     0.0399   -41.6569     3.8902     3.2446     3.5246
 3143.5000     8.0481   162.7436     2.4746     0.0209   -41.8818     3.8901     3.2445     3.4922
 3144.0000     8.0488   159.5773     2.4546     0.0190   -41.8850     3.9258     3.2445     3.4602
 3144.5000     8.0509   159.9884     2.4667     0.0231   -41.8882     3.8899     3.2147     3.4284
 3145.0000     8.0521   165.9543     2.4828     0.0261   -41.6684     3.7498     3.1561     3.3659
 3145.5000     8.0530   168.1467     2.4748     0.0333   -41.4282     3.6815     3.1271     3.3045
 3146.0000     8.0539   175.3053     2.4990     0.0303   -41.0910     3.7496     3.0701     3.2742
 3146.5000     8.0357   177.6983     2.5010     0.0304   -40.8706     3.8189     3.0419     3.1269
 3147.0000     8.0368   176.5189     2.4951     0.0315   -40.6521     3.7839     2.9864     3.0733
 3147.5000     8.0375   175.9350     2.4911     0.0245   -40.6552     3.6812     2.9319     3.0206
 3148.0000     8.0391   176.7379     2.4842     0.0276   -40.4367     3.4841     2.8785     2.9688
 3148.5000     8.0398   177.5409     2.4752     0.0307   -40.2182     3.4207     2.8260     2.9179
 3149.0000     8.0408   176.7608     2.4923     0.0418   -39.7779     3.3585     2.7744     2.8679
 3149.5000     8.0421   173.2026     2.4934     0.0459   -39.5594     3.2974     2.7238     2.8187
 3150.0000     7.9251   168.6502     2.4885     0.0500   -39.5625     3.1786     2.6989     2.7489
 3150.5000     7.9654   165.4875     2.4767     0.0245   -39.5657     3.2078     2.6741     2.7489
 3151.0000     8.0458   155.7724     2.4645     0.0229   -39.5689     3.3582     2.6496     2.7488
 3151.5000     8.0468   152.4091     2.4736     0.0280   -39.5721     3.4835     2.6013     2.6987
 3152.0000     8.0476  -999.2500     2.4797     0.0311   -39.5752     3.4517     2.5538     2.6987
 3152.5000     8.0488  -999.2500     2.4677     0.0201   -39.8001     3.2669     2.5304     2.6739
 3153.0000     8.0496  -999.2500     2.4578     0.0151   -39.8033     3.0920     2.5072     2.6494
 3153.5000     8.0508  -999.2500     2.4458     0.0151   -39.8065     3.1491     2.5072     2.6493
 3154.0000     7.9524  -999.2500     2.4629     0.0152   -40.0295     3.1491     2.4842     2.6251
 3154.5000     8.0525  -999.2500     2.4519     0.0142   -40.2550     3.1490     2.4389     2.6010
 3155.0000     8.0533  -999.2500     2.4480     0.0243   -40.2595     3.1490     2.4389     2.6009
 3155.5000     8.0537  -999.2500     2.4491     0.0294   -40.2626     3.0916     2.4388     2.5771
 3156.0000     8.0551  -999.2500     2.4631     0.0344   -40.4875     3.0916     2.4165     2.5771
 3156.5000     8.0563  -999.2500     2.4773     0.0314   -40.7124     3.0354     2.3943     2.5534
 3157.0000     8.0575  -999.2500     2.4593     0.0255   -41.1590     2.9261     2.3507     2.5534
 3157.5000     8.0579  -999.2500     2.4563     0.0225   -41.3839     2.8467     2.3291     2.5533
 3158.0000     8.0595  -999.2500     2.4564     0.0225   -41.3871     2.8466     2.3078     2.5299
 3158.5000     8.0605  -999.2500     2.4595     0.0256   -41.8350     2.8728     2.2867     2.5067
 3159.0000     8.0611  -999.2500     2.4666     0.0276   -41.3934     2.8465     2.2657     2.4838
 3159.5000     8.0621  -999.2500     2.4877     0.0417   -41.1749     2.8205     2.2657     2.4837
 3160.0000     8.0635  -999.2500     2.4627     0.0297   -40.7346     2.9527     2.2656     2.4610
 3160.5000     8.0643  -999.2500     2.4628     0.0247   -40.7378     3.1772     2.2656  -999.2500
 3161.0000     7.9866  -999.2500     2.4758     0.0398   -40.5193     3.1481  -999.2500  -999.2500
 3161.5000     7.9870  -999.2500     2.4869     0.0439   -40.5225     2.9256  -999.2500  -999.2500
 3162.0000     8.0076  -999.2500     2.4880     0.0510   -40.5256     2.4807  -999.2500  -999.2500
 3162.5000     8.0287  -999.2500     2.4630     0.0380   -40.5288     2.4580  -999.2500  -999.2500
 3163.0000     8.0295  -999.2500     2.4350     0.0270   -40.5320     2.5498  -999.2500  -999.2500
 3163.5000     8.0305  -999.2500     2.4521     0.0260   -40.3135     2.6692  -999.2500  -999.2500
 3164.0000     8.0314  -999.2500     2.4742     0.0270   -40.0949  -999.2500  -999.2500  -999.2500
 3164.5000     8.0326  -999.2500     2.4953     0.0311   -40.0981  -999.2500  -999.2500  -999.2500
 3165.0000     8.0334  -999.2500     2.4954     0.0512   -40.1013  -999.2500  -999.2500  -999.2500
 3165.5000     8.0346  -999.2500     2.4904     0.0526   -40.1044  -999.2500  -999.2500  -999.2500
 3166.0000     8.0354  -999.2500     2.4855     0.0352   -40.1076  -999.2500  -999.2500  -999.2500
 3166.5000     8.0362  -999.2500     2.4815     0.0273   -40.1108  -999.2500  -999.2500  -999.2500
 3167.0000     8.0176  -999.2500     2.4706     0.0203   -40.1140  -999.2500  -999.2500  -999.2500
 3167.5000     8.0186  -999.2500     2.4507     0.0233   -40.1171  -999.2500  -999.2500  -999.2500
 3168.0000     7.9997  -999.2500     2.4467     0.0424   -40.1203  -999.2500  -999.2500  -999.2500
 3168.5000     7.9414  -999.2500     2.4248     0.0635   -40.1235  -999.2500  -999.2500  -999.2500
 3169.0000     7.8827  -999.2500     2.3989     0.0786   -40.1267  -999.2500  -999.2500  -999.2500
 3169.5000  -999.2500  -999.2500     2.3929     0.1097   -40.1299  -999.2500  -999.2500  -999.2500
 3170.0000  -999.2500  -999.2500     2.3910     0.1147   -40.1324  -999.2500  -999.2500  -999.2500
