~VERSION INFORMATION
 VERS.                2.0:   CWLS LOG ASCII STANDARD - VERSION 2.0
 WRAP.                 NO:   ONE LINE PER DEPTH STEP
~WELL INFORMATION
#MNEM.UNIT      DATA TYPE    INFORMATION
#----------   ------------   ------------------------------
 STRT.F         2933.0000:   START DEPTH
 STOP.F         5494.0000:   STOP DEPTH
 STEP.F            0.5000:   STEP LENGTH
 NULL.          -999.2500:   NO VALUE
 COMP.    FENIX & SCISSON:   COMPANY
 WELL. FENIX "TPX" #56-10:   WELL
 FLD .        TEAPOT DOME:   FIELD
 LOC .      S10 T38N R78W:   LOCATION
 CNTY.            NATRONA:   COUNTY
 STAT.            WYOMING:   STATE
 CTRY. UNITED STATES OF AMERICA:   COUNTRY
 SRVC.       SCHLUMBERGER:   SERVICE COMPANY
 DATE.        22-MAY-1978:   LOGDATE
 API .     49025106100000:   API NUMBER
~CURVE INFORMATION
#MNEM.UNIT       API CODE    CURVE DESCRIPTION
#----------   ------------   ------------------------------
 DEPT.F                  :   
 NPHI.DEC    42 890 03 00:   NEUTRON POROSITY SANDSTONE
 GRD .GAPI   45 310 01 00:   GAMMA RAY FROM DENSITY LOG
 CALD.IN     45 280 60 00:   CALIPER FROM DENSITY LOG
 CORR.G/C3   45 356 01 00:   DENSITY CORRECTION
 RHOB.G/C3   45 350 01 00:   BULK DENSITY
 SPR .MV     07 010 01 00:   SPONTANEOUS POTENTIAL
 ILD .OHMM   07 120 46 00:   INDUCTION LOG DEEP RESISTIVITY
 ILM .OHMM   07 120 44 00:   INDUCTION LOG MEDIUM RESISTIVITY
 SFL .OHMM   07 220 01 00:   SHALLOW FOCUSED LOG RESISITIVITY
 DT  .US/F   60 520 00 00:   DELTA TIME
~PARAMETER INFORMATION
#MNEM.UNIT          VALUE    DESCRIPTION
#----------   ------------   ------------------------------
 EKB .F         5212.0000:   Kelly bushing
 EGL .F         5202.0000:   Ground level
 TD  .F         5500.0000:   Total depth
 CLNT.            A2DTECH:   Client Code
 SL  . 1270' FSL & 2130' FEL:   Surface Location
 PD  .                 GL:   Permanent Datum
 EPD .F              5202:   Elevation Permanent Datum
 LMF .                 KB:   Log Measured From
 DMF .                 KB:   Drilling Measured From
 DAPD.F                10:   Feet Above Permanent Datum
 DATE.        22-MAY-1978:   Date Logged [DD-MMM-YYYY]
 DD  .F              5500:   Depth driller
 DL  .F              5499:   Depth logger
 BLI .F              5497:   Bottom log interval
 TLI .F              2971:   Top log interval
 CS1 .IN            8.625:   Casing size
 CBD1.     8.625" @ 2972':   Casing driller 1
 CBL1.F              2971:   Casing logger 1
 BS1 .IN            7.875:   Bit size
 BSD1.F              5500:   Depth drilled with bit1
 DFT .                FGM:   Type fluid in hole
 DFD .                9.3:   Density
 DFV .                 57:   Viscosity
 DFPH.               10.5:   pH
 DFL .                  6:   Fluid loss
 MSS .           MUD TANK:   Source of sample
 RMS .OHMM           0.93:   Rm
 MST .F                58:   Rm Meas. temp.
 RMF .OHMM           0.71:   Rmf
 MFST.F                61:   Rmf Meas. temp.
 MFSS.               MEAS:   Source Rmf.
 RMB .OHMM           0.27:   Rm. at BHT
 BHT .F               198:   BHT.
 TCS .HRS            1500:   Time Circ. stopped
 TLAB.HRS            0100:   Time logger at bottom
 MRT .F               198:   Maximum recorded temp.
 LUN .               8039:   Logging unit number
 LUL .               CSPR:   Logging unit location
 ENGI.          CHALUPSKY:   Recorded By
 WITN.            RHOADES:   Witnessed by
 ORIG.      2.5" 5" PRINT:   Origin of data
 UWI .     49025106100000:   Unique Well ID
 DICO. A2D TECHNOLOGIES, INC.:   Digitizing Company
~OTHER INFORMATION
~A  DEPTH     NPHI        GRD       CALD       CORR       RHOB        SPR        ILD        ILM        SFL         DT
# ...
 3804.0000     0.1485    17.4936     9.9075     0.0050     2.3276   -64.0900     6.5736     6.5245    10.2253    84.1780
 3804.5000     0.1451    17.6777     9.9380     0.0140     2.3373   -65.1422     8.4926     8.1411    18.5545    84.6343
 3805.0000     0.1446    19.1068     9.9384     0.0223     2.3432   -65.8958    11.7604     9.8790    21.1552    84.7898
 3805.5000     0.1441    20.1338     9.9389     0.0301     2.3447   -66.7987    18.8390    11.5803    21.5891    84.7185
 3806.0000     0.1453    21.9637     9.9393     0.0277     2.3388   -67.8509    24.8507    14.2505    20.4075    84.9505
 3806.5000     0.1555    22.3283     9.9398     0.0203     2.3328   -68.9030    25.0099    17.2947    19.8372    86.1587
 3807.0000     0.1603    23.2149     9.9402     0.0129     2.3314   -69.5075    22.2090    20.2732    19.9653    85.0976
 3807.5000     0.1628    22.6352     9.9407     0.0069     2.3269   -69.5149    19.3154    21.8629    21.6806    83.7482
 3808.0000     0.1640    20.4500     9.9714     0.0025     2.3240   -69.5224    17.2737    21.5457    22.7477    83.3795
 3808.5000     0.1617    17.1798     9.9743     0.0069     2.3210   -69.3532    16.3297    20.7955    22.7318    82.8724
 3809.0000     0.1576    16.3193     9.9771     0.0187     2.3269   -68.9417    15.8720    20.3520    21.4919    82.5755
 3809.5000     0.1565    19.3349     9.9800     0.0216     2.3373   -68.6487    15.0030    19.3702    19.3549    84.2358
 3810.0000     0.1572    24.7595     9.9829     0.0186     2.3506   -68.3576    13.7948    17.9332    18.6839    87.2485
 3810.5000     0.1632    28.9794     9.9857     0.0112     2.3683   -67.7698    13.1318    15.7060    17.6649    88.6070
 3811.0000     0.1721    33.8016     9.9886     0.0067     2.3920   -67.4787    12.7637    14.0449    15.8000    83.3490
 3811.5000     0.1824    37.4190     9.9914     0.0067     2.4234   -66.8890    12.6670    13.2749    13.0939    79.2941
 3812.0000     0.1960    39.2292     9.9943     0.0126     2.4456   -66.2994    12.3962    13.1734    12.5514    77.3381
 3812.5000     0.1855    31.4009     9.9972     0.0185     2.4527   -65.5605    12.3023    13.2570    13.0769    75.9711
 3813.0000     0.1754    29.5964    10.0000     0.0214     2.4406   -65.1182    12.0407    13.2456    14.6028    75.0762
 3813.5000     0.1695    29.5995    10.0029     0.0229     2.4150   -65.1275    11.9494    13.2359    16.7654    74.9538
 3814.0000     0.1767    30.2049    10.0057     0.0214     2.3957   -65.4333    12.0233    12.9520    18.0855    77.0656
 3814.5000     0.1865    27.7982    10.0071     0.0184     2.3905   -65.8885    14.2919    12.2434    16.8601    78.8740
 3815.0000     0.1922    24.7892    10.0075     0.0183     2.3942   -66.0451    17.1069    11.4936    15.3972    73.9180
 3815.5000     0.1883    23.5873    10.0080     0.0168     2.3979   -65.9030    18.7097    11.4057    14.8635    65.3518
 3816.0000     0.1864    27.6056    10.0204     0.0308     2.3932   -65.6121    19.0927    17.5242    17.0648    60.4201
 3816.5000     0.1943    39.9804    10.0819     0.0494     2.3715   -65.1717    12.3191    17.0318    23.6245    65.3617
 3817.0000     0.2243    54.4383    10.3336     0.1067     2.2860   -64.5771     8.1176    14.7109    29.6854    89.8786
 3817.5000     0.3075    63.7604    10.7905     0.1399     2.0133   -63.9801     6.1031    11.2922    21.2636    95.8988
 3818.0000     0.5035    67.6990    12.0958     0.1298     1.9652   -63.3829     4.2809     7.5435    11.8676    96.2047
 3818.5000     0.5504    70.1315    14.0768     0.0877     1.8412   -62.7586     3.0655     5.5546     6.1370   103.5783
 3819.0000     0.5854    70.5964    15.9570     0.0855     1.7866   -62.0760     2.5224     2.6412     2.3716   110.9528
 3819.5000     0.5855    72.1655    15.8974     0.0633     1.7166   -61.6338     2.3681     1.9310     1.4088   120.1304
 3820.0000     0.5955    76.6277    16.0781     0.0401     1.5898   -61.0460     2.0455     1.7754     1.4177   121.3377
 3820.5000     0.6110    87.7167    16.0484     0.0339     1.5409   -60.4564     1.8420     1.7017     1.5186    88.3367
 3821.0000     0.5821   105.7892    16.0369     0.0328     1.5652   -60.0160     1.6935     1.6770     1.6045    84.3560
 3821.5000     0.5349   149.7100    16.0194     0.0546     1.6169   -59.5756     1.6121     1.6297     1.6033    93.0830
 3822.0000     0.4900   200.7348    15.4240     0.1399     1.9763   -59.2844     1.6110     1.5621     1.5911    89.8560
 3822.5000     0.4595   213.6902    13.6132     0.1690     2.0032   -59.2918     1.6903     1.5394     1.5683    92.7935
 3823.0000     0.4893   223.6322    14.3577     0.1759     2.0251   -58.9988     1.7852     1.5598     1.5673    98.9641
 3823.5000     0.5392   200.1412    15.8790     0.1683     1.9919   -58.5603     1.8859     1.6589     1.6104    99.8715
 3824.0000     0.5695   194.7230    15.9435     0.1050     1.8919   -58.4166     2.0341     1.7768     1.7490    98.1992
 3824.5000     0.5514   164.6055    15.7219     0.0331     1.8077   -57.8288     2.1789     1.9031     1.8865    95.6713
 3825.0000     0.4916   127.8615    13.2598     0.0015     1.8402   -57.2391     2.3502     1.9689     1.9931    95.5513
 3825.5000     0.4217   112.5195    11.4426    -0.0103     2.0463   -57.2465     2.5000     2.0231     2.0480    94.4786
 3826.0000     0.3689   101.7203    10.7301     0.0643     2.2086   -57.5524     2.4808     2.4041     2.2867    94.6355
 3826.5000     0.3434    96.3657    10.5554     0.1085     2.1422   -57.8582     2.4620     2.6659     2.9536    91.6331
 3827.0000     0.3577    92.0107    10.7148     0.1115     2.0005   -58.1642     2.4777     2.7965     3.2986    90.5857
 3827.5000     0.4075    87.1131    13.2721     0.0768     1.8447   -58.1716     2.5279     2.8339     3.2963    91.7187
 3828.0000     0.4568    83.6619    13.7610     0.1093     1.8121   -58.1791     2.5615     2.7156     3.0103    97.9644
 3828.5000     0.4734    79.7304    13.8635     0.1832     2.0133   -58.1866     2.4722     2.4968     2.5469   102.7816
 3829.0000     0.4829    77.2827    13.8099     0.1832     2.0607   -58.4939     2.4029     2.4098     2.2311   104.8921
 3829.5000     0.4776    78.4305    13.5882     0.1595     2.0533   -58.7998     2.2872     2.3914     2.1538   105.3484
 3830.0000     0.4574    80.9042    13.3443     0.1254     2.0104   -59.1057     2.2077     2.3894     2.1376   104.4513
 3830.5000     0.4248    83.3772    13.1006     0.1535     2.1352   -59.2623     2.1458     2.3222     2.1514   103.8549
 3831.0000     0.4099    86.8130    12.8147     0.2097     2.2641   -59.1204     2.0856     2.2414     2.2255   104.0119
 3831.5000     0.4052    89.2656    12.6650     0.2407     2.3444   -58.8293     2.0272     2.2089     2.2714   105.4735
 3832.0000     0.4034    92.0402    13.0098     0.2422     2.3639   -58.5363     1.9839     2.2384     2.2856   106.8782
 3832.5000     0.4366    93.2684    13.7620     0.2303     2.3601   -57.9467     1.9825     2.2362     2.2840   104.6288
 3833.0000     0.4756    94.4959    14.2359     0.2066     2.3009   -57.6556     1.9812     2.2037     2.2666   103.2806
 3833.5000     0.4872    94.7801    14.8320     0.1785     2.1895   -57.3644     1.9799     2.1717     2.2033   103.6617
 3834.0000     0.4936    94.1813    15.3100     0.1651     2.0751   -57.3736     1.9786     2.1254     2.1417   105.2458
 3834.5000     0.4827    92.9795    15.4005     0.1562     2.0621   -57.0807     1.9633     2.0655     2.0818   105.8525
 3835.0000     0.4549    92.3795    15.3409     0.1533     2.0869   -56.7914     1.9620     2.0497     1.9958   106.0081
 3835.5000     0.4350    96.5998    15.0711     0.1636     2.1338   -56.7987     1.9607     1.9921     1.9669   105.5621
 3836.0000     0.4316   102.0245    14.3208     0.1887     2.1716   -56.5076     1.9594     1.9496     1.9932   103.9132
 3836.5000     0.4292   105.6419    13.8107     0.1931     2.1782   -56.2164     1.9175     2.0308     2.0766   103.0076
 3837.0000     0.4270   106.8497    13.5109     0.1865     2.1541   -56.3782     1.9030     2.0013     2.1486   102.3652
