~VERSION INFORMATION
 VERS.                2.0:   CWLS LOG ASCII STANDARD - VERSION 2.0
 WRAP.                 NO:   ONE LINE PER DEPTH STEP
~WELL INFORMATION
#MNEM.UNIT      DATA TYPE    INFORMATION
#----------   ------------   ------------------------------
 STRT.F          170.5000:   START DEPTH
 STOP.F         3160.0000:   STOP DEPTH
 STEP.F            0.5000:   STEP LENGTH
 NULL.          -999.2500:   NO VALUE
 COMP.  FENIX AND SCISSON:   COMPANY
 WELL.    FENIX "A" #85-3:   WELL
 FLD .       TEA POT DOME:   FIELD
 LOC .       S3 T38N R78W:   LOCATION
 CNTY.            NATRONA:   COUNTY
 STAT.            WYOMING:   STATE
 CTRY. UNITED STATES OF AMERICA:   COUNTRY
 SRVC.           BIRDWELL:   SERVICE COMPANY
 DATE.        20-DEC-1977:   LOGDATE
 API .     49025104450000:   API NUMBER
~CURVE INFORMATION
#MNEM.UNIT       API CODE    CURVE DESCRIPTION
#----------   ------------   ------------------------------
 DEPT.F                  :   
 CALD.IN     45 280 60 00:   CALIPER FROM DENSITY LOG
 GRD .GAPI   45 310 01 00:   GAMMA RAY FROM DENSITY LOG
 RHOB.G/C3   45 350 01 00:   BULK DENSITY
 CORR.G/C3   45 356 01 00:   DENSITY CORRECTION
 SPR .MV     05 010 01 00:   SPONTANEOUS POTENTIAL
 SN  .OHMM   05 040 00 00:   SHORT NORMAL
 ILD .OHMM   05 120 46 00:   DEEP INDUCTION RESISTIVITY
~PARAMETER INFORMATION
#MNEM.UNIT          VALUE    DESCRIPTION
#----------   ------------   ------------------------------
 EKB .F         5165.0000:   Kelly bushing
 EGL .F         5155.0000:   Ground level
 TD  .F         3151.0000:   Total depth
 DATE.        20-DEC-1977:   Date logged
 CLNT.            A2DTECH:   Client Code
 SL  . 2000' FSL & 100'FEL:   Surface Location
 PD  .                 GL:   Permanent Datum
 EPD .F              5155:   Elevation Permanent Datum
 LMF .                 KB:   Log Measured From
 DMF .                 KB:   Drilling Measured From
 DAPD.F                10:   Feet Above Permanent Datum
 DD  .F              3150:   Depth driller
 DL  .F              3151:   Depth logger
 BLI .F              3146:   Bottom log interval
 TLI .F               200:   Top log interval
 CS1 .IN            8.625:   Casing size
 CBD1.      8.625" @ 223':   Casing driller 1
 BS1 .IN            7.875:   Bit size
 BSD1.F              3150:   Depth drilled with bit1
 DFT .                KCL:   Type fluid in hole
 DFD .                8.9:   Density
 DFV .                 40:   Viscosity
 DFPH.                 11:   pH
 DFL .                7.2:   Fluid loss
 MSS .           FLOWLINE:   Source of sample
 RMS .OHMM            0.4:   Rm
 MST .F                62:   Rm Meas. temp.
 RMF .OHMM           0.48:   Rmf
 MFST.F                63:   Rmf Meas. temp.
 RMC .OHMM           0.52:   Rmc
 MCST.F                63:   Rmc Meas. temp.
 MFSS.               MEAS:   Source Rmf.
 MCSS.               MEAS:   Source Rmc.
 TCS .HRS             3.5:   Time Circ. stopped
 MRT .F               118:   Maximum recorded temp.
 LUN .               2958:   Logging unit number
 LUL .             CASPER:   Logging unit location
 ENGI.             MILLER:   Recorded By
 WITN.         HERRINGTON:   Witnessed by
 ORIG.           5" PRINT:   Origin of data
 UWI .     49025104450000:   Unique Well ID
 DICO. A2D TECHNOLOGIES, INC.:   Digitizing Company
~OTHER INFORMATION
~A   DEPT     CALD        GRD       RHOB        CORR       SPR         SN        ILD   
# ...
  625.5000    12.0124    90.6276     2.5266     0.0391   -66.5149     4.8832     2.8873
  626.0000    12.0906    91.2123     2.5235     0.0451   -66.7063     4.7959     2.6836
  626.5000    12.2283    90.4123     2.5205     0.0501   -66.6990     4.5817     2.4938
  627.0000    12.3263    90.8027     2.5145     0.0500   -66.6932     4.6259     2.4945
  627.5000    12.4046    90.1970     2.5044     0.0450   -66.4871     4.8461     2.5895
  628.0000    12.4235    88.6057     2.4924     0.0510   -66.0822     5.0767     2.6387
  628.5000    12.4029    87.0143     2.4794     0.0509   -66.4725     5.2211     2.6639
  629.0000    12.2833    87.4012     2.4673     0.0559   -66.4652     5.7276     3.0046
  629.5000    12.1636    86.7989     2.4553     0.0669   -66.2590     6.3414     3.5155
  630.0000    12.0441    86.5922     2.4353     0.0749   -66.2517     6.7657     4.1521
  630.5000    11.9642    86.3855     2.3722     0.0889   -66.0456     7.2202     5.5798
  631.0000    11.9436    85.7832     2.3132     0.0968   -65.8395     7.5638     5.8440
  631.5000    11.9427    85.5765     2.2932     0.0988   -65.8321     7.8511     6.0098
  632.0000    11.9221    86.7547     2.2491     0.1008   -65.8248     7.9270     6.2453
  632.5000    11.9212    87.5373     2.1366     0.0998   -65.4199     8.1526     6.4901
  633.0000    11.9204    88.7157     2.0890     0.0947   -65.4125     8.2315     6.6604
  633.5000    11.8997    89.6962     2.0890    -0.0236   -65.4052     8.3110     6.8500
  634.0000    11.8791    93.4486     2.0899    -0.1999   -65.0002     8.4684     6.9162
  634.5000    11.9178    96.0088     2.4899     0.0144   -65.1932     8.6302     7.1130
  635.0000    11.9170    94.4206     2.5129     0.0184   -65.1859     8.7137     7.1159
  635.5000    11.9359    93.6204     2.5158     0.0214   -65.3774     8.7172     7.1187
  636.0000    11.9152    92.8202     2.5188     0.0194   -65.3701     8.8015     7.1216
  636.5000    11.9342    91.8221     2.5188     0.0173   -65.3627     8.7242     7.1244
  637.0000    11.9531    92.0112     2.5197     0.0173   -65.3554     8.8086     7.1933
  637.5000    11.9522    92.0025     2.5177     0.0183   -65.1492     8.7313     7.1962
  638.0000    11.9712    91.0043     2.5207     0.0232   -65.1419     8.8150     7.1985
  638.5000    11.9901    90.5997     2.5306     0.0312   -65.1346     8.7376     7.2014
  639.0000    12.0090    90.5910     2.5366     0.0332   -65.1273     8.7411     7.1393
  639.5000    12.0280    90.5822     2.5376     0.0332   -65.1199     8.7446     7.2072
  640.0000    12.0273    91.1672     2.5395     0.0311   -65.1126     8.7482     7.2101
  640.5000    12.0462    91.5543     2.5425     0.0281   -64.9064     8.7517     7.1467
  641.0000    12.0652    90.7539     2.5284     0.0250   -64.7002     8.5952     7.1496
  641.5000    12.0643    90.5472     2.5274     0.0210   -64.6929     8.5198     7.1525
  642.0000    12.0833    90.5385     2.5254     0.0170   -64.4882     8.4450     7.1553
  642.5000    12.1022    90.5297     2.5083     0.0169   -64.4808     8.4484     7.1582
  643.0000    12.0617    90.5210     2.5143     0.0219   -64.2746     8.2973     7.0953
  643.5000    12.0609    91.1060     2.5273     0.0269   -64.2673     8.3006     7.0982
  644.0000    12.0600    92.4829     2.5292     0.0288   -64.2599     8.4599     7.1668
  644.5000    12.0394    92.4742     2.5282     0.0278   -64.0537     8.2311     7.2361
  645.0000    12.0385    93.2573     2.5251     0.0248   -64.0464     8.2344     7.1725
  645.5000    12.0575    92.8526     2.5171     0.0207   -64.0391     8.1614     7.1748
  646.0000    12.0368    92.6460     2.5111     0.0227   -63.8328     8.0897     7.1777
  646.5000    12.0558    92.2413     2.5190     0.0287   -63.6266     8.0187     7.1806
  647.0000    12.0351    93.0245     2.5300     0.0317   -63.6193     7.9483     7.1835
  647.5000    12.0540    94.4033     2.5340     0.0336   -63.4130     7.8785     7.1204
  648.0000    12.0334    95.5825     2.5389     0.0346   -63.4057     7.8816     7.1232
  648.5000    12.0523    94.9799     2.5359     0.0316   -63.1994     7.8124     6.9958
  649.0000    12.0515    92.7917     2.5368     0.0295   -63.1921     7.6022     6.6831
  649.5000    12.0506    90.6051     2.5358     0.0295   -62.9873     7.6053     6.5033
  650.0000    12.0894    89.8044     2.5348     0.0284   -62.9800     7.5385     6.2669
  650.5000    12.0489    89.3996     2.5327     0.0294   -62.9726     7.4723     6.0454
  651.0000    12.0481    89.9848     2.5287     0.0254   -62.7663     7.5445     5.9923
  651.5000    12.0868    88.9860     2.5267     0.0263   -62.7590     7.5476     5.9947
  652.0000    12.0661    89.5713     2.5256     0.0343   -62.5527     7.7625     5.9971
  652.5000    12.1049    91.1483     2.5476     0.0463   -62.3464     7.8376     5.9995
  653.0000    12.1040    93.1197     2.5405     0.0443   -62.3391     7.9127     6.0570
  653.5000    12.1032    95.4873     2.5315     0.0352   -62.1328     8.0633     6.0594
  654.0000    12.1419    96.6667     2.5175     0.0272   -61.9265     8.2168     6.5847
  654.5000    12.1411    96.8561     2.5044     0.0201   -62.1181     8.4507     6.7705
  655.0000    12.1402    95.6593     2.5034     0.0171   -62.1107     8.7719     7.2961
  655.5000    12.1395    94.4624     2.5043     0.0161   -62.1034     8.7755     7.5734
  656.0000    12.1585    93.8596     2.5023     0.0160   -61.8971     8.9425     7.7891
  656.5000    12.1576    93.0588     2.4973     0.0110   -61.8897     9.0290     7.9374
  657.0000    12.1370    93.4462     2.5092     0.0129   -61.8838     9.1164     8.0885
  657.5000    12.1361    93.6355     2.5112     0.0229   -62.0754     9.1201     8.0917
  658.0000    12.1353    93.6268     2.5232     0.0229   -61.8691     9.1238     8.1700
  658.5000    12.1539    92.4298     2.5211     0.0199   -61.8617     9.2121     8.0983
  659.0000    12.1534    91.8269     2.5291     0.0258   -62.0533     9.2158     8.1766
  659.5000    12.1525    91.4220     2.5331     0.0298   -62.0459     9.2195     8.1799
  660.0000    12.1318    91.8076     2.5360     0.0318   -62.2375     9.2232     8.1832
  660.5000    12.1112    91.8041     2.5420     0.0298   -62.4291     9.2262     8.1858
  661.0000    12.1103    91.7919     2.5390     0.0237   -62.6207     9.2299     8.1891
  661.5000    12.1095    92.1758     2.5329     0.0207   -62.8123     9.2337     8.1924
  662.0000    12.1284    91.9725     2.5229     0.0216   -63.0039     9.2374     8.1957
  662.5000    12.1078    91.3695     2.5278     0.0216   -62.9965     9.2411     8.1237
  663.0000    12.1069    90.7665     2.5248     0.0216   -63.1881     9.2449     8.1270
  663.5000    12.0664    89.7672     2.5208     0.0225   -63.1808     9.1637     8.1303
  664.0000    12.0656    88.9661     2.5247     0.0265   -63.3724     9.1674     8.0588
  664.5000    12.0647    87.9667     2.5337     0.0305   -63.1661     9.1711     8.1368
  665.0000    12.0441    88.1560     2.5327     0.0294   -63.1602     9.0905     8.0653
  665.5000    12.0630    87.9491     2.5326     0.0304   -63.3518     9.0106     7.9944
  666.0000    12.0423    88.1384     2.5326     0.0294   -63.1455     9.0143     7.9242
  666.5000    12.0415    88.7240     2.5325     0.0283   -63.1381     9.0179     7.9274
  667.0000    12.0406    89.7058     2.5315     0.0253   -63.1308     8.9387     7.7796
  667.5000    12.0398    91.6783     2.5265     0.0223   -63.7159     8.9423     7.7915
  668.0000    12.0389    93.6526     2.5234     0.0232   -63.1161     8.9452     7.8035
  668.5000    12.0182    94.4365     2.5274     0.0262   -63.1087     8.9488     7.8154
  669.0000    12.0174    93.6352     2.5314     0.0272   -62.9024     8.9524     7.8274
  669.5000    12.0363    93.8247     2.5283     0.0271   -62.6960     9.0391     7.8394
  670.0000    12.0355    93.4197     2.5303     0.0281   -62.6887     9.1266     7.8514
  670.5000    12.0346    92.6184     2.5323     0.0271   -62.6813     9.1303     7.8634
