~VERSION INFORMATION
 VERS.                2.0:   CWLS LOG ASCII STANDARD - VERSION 2.0
 WRAP.                 NO:   ONE LINE PER DEPTH STEP
~WELL INFORMATION
#MNEM.UNIT      DATA TYPE    INFORMATION
#----------   ------------   ------------------------------
 STRT.F           50.0000:   START DEPTH
 STOP.F         3270.0000:   STOP DEPTH
 STEP.F            0.5000:   STEP LENGTH
 NULL.          -999.2500:   NO VALUE
 COMP.   LAWRENCE ALLISON:   COMPANY
 WELL. LAWRENCE NPR 3 "AX" #12-11:   WELL
 FLD .                NPR:   FIELD
 LOC .      S11 T38N R78W:   LOCATION
 CNTY.            NATRONA:   COUNTY
 STAT.            WYOMING:   STATE
 CTRY. UNITED STATES OF AMERICA:   COUNTRY
 SRVC.      DRESSER ATLAS:   SERVICE COMPANY
 DATE.        18-JUL-1985:   LOGDATE
 API .     49025110460000:   API NUMBER
~CURVE INFORMATION
#MNEM.UNIT       API CODE    CURVE DESCRIPTION
#----------   ------------   ------------------------------
 DEPT.F                  :   
 TEND.LBS    45 635 01 00:   TENSION FROM DENSITY LOG
 RHOB.G/C3   45 350 01 00:   BULK DENSITY
 CORR.G/C3   45 356 01 00:   DENSITY CORRECTION
 NPHI.DEC    42 890 03 00:   NEUTRON POROSITY SANDSTONE
 TENR.LBS    07 635 01 00:   TENSION
 GRR .GAPI   07 310 01 00:   GAMMA RAY FROM RESISTIVITY
 RFOC.OHMM   07 220 01 00:   RESISTIVITY FOCUSED LOG RES.
 RILD.OHMM   07 120 46 00:   INDUCTION LOG DEEP RESISTIVITY
 RILM.OHMM   07 120 44 00:   INDUCTION LOG MEDIUM RESISTIVITY
 SN  .OHMM   01 040 00 00:   SHORT NORMAL
 ILD .OHMM   07 120 46 00:   INDUCTION LOG DEEP RESISTIVITY
 TENS.LBS    60 635 01 00:   TENSION FROM SONIC LOG
 DT  .US/F   60 520 00 00:   DELTA TIME
 SPR .MV     07 010 01 00:   SPONTANEOUS POTENTIAL
~PARAMETER INFORMATION
#MNEM.UNIT          VALUE    DESCRIPTION
#----------   ------------   ------------------------------
 EKB .F         5152.0000:   Kelly bushing
 EGL .F         5140.0000:   Ground level
 EDF .F            0.0000:   Drilling floor
 TD  .F         3271.0000:   Total depth
 DATE.        18-JUL-1985:   Date logged
 CLNT.            A2DTECH:   Client Code
 SL  . 1050' FNL & 150' FWL:   Surface Location
 PD  .                 GL:   Permanent Datum
 EPD .F              5140:   Elevation Permanent Datum
 LMF .                 KB:   Log Measured From
 DMF .                 KB:   Drilling Measured From
 DAPD.F                12:   Feet Above Permanent Datum
 DD  .F              3271:   Depth driller
 DL  .F              3262:   Depth logger
 BLI .F              3259:   Bottom log interval
 CS1 .IN            8.625:   Casing size
 CBD1.      8.625" @ 560':   Casing driller 1
 CBL1.F               560:   Casing logger 1
 BS1 .IN            7.875:   Bit size
 BSD1.F              3271:   Depth drilled with bit1
 DFT .            GEL/KCL:   Type fluid in hole
 DFD .                8.8:   Density
 DFV .                 40:   Viscosity
 DFPH.                  8:   pH
 DFL .                  8:   Fluid loss
 MSS .           MUD/TANK:   Source of sample
 RMS .OHMM            .31:   Rm
 MST .F                82:   Rm Meas. temp.
 RMF .OHMM            .25:   Rmf
 MFST.F                82:   Rmf Meas. temp.
 RMC .OHMM            .39:   Rmc
 MCST.F                82:   Rmc Meas. temp.
 MFSS.               MEAS:   Source Rmf.
 MCSS.               CALC:   Source Rmc.
 RMB .OHMM           .198:   Rm. at BHT
 BHT .F               128:   BHT.
 TCS .HRS               3:   Time Circ. stopped
 MRT .F               128:   Maximum recorded temp.
 LUN .            HL-6274:   Logging unit number
 LUL .           GILLETTE:   Logging unit location
 ENGI.             RAUTIO:   Recorded By
 WITN.             STRONG:   Witnessed by
 ORIG.           5" PRINT:   Origin of data
 UWI .     49025110460000:   Unique Well ID
 DICO. A2D TECHNOLOGIES, INC.:   Digitizing Company
~OTHER INFORMATION
~A   DEPT     TEND       RHOB       CORR       NPHI       TENR        GRR       RFOC       RILD       RILM           SN        ILD     TENS         DT         SPR  
# ...
 2965.5000   -59.4530     2.2850    -0.0140     0.1980   -16.4090    68.9310    12.2060    10.1210     9.8260  -999.2500  -999.2500   -39.7110    85.0480    59.9220
 2966.0000   -36.7030     2.3310     0.0080     0.2070   -16.6020    73.3440    12.5210    10.2960     9.8420  -999.2500  -999.2500   -39.2560    86.5560    59.5840
 2966.5000   -16.1690     2.3950     0.0290     0.2150   -16.7960    85.7710    11.1650    10.4600     9.8590  -999.2500  -999.2500   -38.8000    86.4640    58.8260
 2967.0000   -26.7410     2.4460     0.0430     0.2220   -16.9890    92.1340     9.0310    10.7690    10.3830  -999.2500  -999.2500   -38.3450    82.9470    57.6310
 2967.5000   -27.9820     2.4620     0.0420     0.2170   -17.1830    90.1390     8.5140    11.0790    11.0080  -999.2500  -999.2500   -37.8890    80.4690    56.3900
 2968.0000   -29.2230     2.4460     0.0400     0.2060   -17.3760    85.2020     9.3830    11.4950    11.6340  -999.2500  -999.2500   -37.4340    77.9900    55.1490
 2968.5000   -30.4640     2.4210     0.0360     0.1970   -17.5700    78.6210    10.4310    12.2710    13.9610  -999.2500  -999.2500   -36.9780    76.1060    53.9090
 2969.0000   -31.7050     2.4150     0.0390     0.1890   -17.7640    71.6000    11.6340    13.8070    16.6430  -999.2500  -999.2500   -36.5230    76.3050    52.6690
 2969.5000   -32.9460     2.4110     0.0490     0.1810   -17.9570    63.4800    12.3890    15.4660    19.3260  -999.2500  -999.2500   -36.0680    75.9660    51.4290
 2970.0000   -34.1870     2.4140     0.0440     0.1690   -18.1510    56.1900    16.4350    19.7330    22.0080  -999.2500  -999.2500   -45.8170    74.6450    50.1890
 2970.5000   -35.4270     2.3890     0.0290     0.1710   -18.3440    49.2750    21.1990    23.9080    24.6900  -999.2500  -999.2500   -45.0170    73.4160    48.9510
 2971.0000   -36.6680     2.3150     0.0130     0.1750   -18.5380    48.9640    24.9310    28.0620    27.3290  -999.2500  -999.2500   -43.5430    74.5500    47.7140
 2971.5000   -37.9090     2.2450    -0.0030     0.1780   -18.7320    48.9720    24.9310    32.1870    27.0790  -999.2500  -999.2500   -42.0700    76.7030    46.4530
 2972.0000   -39.1500     2.1920    -0.0230     0.1820   -18.9250    47.3340    23.1940    36.3110    27.9480  -999.2500  -999.2500   -40.5960    81.2910    45.7420
 2972.5000   -40.3910     2.1720    -0.0190     0.1850   -19.1190    45.5240    21.5250    40.1900    28.6640  -999.2500  -999.2500   -39.1230    85.8780    45.0300
 2973.0000   -41.6320     2.1630    -0.0120     0.1830   -19.3120    44.0420    22.0200    39.7400    29.3790  -999.2500  -999.2500   -37.6490    88.9950    44.3460
 2973.5000   -42.8730     2.1560    -0.0060     0.1830   -19.5060    43.9030    22.4290    39.1830    30.0950  -999.2500  -999.2500   -36.1760    89.5940    43.6660
 2974.0000   -44.1140     2.1490     0.0000     0.1860   -19.6990    44.4000    22.8390    38.7410    30.6580  -999.2500  -999.2500   -34.7020    89.2770    42.9870
 2974.5000   -45.3550     2.1420    -0.0020     0.1860   -19.8930    42.3110    23.3790    39.1970    31.0780  -999.2500  -999.2500   -33.2290    88.9590    42.3050
 2975.0000   -46.5960     2.1400    -0.0050     0.1880   -20.0870    40.1900    23.3790    39.6510    30.9950  -999.2500  -999.2500   -31.7550    88.6420    41.8920
 2975.5000   -47.8360     2.1460    -0.0100     0.1900   -20.2800    38.3400    23.3790    40.1050    30.9270  -999.2500  -999.2500   -30.2820    88.3250    41.6020
 2976.0000   -49.0770     2.1530    -0.0120     0.1910   -20.4740    38.9460    23.0970    40.5610    30.8580  -999.2500  -999.2500   -28.8080    88.0080    41.3200
 2976.5000   -50.3180     2.1610    -0.0090     0.1910   -20.6670    39.5660    22.8500    39.9960    30.7890  -999.2500  -999.2500   -27.3350    87.7810    41.0410
 2977.0000   -51.5590     2.1660     0.0000     0.1890   -20.8610    40.2010    22.7440    39.4280    30.7200  -999.2500  -999.2500   -25.8960    87.9760    40.7610
 2977.5000   -52.8000     2.1660     0.0010     0.1860   -21.0550    40.8670    22.9090    38.3870    30.6490  -999.2500  -999.2500   -25.8960    88.5050    40.4820
 2978.0000   -54.0410     2.1620     0.0010     0.1850   -21.2480    41.9200    23.0760    38.5630    30.5900  -999.2500  -999.2500   -25.8960    89.0340    40.2020
 2978.5000   -55.2820     2.1590    -0.0080     0.1940   -21.4420    43.1690    23.2420    39.0170    30.5200  -999.2500  -999.2500   -25.8960    89.5630    39.9230
 2979.0000   -55.9700     2.1590    -0.0140     0.1940   -21.6350    43.6220    23.4090    39.4720    30.8050  -999.2500  -999.2500   -25.8960    89.6940    39.6430
 2979.5000   -57.5150     2.1610    -0.0100     0.1910   -21.8290    41.6510    23.5760    39.9260    30.7860  -999.2500  -999.2500   -25.8960    89.6060    39.3630
 2980.0000   -59.3350     2.1620     0.0070     0.1890   -22.0220    39.0010    23.8120    40.3800    30.7840  -999.2500  -999.2500   -25.8960    89.5170    39.0790
 2980.5000   -61.1550     2.1600     0.0160     0.1860   -22.2160    38.2570    23.6310    40.9350    31.0780  -999.2500  -999.2500   -25.8960    89.4710    38.6650
 2981.0000   -62.9750     2.1590     0.0170     0.1840   -22.4100    42.1870    23.1540    40.0780    30.7440  -999.2500  -999.2500   -25.8960    89.5430    38.1570
 2981.5000   -64.7950     2.1630     0.0060     0.1830   -22.6030    49.0220    22.6760    38.5920    30.3130  -999.2500  -999.2500   -25.8960    89.6140    37.6330
 2982.0000   -66.6150     2.1700    -0.0050     0.1920   -22.7970    51.6730    22.1980    37.1060    29.9570  -999.2500  -999.2500   -25.8960    89.6860    37.1070
 2982.5000   -68.4350     2.1770    -0.0060     0.1930   -22.9900    46.1350    21.7200    35.6200    28.5200  -999.2500  -999.2500   -25.8960    89.7510    36.6090
 2983.0000   -70.2550     2.1850    -0.0070     0.1920   -23.1840    42.1460    21.2420    34.1340    27.0420  -999.2500  -999.2500   -25.8960    89.4200    36.4800
 2983.5000   -72.0750     2.1880    -0.0080     0.1910   -23.3780    41.0260    20.6080    32.6480    25.5640  -999.2500  -999.2500   -25.8960    89.1170    36.2790
 2984.0000   -73.8950     2.1880    -0.0050     0.1950   -23.5710    45.2410    19.7040    31.1620    24.0320  -999.2500  -999.2500   -25.8960    88.8130    36.7170
 2984.5000   -75.7150     2.1850     0.0000     0.2000   -23.7650    50.5700    18.5830    30.4600    23.5950  -999.2500  -999.2500   -25.8960    88.5090    37.1340
 2985.0000   -77.5350     2.1820     0.0030     0.2010   -23.9580    55.6930    18.6650    30.1340    23.3790  -999.2500  -999.2500   -25.8960    88.2060    37.1070
 2985.5000   -79.3550     2.1790     0.0070     0.1940   -24.1520    56.8210    18.7730    29.8090    23.4190  -999.2500  -999.2500   -25.8960    87.9020    36.8600
 2986.0000   -81.1750     2.1740     0.0170     0.1880   -24.3450    52.9820    18.8800    29.4840    23.4540  -999.2500  -999.2500   -25.8960    87.8470    36.6080
 2986.5000   -82.9950     2.1670     0.0110     0.1910   -24.5390    48.2710    18.9280    29.1430    23.4890  -999.2500  -999.2500   -25.8960    88.0140    36.8170
 2987.0000   -84.8150     2.1690    -0.0060     0.1930   -24.7330    50.2340    18.3510    28.9620    23.5230  -999.2500  -999.2500   -25.8960    88.5970    36.9140
 2987.5000   -86.6350     2.1760    -0.0040     0.1970   -24.9260    54.2070    17.8520    28.4890    23.5580  -999.2500  -999.2500   -25.8960    89.3250    36.9130
 2988.0000   -88.4550     2.1880     0.0010     0.2040   -25.1200    55.8740    17.4260    27.6610    23.5950  -999.2500  -999.2500   -25.8960    89.5330    36.4110
 2988.5000   -90.2750     2.2020    -0.0030     0.2110   -25.3130    53.7270    17.5270    26.8330    22.8860  -999.2500  -999.2500   -25.8960    89.1640    35.9160
 2989.0000   -92.0950     2.2160    -0.0120     0.2130   -25.5070    55.3760    17.6610    26.0060    22.1390  -999.2500  -999.2500   -25.8960    87.9580    35.4220
 2989.5000   -93.9150     2.2210    -0.0130     0.2100   -25.9210    57.9540    17.7490    25.2060    21.3920  -999.2500  -999.2500   -25.8960    87.0490    34.9230
