~VERSION INFORMATION
 VERS.                2.0:   CWLS LOG ASCII STANDARD - VERSION 2.0
 WRAP.                 NO:   ONE LINE PER DEPTH STEP
~WELL INFORMATION
#MNEM.UNIT      DATA TYPE    INFORMATION
#----------   ------------   ------------------------------
 STRT.F            0.0000:   START DEPTH
 STOP.F         3982.0000:   STOP DEPTH
 STEP.F            0.5000:   STEP LENGTH
 NULL.          -999.2500:   NO VALUE
 COMP.   LAWRENCE ALLISON:   COMPANY
 WELL. LAWRENCE NPR 3 "LX" #61-10:   WELL
 FLD .                NPR:   FIELD
 LOC .      S10 T38N R78W:   LOCATION
 CNTY.            NATRONA:   COUNTY
 STAT.            WYOMING:   STATE
 CTRY. UNITED STATES OF AMERICA:   COUNTRY
 SRVC.      DRESSER ATLAS:   SERVICE COMPANY
 DATE.        14-APR-1983:   LOGDATE
 API .     49025109180000:   API NUMBER
~CURVE INFORMATION
#MNEM.UNIT       API CODE    CURVE DESCRIPTION
#----------   ------------   ------------------------------
 DEPT.F                  :   
 CALD.IN     45 280 60 00:   CALIPER FROM DENSITY LOG
 RHOB.G/C3   45 350 01 00:   BULK DENSITY
 DRHO.G/C3   45 356 01 00:   DENSITY CORRECTION
 TEND.LBS    45 635 01 00:   TENSION FROM DENSITY LOG
 CNC .DEC    42 890 03 00:   NEUTRON PORISITY SANDSTONE
 GRR .GAPI   07 310 01 00:   GAMMA RAY FROM RESISTIVITY
 SPR .MV     07 010 01 00:   SPONTANEOUS POTENTIAL
 ILD .OHMM   07 120 46 00:   DEEP INDUCTION RESISTIVITY
 ILM .OHMM   07 120 44 00:   INDUCTION LOG MEDIUM RESISTIVITY
 SFL .OHMM   07 220 01 00:   SHALLOW FOCUSED LOG RESISTIVITY
 TENS.LBS    60 635 01 00:   TENSION FROM SONIC LOG
 DT  .US/F   60 520 00 00:   DELTA TIME
 TENR.LBS    07 635 01 00:   TENSION FROM RESISTIVITY
~PARAMETER INFORMATION
#MNEM.UNIT          VALUE    DESCRIPTION
#----------   ------------   ------------------------------
 EKB .F         5164.0000:   Kelly bushing
 EGL .F         5154.0000:   Ground level
 EDF .F            0.0000:   Drilling floor
 TD  .F         3985.0000:   Total depth
 DATE.        14-APR-1983:   Date logged
 CLNT.            A2DTECH:   Client Code
 SL  . 138' FNL & 1331' FEL:   Surface Location
 PD  .                 GL:   Permanent Datum
 EPD .F              5154:   Elevation Permanent Datum
 LMF .                 KB:   Log Measured From
 DMF .                 KB:   Drilling Measured From
 DD  .F              3985:   Depth driller
 DL  .F              3948:   Depth logger
 BLI .F              3945:   Bottom log interval
 CS1 .IN            8.625:   Casing size
 CBD1.      8.625" @ 442':   Casing driller 1
 CBL1.F               453:   Casing logger 1
 BS1 .IN            7.875:   Bit size
 DFT .                KCI:   Type fluid in hole
 DFD .                8.9:   Density
 DFV .                 40:   Viscosity
 DFPH.                8.5:   pH
 DFL .                 10:   Fluid loss
 MSS .           FLOWLINE:   Source of sample
 RMS .OHMM           0.38:   Rm
 MST .F                68:   Rm Meas. temp.
 RMF .OHMM           0.30:   Rmf
 MFST.F                68:   Rmf Meas. temp.
 RMC .OHMM           0.49:   Rmc
 MCST.F                68:   Rmc Meas. temp.
 MFSS.               MEAS:   Source Rmf.
 RMB .OHMM           0.22:   Rm. at BHT
 BHT .F               122:   BHT.
 TCS .HRS               4:   Time Circ. stopped
 MRT .F               122:   Maximum recorded temp.
 LUN .               6764:   Logging unit number
 LUL .              WLSTN:   Logging unit location
 ENGI.            QUICKEL:   Recorded By
 WITN.           JENNINGS:   Witnessed by
 ORIG.           5" PRINT:   Origin of data
 UWI .     49025109180000:   Unique Well ID
 DICO. A2D TECHNOLOGIES, INC.:   Digitizing Company
 DAPD.                 10:   Feet Above Permanent Datum
 BSD1.               3985:   Depth drilled with bit1
 MCSS.               CALC:   Source Rmc.
~OTHER INFORMATION
~A    DEPT    CALD       RHOB       DRHO       TEND        CNC         GRR       SPR        ILD        ILM        SFL       TENS         DT       TENR   
# ...
 2756.0000    10.1900     2.1780     0.3450   -40.5630     0.3100   126.4210   -30.5060     5.4220     4.9500     4.3170   -66.7410    86.0260   -27.8600
 2756.5000    10.2010     2.2030     0.3060   -59.1630     0.3040   125.9090   -30.7160     5.0870     4.8570     4.8550   -66.2460    89.1480   -26.9090
 2757.0000    10.2160     2.2280     0.3000   -66.8430     0.2870   126.5780   -30.9000     5.0550     4.7650     5.2280   -65.7500    88.6470   -25.9570
 2757.5000    10.2320     2.2520     0.3020   -68.5530     0.2830   127.6260   -31.0960     5.0020     4.7540     5.2760   -65.2550    87.9160   -25.0060
 2758.0000    10.2480     2.2760     0.3010   -70.2640     0.2900   128.9920   -31.5100     4.9500     4.7940     5.3170   -64.7590    87.6720   -24.0540
 2758.5000    10.2500     2.3190     0.2810   -71.9740     0.2950   127.8980   -31.8690     4.9950     4.8440     5.3580   -64.6290    87.1550   -23.1030
 2759.0000    10.2670     2.3620     0.2770   -73.6850     0.2950   121.1430   -31.6180     5.0390     4.9060     5.4370   -64.6290    86.6370   -22.1520
 2759.5000    10.3140     2.3680     0.2940   -75.3950     0.2970   114.8780   -31.1310     5.0830     4.9690     5.5550   -64.6290    86.1200   -21.2000
 2760.0000    10.4500     2.3600     0.3120   -78.6140     0.3000   114.7160   -30.6710     5.1340     5.0410     5.6750   -64.6290    85.6020   -20.2490
 2760.5000    10.5900     2.3530     0.3310   -82.1570     0.2960   117.8160   -30.1900     5.2090     5.1130     5.6170   -64.6290    85.2400   -19.2970
 2761.0000    10.6080     2.3380     0.3500   -85.7000     0.2860   120.2120   -30.0450     5.3240     5.1970     5.5610   -64.6290    85.6670   -18.3460
 2761.5000    10.5790     2.3220     0.3580   -89.2430     0.2790   120.3210   -30.0790     5.3240     5.2800     5.5220   -64.6290    86.1340   -17.0960
 2762.0000    10.5480     2.3150     0.3430   -92.7860     0.2850   119.8090   -29.9820     5.4220     5.3730     5.5220   -64.6290    86.6010   -17.0960
 2762.5000    10.5170     2.3340     0.3270   -93.7200     0.2960   120.0680   -29.9320     5.3600     5.3330     5.6300   -64.6290    87.0440   -17.0960
 2763.0000    10.4860     2.3350     0.3120   -84.2720     0.3090   119.4120   -30.0040     5.2910     5.2760     5.8320   -64.6290    87.0240   -17.0960
 2763.5000    10.4530     2.3340     0.2990   -74.8250     0.3140   119.8070   -30.0410     5.2220     5.1090     5.7790   -64.6290    86.9440   -17.0960
 2764.0000    10.4840     2.3470     0.2870   -65.3770     0.3190   122.5720   -30.0960     5.1340     4.9500     5.2280   -64.6290    87.1540   -17.0960
 2764.5000    10.5240     2.3800     0.2700   -55.7770     0.3310   122.3480   -30.5170     5.1340     4.9500     5.2430   -64.6290    87.6500   -17.0960
 2765.0000    10.5640     2.4120     0.2530   -63.9110     0.3440   118.7760   -31.2710     5.1560     4.9500     5.2630   -64.6290    88.1460   -17.0960
 2765.5000    10.5650     2.4450     0.2310   -72.1780     0.3500   117.0030   -31.8710     5.1810     4.9970     5.2760   -64.6290    88.4470   -17.0960
 2766.0000    10.5550     2.4780     0.2040   -75.6970     0.3300   117.7410   -32.0060     5.1810     5.0410     5.2760   -64.6290    88.2880   -17.0960
 2766.5000    10.5440     2.4770     0.2050   -69.3230     0.2940   119.8870   -31.9340     5.2160     5.0620     5.7270   -64.6290    87.9460   -18.3110
 2767.0000    10.5330     2.4650     0.2290   -61.0560     0.2990   123.0810   -32.0450     5.2640     5.1210     5.6750   -64.6290    88.3070   -20.4830
 2767.5000    10.5220     2.4590     0.2560   -55.7770     0.3090   126.0230   -32.1450     5.3110     5.1810     5.5030   -64.6290    89.5740   -22.6550
 2768.0000    10.5100     2.4630     0.2620   -55.7770     0.3080   126.5550   -32.3670     5.3580     5.2100     5.3240   -64.6290    91.4530   -24.8270
 2768.5000    10.5500     2.4730     0.2390   -55.7770     0.2880   125.0060   -33.1430     5.4060     5.2400     5.2760   -64.6290    91.4530   -26.9980
 2769.0000    10.5980     2.4750     0.2400   -55.7770     0.2770   125.0620   -33.9480     5.4530     5.2700     5.3130   -64.6290    89.9650   -29.1700
 2769.5000    10.6460     2.4710     0.2830   -55.7770     0.2770   125.5310   -34.5920     5.5110     5.3010     5.3590   -64.6290    89.5400   -31.3420
 2770.0000    10.6950     2.4560     0.3160   -63.1470     0.2900   122.6510   -35.5210     5.5750     5.3240     5.4050   -64.6290    89.4490   -33.5140
 2770.5000    10.7430     2.4380     0.3360   -73.0680     0.2980   118.5140   -36.4290     5.6390     5.4910     5.5440   -64.6290    89.3340   -35.6850
 2771.0000    10.7880     2.4160     0.3340   -82.9880     0.2920   115.7970   -37.0890     5.6750     5.6230     5.7400   -64.6290    89.1680   -35.9780
 2771.5000    10.8070     2.4110     0.3160   -71.7130     0.2810   116.2080   -37.4420     5.7110     5.6480     5.9350   -64.6290    89.0030   -33.8070
 2772.0000    10.8270     2.4140     0.2940   -52.6360     0.2720   120.5690   -37.2560     5.7460     5.6750     6.1600   -64.6290    88.9480   -31.6350
 2772.5000    10.8470     2.4340     0.3000   -36.5210     0.2830   124.0190   -37.0450     5.7790     5.6420     6.0800   -64.6290    89.1480   -29.4630
 2773.0000    10.8680     2.4530     0.2840   -42.0320     0.2760   123.8730   -36.8550     5.7470     5.5680     5.8720   -64.6290    89.4740   -27.0070
 2773.5000    10.8880     2.4720     0.2510   -47.5430     0.2610   123.3450   -36.4620     5.7090     5.4720     5.5720   -64.6290    89.7260   -27.9310
 2774.0000    10.9090     2.4930     0.2210   -53.0540     0.2680   122.6670   -36.7320     5.6750     5.4310     5.5210   -64.6290    89.9030   -28.9930
 2774.5000    10.9290     2.4950     0.2320   -58.5660     0.2850   121.3940   -37.0710     5.5840     5.3450     5.4630   -64.6290    90.0810   -30.0560
 2775.0000    10.9500     2.4840     0.2570   -64.0770     0.2950   120.9210   -36.6090     5.5000     5.2590     5.4220   -64.6290    90.2950   -31.1190
 2775.5000    10.9690     2.4750     0.2810   -65.7370     0.3080   120.2890   -36.4190     5.4170     5.1730     5.3070   -64.6290    90.4050   -32.1820
 2776.0000    10.9470     2.4730     0.2980   -73.9040     0.3200   120.5030   -35.9050     5.3330     5.0870     5.2280   -64.6290    90.6770   -33.2440
 2776.5000    10.9100     2.4770     0.2930   -90.4380     0.3210   122.4720   -34.4700     5.2760     4.9950     5.1710   -64.6290    91.0630   -34.3070
 2777.0000    10.9100     2.4760     0.2750   -89.9930     0.3100   123.7700   -33.7200     5.1380     4.9190     5.1200   -64.6290    91.1760   -35.3700
 2777.5000    10.9250     2.4620     0.2580   -78.4200     0.3020   126.4480   -33.4880     5.0330     4.8360     5.0690   -64.6290    91.2170   -36.4330
 2778.0000    10.9410     2.4430     0.2610   -66.8460     0.3060   131.1320   -33.0580     4.9280     4.7530     5.0180   -56.7800    91.2950   -27.8660
 2778.5000    10.9780     2.4140     0.2810   -55.2720     0.3280   133.2060   -32.9640     4.8410     4.6700     5.0050   -48.5140    91.5530   -11.2160
 2779.0000    11.2030     2.3800     0.3090   -43.6990     0.3440   133.0610   -32.9410     4.7860     4.5880     5.0230   -28.3070    91.5530     5.4340
 2779.5000    11.4410     2.2990     0.3300   -32.1250     0.3500   132.7340   -32.7350     4.7310     4.5050     5.0410     5.5110    91.6700     2.7250
 2780.0000    11.6800     2.2090     0.3290   -25.8960     0.3320   131.5870   -32.5810     4.6860     4.4370     4.7040   -35.8220    92.7240   -26.5110
 2780.5000    11.7280     2.1970     0.3200   -36.0400     0.3050   128.9060   -32.4750     4.6860     4.4370     4.3170   -81.2880    93.3570   -56.7390
 2781.0000    11.5430     2.2300     0.3110   -66.5650     0.2890   124.4380   -32.2630     4.6860     4.4370     4.3570  -104.7090    93.4570   -66.6500
 2781.5000    11.2320     2.3150     0.2820   -95.6180     0.2920   121.5200   -31.7560     4.6860     4.4370     4.5770  -104.7090    93.4570   -64.9450
