~VERSION INFORMATION
 VERS.                2.0:   CWLS LOG ASCII STANDARD - VERSION 2.0
 WRAP.                 NO:   ONE LINE PER DEPTH STEP
~WELL INFORMATION
#MNEM.UNIT      DATA TYPE    INFORMATION
#----------   ------------   ------------------------------
 STRT.F           35.5000:   START DEPTH
 STOP.F         6235.5000:   STOP DEPTH
 STEP.F            0.5000:   STEP LENGTH
 NULL.          -999.2500:   NO VALUE
 COMP. LAWRENCE-ALLISON ASSOCIATES:   COMPANY
 WELL. LAWRENCE-ALLISON "X" #62-11:   WELL
 FLD .                NPR:   FIELD
 LOC .      S11 T38N R78W:   LOCATION
 CNTY.            NATRONA:   COUNTY
 STAT.            WYOMING:   STATE
 CTRY. UNITED STATES OF AMERICA:   COUNTRY
 SRVC.      DRESSER ATLAS:   SERVICE COMPANY
 DATE.        18-DEC-1982:   LOGDATE
 API .     49025109020000:   API NUMBER
~CURVE INFORMATION
#MNEM.UNIT       API CODE    CURVE DESCRIPTION
#----------   ------------   ------------------------------
 DEPT.F                  :   
 ILM .OHMM   07 120 44 00:   INDUCTION LOG MEDIUM
 ILD .OHMM   07 120 46 00:   DEEP RESISTIVITY
 RFOC.OHMM   07 220 04 00:   RESISTIVITY FOCUSED LOG RES.
 DT  .US/F   60 520 00 00:   DELTA TIME
 TENS.LBS    60 635 01 00:   TENSION FROM SONIC LOG.
 RS  .OHMM   11 220 09 00:   RESISTIVITY SHALLOW
 RD  .OHMM   11 220 10 00:   RESISTIVITY DEEP
 RLL .OHMM   11 220 00 00:   LATEROLOG RESISTIVITY
 SPR .MV     07 010 01 00:   SPONTANEOUS POTENTIAL
 TENR.LBS    07 635 01 00:   TENSION FROM RES. LOG
 CALD.IN     45 280 60 00:   CALIPER FROM DENSITY LOG
 GRD .GAPI   45 310 01 00:   GAMMA RAY FROM DENSITY LOG
 DEN .G/C3   45 350 01 00:   FORMATION FACTOR DENSITY
 DRHO.G/C3   45 356 01 00:   DENSITY CORRECTION
 TEND.LBS    45 635 01 00:   TENSION FROM DENSITY LOG
 CN  .DEC    42 890 00 00:   NEUTRON POROSITY
~PARAMETER INFORMATION
#MNEM.UNIT          VALUE    DESCRIPTION
#----------   ------------   ------------------------------
 EKB .F         5218.0000:   Kelly bushing
 EGL .F         5208.0000:   Ground level
 EDF .F            0.0000:   Drilling floor
 TD  .F         6232.0000:   Total depth
 DATE.        18-DEC-1982:   Date logged
 CLNT.            A2DTECH:   Client Code
 SL  . 971' FNL & 1898' FEL:   Surface Location
 PD  .                 GL:   Permanent Datum
 EPD .F              5208:   Elevation Permanent Datum
 LMF .                 KB:   Log Measured From
 DMF .                 KB:   Drilling Measured From
 DAPD.F                10:   Feet Above Permanent Datum
 DD  .F              6222:   Depth driller
 DL  .F              6232:   Depth logger
 BLI .F              6230:   Bottom log interval
 CS1 .IN            9.625:   Casing size
 CBD1.     9.625" @ 1002':   Casing driller 1
 CBL1.F              1002:   Casing logger 1
 BS1 .IN             8.75:   Bit size
 BSD1.F              6222:   Depth drilled with bit1
 DFT .                KCL:   Type fluid in hole
 DFD .                  9:   Density
 DFV .                 37:   Viscosity
 DFPH.                  8:   pH
 DFL .                8.4:   Fluid loss
 MSS .           FLOWLINE:   Source of sample
 RMS .OHMM            .25:   Rm
 MST .F                60:   Rm Meas. temp.
 RMF .OHMM            .18:   Rmf
 MFST.F                62:   Rmf Meas. temp.
 RMC .OHMM            .32:   Rmc
 MCST.F                60:   Rmc Meas. temp.
 MFSS.               MEAS:   Source Rmf.
 MCSS.               CALC:   Source Rmc.
 RMB .OHMM            .09:   Rm. at BHT
 BHT .F               166:   BHT.
 TCS .HRS               6:   Time Circ. stopped
 MRT .F               166:   Maximum recorded temp.
 LUN .               6274:   Logging unit number
 LUL .               GLTE:   Logging unit location
 ENGI.             RAUTIO:   Recorded By
 WITN.           JENNINGS:   Witnessed by
 ORIG.           5" PRINT:   Origin of data
 UWI .     49025109020000:   Unique Well ID
 DICO. A2D TECHNOLOGIES, INC.:   Digitizing Company
~OTHER INFORMATION
~A  DEPTH      ILM        ILD       RFOC         DT       TENS         RS         RD        RLL        SPR       TENR       CALD        GRD        DEN       DRHO       TEND         CN
# ...
 2508.0000  -999.2500  -999.2500  -999.2500    92.9747   -40.5317     8.9785     8.8165     8.3938   -85.6094   -48.7781     9.9976   113.3687     2.4562    -0.0023   -33.8954     0.3121
 2508.5000  -999.2500  -999.2500  -999.2500    92.6051   -41.1633     9.1651     8.8923     8.4818   -85.6175   -49.3797     9.9993   112.7584     2.4592    -0.0164   -29.9219     0.3103
 2509.0000  -999.2500  -999.2500  -999.2500    92.4606   -41.7949     9.4211     9.0727     8.5705   -85.6241   -49.9812    10.0010   112.1495     2.4614    -0.0242   -29.8437     0.3056
 2509.5000  -999.2500  -999.2500  -999.2500    92.2418   -42.4265     9.6840     9.2895     8.6904   -85.6316   -54.0126    10.0027   109.7374     2.4652    -0.0289   -29.7599     0.3065
 2510.0000  -999.2500  -999.2500  -999.2500    91.7956   -43.0581     9.8856     9.6224     8.8120   -85.6396   -53.4598    10.0044   107.0263     2.4698    -0.0305   -29.6875     0.3093
 2510.5000  -999.2500  -999.2500  -999.2500    91.1986   -43.6897    10.0218     9.9098     8.9975   -85.6466   -52.9070    10.0061   103.7133     2.4736    -0.0181   -21.7905     0.3097
 2511.0000  -999.2500  -999.2500  -999.2500    90.7525   -44.3213    10.1594    10.2522     9.1870   -85.5031   -52.3541    10.0077   100.4017     2.4782    -0.0088   -21.7181     0.3084
 2511.5000  -999.2500  -999.2500  -999.2500    90.5326   -44.9529    10.1575    10.3170     9.3804   -85.5113   -51.8013     9.9770    99.4911     2.4781     0.0005   -13.8212     0.3046
 2512.0000  -999.2500  -999.2500  -999.2500    91.0690   -45.5845    10.2262    10.3092     9.4458   -85.5194   -51.2485     9.9753   101.5849     2.4765     0.0082   -13.7500     0.2959
 2512.5000  -999.2500  -999.2500  -999.2500    91.8295   -46.2161    10.1532    10.1607     9.4458   -85.5275   -50.6957     9.9737   106.6803     2.4724     0.0113   -17.5826     0.2903
 2513.0000  -999.2500  -999.2500  -999.2500    92.5910   -46.8477     9.9419     9.9434     9.3804   -85.5338   -50.1429     9.9720   106.0714     2.4672     0.0019   -21.4165     0.2910
 2513.5000  -999.2500  -999.2500  -999.2500    92.8990   -47.4792     9.6011     9.5978     9.0602   -85.5414   -49.5901     9.9704   100.6563     2.4597    -0.0106   -21.9637     0.2985
 2514.0000  -999.2500  -999.2500  -999.2500    93.1316   -48.1108     9.1444     9.2642     8.6302   -85.2488   -49.0373     9.9687    99.1465     2.4550    -0.0184   -29.0722     0.3044
 2514.5000  -999.2500  -999.2500  -999.2500    93.3653   -48.7424     8.7091     8.9412     8.1072   -85.1042   -48.4844     9.9671   102.1398     2.4502    -0.0247   -32.8939     0.3009
 2515.0000  -999.2500  -999.2500  -999.2500    93.3716   -49.3740     8.5281     8.8121     7.5109   -85.1135   -47.9316     9.9654   106.6359     2.4469    -0.0232   -36.7187     0.2996
 2515.5000  -999.2500  -999.2500  -999.2500    93.3790   -50.0056     8.3506     8.7445     7.5632   -84.9699   -47.3788     9.9638   110.2312     2.4500    -0.0170   -36.6313     0.3023
 2516.0000  -999.2500  -999.2500  -999.2500    92.9329   -50.6372     8.3489     8.7389     7.9401   -84.8267   -46.8260     9.9621   110.8235     2.4538    -0.0140   -36.5589     0.3079
 2516.5000  -999.2500  -999.2500  -999.2500    92.5611   -51.2688     8.4636     8.7332     8.2207   -84.8346   -46.2732     9.9605   109.6112     2.4576    -0.0109   -38.3529     0.3082
 2517.0000  -999.2500  -999.2500  -999.2500    92.6450   -51.9004     8.5209     8.8487     8.3938   -84.8421   -45.7204     9.9588   109.0023     2.4606    -0.0156   -40.3125     0.3060
 2517.5000  -999.2500  -999.2500  -999.2500    92.7267   -52.5320     8.6382     8.8420     8.4523   -84.8510   -45.1675     9.9571   109.8935     2.4636    -0.0203   -40.2344     0.2941
 2518.0000  -999.2500  -999.2500  -999.2500    92.5812   -53.0467     8.7572     8.8368     8.3357   -85.0084   -44.6147     9.9555   110.7875     2.4627    -0.0126   -40.1454     0.2920
 2518.5000  -999.2500  -999.2500  -999.2500    92.2126   -49.2760     8.8161     8.8303     8.1638   -85.0165   -44.0619     9.9538   110.1758     2.4603    -0.0080   -40.0781     0.2926
 2519.0000  -999.2500  -999.2500  -999.2500    91.8429   -49.3666     8.8755     8.8239     7.9954   -85.0316   -43.5091     9.9522   106.2636     2.4602    -0.0064   -40.0000     0.2954
 2519.5000  -999.2500  -999.2500  -999.2500    91.7717   -49.4572     8.9355     8.8182     7.9401   -85.1808   -42.9563     9.9505   100.2479     2.4617    -0.0065   -39.9101     0.2982
 2520.0000  -999.2500  -999.2500  -999.2500    92.0065   -49.5478     8.9338     8.8116     7.9401   -85.1889   -42.4035     9.9489    96.9362     2.4631    -0.0065   -39.8317     0.2982
 2520.5000  -999.2500  -999.2500  -999.2500    92.4663   -49.6384     8.9317     8.8059     7.9401   -85.1959   -41.8506     9.9472    95.4250     2.4646    -0.0066   -39.7653     0.2979
 2521.0000  -999.2500  -999.2500  -999.2500    92.7744   -49.7290     8.9300     8.7992     7.9401   -85.2040   -41.2978     9.9456    96.3176     2.4660    -0.0072   -39.6809     0.2996
 2521.5000  -999.2500  -999.2500  -999.2500    92.8561   -49.8196     8.9280     8.7327     7.9401   -85.0594   -40.7450     9.9439    99.6112     2.4675    -0.0082   -35.6902     0.3063
 2522.0000  -999.2500  -999.2500  -999.2500    92.5619   -49.9101     8.9262     8.6657     7.8851   -84.7679   -40.1922     9.9423   100.2035     2.4697    -0.0052   -35.6250     0.3095
 2522.5000  -999.2500  -999.2500  -999.2500    91.9649   -50.0007     8.9863     8.7204     7.8305   -84.7749   -39.6394     9.9406   100.7944     2.4735     0.0010   -35.5454     0.3076
 2523.0000  -999.2500  -999.2500  -999.2500    90.8411   -50.0913     8.9846     8.8367     7.7225   -84.6303   -39.0866     9.9389   103.4888     2.4781     0.0103   -35.4609     0.3095
 2523.5000  -999.2500  -999.2500  -999.2500    88.9621   -50.1819     8.9828     8.9226     7.6690   -84.6391   -38.5337     9.9373   105.8815     2.4788     0.0180   -35.3885     0.3089
 2524.0000  -999.2500  -999.2500  -999.2500    87.8372   -50.2725     8.9808     9.0101     7.6159   -84.6466   -37.9809     9.9356   105.2726     2.4764     0.0118   -35.3041     0.2752
 2524.5000  -999.2500  -999.2500  -999.2500    87.9954   -50.3631     8.9790     8.8791     7.6690   -84.6547   -37.4281     9.9340   102.2599     2.4638    -0.0007   -35.2344     0.2714
 2525.0000  -999.2500  -999.2500  -999.2500    89.5865   -50.4537     8.9150     8.6904     7.8851   -84.6628   -36.8753     9.9323    96.2456     2.4480    -0.0055   -35.1472     0.2705
 2525.5000  -999.2500  -999.2500  -999.2500    91.1766   -50.5443     8.6694     8.0450     7.9954   -84.6692   -36.3225     9.9307    93.8335     2.4276     0.0163   -35.0748     0.2848
 2526.0000  -999.2500  -999.2500  -999.2500    92.3896   -50.6349     7.7573     7.2948     7.8851   -84.5263   -35.7697     9.9290    91.1224     2.3728     0.0371   -34.9903     0.3098
 2526.5000  -999.2500  -999.2500  -999.2500    92.0953   -50.7255     6.0840     6.4782     2.6132   -84.5339   -35.2168     9.9274    87.5091     2.3485     0.0650   -34.9180     0.3364
 2527.0000  -999.2500  -999.2500  -999.2500    90.3671   -50.8161     5.9576     6.0389     1.4888   -84.5420   -34.6640     9.9257    86.2996     2.3453     0.0629   -34.8438     0.3595
 2527.5000  -999.2500  -999.2500  -999.2500    88.7908   -50.9067     6.2093     6.0771     1.4682   -84.3980   -34.1112     9.9241    84.7884     2.4444    -0.0026   -34.7656     0.3639
 2528.0000  -999.2500  -999.2500  -999.2500    88.4955   -50.9973     7.6440     6.6927     2.7081   -84.4062   -33.5584     9.9224    84.1795     2.4677    -0.0151   -34.6827     0.3311
 2528.5000  -999.2500  -999.2500  -999.2500    88.7281   -51.0879     9.4098     8.2379     6.7677   -84.2632   -33.0056     9.9208    87.7734     2.4684    -0.0182   -38.5105     0.3171
 2529.0000  -999.2500  -999.2500  -999.2500    88.8864   -51.1785    10.0837     9.7249     9.1870   -84.1193   -32.4528     9.9191    95.2726     2.4683    -0.0058   -38.4375     0.3124
