~VERSION INFORMATION
 VERS.                2.0:   CWLS LOG ASCII STANDARD - VERSION 2.0
 WRAP.                 NO:   ONE LINE PER DEPTH STEP
~WELL INFORMATION
#MNEM.UNIT      DATA TYPE    INFORMATION
#----------   ------------   ------------------------------
 STRT.F            0.0000:   START DEPTH
 STOP.F         3205.0000:   STOP DEPTH
 STEP.F            0.5000:   STEP LENGTH
 NULL.          -999.2500:   NO VALUE
 COMP. LAWRENCE-ALLISON AND ASSOCIATES:   COMPANY
 WELL. LAWRENCE "X" #64-28:   WELL
 FLD .          N.P.R. #3:   FIELD
 LOC .      S28 T39N R78W:   LOCATION
 CNTY.            NATRONA:   COUNTY
 STAT.            WYOMING:   STATE
 CTRY. UNITED STATES OF AMERICA:   COUNTRY
 SRVC.      DRESSER ATLAS:   SERVICE COMPANY
 DATE.        25-MAY-1986:   LOGDATE
 API .     49025110730000:   API NUMBER
~CURVE INFORMATION
#MNEM.UNIT       API CODE    CURVE DESCRIPTION
#----------   ------------   ------------------------------
 DEPT.F                  :   
 GRR .GAPI   07 310 01 00:   GAMMA RAY FROM RESISTIVITY
 SPR .MV     07 010 01 00:   SPONTANEOUS POTENTIAL
 RILD.OHMM   07 120 46 00:   DEEP INDUCTION RESISTIVITY
 RILM.OHMM   07 120 44 00:   INDUCTION LOG MEDIUM RESISTIVITY
 RSFL.OHMM   07 221 01 00:   AMPPLIFIED SHALLOW FOCUSED LOG RESISTIVITY
 TENR.LBS    07 635 01 00:   TENSION FROM RESISTIVITY
 CNC .DEC    42 890 03 00:   NEUTRON POROSITY SANDSTONE
 CALD.IN     45 280 60 00:   CALIPER FROM DENSITY LOG
 DEN .G/C3   45 350 01 00:   BULK DENSITY
 CORR.G/C3   45 356 01 00:   DENSITY CORRECTION
 TEND.LBS    45 635 01 00:   TENSION FROM DENSITY LOG
~PARAMETER INFORMATION
#MNEM.UNIT          VALUE    DESCRIPTION
#----------   ------------   ------------------------------
 EKB .F         5070.0000:   Kelly bushing
 EGL .F         5058.0000:   Ground level
 TD  .F         3205.0000:   Total depth
 DATE.        25-MAY-1986:   Date logged
 CLNT.            A2DTECH:   Client Code
 SL  . 2248' FNL & 1636' FEL:   Surface Location
 PD  .                 GL:   Permanent Datum
 EPD .F              5058:   Elevation Permanent Datum
 LMF .                 KB:   Log Measured From
 DMF .                 KB:   Drilling Measured From
 DAPD.F                12:   Feet Above Permanent Datum
 DD  .F              3205:   Depth driller
 DL  .F              3203:   Depth logger
 BLI .F              3201:   Bottom log interval
 CS1 .IN            8.625:   Casing size
 CBD1.      8.625" @ 476':   Casing driller 1
 CBL1.F               478:   Casing logger 1
 BS1 .IN            7.875:   Bit size
 BSD1.F              3205:   Depth drilled with bit1
 DFT .        POLYMER-KCL:   Type fluid in hole
 DFD .                  9:   Density
 DFV .                 37:   Viscosity
 DFPH.                8.5:   pH
 DFL .                 10:   Fluid loss
 MSS .           FLOWLINE:   Source of sample
 RMS .OHMM           0.31:   Rm
 MST .F                69:   Rm Meas. temp.
 RMF .OHMM           0.25:   Rmf
 MFST.F                69:   Rmf Meas. temp.
 RMC .OHMM           0.39:   Rmc
 MCST.F                69:   Rmc Meas. temp.
 MFSS.               MEAS:   Source Rmf.
 MCSS.               CALC:   Source Rmc.
 RMB .OHMM           0.19:   Rm. at BHT
 BHT .F               115:   BHT.
 TCS .HRS               4:   Time Circ. stopped
 MRT .F               115:   Maximum recorded temp.
 LUN .            HL-6274:   Logging unit number
 LUL .           GILLETTE:   Logging unit location
 ENGI.             RAUTIO:   Recorded By
 WITN.             STRONG:   Witnessed by
 ORIG.           5" PRINT:   Origin of data
 UWI .     49025110730000:   Unique Well ID
 DICO. A2D TECHNOLOGIES, INC.:   Digitizing Company
~OTHER INFORMATION
~A    DEPT     GRR        SPR       RILD       RILM       RSFL       TENR        CNC       CALD        DEN       CORR       TEND   
# ...
  488.0000    91.5140   -51.5000     8.0420     7.9950     7.6950    14.4710  -999.2500  -999.2500  -999.2500  -999.2500  -999.2500
  488.5000    94.8550   -51.3950     8.3910     7.9690     7.7960    15.0780  -999.2500  -999.2500  -999.2500  -999.2500  -999.2500
  489.0000    94.2440   -50.7430     8.7050     7.9400     7.7160    15.7520  -999.2500  -999.2500  -999.2500  -999.2500  -999.2500
  489.5000    89.1620   -52.1570     8.5160     7.7820     7.6280    16.4270  -999.2500  -999.2500  -999.2500  -999.2500  -999.2500
  490.0000    86.3720   -53.6870     8.3450     7.6060     7.6420    17.1010  -999.2500  -999.2500  -999.2500  -999.2500  -999.2500
  490.5000    87.7110   -53.8330     8.1730     7.3770     7.7240    17.7750  -999.2500  -999.2500  -999.2500  -999.2500  -999.2500
  491.0000    90.2620   -54.2400     8.0100     7.2050     7.6540    18.4500  -999.2500  -999.2500  -999.2500  -999.2500  -999.2500
  491.5000    92.5080   -55.1520     7.8550     6.9590     7.3040    19.1240  -999.2500  -999.2500  -999.2500  -999.2500  -999.2500
  492.0000    92.2560   -55.9470     7.6540     6.7120     7.0360    19.7980  -999.2500  -999.2500  -999.2500  -999.2500  -999.2500
  492.5000    91.6390   -56.5690     7.3500     6.4660     6.7670    20.4730  -999.2500  -999.2500  -999.2500  -999.2500  -999.2500
  493.0000    92.3670   -57.1590     7.0460     6.1950     6.4990    21.1470  -999.2500  -999.2500  -999.2500  -999.2500  -999.2500
  493.5000    94.3910   -57.4920     6.9180     5.8790     6.2300    21.8210  -999.2500  -999.2500  -999.2500  -999.2500  -999.2500
  494.0000    95.9120   -57.6180     6.0440     5.3730     5.9610    22.4960  -999.2500  -999.2500  -999.2500  -999.2500  -999.2500
  494.5000    93.3370   -57.7560     5.2500     4.7130     5.6930    23.1700  -999.2500  -999.2500  -999.2500  -999.2500  -999.2500
  495.0000    89.8780   -57.8670     4.4560     4.0530     5.3970    23.8440  -999.2500  -999.2500  -999.2500  -999.2500  -999.2500
  495.5000    90.0540   -58.0330     3.7470     3.3940     5.2020    24.4510  -999.2500  -999.2500  -999.2500  -999.2500  -999.2500
  496.0000    92.6840   -58.1130     3.1220     2.7340     4.6660    16.6100  -999.2500  -999.2500  -999.2500  -999.2500  -999.2500
  496.5000    94.9410   -58.0580     2.7370     2.3560     4.0450     9.4810  -999.2500  -999.2500  -999.2500  -999.2500  -999.2500
  497.0000    95.2430   -57.5710     2.6350     2.2330     3.3970     2.3520  -999.2500  -999.2500  -999.2500  -999.2500  -999.2500
  497.5000    91.6800   -55.8690     2.6350     2.3600     2.6840    -4.7760  -999.2500  -999.2500  -999.2500  -999.2500  -999.2500
  498.0000    84.6630   -54.0360     2.6350     2.5470     2.5630   -11.9050  -999.2500  -999.2500  -999.2500  -999.2500  -999.2500
  498.5000    81.2000   -53.2730     2.7110     2.7340     2.6590   -13.5890  -999.2500  -999.2500  -999.2500  -999.2500  -999.2500
  499.0000    80.5160   -52.9880     2.7590     3.2520     3.4360    -9.8300  -999.2500  -999.2500  -999.2500  -999.2500  -999.2500
  499.5000    80.7060   -53.1970     2.9420     3.7710     4.8780    -6.0710  -999.2500  -999.2500  -999.2500  -999.2500  -999.2500
  500.0000    84.0840   -52.8470     3.5660     4.1080     4.6630    -2.3120  -999.2500  -999.2500  -999.2500  -999.2500  -999.2500
  500.5000    84.8800   -51.3590     4.1320     4.5880     4.4500     1.4480  -999.2500  -999.2500  -999.2500  -999.2500  -999.2500
  501.0000    86.1310   -50.6620     4.7980     5.0680     5.2300     5.2070  -999.2500  -999.2500  -999.2500  -999.2500  -999.2500
  501.5000    92.2450   -50.3420     5.5570     5.5490     5.9340     8.9660  -999.2500  -999.2500  -999.2500  -999.2500  -999.2500
  502.0000    96.7110   -49.5830     6.3680     6.0290     6.5460    12.7260  -999.2500  -999.2500  -999.2500  -999.2500  -999.2500
  502.5000    96.7130   -49.4530     6.5100     6.3050     6.7810    13.9480  -999.2500  -999.2500  -999.2500  -999.2500  -999.2500
  503.0000    93.6460   -50.1200     6.6610     6.4270     6.9180    12.9710  -999.2500  -999.2500  -999.2500  -999.2500  -999.2500
  503.5000    89.8250   -51.1660     6.7520     6.4670     6.9530    11.9940  -999.2500  -999.2500  -999.2500  -999.2500  -999.2500
  504.0000    86.6450   -51.0150     6.8150     6.5190     7.0180    11.0180  -999.2500  -999.2500  -999.2500  -999.2500  -999.2500
  504.5000    85.7560   -49.5680     6.8780     6.5720     7.0830    10.0410  -999.2500  -999.2500  -999.2500  -999.2500  -999.2500
  505.0000    89.7420   -49.5210     6.9040     6.6250     7.0850     9.0640  -999.2500  -999.2500  -999.2500  -999.2500  -999.2500
  505.5000    97.0830   -50.3020     6.8690     6.6680     7.0410     8.0880  -999.2500  -999.2500  -999.2500  -999.2500  -999.2500
  506.0000   100.4840   -49.8790     6.8340     6.6470     6.9970     7.1110  -999.2500  -999.2500  -999.2500  -999.2500  -999.2500
  506.5000    98.4320   -48.8390     6.7920     6.6300     6.9530     6.1340  -999.2500  -999.2500  -999.2500  -999.2500  -999.2500
  507.0000    98.1170   -48.0960     6.8150     6.6120     6.9180     5.1580  -999.2500  -999.2500  -999.2500  -999.2500  -999.2500
  507.5000    98.6540   -48.0510     6.8440     6.5950     6.9870     4.1810  -999.2500  -999.2500  -999.2500  -999.2500  -999.2500
  508.0000    95.9990   -48.2750     6.8730     6.5770     7.0440     3.2040  -999.2500  -999.2500  -999.2500  -999.2500  -999.2500
  508.5000    93.8310   -48.4190     6.9010     6.5600     7.1110     2.2280  -999.2500  -999.2500  -999.2500  -999.2500  -999.2500
  509.0000    94.6050   -48.5540     6.8950     6.5460     7.0740     1.2510  -999.2500  -999.2500  -999.2500  -999.2500  -999.2500
  509.5000    95.0790   -48.8580     6.8450     6.5020     7.0290     0.2740  -999.2500  -999.2500  -999.2500  -999.2500  -999.2500
  510.0000    91.7270   -48.9780     6.7950     6.4660     6.9840    -0.7020  -999.2500  -999.2500  -999.2500  -999.2500  -999.2500
  510.5000    88.6730   -48.1510     6.7440     6.4300     6.9400    -1.6790  -999.2500  -999.2500  -999.2500  -999.2500  -999.2500
  511.0000    89.7010   -46.2200     6.6940     6.3940     6.8950    -2.6560  -999.2500  -999.2500  -999.2500  -999.2500  -999.2500
  511.5000    90.6600   -42.2760     6.6440     6.3680     6.8510    -3.6330  -999.2500  -999.2500  -999.2500  -999.2500  -999.2500
  512.0000    94.0670   -38.0550     6.5930     6.3060     6.8060    -4.6090  -999.2500  -999.2500  -999.2500  -999.2500  -999.2500
  512.5000    99.6190   -36.6830     6.5430     6.2480     6.7620    -5.4890  -999.2500  -999.2500  -999.2500  -999.2500  -999.2500
  513.0000    99.0200   -39.0490     6.4930     6.1900     6.7170     0.0400  -999.2500  -999.2500  -999.2500  -999.2500  -999.2500
  513.5000    96.7500   -43.9530     6.4420     6.1380     6.6720     5.0700  -999.2500  -999.2500  -999.2500  -999.2500  -999.2500
  514.0000    96.6790   -48.3330     6.3920     6.2660     6.6280    10.1000  -999.2500  -999.2500  -999.2500  -999.2500  -999.2500
  514.5000    97.0090   -51.8290     6.4540     6.3810     6.6070    14.4710  -999.2500  -999.2500  -999.2500  -999.2500  -999.2500
  515.0000    98.1690   -51.8920     6.6180     6.4950     6.7550    11.6960  -999.2500  -999.2500  -999.2500  -999.2500  -999.2500
  515.5000    95.9850   -46.3520     6.7810     6.6100     6.9560     9.2420  -999.2500  -999.2500  -999.2500  -999.2500  -999.2500
  516.0000    91.9490   -41.1130     6.8540     6.7290     7.0460     6.7890  -999.2500  -999.2500  -999.2500  -999.2500  -999.2500
  516.5000    91.0900   -38.6260     6.8540     6.6630     7.0460     4.3350  -999.2500  -999.2500  -999.2500  -999.2500  -999.2500
  517.0000    94.4680   -38.3730     6.8320     6.5940     7.0460     1.8820  -999.2500  -999.2500  -999.2500  -999.2500  -999.2500
  517.5000   100.2190   -39.6850     6.7700     6.5250     6.9630    -0.5720  -999.2500  -999.2500  -999.2500  -999.2500  -999.2500
  518.0000   100.3950   -41.4570     6.7090     6.4560     6.8780    -3.0260  -999.2500  -999.2500  -999.2500  -999.2500  -999.2500
