~VERSION INFORMATION
 VERS.                2.0:   CWLS LOG ASCII STANDARD - VERSION 2.0
 WRAP.                 NO:   ONE LINE PER DEPTH STEP
~WELL INFORMATION
#MNEM.UNIT      DATA TYPE    INFORMATION
#----------   ------------   ------------------------------
 STRT.F         2200.0000:   START DEPTH
 STOP.F         3200.0000:   STOP DEPTH
 STEP.F            0.5000:   STEP LENGTH
 NULL.          -999.2500:   NO VALUE
 COMP.   LAWRENCE ALLISON:   COMPANY
 WELL. LAWRENCE "X" #18-34:   WELL
 FLD .          NPR NO. 3:   FIELD
 LOC .      S34 T39N R78W:   LOCATION
 CNTY.            NATRONA:   COUNTY
 STAT.            WYOMING:   STATE
 CTRY. UNITED STATES OF AMERICA:   COUNTRY
 SRVC.      DRESSER ATLAS:   SERVICE COMPANY
 DATE.        14-MAY-1986:   LOGDATE
 API .     49025110720000:   API NUMBER
~CURVE INFORMATION
#MNEM.UNIT       API CODE    CURVE DESCRIPTION
#----------   ------------   ------------------------------
 DEPT.F                  :   
 CALD.IN     45 280 60 00:   CALIPER FROM DENSITY LOG
 GRD .GAPI   45 310 01 00:   GAMMA RAY FROM DENSITY LOG
 TEND.LBS    45 635 01 00:   TENSION FORM DENSITY LOG
 CORR.G/C3   45 356 01 00:   DENSITY CORRECTION
 DEN .G/C3   45 350 01 00:   BULK DENSITY
 CNC .DEC    42 890 03 00:   NEUTRON POROSITY SANDSTONE
~PARAMETER INFORMATION
#MNEM.UNIT          VALUE    DESCRIPTION
#----------   ------------   ------------------------------
 EKB .F         5192.0000:   Kelly bushing
 EGL .F         5181.0000:   Ground level
 EDF .F         5189.0000:   Drilling floor
 TD  .F         3195.0000:   Total depth
 CLNT.            A2DTECH:   Client Code
 SL  . 722' FWL & 239' FSL:   Surface Location
 PD  .                 GL:   Permanent Datum
 EPD .F              5181:   Elevation Permanent Datum
 LMF .                 KB:   Log Measured From
 DMF .                 KB:   Drilling Measured From
 DAPD.F                11:   Feet Above Permanent Datum
 DATE.        14-MAY-1986:   Date Logged [DD-MMM-YYYY]
 DD  .F              3195:   Depth driller
 DL  .F              3194:   Depth logger
 BLI .F              3192:   Bottom log interval
 TLI .F                 0:   Top log interval
 CS1 .IN            8.625:   Casing size
 CBD1.      8.625" @ 601':   Casing driller 1
 CBL1.F               596:   Casing logger 1
 BS1 .IN            7.875:   Bit size
 BSD1.F              3195:   Depth drilled with bit1
 DFT .        POLYMER-KCL:   Type fluid in hole
 DFD .                  9:   Density
 DFV .                 35:   Viscosity
 DFPH.                9.5:   pH
 DFL .               16.2:   Fluid loss
 MSS .           FLOWLINE:   Source of sample
 RMS .OHMM          0.378:   Rm
 MST .F                65:   Rm Meas. temp.
 RMF .OHMM          0.306:   Rmf
 MFST.F                65:   Rmf Meas. temp.
 MFSS.               MEAS:   Source Rmf.
 RMC .OHMM          0.472:   Rmc
 MCST.F                65:   Rmc Meas. temp.
 MCSS.               CALC:   Source Rmc.
 RMB .OHMM          0.208:   Rm. at BHT
 BHT .F               118:   BHT.
 TCS .HRS               3:   Time Circ. stopped
 MRT .F               118:   Maximum recorded temp.
 LUN .            HL-6274:   Logging unit number
 LUL .           GILLETTE:   Logging unit location
 ENGI.             RAUTIO:   Recorded By
 WITN.             STRONG:   Witnessed by
 ORIG.           5" PRINT:   Origin of data
 UWI .     49025110720000:   Unique Well ID
 DICO. A2D TECHNOLOGIES, INC.:   Digitizing Company
~OTHER INFORMATION
~A  DEPT        CALD      GRD        TEND        CORR        DEN        CNC 
# ...
 3136.0000     8.0036   113.9781   110.0019     0.0062     2.4974     0.2420
 3136.5000     8.0032   113.6676   117.8195     0.0228     2.5012     0.2466
 3137.0000     8.0027   116.3738   110.6589     0.0016     2.4944     0.2490
 3137.5000     8.0023   118.4766   110.9510    -0.0045     2.4829     0.2497
 3138.0000     8.0169   119.7106   103.7241    -0.0184     2.4702     0.2496
 3138.5000     8.0164   121.7751   104.0161    -0.0243     2.4589     0.2494
 3139.0000     8.0159   126.5929   104.3081    -0.0275     2.4513     0.2494
 3139.5000     8.0155   128.0946   101.9794    -0.0410     2.4483     0.2491
 3140.0000     8.0150   126.2736    99.4641    -0.0351     2.4573     0.2461
 3140.5000     8.0146   124.7565   105.1879    -0.0094     2.4663     0.2431
 3141.0000     8.0142   122.6362   113.0076     0.0147     2.4731     0.2486
 3141.5000     8.0137   120.5157   128.3975     0.0267     2.4723     0.2568
 3142.0000     8.0133   122.0393   143.7270     0.0126     2.4701     0.2532
 3142.5000     8.0127   123.5126   144.0190    -0.0036     2.4708     0.2474
 3143.0000     8.0123   125.0121   151.8298    -0.0112     2.4700     0.2483
 3143.5000     8.0119   126.2099   152.1218    -0.0189     2.4693     0.2493
 3144.0000     8.0114   126.8067   159.9327    -0.0280     2.4678     0.2505
 3144.5000     8.0110   127.3990   167.7444  -999.2500  -999.2500     0.2524
 3145.0000     8.0105   128.2952   167.0447  -999.2500  -999.2500     0.2587
 3145.5000     8.0101   129.7947   160.8086  -999.2500  -999.2500     0.2605
 3146.0000     8.0097   130.0876   168.6924  -999.2500  -999.2500     0.2599
 3146.5000     7.9940   130.6821   168.9843  -999.2500  -999.2500     0.2572
 3147.0000     7.9936   132.4811   169.2764  -999.2500  -999.2500     0.2570
 3147.5000     7.9931   133.3795   169.5683  -999.2500  -999.2500     0.2597
 3148.0000     7.9927   133.0668   177.3792  -999.2500  -999.2500     0.2634
 3148.5000     7.9923   132.7586   177.6711  -999.2500  -999.2500     0.2649
 3149.0000     7.9918   134.8592   177.9699  -999.2500  -999.2500     0.2646
 3149.5000     7.9748   136.6604   185.8469  -999.2500  -999.2500     0.2685
 3150.0000     7.9744   138.4615   178.5471  -999.2500  -999.2500     0.2716
 3150.5000     7.9740   140.2627   186.4309  -999.2500  -999.2500     0.2710
 3151.0000     7.9737   140.8572   186.7229  -999.2500  -999.2500     0.2740
 3151.5000     7.9733   141.1501   194.5336  -999.2500  -999.2500     0.2781
 3152.0000     7.9729   139.9593   202.3445  -999.2500  -999.2500     0.2819
 3152.5000     7.9725  -999.2500   202.6364  -999.2500  -999.2500     0.2786
 3153.0000     7.9721  -999.2500   210.4511  -999.2500  -999.2500     0.2702
 3153.5000     7.9718  -999.2500   215.0812  -999.2500  -999.2500     0.2692
 3154.0000     7.9714  -999.2500   221.0044  -999.2500  -999.2500     0.2749
 3154.5000     7.9710  -999.2500   226.9276  -999.2500  -999.2500     0.2864
 3155.0000     7.9706  -999.2500   232.8508  -999.2500  -999.2500     0.2940
 3155.5000     7.9703  -999.2500   238.7740  -999.2500  -999.2500     0.2997
 3156.0000     7.9699  -999.2500   242.3503  -999.2500  -999.2500     0.2982
 3156.5000     7.9695  -999.2500   250.1613  -999.2500  -999.2500     0.2921
 3157.0000     7.9691  -999.2500   257.9724  -999.2500  -999.2500     0.2861
 3157.5000     7.9687  -999.2500   258.2707  -999.2500  -999.2500     0.2873
 3158.0000     7.9684  -999.2500   266.1487  -999.2500  -999.2500     0.2930
 3158.5000     7.9680  -999.2500   266.4408  -999.2500  -999.2500     0.2985
 3159.0000     7.9676  -999.2500   274.2519  -999.2500  -999.2500     0.3000
 3159.5000     7.9672  -999.2500   274.5442  -999.2500  -999.2500  -999.2500
 3160.0000     7.9669  -999.2500   274.8364  -999.2500  -999.2500  -999.2500
 3160.5000     7.9665  -999.2500   282.6475  -999.2500  -999.2500  -999.2500
 3161.0000     7.9661  -999.2500   290.4584  -999.2500  -999.2500  -999.2500
 3161.5000     7.9657  -999.2500   290.8727  -999.2500  -999.2500  -999.2500
 3162.0000     7.9653  -999.2500   298.5715  -999.2500  -999.2500  -999.2500
 3162.5000     7.9650  -999.2500   298.9270  -999.2500  -999.2500  -999.2500
 3163.0000     7.9646  -999.2500   306.7380  -999.2500  -999.2500  -999.2500
 3163.5000     7.9642  -999.2500   307.0303  -999.2500  -999.2500  -999.2500
 3164.0000     7.9638  -999.2500   307.3224  -999.2500  -999.2500  -999.2500
 3164.5000     7.9634  -999.2500   315.1335  -999.2500  -999.2500  -999.2500
 3165.0000     7.9631  -999.2500   322.9445  -999.2500  -999.2500  -999.2500
 3165.5000     7.9627  -999.2500   330.7556  -999.2500  -999.2500  -999.2500
 3166.0000     7.9623  -999.2500   331.0527  -999.2500  -999.2500  -999.2500
 3166.5000     7.9619  -999.2500   338.9319  -999.2500  -999.2500  -999.2500
 3167.0000     7.9616  -999.2500   339.2240  -999.2500  -999.2500  -999.2500
 3167.5000     7.9612  -999.2500   347.0351  -999.2500  -999.2500  -999.2500
 3168.0000     7.9608  -999.2500   354.8461  -999.2500  -999.2500  -999.2500
 3168.5000     7.9604  -999.2500   362.6572  -999.2500  -999.2500  -999.2500
 3169.0000     7.9600  -999.2500   370.4681  -999.2500  -999.2500  -999.2500
 3169.5000     7.9597  -999.2500   378.2792  -999.2500  -999.2500  -999.2500
 3170.0000     7.9593  -999.2500   378.5715  -999.2500  -999.2500  -999.2500
 3170.5000     7.9589  -999.2500   386.3910  -999.2500  -999.2500  -999.2500
 3171.0000     7.9585  -999.2500   394.2665  -999.2500  -999.2500  -999.2500
 3171.5000     7.9582  -999.2500   402.0776  -999.2500  -999.2500  -999.2500
 3172.0000     7.9578  -999.2500   409.8887  -999.2500  -999.2500  -999.2500
 3172.5000     7.9574  -999.2500   410.1808  -999.2500  -999.2500  -999.2500
 3173.0000     7.9570  -999.2500   417.9919  -999.2500  -999.2500  -999.2500
 3173.5000     7.9566  -999.2500   425.8029  -999.2500  -999.2500  -999.2500
 3174.0000     7.9563  -999.2500   426.0952  -999.2500  -999.2500  -999.2500
 3174.5000     7.9559  -999.2500   433.9098  -999.2500  -999.2500  -999.2500
 3175.0000     7.9555  -999.2500   441.7294  -999.2500  -999.2500  -999.2500
 3175.5000     7.9551  -999.2500   449.6012  -999.2500  -999.2500  -999.2500
 3176.0000     7.9548  -999.2500   457.4123  -999.2500  -999.2500  -999.2500
 3176.5000     7.9544  -999.2500   457.7044  -999.2500  -999.2500  -999.2500
 3177.0000     7.9540  -999.2500   465.5155  -999.2500  -999.2500  -999.2500
 3177.5000     7.9536  -999.2500   465.8077  -999.2500  -999.2500  -999.2500
 3178.0000     7.9532  -999.2500   473.6188  -999.2500  -999.2500  -999.2500
 3178.5000     7.9529  -999.2500   481.4297  -999.2500  -999.2500  -999.2500
 3179.0000     7.9525  -999.2500   489.2481  -999.2500  -999.2500  -999.2500
 3179.5000     7.9521  -999.2500   497.1248  -999.2500  -999.2500  -999.2500
 3180.0000     7.9517  -999.2500   504.9359  -999.2500  -999.2500  -999.2500
 3180.5000     7.9513  -999.2500   512.7469  -999.2500  -999.2500  -999.2500
 3181.0000     7.9510  -999.2500   520.5580  -999.2500  -999.2500  -999.2500
 3181.5000     7.9506  -999.2500   528.3690  -999.2500  -999.2500  -999.2500
 3182.0000     7.9502  -999.2500   543.6989  -999.2500  -999.2500  -999.2500
 3182.5000     7.9498  -999.2500   551.5099  -999.2500  -999.2500  -999.2500
 3183.0000     7.9495  -999.2500   559.3234  -999.2500  -999.2500  -999.2500
 3183.5000     7.9491  -999.2500   568.2623  -999.2500  -999.2500  -999.2500
 3184.0000     7.9487  -999.2500   582.5348  -999.2500  -999.2500  -999.2500
 3184.5000     7.9483  -999.2500   590.3459  -999.2500  -999.2500  -999.2500
 3185.0000     7.9479  -999.2500   598.1569  -999.2500  -999.2500  -999.2500
 3185.5000     7.9476  -999.2500   605.9680  -999.2500  -999.2500  -999.2500
 3186.0000     7.9472  -999.2500   613.7789  -999.2500  -999.2500  -999.2500
 3186.5000     7.9468  -999.2500   621.5900  -999.2500  -999.2500  -999.2500
 3187.0000     7.9464  -999.2500   629.4009  -999.2500  -999.2500  -999.2500
 3187.5000     7.9461  -999.2500   637.2181  -999.2500  -999.2500  -999.2500
