~VERSION INFORMATION
 VERS.                2.0:   CWLS LOG ASCII STANDARD - VERSION 2.0
 WRAP.                 NO:   ONE LINE PER DEPTH STEP
~WELL INFORMATION
#MNEM.UNIT      DATA TYPE    INFORMATION
#----------   ------------   ------------------------------
 STRT.F            0.0000:   START DEPTH
 STOP.F         4152.0000:   STOP DEPTH
 STEP.F            0.5000:   STEP LENGTH
 NULL.          -999.2500:   NO VALUE
 COMP. LAWRENCE ALLISON & ASSOCIATES:   COMPANY
 WELL. LAWRENCE "X" #28-27:   WELL
 FLD .             NPR #3:   FIELD
 LOC .      S27 T39N R78W:   LOCATION
 CNTY.            NATRONA:   COUNTY
 STAT.            WYOMING:   STATE
 CTRY. UNITED STATES OF AMERICA:   COUNTRY
 SRVC.      DRESSER ATLAS:   SERVICE COMPANY
 DATE.        26-FEB-1984:   LOGDATE
 API .     49025109630000:   API NUMBER
~CURVE INFORMATION
#MNEM.UNIT       API CODE    CURVE DESCRIPTION
#----------   ------------   ------------------------------
 DEPT.F                  :   
 GRR .GAPI   07 310 01 00:   GAMMA RAY FROM RES.
 TENR.LBS    07 635 01 00:   TENSION FROM RES.
 SPR .MV     07 010 01 00:   SPONTANEOUS POTENTIAL
 RILD.OHMM   07 120 46 00:   RESISTIVITY INDUCTION LOG DEEP
 RILM.OHMM   07 120 44 00:   RESISTIIVTY INDUCTION LOG MEDIUM
 RFOC.OHMM   07 220 04 00:   RESISTIVITY FOCUSED LOG
 DT  .US/F   60 520 00 00:   DELTA TIME
 TENS.LBS    60 635 01 00:   TENSION FROM SONIC
 CALD.IN     45 280 60 00:   CALIPER FROM DENSITY LOG
 TEND.LBS    45 635 01 00:   TENSION FORM DENSITY LOG
 CNC .DEC    42 890 03 00:   NEUTRON POROSITY SANDSTONE
 CORR.G/C3   45 356 01 00:   DENSITY CORRECTION
 DENS.G/C3   45 350 01 00:   DENSITY
~PARAMETER INFORMATION
#MNEM.UNIT          VALUE    DESCRIPTION
#----------   ------------   ------------------------------
 EKB .F         5088.0000:   Kelly bushing
 EGL .F         5078.0000:   Ground level
 EDF .F            0.0000:   Drilling floor
 TD  .F         4154.0000:   Total depth
 CLNT.            A2DTECH:   Client Code
 SL  . 250' FSL & 810' FWL:   Surface Location
 PD  .                 GL:   Permanent Datum
 EPD .F              5078:   Elevation Permanent Datum
 LMF .                 KB:   Log Measured From
 DMF .                 KB:   Drilling Measured From
 DAPD.F                10:   Feet Above Permanent Datum
 DATE.        26-FEB-1984:   Date Logged [DD-MMM-YYYY]
 DD  .F              4154:   Depth driller
 DL  .F              4148:   Depth logger
 BLI .F              4146:   Bottom log interval
 TLI .F                 0:   Top log interval
 CS1 .IN            8.625:   Casing size
 CBD1.      8.625" @ 537':   Casing driller 1
 CBL1.F               540:   Casing logger 1
 BS1 .IN            7.875:   Bit size
 BSD1.F              4154:   Depth drilled with bit1
 DFT .            GEL KCL:   Type fluid in hole
 DFD .                  9:   Density
 DFV .                 45:   Viscosity
 DFPH.                  8:   pH
 DFL .                 14:   Fluid loss
 MSS .           FLOWLINE:   Source of sample
 RMS .OHMM          0.595:   Rm
 MST .F                60:   Rm Meas. temp.
 RMF .OHMM          0.446:   Rmf
 MFST.F                60:   Rmf Meas. temp.
 MFSS.               CALC:   Source Rmf.
 RMC .OHMM          0.744:   Rmc
 MCST.F                60:   Rmc Meas. temp.
 MCSS.               CALC:   Source Rmc.
 RMB .OHMM           0.26:   Rm. at BHT
 BHT .F               138:   BHT.
 TCS .HRS               4:   Time Circ. stopped
 MRT .F               138:   Maximum recorded temp.
 LUN .               6307:   Logging unit number
 LUL .               GLTE:   Logging unit location
 ENGI.           FAHLSING:   Recorded By
 WITN.           JENNINGS:   Witnessed by
 ORIG.      1" 2.5" PRINT:   Origin of data
 UWI .     49025109630000:   Unique Well ID
 DICO. A2D TECHNOLOGIES, INC.:   Digitizing Company
~OTHER INFORMATION
~A    DEPT       GRR     TENR        SPR       RILD       RILM       RFOC         DT       TENS       CALD       TEND        CNC       CORR       DENS   
# ...
 2678.0000    96.2660   -12.3254   -24.0911     5.1113     5.2634     5.5206    87.6476   -65.4519     8.5188   -20.0000     0.1872     0.0522     2.4718
 2678.5000    81.4814    -2.3009   -22.8310     6.0714     6.0880     5.8375    85.9909   -65.6706     8.5195   -20.0000     0.1830     0.0493     2.4669
 2679.0000    72.5242    -0.1479   -21.9271     7.0562     6.6095     6.3990    83.0657   -65.8892     8.5201   -20.0000     0.1818     0.0523     2.4642
 2679.5000    65.9623    -0.8858   -20.7257     7.6606     7.1757     6.9407    81.6058   -66.1079     8.5206   -20.0000     0.1818     0.0555     2.4665
 2680.0000    70.4588    -1.4793   -20.3968     8.0934     7.9414     7.4125    80.1460   -66.3265     8.5212   -20.0000     0.1811     0.0584     2.4718
 2680.5000    80.2988    -2.1450   -19.9239     8.2079     8.2314     7.8809    80.6964   -66.5452     8.5218   -20.0000     0.1780     0.0392     2.4718
 2681.0000    87.7121    -2.8106   -19.5000     8.1004     7.9128     8.1021    81.4444   -66.7638     8.5224   -20.0000     0.1796     0.0314     2.4718
 2681.5000    92.8991    -3.4763   -19.4881     8.1050     7.6996     7.8888    81.7518   -67.0003     8.5230   -20.0000     0.1915     0.0405     2.4718
 2682.0000    96.0393    -8.6292   -18.8795     8.1093     7.8102     7.7204    81.6058   -52.6233     8.5237   -20.0000     0.1993     0.0556     2.4722
 2682.5000    94.8666   -19.6006   -18.8685     8.1129     7.7090     7.2046    81.3139   -67.4198     8.5243   -20.0000     0.2023     0.0436     2.4733
 2683.0000    91.2652   -20.2663   -18.2619     8.0007     7.5927     6.9829    81.4900   -67.6385     8.5248   -20.0000     0.2005     0.0376     2.4764
 2683.5000    90.7248   -20.9320   -18.5488     7.6894     7.3762     6.7173    81.8098   -59.6740     8.5255   -20.0000     0.1992     0.0385     2.4779
 2684.0000    91.3533   -21.5976   -18.8355     7.4474     7.1659     6.7207    81.6058   -53.4985     8.5261   -20.0000     0.1970     0.0450     2.4839
 2684.5000    92.3095   -22.2633   -19.2831     7.2888     7.0259     6.8161    81.6058   -53.7240     8.5267   -20.0000     0.1935     0.0558     2.4885
 2685.0000    93.8059   -23.0467   -19.7008     7.0967     6.9352     6.7984    81.6058   -53.9359     8.5274   -20.0000     0.1873     0.0589     2.4834
 2685.5000    95.0284   -23.5947   -19.9881     7.0038     6.7512     6.6586    81.6517   -39.5470     8.5279   -20.0000     0.1927     0.0529     2.4794
 2686.0000    95.0539   -24.2747   -20.2877     6.9120     6.6656     6.3789    82.0944   -39.7959     8.5285   -20.0000     0.1951     0.0560     2.4808
 2686.5000    95.8062   -24.9260   -20.5607     6.8022     6.5475     6.2113    82.2682   -40.0475     8.5291   -20.0000     0.1971     0.0566     2.4855
 2687.0000    96.3054   -25.5917   -20.5476     6.5512     6.4015     6.0481    82.1898   -41.8569     8.5297   -20.0000     0.1989     0.0642     2.4870
 2687.5000    96.6070   -26.2574   -20.5357     6.3258     6.3246     6.0514    82.1898   -43.9867     8.5303   -20.0000     0.2011     0.0712     2.4840
 2688.0000    95.1653   -27.0378   -20.5222     5.9618     5.9934     6.0547    81.8823   -46.1164     8.5310   -20.0000     0.2023     0.0381     2.4808
 2688.5000    95.7890   -27.6518   -20.2136     5.8836     5.9969     6.0580    81.6058   -48.2462     8.5316   -20.0000     0.1981     0.0231     2.4761
 2689.0000    96.4575   -28.2544   -20.1914     5.8893     6.0006     6.0619    81.6058   -50.3760     8.5322   -20.0000     0.1939     0.0623     2.4723
 2689.5000    99.5607   -26.9770   -19.8929     5.9697     6.0043     6.0649    81.6058   -52.5057     8.5327   -20.0000     0.1956     0.0878     2.4681
 2690.0000   105.7862   -14.7009   -19.8810     5.8915     5.8474     5.8256    81.6058   -54.6355     8.5333   -20.0000     0.2038     0.0955     2.4659
 2690.5000   112.1388   -15.4586   -19.8690     5.8105     5.6932     5.3947    81.6224   -56.7652     8.5339   -20.0000     0.2048     0.0814     2.4720
 2691.0000   115.0876   -16.2357   -19.8555     5.6618     5.5439     4.7219    82.1519   -58.8950     8.5345   -20.0000     0.2041     0.0534     2.4840
 2691.5000   114.5137   -16.8497   -19.5469     5.5874     5.4721     4.6318    83.5122   -61.0247     8.5352   -20.0000     0.1987     0.0474     2.4973
 2692.0000   108.5506   -17.4637   -19.8335     5.5901     5.4756     5.1668    85.2555   -63.1545     8.5358   -20.0000     0.1963     0.0475     2.5120
 2692.5000   108.5778   -18.1213   -19.8214     5.6075     5.5108     5.6851    85.2822   -65.2843     8.5364   -20.0000     0.1945     0.0475     2.5179
 2693.0000   108.1777    -3.8988   -19.9157     5.6999     5.6341     5.7658    84.2281   -67.4140     8.5673   -20.0000     0.1918     0.0481     2.5179
 2693.5000   105.6111    -4.6598   -20.0952     5.7939     5.7145     5.5293    82.8048   -69.5438     8.5679   -20.0000     0.1864     0.0566     2.5142
 2694.0000   105.0659    -5.3254   -20.0816     5.9149     5.9560     5.4663    82.1898   -71.6735     8.5685   -20.0000     0.1896     0.0477     2.5142
 2694.5000   105.0947   -20.8409   -20.0706     6.1644     6.1332     5.8488    82.4818   -67.2598     8.5692   -20.0000     0.1933     0.0357     2.5158
 2695.0000   106.3174   -21.4549   -20.0595     6.2532     6.2116     6.4422    82.3358   -58.3779     8.5395   -20.0000     0.1903     0.0351     2.5193
 2695.5000   107.6508   -22.1154   -20.3462     6.4275     5.9747     6.8054    81.4599   -49.4961     8.5400   -20.0000     0.1861     0.0689     2.5273
 2696.0000   108.1634   -22.7811   -20.4365     6.3706     5.7317     6.6263    80.6658   -44.1691     8.5406   -20.0000     0.1817     0.0960     2.5390
 2696.5000   104.5879   -23.4467   -20.9167     5.9286     5.7196     5.6661    79.9509   -44.3878     8.5412   -20.0000     0.1777     0.0961     2.5460
 2697.0000   103.4311   -24.2177   -21.7958     5.9319     5.7388     5.1508    79.8618   -44.6064     8.5418   -20.0000     0.1725     0.0931     2.5475
 2697.5000   104.0589   -24.8317   -22.6777     5.9345     5.9121     5.0250    82.5111   -44.8251     8.5424   -20.0000     0.1586     0.0867     2.5565
 2698.0000   104.0838   -25.4457   -22.6667     6.1022     6.0671     4.9925    83.2117   -45.0844     8.5431   -20.0000     0.1512     0.0691     2.5705
 2698.5000   104.1108   -26.1095   -22.9533     6.3023     6.2797     5.1330    82.7942   -45.2846     8.5437   -20.0000     0.1542     0.0571     2.5761
 2699.0000    98.5320   -26.7751   -23.0406     6.5676     6.5918     5.7251    81.6058   -45.4847     8.5442   -20.0000     0.1645     0.0602     2.5735
 2699.5000    88.5806   -27.4408   -23.2262     6.7675     6.8703     6.3425    79.7080   -31.1076     8.5448   -20.0000     0.1722     0.0673     2.5686
 2700.0000    85.0299   -28.0648   -23.5101     7.0055     7.1605     6.8384    75.7664   -31.3411     8.5455   -20.0000     0.1814     0.0763     2.5596
 2700.5000    87.4542   -28.5950   -23.7976     6.9138     7.1319     6.7498    75.0088   -31.5598     8.5461   -20.0000     0.1938     0.0717     2.5536
 2701.0000    92.2695   -29.1252   -24.0833     6.2876     6.3191     6.0585    75.8629   -31.8081     8.5468   -20.0000     0.2096     0.0906     2.5496
 2701.5000    97.6679   -29.6553   -24.4172     5.7593     5.3157     5.5117    77.9132   -46.5856     8.5473   -20.0000     0.2114     0.0937     2.5457
 2702.0000   109.4449   -23.9598   -24.9542     5.2517     4.9047     5.1497    80.0000   -32.2084     8.5479   -20.0000     0.2018     0.0938     2.5281
 2702.5000   121.6441   -15.9024   -25.0868     4.8282     4.8411     4.7929    81.6058   -32.4086     8.5788   -20.0000     0.2042     0.0908     2.5251
 2703.0000   133.1001   -16.4681   -25.2262     4.6681     4.6501     4.3590    82.9539   -32.1209     8.5794   -20.0000     0.2048     0.0809     2.5251
 2703.5000   140.3106   -16.9413   -25.5119     4.5449     4.5777     4.0391    84.8226   -31.8637     8.5800   -20.0000     0.2036     0.0611     2.5267
