~VERSION INFORMATION
 VERS.                2.0:   CWLS LOG ASCII STANDARD - VERSION 2.0
 WRAP.                 NO:   ONE LINE PER DEPTH STEP
~WELL INFORMATION
#MNEM.UNIT      DATA TYPE    INFORMATION
#----------   ------------   ------------------------------
 STRT.F            6.0000:   START DEPTH
 STOP.F         3190.0000:   STOP DEPTH
 STEP.F            0.5000:   STEP LENGTH
 NULL.          -999.2500:   NO VALUE
 COMP. LAWRENCE ALLISON & ASSOCIATES:   COMPANY
 WELL. LAWRENCE N. P. R. 73AX #3-3:   WELL
 FLD .              N P R:   FIELD
 LOC .       S3 T38N R78W:   LOCATION
 CNTY.            NATRONA:   COUNTY
 STAT.            WYOMING:   STATE
 CTRY. UNITED STATES OF AMERICA:   COUNTRY
 SRVC.      DRESSER ATLAS:   SERVICE COMPANY
 DATE.        04-JUN-1986:   LOGDATE
 API .     49025110910000:   API NUMBER
~CURVE INFORMATION
#MNEM.UNIT       API CODE    CURVE DESCRIPTION
#----------   ------------   ------------------------------
 DEPT.F                  :   
 CALD.IN     45 280 60 00:   CALIPER FROM DENSITY LOG
 DEN .LBS    45 635 01 00:   BUCK DENSITY
 CORR.G/C3   45 356 01 00:   DENSITY CORRECTION
 TEND.LBS    45 635 01 00:   TENSION FROM DENSITY LOG
 SPR .MV     07 010 01 00:   SPONTANEOUS POTENTIAL
 GRR .GAPI   07 310 01 00:   GAMMA RAY FROM RESISTIVITY
 SFLU.OHMM   07 220 01 00:   SPHERICALLY FOCUSED LOG UNAVERAGED RESISTIVITY
 ILD .OHMM   07 120 46 00:   DEEP INDUCTION RESISTIVITY
 ILM .OHMM   07 120 44 00:   INDUCTION LOG MEDIUM RESISTIVITY
 TENR.LBS    07 635 01 00:   TENSION FROM RESISTIVITY
 CNC .DEC    42 890 01 00:   NEUTRON PORISITY LIMESTONE
~PARAMETER INFORMATION
#MNEM.UNIT          VALUE    DESCRIPTION
#----------   ------------   ------------------------------
 EKB .F         5173.0000:   Kelly bushing
 EGL .F         5161.0000:   Ground level
 TD  .F         3170.0000:   Total depth
 DATE.        04-JUN-1986:   Date logged
 CLNT.            A2DTECH:   Client Code
 PD  .                 GL:   Permanent Datum
 EPD .F              5161:   Elevation Permanent Datum
 LMF .                 KB:   Log Measured From
 DMF .                 KB:   Drilling Measured From
 DAPD.F                12:   Feet Above Permanent Datum
 DD  .F              3170:   Depth driller
 DL  .F              3168:   Depth logger
 BLI .F               8.9:   Bottom log interval
 TLI .F                38:   Top log interval
 CS1 .IN            8.625:   Casing size
 CBD1.      8.625" @ 603':   Casing driller 1
 CBL1.F               602:   Casing logger 1
 BS1 .IN            7.875:   Bit size
 BSD1.F              3170:   Depth drilled with bit1
 DFT .        KCL/POLYMER:   Type fluid in hole
 DFD .                8.9:   Density
 DFV .                 38:   Viscosity
 DFPH.                9.0:   pH
 DFL .               13.2:   Fluid loss
 MSS .           FLOWLINE:   Source of sample
 RMS .OHMM           .446:   Rm
 MST .F                64:   Rm Meas. temp.
 RMF .OHMM           .361:   Rmf
 MFST.F                64:   Rmf Meas. temp.
 RMC .OHMM            .56:   Rmc
 MCST.F                64:   Rmc Meas. temp.
 MFSS.               MEAS:   Source Rmf.
 MCSS.               CALC:   Source Rmc.
 RMB .OHMM           .242:   Rm. at BHT
 BHT .F               118:   BHT.
 TCS .HRS               3:   Time Circ. stopped
 MRT .F               118:   Maximum recorded temp.
 LUN .               6274:   Logging unit number
 LUL .           GILLETTE:   Logging unit location
 WITN.             STRONG:   Witnessed by
 ORIG.           5" PRINT:   Origin of data
 UWI .     49025110910000:   Unique Well ID
 DICO. A2D TECHNOLOGIES, INC.:   Digitizing Company
~OTHER INFORMATION
~A    DEPT    CALD        DEN       CORR       TEND        SPR         GRR      SFLU        ILD        ILM       TENR        CNC   
# ...
 1958.0000  -999.2500  -999.2500  -999.2500  -999.2500   -55.5193   115.0963    10.2759     9.8617     8.8571   -56.9158  -999.2500
 1958.5000  -999.2500  -999.2500  -999.2500  -999.2500   -55.7229   114.6894     9.9011     9.7954     8.9390   -56.8161  -999.2500
 1959.0000  -999.2500  -999.2500  -999.2500  -999.2500   -55.7254   114.2825     9.7185     9.7294     8.9383   -66.7870  -999.2500
 1959.5000  -999.2500  -999.2500  -999.2500  -999.2500   -55.7275   113.8756     9.8082     9.6640     9.0208   -66.6277  -999.2500
 1960.0000  -999.2500  -999.2500  -999.2500  -999.2500   -56.1326   113.0666     9.8988     9.5989     9.0201   -66.5878  -999.2500
 1960.5000  -999.2500  -999.2500  -999.2500  -999.2500   -55.9341   110.6492    10.0834     9.5344     9.1035   -66.4882  -999.2500
 1961.0000  -999.2500  -999.2500  -999.2500  -999.2500   -55.9366   109.0359    10.4636     9.4702     9.0188   -56.3181  -999.2500
 1961.5000  -999.2500  -999.2500  -999.2500  -999.2500   -55.9372   106.6184    10.7579     9.4065     9.0182   -66.2890  -999.2500
 1962.0000  -999.2500  -999.2500  -999.2500  -999.2500   -56.5449   104.6030    10.4620     9.3432     8.8520   -66.2292  -999.2500
 1962.5000  -999.2500  -999.2500  -999.2500  -999.2500   -56.3464   105.4013     9.8953     9.2733     8.3723   -45.9488  -999.2500
 1963.0000  -999.2500  -999.2500  -999.2500  -999.2500   -56.3489   110.2218     9.5345     9.1876     8.1420   -45.8492  -999.2500
 1963.5000  -999.2500  -999.2500  -999.2500  -999.2500   -56.5531   113.8360     9.1866     9.0580     7.9918   -55.8201  -999.2500
 1964.0000  -999.2500  -999.2500  -999.2500  -999.2500   -55.9524   113.8312     8.9339     8.9303     7.9913   -65.7710  -999.2500
 1964.5000  -999.2500  -999.2500  -999.2500  -999.2500   -56.1560   111.4135     8.8508     8.8043     7.9907   -55.6009  -999.2500
 1965.0000  -999.2500  -999.2500  -999.2500  -999.2500   -55.7564   107.7895     9.0158     8.6802     7.9901   -65.5718  -999.2500
 1965.5000  -999.2500  -999.2500  -999.2500  -999.2500   -55.3553   106.5782     9.1839     8.5577     7.9895   -65.4722  -999.2500
 1966.0000  -999.2500  -999.2500  -999.2500  -999.2500   -55.7164   106.1711     9.1832     8.4370     7.9152   -65.3726  -999.2500
 1966.5000  -999.2500  -999.2500  -999.2500  -999.2500   -56.1662   114.6113     9.1826     8.3180     7.8416   -55.2025  -999.2500
 1967.0000  -999.2500  -999.2500  -999.2500  -999.2500   -56.7720   120.6387     8.8475     8.2007     7.6969   -55.1029  -999.2500
 1967.5000  -999.2500  -999.2500  -999.2500  -999.2500   -57.3778   125.8619     8.7652     8.0634     7.5548   -55.0033  -999.2500
 1968.0000  -999.2500  -999.2500  -999.2500  -999.2500   -57.5814   124.6507     8.7646     7.6515     7.2792   -54.9037  -999.2500
 1968.5000  -999.2500  -999.2500  -999.2500  -999.2500   -58.3883   122.2330     8.8456     7.5802     7.0137   -64.8746  -999.2500
 1969.0000  -999.2500  -999.2500  -999.2500  -999.2500   -58.3909   120.6196     8.6822     7.4403     7.0132   -54.7045  -999.2500
 1969.5000  -999.2500  -999.2500  -999.2500  -999.2500   -58.3929   120.2127     8.5223     7.5091     6.9479   -64.6554  -999.2500
 1970.0000  -999.2500  -999.2500  -999.2500  -999.2500   -58.3960   119.4036     8.2114     7.4393     7.0121   -64.5758  -999.2500
 1970.5000  -999.2500  -999.2500  -999.2500  -999.2500   -57.7953   114.1686     8.0599     7.5080     6.8193   -74.5466  -999.2500
 1971.0000  -999.2500  -999.2500  -999.2500  -999.2500   -57.7979   111.3494     7.8383     7.3694     6.8823   -64.3765  -999.2500
 1971.5000  -999.2500  -999.2500  -999.2500  -999.2500   -57.5993   108.9314     7.9107     7.4375     7.0106   -54.2463  -999.2500
 1972.0000  -999.2500  -999.2500  -999.2500  -999.2500   -57.8035   108.9266     8.2090     7.3683     7.2078   -64.1773  -999.2500
 1972.5000  -999.2500  -999.2500  -999.2500  -999.2500   -57.6050   112.9436     8.5185     7.5058     7.2744   -54.0072  -999.2500
 1973.0000  -999.2500  -999.2500  -999.2500  -999.2500   -57.4064   116.1564     8.6773     7.5052     7.2739   -53.8877  -999.2500
 1973.5000  -999.2500  -999.2500  -999.2500  -999.2500   -57.2079   120.1736     8.6767     7.5047     7.2733   -53.7881  -999.2500
 1974.0000  -999.2500  -999.2500  -999.2500  -999.2500   -57.0094   120.5710     8.7569     7.8349     7.3406   -63.7590  -999.2500
 1974.5000  -999.2500  -999.2500  -999.2500  -999.2500   -56.6097   116.5441     8.9202     7.8343     7.3400   -53.6088  -999.2500
 1975.0000  -999.2500  -999.2500  -999.2500  -999.2500   -56.2100   110.9083     8.8371     7.8336     7.2717   -63.5598  -999.2500
 1975.5000  -999.2500  -999.2500  -999.2500  -999.2500   -56.4137   107.2835     8.8364     7.8330     7.1375   -53.3897  -999.2500
 1976.0000  -999.2500  -999.2500  -999.2500  -999.2500   -56.4162   106.4742     8.7542     7.8324     7.0711   -53.2900  -999.2500
 1976.5000  -999.2500  -999.2500  -999.2500  -999.2500   -56.8210   106.0670     8.7536     7.8318     7.0053   -63.2609  -999.2500
 1977.0000  -999.2500  -999.2500  -999.2500  -999.2500   -57.0247   107.2688     8.5921     7.8312     7.0700   -63.1613  -999.2500
 1977.5000  -999.2500  -999.2500  -999.2500  -999.2500   -57.0272   109.6773     8.5915     7.7691     7.0695   -52.9912  -999.2500
 1978.0000  -999.2500  -999.2500  -999.2500  -999.2500   -57.2309   109.6724     8.6709     7.7075     7.0690   -52.8916  -999.2500
 1978.5000  -999.2500  -999.2500  -999.2500  -999.2500   -56.8292   112.0810     8.5902     7.6464     7.1343   -52.7920  -999.2500
 1979.0000  -999.2500  -999.2500  -999.2500  -999.2500   -57.2360   115.2932     8.5103     7.5857     7.1338   -52.6924  -999.2500
 1979.5000  -999.2500  -999.2500  -999.2500  -999.2500   -57.2386   121.3221     8.3534     7.5256     7.1333   -42.5024  -999.2500
 1980.0000  -999.2500  -999.2500  -999.2500  -999.2500   -57.8450   125.3399     8.3527     7.4732     7.1327   -52.4334  -999.2500
 1980.5000  -999.2500  -999.2500  -999.2500  -999.2500   -57.6465   123.7261     8.3521     7.4036     7.1324   -52.4135  -999.2500
 1981.0000  -999.2500  -999.2500  -999.2500  -999.2500   -58.2524   121.3078     8.4293     7.4888     7.0659   -52.2940  -999.2500
 1981.5000  -999.2500  -999.2500  -999.2500  -999.2500   -58.2550   119.2917     8.5072     7.5750     7.0653   -62.2649  -999.2500
 1982.0000  -999.2500  -999.2500  -999.2500  -999.2500   -58.2555   118.0801     8.3503     7.6815     7.1306   -52.0748  -999.2500
 1982.5000  -999.2500  -999.2500  -999.2500  -999.2500   -57.8800   114.4549     8.3497     7.6813     7.1301   -72.1162  -999.2500
 1983.0000  -999.2500  -999.2500  -999.2500  -999.2500   -57.4587   110.4272     8.5053     7.5382     7.1296   -51.8756  -999.2500
 1983.5000  -999.2500  -999.2500  -999.2500  -999.2500   -57.0584   108.0087     9.1595     7.3977     6.9334   -61.8664  -999.2500
 1984.0000  -999.2500  -999.2500  -999.2500  -999.2500   -56.8598   108.4061     9.1589     7.2599     6.6804   -51.6764  -999.2500
 1984.5000  -999.2500  -999.2500  -999.2500  -999.2500   -56.4601   111.2172     8.3471     7.1247     6.3772   -51.5768  -999.2500
 1985.0000  -999.2500  -999.2500  -999.2500  -999.2500   -56.4627   113.6261     7.9684     6.9334     6.3179   -71.6381  -999.2500
 1985.5000  -999.2500  -999.2500  -999.2500  -999.2500   -56.2641   114.8282     7.4670     6.9578     6.3763   -61.4481  -999.2500
 1986.0000  -999.2500  -999.2500  -999.2500  -999.2500   -56.0655   116.8349     7.2616     6.9822     6.4352   -61.3485  -999.2500
 1986.5000  -999.2500  -999.2500  -999.2500  -999.2500   -56.0665   117.6347     7.2611     7.0067     6.6163   -61.2489  -999.2500
 1987.0000  -999.2500  -999.2500  -999.2500  -999.2500   -56.8553   116.0197     7.8196     7.0313     6.7396   -61.1493  -999.2500
 1987.5000  -999.2500  -999.2500  -999.2500  -999.2500   -57.0789   115.6125     8.3435     7.0560     6.8019   -61.0497  -999.2500
 1988.0000  -999.2500  -999.2500  -999.2500  -999.2500   -57.2826   115.6077     8.8202     7.0808     6.8648   -60.9501  -999.2500
