~VERSION INFORMATION
 VERS.                2.0:   CWLS LOG ASCII STANDARD - VERSION 2.0
 WRAP.                 NO:   ONE LINE PER DEPTH STEP
~WELL INFORMATION
#MNEM.UNIT      DATA TYPE    INFORMATION
#----------   ------------   ------------------------------
 STRT.F          387.0000:   START DEPTH
 STOP.F         2921.0000:   STOP DEPTH
 STEP.F            0.5000:   STEP LENGTH
 NULL.          -999.2500:   NO VALUE
 COMP.    FENIX & SCISSON:   COMPANY
 WELL.  FENIX  "A" #21-28:   WELL
 FLD .          N.P.R. #3:   FIELD
 LOC .      S28 T39N R78W:   LOCATION
 CNTY.            NATRONA:   COUNTY
 STAT.            WYOMING:   STATE
 CTRY. UNITED STATES OF AMERICA:   COUNTRY
 SRVC.       SCHLUMBERGER:   SERVICE COMPANY
 DATE.        30-APR-1977:   LOGDATE
 API .     49025103550000:   API NUMBER
~CURVE INFORMATION
#MNEM.UNIT       API CODE    CURVE DESCRIPTION
#----------   ------------   ------------------------------
 DEPT.F                  :   
 SPR .MV     07 010 01 00:   SPONTANEOUS POTENTIAL
 ILD .OHMM   07 120 46 00:   DEEP INDUCTION RESISTIVITY
 ILM .OHMM   07 120 44 00:   INDUCTION LOG MEDIUM RESISTIVITY
 LL8 .OHMM   07 220 08 00:   LATEROLOG-8 RES.
 GRD .GAPI   45 310 01 00:   GAMMA RAY FROM DENSITY LOG
 CALD.IN     45 280 60 00:   CALIPER FROM DENSITY LOG
 CORR.G/C3   45 356 01 00:   DENSITY CORRECTION
 RHOB.G/C3   45 350 01 00:   BULK DENSITY
~PARAMETER INFORMATION
#MNEM.UNIT          VALUE    DESCRIPTION
#----------   ------------   ------------------------------
 EKB .F         4977.0000:   Kelly bushing
 EGL .F         4967.0000:   Ground level
 EDF .F            0.0000:   Drilling floor
 TD  .F         2922.0000:   Total depth
 CLNT.            A2DTECH:   Client Code
 SL  . 330' FNL & 990' FWL:   Surface Location
 DATE.        30-APR-1977:   Date Logged [DD-MMM-YYYY]
 DD  .F              2915:   Depth driller
 DL  .F              2922:   Depth logger
 BLI .F              2916:   Bottom log interval
 TLI .F               394:   Top log interval
 CS1 .              8.625:   Casing size
 CBD1.      8.625" @ 390':   Casing driller 1
 CBL1.IN              394:   Casing logger 1
 BS1 .IN            7.875:   Bit size
 BSD1.F              2915:   Depth drilled with bit1
 DFT .            KCL MUD:   Type fluid in hole
 DFD .                8.9:   Density
 DFV .                 87:   Viscosity
 DFPH.                8.5:   pH
 DFL .                9.6:   Fluid loss
 MSS .                PIT:   Source of sample
 RMS .OHMM           0.25:   Rm
 MST .F                70:   Rm Meas. temp.
 RMF .OHMM           0.22:   Rmf
 MFST.F                70:   Rmf Meas. temp.
 MFSS.               MEAS:   Source Rmf.
 RMC .OHMM           0.38:   Rmc
 MCST.F                70:   Rmc Meas. temp.
 MCSS.               CALC:   Source Rmc.
 RMB .OHMM           0.09:   Rm. at BHT
 BHT .F               109:   BHT.
 TCS .HRS            1800:   Time Circ. stopped
 TLAB.HRS            2200:   Time logger at bottom
 MRT .F               109:   Maximum recorded temp.
 LUN .                711:   Logging unit number
 LUL .             CASPER:   Logging unit location
 ENGI.              SYLER:   Recorded By
 WITN.         PETTINGILL:   Witnessed by
 ORIG.           5" PRINT:   Origin of data
 UWI .     49025103550000:   Unique Well ID
 DICO. A2D TECHNOLOGIES, INC.:   Digitizing Company
 PD  .                 GL:   Permanent Datum
 EPD .F              4967:   Elevation Permanent Datum
 LMF .                 KB:   Log Measured From
 DMF .                 KB:   Drilling Measured From
 DAPD.F                10:   Feet Above Permanent Datum
~OTHER INFORMATION
~A   DEPT      SPR        ILD        ILM        LL8         GRD      CALD       CORR       RHOB   
# ...
 2574.0000   -30.5114     8.1454    10.0215     8.7955   115.5157     8.9611     0.0145     2.5678
 2574.5000   -30.6617     8.0337     9.9515     8.6756   117.0746     8.9308     0.0169     2.5686
 2575.0000   -30.8157     8.0343     9.7456     8.4980   113.8199     8.8849     0.0199     2.5686
 2575.5000   -30.6675     8.0348     9.3471     9.4306   109.4927     8.8529     0.0174     2.5686
 2576.0000   -30.5194     8.1476     8.7801    10.5379   106.6893     8.7898     0.0127     2.5678
 2576.5000   -30.2203     8.2049     8.3628    10.6126   114.0440     8.7317     0.0080     2.5663
 2577.0000   -30.0722     8.2054     8.4207     9.9723   118.2670     8.6860     0.0065     2.5640
 2577.5000   -30.2269     8.2631     8.6572     9.3706   119.2854     8.6710     0.0064     2.5576
 2578.0000   -30.6831     8.3212     8.6566     9.0527   114.7900     8.6407     0.0079     2.5506
 2578.5000   -30.8371     8.3877     8.7165     8.9290   112.6222     8.6421     0.0095     2.5485
 2579.0000   -31.1422     8.4492     8.7765     8.9305   111.6967     8.6436     0.0125     2.5508
 2579.5000   -31.2962     8.5572     8.8372     9.1828   111.8581     8.6451     0.0187     2.5532
 2580.0000   -31.2992     8.6773     8.8982     9.6406   111.8643     8.6465     0.0218     2.5563
 2580.5000   -31.3022     8.8027     8.8974    10.0512   111.7151     8.6480     0.0217     2.5656
 2581.0000   -31.3051     8.9847     8.9588    10.4071   110.7896     8.6495     0.0217     2.5718
 2581.5000   -31.1570     9.1108     9.0835    10.8525   109.3983     8.6509     0.0217     2.5726
 2582.0000   -31.0090     9.1747     9.1462    11.0034   108.3175     8.6524     0.0209     2.5741
 2582.5000   -30.8609     8.8015     8.9025    10.8435   108.4789     8.6539     0.0193     2.5788
 2583.0000   -30.8646     8.6808     8.7825    10.8550   109.5720     8.6554     0.0169     2.5827
 2583.5000   -30.7157     8.5027     8.6040    11.2394   114.5471     8.6568     0.0154     2.5788
 2584.0000   -30.7195     8.4445     8.6057    10.7086   118.9011     8.6583     0.0152     2.5695
 2584.5000   -30.7224     8.2712     8.6075    10.0625   119.2162     8.6598     0.0184     2.5610
 2585.0000   -30.5736     8.0435     8.6093     9.4553   117.8264     8.6612     0.0222     2.5595
 2585.5000   -30.5773     7.8803     8.6111     9.1345   117.0561     8.6627     0.0261     2.5579
 2586.0000   -30.5803     7.8263     8.6129     8.9478   116.4412     8.6642     0.0230     2.5556
 2586.5000   -30.5832     7.8814     8.6147     9.0113   115.0498     8.6656     0.0175     2.5572
 2587.0000   -30.5862     7.9921     8.6164     9.2018   112.7267     8.6671     0.0175     2.5604
 2587.5000   -30.5892     7.9927     8.6182     9.4618   113.8199     8.6686     0.0191     2.5635
 2588.0000   -30.4411     8.0487     8.6200     9.5289   115.2236     8.6701     0.0222     2.5665
 2588.5000   -30.2930     8.1370     8.6816     9.1989   114.7263     8.6715     0.0276     2.5688
 2589.0000   -30.2769     8.2516     8.7437     9.0075   112.6769     8.6730     0.0321     2.5696
 2589.5000   -30.1479     8.4258     8.8673     9.0817   111.1801     8.6587     0.0297     2.5642
 2590.0000   -29.9998     8.6038     8.9306     9.8024   110.7450     8.5973     0.0204     2.5603
 2590.5000   -30.0035     8.7855     9.1197    10.3627   111.2186     8.6093     0.0149     2.5634
 2591.0000   -30.0065     8.9710     9.1849    10.5818   112.0011     8.6226     0.0141     2.5712
 2591.5000   -29.8577     9.0973     9.3794    11.0326   112.1625     8.6358     0.0141     2.5758
 2592.0000   -29.8614     9.2253     9.6444    11.5026   112.3240     8.6491     0.0148     2.5766
 2592.5000   -29.7125     9.4201     9.9169    11.6648   112.4854     8.6624     0.0233     2.5751
 2593.0000   -29.5644     9.5527    10.3392    11.4263   112.4915     8.6757     0.0148     2.5650
 2593.5000   -29.5682     9.8904    10.7051    11.1923   110.7896     8.6890     0.0124     2.5681
 2594.0000   -29.5711    10.0993    11.0840    11.1943   108.0007     8.7023     0.0209     2.5902
 2594.5000   -29.5741    10.3126    11.3186    11.4310   107.3858     8.7156     0.0279     2.6053
 2595.0000   -29.5771    10.5303    11.6385    12.5974   106.6155     8.7289     0.0193     2.5961
 2595.5000   -29.5800    10.6786    11.8849    14.2730   104.7583     8.7421     0.0146     2.5844
 2596.0000   -29.5831    10.8289    12.1365    14.5749   103.3670     8.7465     0.0138     2.5883
 2596.5000   -29.5861    10.9056    11.8898    14.6782   103.6837     8.7628     0.0130     2.5891
 2597.0000   -29.5897    10.9071    11.4881    14.6802   107.2612     8.7636     0.0130     2.5782
 2597.5000   -29.7437    10.8334    11.0236    14.6823   109.2860     8.7644     0.0129     2.5775
 2598.0000   -30.1999    10.5391    10.5778    13.5126   110.6897     8.7651     0.0121     2.5883
 2598.5000   -30.6560    10.2528    10.2204    11.6841   111.0064     8.7815     0.0113     2.5852
 2599.0000   -30.8100     9.9055     9.9435    10.4592   110.7020     8.7824     0.0090     2.5775
 2599.5000   -30.8130     9.4384     9.6081    10.1671   109.1553     8.7832     0.0074     2.5628
 2600.0000   -31.2691     8.9314     9.3479    11.6080   106.8323     8.7840     0.0074     2.5519
 2600.5000   -30.8157     8.6887     9.0321    12.5266   106.8446     8.8003     0.0098     2.5682
 2601.0000   -30.8157     8.6300     8.8485    12.8781   107.8504     8.8009     0.0135     2.5698
 2601.5000   -30.8157     8.6312     8.7288    12.7880   111.6447     8.8020     0.0140     2.5721
 2602.0000   -30.9668     8.5729     8.6704    11.8486   116.3424     8.8032     0.0181     2.5783
 2602.5000   -31.1178     8.3979     8.5531    10.1723   118.3704     8.8043     0.0190     2.5794
 2603.0000   -31.2689     8.0019     8.3793     9.4906   119.3114     8.8054     0.0142     2.5721
 2603.5000   -31.4199     7.6246     7.8753     9.0406   118.0785     8.8066     0.0181     2.5706
 2604.0000   -31.4199     7.1652     7.3507     8.7320   119.1748     8.8077     0.0242     2.5682
 2604.5000   -31.5710     6.7803     6.7668     8.4927   122.1344     8.8088     0.0227     2.5611
 2605.0000   -31.8731     6.4606     6.3160     8.0341   123.3859     8.8099     0.0211     2.5493
 2605.5000   -32.0242     6.1135     5.9362     7.5478   125.4139     8.8111     0.0180     2.5356
 2606.0000   -32.1752     5.7452     5.5792     7.3409   132.2555     8.8122     0.0156     2.5348
 2606.5000   -32.1752     5.3990     5.2800     6.8489   139.5630     8.8133     0.0133     2.5332
 2607.0000   -32.4773     5.0387     5.0316     6.0873   147.8021     8.8145     0.0156     2.5270
 2607.5000   -32.4773     4.7680     4.7618     5.9205   145.3270     8.8156     0.0326     2.5208
 2608.0000   -32.4773     4.5748     4.5065     5.9201   143.9365     8.8167     0.0279     2.5255
 2608.5000   -32.4773     4.2401     4.2063     5.6394   148.4512     8.8178     0.0240     2.5270
 2609.0000   -32.6284     3.6418     3.6637     4.9433   152.3912     8.8190     0.0162     2.4906
 2609.5000   -32.6284     3.1280     3.1692     4.2440   157.6306     8.8201     0.0193     2.4766
 2610.0000   -32.7795     2.5596     2.7414     3.7983   167.8884     8.8213     0.0247     2.4673
 2610.5000   -33.0816     2.0373     2.3879     3.3064   182.1834     8.8379     0.0418     2.4572
 2611.0000   -33.0816     1.8367     2.0231     2.7420   198.1865     8.8390     0.0487     2.4293
 2611.5000   -33.0816     1.6331     1.6906     2.1070   211.7051     8.8401     0.0347     2.3975
 2612.0000   -33.0816     1.5241     1.5780     1.6995   221.3418     8.8412     0.0285     2.3711
 2612.5000   -33.0816     1.4725     1.5352     1.6189   222.7744     8.8423     0.0254     2.3595
 2613.0000   -33.0816     1.4325     1.5249     1.5746   214.9940     8.8434     0.0176     2.3432
 2613.5000   -32.7795     1.4032     1.5253     2.1807   199.4754     8.8445     0.0044     2.3378
 2614.0000   -32.4773     1.3938     1.5576     2.7984   182.7145     8.8456    -0.0010     2.3362
