~VERSION INFORMATION
 VERS.                2.0:   CWLS LOG ASCII STANDARD - VERSION 2.0
 WRAP.                 NO:   ONE LINE PER DEPTH STEP
~WELL INFORMATION
#MNEM.UNIT      DATA TYPE    INFORMATION
#----------   ------------   ------------------------------
 STRT.F          218.5000:   START DEPTH
 STOP.F         3291.0000:   STOP DEPTH
 STEP.F            0.5000:   STEP LENGTH
 NULL.          -999.2500:   NO VALUE
 COMP.    FENIX & SCISSON:   COMPANY
 WELL.   FENIX SHX #63-23:   WELL
 FLD .  TEAPOT DOME NPR-3:   FIELD
 LOC .      S23 T38N R78W:   LOCATION
 CNTY.            NATRONA:   COUNTY
 STAT.            WYOMING:   STATE
 CTRY. UNITED STATES OF AMERICA:   COUNTRY
 SRVC.           BIRDWELL:   SERVICE COMPANY
 DATE.        08-JUL-1978:   LOGDATE
 API .     49025106600000:   API NUMBER
~CURVE INFORMATION
#MNEM.UNIT       API CODE    CURVE DESCRIPTION
#----------   ------------   ------------------------------
 DEPT.F                  :   
 GRD .GAPI   45 310 01 00:   GAMMA RAY FROM DENSITY LOG
 CALD.IN     45 280 60 00:   CALIPER FROM DENSITY LOG
 CORR.G/C3   45 356 01 00:   DENSITY CORRECTION
 RHOB.G/C3   45 350 01 00:   BULK DENSITY
 GR  .GAPI   35 310 01 00:   GAMMA RAY
 NEUT.NAPI   35 330 01 00:   NEUTRON
~PARAMETER INFORMATION
#MNEM.UNIT          VALUE    DESCRIPTION
#----------   ------------   ------------------------------
 EKB .F         5368.0000:   Kelly bushing
 EGL .F         5358.0000:   Ground level
 TD  .F         3299.0000:   Total depth
 CLNT.            A2DTECH:   Client Code
 PD  .                 GL:   Permanent Datum
 EPD .F              5358:   Elevation Permanent Datum
 LMF .                 KB:   Log Measured From
 DMF .                 KB:   Drilling Measured From
 DAPD.F                10:   Feet Above Permanent Datum
 DATE.        08-JUL-1978:   Date Logged [DD-MMM-YYYY]
 DD  .F              3299:   Depth driller
 DL  .F              3291:   Depth logger
 BLI .F              3291:   Bottom log interval
 TLI .F              1430:   Top log interval
 CS1 .IN            9.625:   Casing size
 CBD1.     9.625" @ 1450':   Casing driller 1
 CBL1.F              1442:   Casing logger 1
 BS1 .IN            8.750:   Bit size
 BSD1.F              3299:   Depth drilled with bit1
 DFT .          KCL WATER:   Type fluid in hole
 BHT .F               118:   BHT.
 TCS .HRS               2:   Time Circ. stopped
 MRT .F               118:   Maximum recorded temp.
 LUN .               2958:   Logging unit number
 LUL .               CASP:   Logging unit location
 ENGI.             MILLER:   Recorded By
 WITN.           MCGINLEY:   Witnessed by
 ORIG.           5" PRINT:   Origin of data
 UWI .     49025106600000:   Unique Well ID
 DICO. A2D TECHNOLOGIES, INC.:   Digitizing Company
 SL  . 1800' FNL & 1825' FEL:   Surface Location
~OTHER INFORMATION
~A   DEPT      GRD       CALD       CORR       RHOB          GR      NEUT   
# ...
 2038.5000    85.6302     9.5741     0.0886     2.5781  -999.2500  -999.2500
 2039.0000    86.0975     9.5878     0.0931     2.5727  -999.2500  -999.2500
 2039.5000    86.0869     9.5861     0.0945     2.5780  -999.2500  -999.2500
 2040.0000    85.1665     9.5842     0.0975     2.5795  -999.2500  -999.2500
 2040.5000    80.2947     9.5828     0.0974     2.5795  -999.2500  -999.2500
 2041.0000    77.8524     9.5811     0.1004     2.5802  -999.2500  -999.2500
 2041.5000    78.2998     9.5791     0.1033     2.5794  -999.2500  -999.2500
 2042.0000    79.6590     9.5776     0.1063     2.5748  -999.2500  -999.2500
 2042.5000    79.4985     9.5760     0.1092     2.5740  -999.2500  -999.2500
 2043.0000    76.9042     9.5744     0.1092     2.5777  -999.2500  -999.2500
 2043.5000    75.2239     9.5725     0.1091     2.5800  -999.2500  -999.2500
 2044.0000    74.7616     9.5865     0.1090     2.5807  -999.2500  -999.2500
 2044.5000    76.6049     9.6002     0.1089     2.5885  -999.2500  -999.2500
 2045.0000    78.3215     9.6139     0.1073     2.5837  -999.2500  -999.2500
 2045.5000    80.2028     9.6419     0.1073     2.5829  -999.2500  -999.2500
 2046.0000    80.8024     9.6099     0.1087     2.5844  -999.2500  -999.2500
 2046.5000    80.7933     9.5626     0.1086     2.5882  -999.2500  -999.2500
 2047.0000    77.7434     9.5154     0.1101     2.5912  -999.2500  -999.2500
 2047.5000    75.1513     9.4830     0.1176     2.5950  -999.2500  -999.2500
 2048.0000    74.3627     9.4814     0.0887     2.5911  -999.2500  -999.2500
 2048.5000    76.8038     9.4799     0.0461     2.5743  -999.2500  -999.2500
 2049.0000    78.3150     9.4935     0.0657     2.5735  -999.2500  -999.2500
 2049.5000    79.5244     9.4915     0.0748     2.5765  -999.2500  -999.2500
 2050.0000    79.2097     9.4929     0.0899     2.5795  -999.2500  -999.2500
 2050.5000    77.3717     9.5189     0.1065     2.5833  -999.2500  -999.2500
 2051.0000    77.3603     9.5177     0.1125     2.5878  -999.2500  -999.2500
 2051.5000    77.9596     9.5164     0.1170     2.5947  -999.2500  -999.2500
 2052.0000    78.8571     9.5151     0.1153     2.5923  -999.2500  -999.2500
 2052.5000    80.0586     9.5135     0.1061     2.5893  -999.2500  -999.2500
 2053.0000    81.2630     9.5277     0.0969     2.5892  -999.2500  -999.2500
 2053.5000    82.6193     9.5261     0.0908     2.5846  -999.2500  -999.2500
 2054.0000    83.6717     9.5248     0.0829     2.5707  -999.2500  -999.2500
 2054.5000    84.8732     9.5232     0.0708     2.5501  -999.2500  -999.2500
 2055.0000    85.7765     9.5220     0.0662     2.5417  -999.2500  -999.2500
 2055.5000    83.6345     9.5207     0.0691     2.5462  -999.2500  -999.2500
 2056.0000    81.6474     9.5191     0.0768     2.5508  -999.2500  -999.2500
 2056.5000    80.4173     9.5333     0.0872     2.5553  -999.2500  -999.2500
 2057.0000    79.6460     9.5622     0.0977     2.5553  -999.2500  -999.2500
 2057.5000    80.2424     9.5761     0.1067     2.5522  -999.2500  -999.2500
 2058.0000    81.4468     9.6658     0.1173     2.5664  -999.2500  -999.2500
 2058.5000    81.7393     9.8624     0.1278     2.5995  -999.2500  -999.2500
 2059.0000    80.8132     9.4961     0.1308     2.6010  -999.2500  -999.2500
 2059.5000    81.2576     9.6620     0.1307     2.6010  -999.2500  -999.2500
 2060.0000    82.0061     9.5690     0.1306     2.5678  -999.2500  -999.2500
 2060.5000    81.6878     9.7047     0.1305     2.5825  -999.2500  -999.2500
 2061.0000    80.1566     9.8009     0.1304     2.5695  -999.2500  -999.2500
 2061.5000    78.9294     9.6413     0.1303     2.5549  -999.2500  -999.2500
 2062.0000    78.9179     9.9289     0.1302     2.5627  -999.2500  -999.2500
 2062.5000    79.5144     9.5166     0.1301     2.5732  -999.2500  -999.2500
 2063.0000    78.8922     9.5001     0.1209     2.5739  -999.2500  -999.2500
 2063.5000    78.4248     9.6507     0.1117     2.5754  -999.2500  -999.2500
 2064.0000    78.7173     9.6802     0.1177     2.5795  -999.2500  -999.2500
 2064.5000    81.8945     9.4046     0.1298     2.5952  -999.2500  -999.2500
 2065.0000    83.7068     9.6012     0.1418     2.6074  -999.2500  -999.2500
 2065.5000    84.6072     9.4474     0.1276     2.6020  -999.2500  -999.2500
 2066.0000    82.4681     9.4005     0.0930     2.5933  -999.2500  -999.2500
 2066.5000    83.9735     9.4147     0.0869     2.5836  -999.2500  -999.2500
 2067.0000    84.8740     9.4892     0.0989     2.5805  -999.2500  -999.2500
 2067.5000    85.4733     9.5032     0.1049     2.5935  -999.2500  -999.2500
 2068.0000    85.4590     9.5015     0.1048     2.5918  -999.2500  -999.2500
 2068.5000    82.8611     9.4850     0.1032     2.5880  -999.2500  -999.2500
 2069.0000    79.5062     9.4837     0.1016     2.5834  -999.2500  -999.2500
 2069.5000    78.8868     9.4977     0.0983     2.5711  -999.2500  -999.2500
 2070.0000    79.3313     9.4961     0.0938     2.5593  -999.2500  -999.2500
 2070.5000    79.9249     9.5100     0.0937     2.5573  -999.2500  -999.2500
 2071.0000    79.9135     9.5084     0.0936     2.5664  -999.2500  -999.2500
 2071.5000    79.5981     9.5071     0.0935     2.5748  -999.2500  -999.2500
 2072.0000    79.4347     9.5059     0.0935     2.5721  -999.2500  -999.2500
 2072.5000    79.2684     9.5198     0.0934     2.5686  -999.2500  -999.2500
 2073.0000    79.2569     9.5791     0.0933     2.5755  -999.2500  -999.2500
 2073.5000    79.3975     9.5778     0.0932     2.5785  -999.2500  -999.2500
 2074.0000    79.8419     9.5461     0.0931     2.5792  -999.2500  -999.2500
 2074.5000    81.8033     9.5448     0.0930     2.5807  -999.2500  -999.2500
 2075.0000    83.3116     9.5739     0.0929     2.5814  -999.2500  -999.2500
 2075.5000    84.3640     9.5723     0.0928     2.5753  -999.2500  -999.2500
 2076.0000    84.0486     9.5710     0.0912     2.5760  -999.2500  -999.2500
 2076.5000    82.5146     9.5697     0.0911     2.5783  -999.2500  -999.2500
 2077.0000    79.9195     9.5681     0.0910     2.5813  -999.2500  -999.2500
 2077.5000    78.0844     9.5669     0.0909     2.5843  -999.2500  -999.2500
 2078.0000    80.0486     9.5808     0.0908     2.5919  -999.2500  -999.2500
 2078.5000    81.5541     9.5792     0.0908     2.5942  -999.2500  -999.2500
 2079.0000    83.3663     9.5935     0.0907     2.5872  -999.2500  -999.2500
 2079.5000    82.7470     9.6074     0.0890     2.5780  -999.2500  -999.2500
 2080.0000    81.3678     9.6058     0.0874     2.5864  -999.2500  -999.2500
 2080.5000    80.2896     9.6194     0.0858     2.5948  -999.2500  -999.2500
 2081.0000    80.2782     9.6029     0.0842     2.5963  -999.2500  -999.2500
 2081.5000    80.2668     9.5559     0.0857     2.5840  -999.2500  -999.2500
 2082.0000    80.2553     9.5394     0.0886     2.5732  -999.2500  -999.2500
 2082.5000    79.9371     9.5226     0.0915     2.5808  -999.2500  -999.2500
 2083.0000    79.6217     9.5061     0.0945     2.5930  -999.2500  -999.2500
 2083.5000    79.1543     9.4896     0.0913     2.5999  -999.2500  -999.2500
 2084.0000    78.7629     9.4406     0.0852     2.5738  -999.2500  -999.2500
 2084.5000    78.2167     9.4258     0.0790     2.5631  -999.2500  -999.2500
 2085.0000    77.7493     9.4246     0.0698     2.5700  -999.2500  -999.2500
 2085.5000    77.7379     9.4080     0.0652     2.5776  -999.2500  -999.2500
 2086.0000    77.7264     9.4064     0.0651     2.5798  -999.2500  -999.2500
 2086.5000    77.7121     9.3899     0.0665     2.5737  -999.2500  -999.2500
 2087.0000    78.3086     9.3887     0.0694     2.5721  -999.2500  -999.2500
 2087.5000    78.9051     9.3874     0.0663     2.5828  -999.2500  -999.2500
 2088.0000    79.1976     9.3705     0.0617     2.5888  -999.2500  -999.2500
 2088.5000    79.4901     9.3693     0.0586     2.5796  -999.2500  -999.2500
 2089.0000    79.4758     9.3680     0.0645     2.5773  -999.2500  -999.2500
 2089.5000    79.5221     9.3667     0.0675     2.5619  -999.2500  -999.2500
 2090.0000    79.6049     9.3651     0.0674     2.5711  -999.2500  -999.2500
