~VERSION INFORMATION
 VERS.                2.0:   CWLS LOG ASCII STANDARD - VERSION 2.0
 WRAP.                 NO:   ONE LINE PER DEPTH STEP
~WELL INFORMATION
#MNEM.UNIT      DATA TYPE    INFORMATION
#----------   ------------   ------------------------------
 STRT.F          388.0000:   START DEPTH
 STOP.F         3166.0000:   STOP DEPTH
 STEP.F            0.5000:   STEP LENGTH
 NULL.          -999.2500:   NO VALUE
 COMP.    PENIX & SCISSON:   COMPANY
 WELL. PENIX NPR 3 "AX" #34-28:   WELL
 FLD .                NPR:   FIELD
 LOC .      S28 T39N R78W:   LOCATION
 CNTY.            NATRONA:   COUNTY
 STAT.            WYOMING:   STATE
 CTRY. UNITED STATES OF AMERICA:   COUNTRY
 SRVC.              WELEX:   SERVICE COMPANY
 DATE.        15-DEC-1978:   LOGDATE
 API .     49025107950000:   API NUMBER
~CURVE INFORMATION
#MNEM.UNIT       API CODE    CURVE DESCRIPTION
#----------   ------------   ------------------------------
 DEPT.F                  :   
 CALD.IN     45 280 60 00:   CALIPER FROM DENSITY LOG
 GRD .GAPI   45 310 01 00:   GAMMA RAY FROM DENSITY LOG
 RHOB.G/C3   45 350 01 00:   BULK DENSITY
 CORR.G/C3   45 356 01 00:   DENSITY CORRECTION
 NPHI.DEC    42 890 03 00:   NEUTRON POROSITY SANDSTONE
 SPR .MV     07 010 01 00:   SPONTANEOUS POTENTIAL
 SGRD.OHMM   07 220 05 00:   SHALLOW GUARD
 ILD .OHMM   07 120 46 00:   DEEP INDUCTION RESISTIVITY
 ILM .OHMM   07 120 44 00:   INDUCTION LOG MEDIUM RESISTIVITY
 TENR.LBS    07 635 01 00:   TENSION FROM RESISTIVITY
~PARAMETER INFORMATION
#MNEM.UNIT          VALUE    DESCRIPTION
#----------   ------------   ------------------------------
 EKB .F         5039.0000:   Kelly bushing
 EGL .F         5029.0000:   Ground level
 EDF .F            0.0000:   Drilling floor
 TD  .F         3159.0000:   Total depth
 DATE.        15-DEC-1978:   Date logged
 CLNT.            A2DTECH:   Client Code
 SL  . 2434' FNL & 1651' FWL:   Surface Location
 PD  .                 GL:   Permanent Datum
 EPD .F              5029:   Elevation Permanent Datum
 LMF .                 KB:   Log Measured From
 DMF .                 KB:   Drilling Measured From
 DAPD.F                10:   Feet Above Permanent Datum
 DD  .F              3155:   Depth driller
 DL  .F              3159:   Depth logger
 BLI .F              3157:   Bottom log interval
 TLI .F               350:   Top log interval
 CS1 .IN            8.625:   Casing size
 CBD1.      8.625" @ 383':   Casing driller 1
 CBL1.F               398:   Casing logger 1
 BS1 .IN            7.875:   Bit size
 BSD1.F              3155:   Depth drilled with bit1
 DFT .           CHEM/GEL:   Type fluid in hole
 DFD .                8.5:   Density
 DFV .                 55:   Viscosity
 DFPH.                 10:   pH
 DFL .               10.8:   Fluid loss
 MSS .           FLOWLINE:   Source of sample
 RMS .OHMM           1.65:   Rm
 MST .F                65:   Rm Meas. temp.
 RMF .OHMM           1.32:   Rmf
 MFST.F                65:   Rmf Meas. temp.
 RMC .OHMM           1.98:   Rmc
 MCST.F                65:   Rmc Meas. temp.
 MFSS.               CALC:   Source Rmf.
 RMB .OHMM              1:   Rm. at BHT
 BHT .F               107:   BHT.
 TCS .HRS               8:   Time Circ. stopped
 MRT .F               107:   Maximum recorded temp.
 LUN .               1892:   Logging unit number
 LUL .             CASPER:   Logging unit location
 ENGI.               REIN:   Recorded By
 WITN.              AMEND:   Witnessed by
 ORIG.           5" PRINT:   Origin of data
 UWI .     49025107950000:   Unique Well ID
 DICO. A2D TECHNOLOGIES, INC.:   Digitizing Company
~OTHER INFORMATION
~A   DEPT     CALD         GRD      RHOB       CORR       NPHI        SPR       SGRD        ILD        ILM       TENR   
  388.0000  -999.2500    60.9682  -999.2500  -999.2500  -999.2500  -999.2500  -999.2500  -999.2500  -999.2500  -999.2500
  388.5000  -999.2500    62.7837  -999.2500  -999.2500  -999.2500  -999.2500  -999.2500  -999.2500  -999.2500  -999.2500
  389.0000  -999.2500    60.9682  -999.2500  -999.2500  -999.2500  -999.2500  -999.2500  -999.2500  -999.2500  -999.2500
  389.5000  -999.2500    64.5991  -999.2500  -999.2500  -999.2500  -999.2500  -999.2500  -999.2500  -999.2500  -999.2500
  390.0000  -999.2500    65.8094  -999.2500  -999.2500  -999.2500  -999.2500  -999.2500  -999.2500  -999.2500  -999.2500
  390.5000  -999.2500    64.5991  -999.2500  -999.2500  -999.2500  -999.2500  -999.2500  -999.2500  -999.2500  -999.2500
  391.0000  -999.2500    62.4811  -999.2500  -999.2500  -999.2500  -999.2500  -999.2500  -999.2500  -999.2500  -999.2500
  391.5000  -999.2500    59.7579  -999.2500  -999.2500  -999.2500  -999.2500  -999.2500  -999.2500  -999.2500  -999.2500
  392.0000  -999.2500    67.0197  -999.2500  -999.2500  -999.2500  -999.2500  -999.2500  -999.2500  -999.2500  -999.2500
  392.5000  -999.2500    70.6505  -999.2500  -999.2500  -999.2500  -999.2500  -999.2500  -999.2500  -999.2500  -999.2500
  393.0000     8.3148    65.8094  -999.2500  -999.2500  -999.2500  -999.2500  -999.2500  -999.2500  -999.2500  -999.2500
  393.5000     8.3134    62.7837     1.9065  -999.2500  -999.2500  -999.2500  -999.2500  -999.2500  -999.2500  -999.2500
  394.0000     8.3111    60.0605     1.9012  -999.2500  -999.2500  -999.2500  -999.2500  -999.2500  -999.2500  -999.2500
  394.5000     8.3088    63.3888     1.9271  -999.2500  -999.2500  -999.2500  -999.2500  -999.2500  -999.2500  -999.2500
  395.0000     8.3050    65.8094     1.9783  -999.2500  -999.2500  -999.2500  -999.2500  -999.2500  -999.2500  -999.2500
  395.5000     8.2839    67.0197     2.0425    -0.3259  -999.2500  -999.2500  -999.2500  1954.7687  1955.8401  -999.2500
  396.0000     8.2821    81.8457     2.1307    -0.2916  -999.2500  -999.2500  -999.2500  1901.5900  1903.8896  -999.2500
  396.5000     8.2793    85.4765     2.2964    -0.0892  -999.2500  -999.2500     1.0506  1765.9768  1771.2488  -999.2500
  397.0000     8.3178    85.4765     2.3693     0.1696  -999.2500   -54.1381     1.7139  1639.7240  1647.5438   886.5019
  397.5000     8.3755    85.1740     2.3412     0.2130  -999.2500   -57.1664     2.7962  1324.0095  1337.1561   885.9284
  398.0000     8.8971    87.5946     2.3078     0.1934  -999.2500   -62.0120     4.5618   750.3243   768.1534   905.2075
  398.5000     9.2378    90.3177     2.3138     0.1891  -999.2500   -62.6203     6.6540   512.1343   529.1221   884.0166
  399.0000     9.5798    87.5946     2.3260     0.1483  -999.2500   -61.6130     7.1698     8.6400     6.6547   882.8693
  399.5000     9.7395    85.1740     2.2903     0.1238  -999.2500   -58.9902     7.3745     2.2061     7.0389   881.5307
  400.0000    10.0205    83.3586     2.2424     0.1093  -999.2500   -55.4578     7.5150     0.6008     7.2398   880.9569
  400.5000    10.2372    83.9637     2.2021     0.1054     0.2875   -50.2329     7.0401     0.4685     7.3650   879.9687
  401.0000    10.4234    85.1740     2.1368     0.1002     0.2871   -46.5669     6.7823     0.3600     7.5851   880.6107
  401.5000    10.5847    88.4569     2.0927     0.0921     0.2843   -42.7277     6.5951     0.3013     7.5146   880.4299
  402.0000    10.6450    88.8529     2.0889     0.0804     0.2747   -39.6968     6.4731     0.2823     7.5144   880.2492
  402.5000    10.7859    91.2693     2.2234     0.0169     0.2682   -37.2721     6.7189     0.4315     7.5143   880.0322
  403.0000    10.8865    92.4734     2.4597     0.0412     0.2590   -34.4433     7.0394     0.6595     7.7273   879.8518
  403.5000    11.0881    94.4873     2.4818     0.0573     0.2565   -33.6346     7.5843     1.0805     7.7996   879.7433
  404.0000    12.2392    94.0736     2.4932     0.0634     0.2569   -33.4320     8.3253     7.1050     8.2481   879.4902
  404.5000    12.6227    90.8331     2.4840     0.0430     0.2561   -33.4313     8.8867     6.9736     8.2480   879.3094
  405.0000    12.5212    86.3804     2.4901     0.0409     0.2533   -33.2287     8.9697     6.9735     8.2478   879.0924
  405.5000    12.3793    88.3927     2.4863     0.0348     0.2501   -32.8241     9.1385     6.9733     8.4816   878.9116
  406.0000    12.3991    87.1741     2.4795     0.0307     0.2493   -32.6213     9.3976     6.9732     8.8038   878.7307
  406.5000    12.4790    92.8181     2.4726     0.0306     0.2473   -32.4187     9.9382    12.9032     8.8036   878.5499
  407.0000    12.5801    90.7946     2.4666     0.0245     0.2493   -32.2161     9.9160    16.4432     8.8036   878.3691
  407.5000    12.7210    88.3606     2.4559     0.0143     0.2509   -31.8115     9.8938    18.2193     8.9691   898.4365
  408.0000    12.8823    85.9282     2.4514    -0.0020     0.2468   -31.6089     9.8717    19.6304     9.0530   898.2564
  408.5000    12.9021    88.7486     2.4666     0.0223     0.2488   -31.6083     9.8496    19.6304     9.0528   898.0760
  409.0000    13.0431    92.3771     2.4688     0.0283     0.2533   -31.6077     9.8452    19.2677     9.0527   897.8955
  409.5000    13.1290    89.1366     2.4658     0.0190     0.2537   -31.0012     9.8451    19.2677     9.0525   897.7150
  410.0000    13.2150    87.5123     2.4612     0.0290     0.2524   -30.5966     9.8450    19.8143     9.0524   857.0338
  410.5000    13.3009    87.9084     2.4666     0.0270     0.2496   -30.9999     9.8448    21.1510     9.0522   877.0671
  411.0000    13.4050    88.3044     2.4635     0.0189     0.2476   -33.2205     9.8447    11.1137     8.8849   876.8862
  411.5000    13.4252    90.3135     2.4476    -0.0024     0.2468   -34.4313     9.8445    10.3409     8.8847   876.7053
  412.0000    13.4448    84.6518     2.4460     0.0056     0.2464   -34.2287     9.8444     9.6625     8.8846   876.5244
  412.5000    13.5251    83.8356     2.4567     0.0096     0.2520   -34.0261     9.8443     9.5727     8.8845   896.5959
  413.0000    13.5449    87.8682     2.4628     0.0177     0.2532   -33.8236     9.8441     9.3084     8.8843   876.1628
  413.5000    13.5448    90.2814     2.4673     0.0216     0.2556   -34.0248     9.8440     9.0515     8.8841   896.2351
  414.0000    13.6250    87.8506     2.4544     0.0256     0.2568   -34.0241     9.8439     8.9055     8.8839   855.5473
  414.5000    13.6447    85.0157     2.4468     0.0236     0.2584   -34.2253     9.8437     8.4789     8.8838   875.6200
  415.0000    13.6442    86.2183     2.4445     0.0174     0.2604   -34.4265     9.8436     8.4789     9.2213   875.4390
  415.5000    13.6237    86.6152     2.4392     0.0174     0.2612   -34.6277     9.8434     8.2447     9.0508   875.2581
  416.0000    13.6436    84.1819     2.4339     0.0202     0.2588   -34.6269     9.9355     8.0922     8.9667   875.0409
  416.5000    13.6430    80.9430     2.4331     0.0233     0.2592   -34.6262     9.9354     7.8687     8.7190   874.8599
  417.0000    13.6630    82.1455     2.4354     0.0314     0.2576   -34.8274     9.9353     7.7955     8.3995   874.6789
  417.5000    13.6423    83.3497     2.4316     0.0333     0.2584   -34.8267     9.8429     7.6512     8.0166   874.4979
  418.0000    13.6824    87.3823     2.4233     0.0434     0.2620   -35.0279     9.6609     7.5097     7.7228   874.3172
  418.5000    13.6214    88.5865     2.4141     0.0454     0.2636   -34.6235     8.9342     7.3023     7.5095   874.1362
  419.0000    13.6007    86.5581     2.4050     0.0433     0.2703   -34.2191     8.2621     6.9046     7.1671   873.9552
  419.5000    13.5194    89.3785     2.3891     0.0351     0.2785   -34.4202     7.7223     6.4679     6.9045   873.7742
  420.0000    13.4988    87.7543     2.3419     0.0229     0.2809   -34.0158     6.7137     6.1157     6.2652   833.0760
  420.5000    13.4985    84.9203     2.3047     0.0269     0.2793   -34.0150     6.1729     5.5708     5.6851   853.1894
  421.0000    13.4374    90.9659     2.2804     0.0370     0.2785   -33.8125     5.6229     5.1220     4.9342   853.0080
