~VERSION INFORMATION
 VERS.                2.0:   CWLS LOG ASCII STANDARD - VERSION 2.0
 WRAP.                 NO:   ONE LINE PER DEPTH STEP
~WELL INFORMATION
#MNEM.UNIT      DATA TYPE    INFORMATION
#----------   ------------   ------------------------------
 STRT.F          204.5000:   START DEPTH
 STOP.F         2964.0000:   STOP DEPTH
 STEP.F            0.5000:   STEP LENGTH
 NULL.          -999.2500:   NO VALUE
 COMP.    FENIX & SCISSON:   COMPANY
 WELL. FENIX NPR 3 "AX" #14-28:   WELL
 FLD .  TEAPOT DOME NPR-3:   FIELD
 LOC .      S28 T39N R78W:   LOCATION
 CNTY.            NATRONA:   COUNTY
 STAT.            WYOMING:   STATE
 CTRY. UNITED STATES OF AMERICA:   COUNTRY
 SRVC.           BIRDWELL:   SERVICE COMPANY
 DATE.        24-MAY-1978:   LOGDATE
 API .     49025106450000:   API NUMBER
~CURVE INFORMATION
#MNEM.UNIT       API CODE    CURVE DESCRIPTION
#----------   ------------   ------------------------------
 DEPT.F                  :   
 SPR .MV     05 010 01 00:   SPONTANEOUS POTENTIAL
 CORR.G/C3   45 356 01 00:   DENSITY CORRECTION
 DEN .G/C3   45 350 01 00:   DENSITY
 CALD.IN     45 280 60 00:   CALIPER FROM DENSITY LOG
 GRD .GAPI   45 310 01 00:   GAMMA RAY FROM DENSITY LOG
 SN  .OHMM   05 040 16 00:   SHORT NORMAL 16"
 ILD .OHMM   05 120 46 00:   DEEP INDUCTION RESISTIVITY
~PARAMETER INFORMATION
#MNEM.UNIT          VALUE    DESCRIPTION
#----------   ------------   ------------------------------
 EKB .F         5042.0000:   Kelly bushing
 EGL .F         5032.0000:   Ground level
 EDF .F            0.0000:   Drilling floor
 TD  .F         2957.0000:   Total depth
 DATE.        24-MAY-1978:   Date logged
 CLNT.            A2DTECH:   Client Code
 SL  . 2410' FNL & 280' FWL:   Surface Location
 PD  .                 GL:   Permanent Datum
 EPD .F              5032:   Elevation Permanent Datum
 LMF .                 KB:   Log Measured From
 DMF .                 KB:   Drilling Measured From
 DAPD.F                10:   Feet Above Permanent Datum
 DD  .F              2950:   Depth driller
 DL  .F              2957:   Depth logger
 BLI .F              2951:   Bottom log interval
 TLI .F               225:   Top log interval
 CS1 .IN            8.625:   Casing size
 CBL1.F               225:   Casing logger 1
 BS1 .IN            7.875:   Bit size
 BSD1.F              2950:   Depth drilled with bit1
 DFT .       CHEMICAL GEL:   Type fluid in hole
 DFD .                  9:   Density
 DFV .                 34:   Viscosity
 DFPH.               10.5:   pH
 DFL .                  6:   Fluid loss
 MSS .           FLOWLINE:   Source of sample
 RMS .OHMM            1.5:   Rm
 MST .F                70:   Rm Meas. temp.
 RMF .OHMM            1.1:   Rmf
 MFST.F                78:   Rmf Meas. temp.
 RMC .OHMM            2.8:   Rmc
 MCST.F                72:   Rmc Meas. temp.
 MFSS.               MEAS:   Source Rmf.
 RMB .OHMM           0.95:   Rm. at BHT
 BHT .F               110:   BHT.
 TCS .HRS               2:   Time Circ. stopped
 MRT .F               110:   Maximum recorded temp.
 LUN .               2958:   Logging unit number
 LUL .               CASP:   Logging unit location
 ENGI.             MILLER:   Recorded By
 WITN.            RHOADES:   Witnessed by
 ORIG.           5" PRINT:   Origin of data
 UWI .     49025106450000:   Unique Well ID
 DICO. A2D TECHNOLOGIES, INC.:   Digitizing Company
~OTHER INFORMATION
~A   DEPT      SPR       CORR        DEN       CALD         GRD        SN        ILD   
# ...
 2206.5000    -3.8480     0.0440     2.4360  -999.2500  -999.2500    11.6690     7.8420
 2207.0000    -3.8280     0.0490     2.4360  -999.2500  -999.2500    11.3610     7.5420
 2207.5000    -3.8080     0.0540     2.4360  -999.2500  -999.2500    11.0540     7.2410
 2208.0000    -3.7870     0.0590     2.4300  -999.2500  -999.2500    10.7050     6.9410
 2208.5000    -3.7670     0.0630     2.4190  -999.2500  -999.2500    10.0550     6.6410
 2209.0000    -3.7470     0.0820     2.4090  -999.2500  -999.2500     9.3050     6.3410
 2209.5000    -3.7270     0.1150     2.4000  -999.2500  -999.2500     8.5540     6.0410
 2210.0000    -3.7070     0.2040     2.3970  -999.2500  -999.2500     7.8030     5.4070
 2210.5000    -3.6870     0.1870     2.3940  -999.2500  -999.2500     7.0520     4.6800
 2211.0000    -3.6670     0.1000     2.3940  -999.2500  -999.2500     6.4110     4.4880
 2211.5000    -3.6470     0.0890     2.3980  -999.2500  -999.2500     6.0460     4.3110
 2212.0000    -3.6260     0.1060     2.4060  -999.2500  -999.2500     5.6800     4.1150
 2212.5000    -3.6060     0.1320     2.4400  -999.2500  -999.2500     5.3140     3.7220
 2213.0000    -3.5860     0.1170     2.5100  -999.2500  -999.2500     4.9480     3.2400
 2213.5000    -3.5660     0.1160     2.4970  -999.2500  -999.2500     4.7060     3.2500
 2214.0000    -3.5460     0.1180     2.4990  -999.2500  -999.2500     4.5860     3.2610
 2214.5000    -3.5260     0.1010     2.5100  -999.2500  -999.2500     4.4660     3.2720
 2215.0000    -3.5060     0.0760     2.5270  -999.2500  -999.2500     4.3450     3.2830
 2215.5000    -3.4860     0.1270     2.5170  -999.2500  -999.2500     4.2250     3.2930
 2216.0000    -3.4660     0.0920     2.5040  -999.2500  -999.2500     4.1920     3.3640
 2216.5000    -3.4450     0.0370     2.5120  -999.2500  -999.2500     4.1920     3.5570
 2217.0000    -3.4260     0.0500     2.5200  -999.2500  -999.2500     4.1650     3.7110
 2217.5000    -3.4050     0.0720     2.5290  -999.2500  -999.2500     4.1410     3.7860
 2218.0000    -3.4000     0.0680     2.5330  -999.2500  -999.2500     4.1150     3.8940
 2218.5000    -3.4000     0.0660     2.5350  -999.2500  -999.2500     4.1880     3.8910
 2219.0000    -3.4000     0.0630     2.5400  -999.2500  -999.2500     4.2690     3.8860
 2219.5000    -3.4000     0.0510     2.5450  -999.2500  -999.2500     4.4290     3.8800
 2220.0000    -3.4000     0.0370     2.5410  -999.2500  -999.2500     4.3160     3.8740
 2220.5000    -3.4000     0.0290     2.5420  -999.2500  -999.2500     4.2170     3.8680
 2221.0000    -3.4000     0.0300     2.5480  -999.2500  -999.2500     4.1150     3.8630
 2221.5000    -3.4000     0.0300     2.5430  -999.2500  -999.2500     4.1360     3.8570
 2222.0000    -3.4000     0.0300     2.5380  -999.2500  -999.2500     4.1570     3.8510
 2222.5000    -3.4000     0.0300     2.5390  -999.2500  -999.2500     4.1790     3.8450
 2223.0000    -3.4000     0.0270     2.5310  -999.2500  -999.2500     4.2240     3.8400
 2223.5000    -3.4000     0.0200     2.5200  -999.2500  -999.2500     4.3090     3.8350
 2224.0000    -3.4000     0.0190     2.5110  -999.2500  -999.2500     4.3940     3.8240
 2224.5000    -3.4000     0.0310     2.5120  -999.2500  -999.2500     4.4790     3.8250
 2225.0000    -3.4000     0.0320     2.5130  -999.2500  -999.2500     4.5640     3.8790
 2225.5000    -3.4000     0.0290     2.5150  -999.2500  -999.2500     4.6490     3.9230
 2226.0000    -3.4000     0.0260     2.5170  -999.2500  -999.2500     4.7340     3.9670
 2226.5000    -3.4000     0.0230     2.5210  -999.2500  -999.2500     4.8190     4.0140
 2227.0000    -3.4000     0.0220     2.5240  -999.2500  -999.2500     4.9040     4.0410
 2227.5000    -3.4000     0.0230     2.5270  -999.2500  -999.2500     5.0380     4.0400
 2228.0000    -3.4000     0.0240     2.5220  -999.2500  -999.2500     4.9900     4.0400
 2228.5000    -3.4000     0.0250     2.5230  -999.2500  -999.2500     4.8770     4.0400
 2229.0000    -3.4000     0.0260     2.5240  -999.2500  -999.2500     4.7670     4.0400
 2229.5000    -3.4000     0.0260     2.5260  -999.2500  -999.2500     4.5510     3.8600
 2230.0000    -3.4000     0.0270     2.5260  -999.2500  -999.2500     4.3410     3.6850
 2230.5000    -3.4000     0.0280     2.5130  -999.2500  -999.2500     4.1310     3.5100
 2231.0000    -3.4000     0.0290     2.5030  -999.2500  -999.2500     3.9210     3.3350
 2231.5000    -3.4000     0.0310     2.4910  -999.2500  -999.2500     3.7110     3.1610
 2232.0000    -3.4000     0.0400     2.4790  -999.2500  -999.2500     3.5010     2.9860
 2232.5000    -3.4000     0.0500     2.4760  -999.2500  -999.2500     3.2910     2.8110
 2233.0000    -3.4000     0.0530     2.4850  -999.2500  -999.2500     3.0110     2.6470
 2233.5000    -3.4000     0.0490     2.4810  -999.2500  -999.2500     3.0120     2.6570
 2234.0000    -3.4000     0.0600     2.4860  -999.2500  -999.2500     3.0150     2.6670
 2234.5000    -3.4000     0.0830     2.4910  -999.2500  -999.2500     3.0170     2.6760
 2235.0000    -3.4000     0.0910     2.4930  -999.2500  -999.2500     3.0190     2.6850
 2235.5000    -3.4000     0.0890     2.4930  -999.2500  -999.2500     3.0210     2.6950
 2236.0000    -3.4000     0.0930     2.4970  -999.2500  -999.2500     3.0240     2.7040
 2236.5000    -3.4000     0.0660     2.5010  -999.2500  -999.2500     3.0260     2.7140
 2237.0000    -3.4000     0.0380     2.5030  -999.2500  -999.2500     3.0280     2.7230
 2237.5000    -3.4000     0.0390     2.5050  -999.2500  -999.2500     3.0310     2.7330
 2238.0000    -3.4000     0.0370     2.5040  -999.2500  -999.2500     3.0330     2.7420
 2238.5000    -3.4000     0.0330     2.5010  -999.2500  -999.2500     3.0350     2.7510
 2239.0000    -3.4000     0.0380     2.4980  -999.2500  -999.2500     3.0380     2.7610
 2239.5000    -3.4000     0.0450     2.4970  -999.2500  -999.2500     3.0400     2.7700
 2240.0000    -3.4000     0.0520     2.4980  -999.2500  -999.2500     3.0420     2.7800
 2240.5000    -3.4000     0.0590     2.5120  -999.2500  -999.2500     3.0440     2.7890
 2241.0000    -3.4000     0.0610     2.5250  -999.2500  -999.2500     3.0470     2.7980
 2241.5000    -3.4000     0.0590     2.5120  -999.2500  -999.2500     3.0490     2.8160
 2242.0000    -3.4000     0.0590     2.4990  -999.2500  -999.2500     3.0510     2.8330
 2242.5000    -3.4000     0.0660     2.4980  -999.2500  -999.2500     3.0540     2.8490
 2243.0000    -3.4000     0.0730     2.5080  -999.2500  -999.2500     3.0560     2.8660
 2243.5000    -3.4000     0.0680     2.5170  -999.2500  -999.2500     3.0580     2.8820
 2244.0000    -3.4000     0.0600     2.5120  -999.2500  -999.2500     3.0610     2.8990
 2244.5000    -3.4000     0.0520     2.5040  -999.2500  -999.2500     3.0620     2.9160
 2245.0000    -3.4000     0.0470     2.4940  -999.2500  -999.2500     3.0660     2.9320
 2245.5000    -3.4000     0.0560     2.5090  -999.2500  -999.2500     3.0670     2.9490
 2246.0000    -3.4000     0.0650     2.5220  -999.2500  -999.2500     3.1390     2.9560
 2246.5000    -3.4000     0.0600     2.5220  -999.2500  -999.2500     3.2140     3.0100
 2247.0000    -3.4000     0.0520     2.5160  -999.2500  -999.2500     3.2880     3.0560
 2247.5000    -3.4000     0.0640     2.4990  -999.2500  -999.2500     3.3630     2.9940
 2248.0000    -3.4000     0.0830     2.5560  -999.2500  -999.2500     3.4240     2.9010
 2248.5000    -3.4000     0.0650     2.5440  -999.2500  -999.2500     3.2690     2.8090
 2249.0000    -3.4000     0.0330     2.5270  -999.2500  -999.2500     3.1380     2.7160
 2249.5000    -3.4000     0.0390     2.5210  -999.2500  -999.2500     3.0070     2.6720
 2250.0000    -3.4000     0.0500     2.5210  -999.2500  -999.2500     2.9020     2.6420
 2250.5000    -3.4000     0.0620     2.5180  -999.2500  -999.2500     2.7510     2.6120
 2251.0000    -3.4000     0.0700     2.5130  -999.2500  -999.2500     2.5990     2.5820
 2251.5000    -3.4000     0.0720     2.5140  -999.2500  -999.2500     2.6180     2.5520
