~VERSION INFORMATION
 VERS.                2.0:   CWLS LOG ASCII STANDARD - VERSION 2.0
 WRAP.                 NO:   ONE LINE PER DEPTH STEP
~WELL INFORMATION
#MNEM.UNIT      DATA TYPE    INFORMATION
#----------   ------------   ------------------------------
 STRT.F          620.0000:   START DEPTH
 STOP.F         3209.0000:   STOP DEPTH
 STEP.F            0.5000:   STEP LENGTH
 NULL.          -999.2500:   NO VALUE
 COMP. FENIX & SCISSON - US NAVY:   COMPANY
 WELL.   FENIX "A" #23-33:   WELL
 FLD .             NPR #3:   FIELD
 LOC .      S33 T39N R78W:   LOCATION
 CNTY.            NATRONA:   COUNTY
 STAT.            WYOMING:   STATE
 CTRY. UNITED STATES OF AMERICA:   COUNTRY
 SRVC.              WELEX:   SERVICE COMPANY
 DATE.        26-MAR-1977:   LOGDATE
 API .     49025103250000:   API NUMBER
~CURVE INFORMATION
#MNEM.UNIT       API CODE    CURVE DESCRIPTION
#----------   ------------   ------------------------------
 DEPT.F                  :   
 GRD .GAPI   45 310 01 00:   GAMMA RAY FROM DENSITY LOG
 CALD.IN     45 280 60 00:   CALIPER FROM DENSITY LOG
 CORR.G/C3   45 356 01 00:   DENSITY CORRECTION
 RHOB.G/C3   45 350 01 00:   BULK DENSITY
 SPR .MV     07 010 01 00:   SPONTANEOUS POTENTIAL
 ILD .OHMM   07 120 46 00:   DEEP INDUCTION RESISTIVITY
 ILM .OHMM   07 120 44 00:   INDUCTION LOG MEDIUM RESISTIVITY
 SGRD.OHMM   07 220 05 00:   SHALLOW SHORT GUARD RESISTIVITY
~PARAMETER INFORMATION
#MNEM.UNIT          VALUE    DESCRIPTION
#----------   ------------   ------------------------------
 EKB .F         5183.0000:   Kelly bushing
 EGL .F         5172.0000:   Ground level
 TD  .F         3213.0000:   Total depth
 CLNT.            A2DTECH:   Client Code
 SL  . 900' FWL & 1650' FNL:   Surface Location
 PD  .                 GL:   Permanent Datum
 EPD .F              5172:   Elevation Permanent Datum
 LMF .                 KB:   Log Measured From
 DMF .                 KB:   Drilling Measured From
 DAPD.F                11:   Feet Above Permanent Datum
 DATE.        26-MAR-1977:   Date Logged [DD-MMM-YYYY]
 DD  .F              3210:   Depth driller
 DL  .F              3213:   Depth logger
 BLI .F              3211:   Bottom log interval
 TLI .F               625:   Top log interval
 CS1 .IN            8.625:   Casing size
 CBD1.      8.625" @ 633':   Casing driller 1
 CBL1.F               635:   Casing logger 1
 BS1 .IN            7.875:   Bit size
 BSD1.F              3210:   Depth drilled with bit1
 DFT .            KCL MUD:   Type fluid in hole
 DFD .                9.5:   Density
 DFV .                 34:   Viscosity
 DFPH.                8.5:   pH
 DFL .                 14:   Fluid loss
 MSS .           FLOWLINE:   Source of sample
 RMS .OHMM           0.34:   Rm
 MST .F                86:   Rm Meas. temp.
 RMF .OHMM           0.25:   Rmf
 MFST.F                86:   Rmf Meas. temp.
 MFSS.            FANN KL:   Source Rmf.
 RMC .OHMM           0.55:   Rmc
 MCST.F                86:   Rmc Meas. temp.
 MCSS.            FANN KL:   Source Rmc.
 RMB .OHMM           0.31:   Rm. at BHT
 BHT .F                92:   BHT.
 TCS .HRS             2.5:   Time Circ. stopped
 MRT .F                92:   Maximum recorded temp.
 LUN .               8611:   Logging unit number
 LUL .             CASPER:   Logging unit location
 ENGI.            C. DOAK:   Recorded By
 WITN.            K. JAPP:   Witnessed by
 ORIG.           5" PRINT:   Origin of data
 UWI .     49025103250000:   Unique Well ID
 DICO. A2D TECHNOLOGIES, INC.:   Digitizing Company
~OTHER INFORMATION
~A   DEPT       GRD        CALD      CORR        RHOB      SPR        ILD        ILM       SGRD   
# ...
 2483.0000    83.3309     8.6376     0.0235     2.5250   -42.8559     5.5171     6.8686     8.3358
 2483.5000    83.5117     8.6389     0.0191     2.5198   -42.7716     5.5194     6.9200     8.3996
 2484.0000    83.8003     8.6404     0.0162     2.5123   -42.6874     5.5218     6.9718     8.4058
 2484.5000    83.6628     8.6420     0.0148     2.5079   -42.6197     5.5242     6.9758     8.4144
 2485.0000    83.5226     8.6434     0.0149     2.5064   -42.4566     5.5265     6.9309     8.4184
 2485.5000    82.9400     8.6448     0.0165     2.5088   -42.4407     5.5289     6.8412     8.4247
 2486.0000    82.2117     8.6462     0.0166     2.5088   -42.5761     5.5313     6.8451     8.3746
 2486.5000    81.6291     8.6475     0.0182     2.5044   -42.5562     5.5274     6.7338     8.3808
 2487.0000    81.0465     8.6489     0.0198     2.4953   -42.5403     5.4979     6.6670     8.2157
 2487.5000    80.7606     8.6502     0.0200     2.4925   -42.6717     5.4625     6.5796     8.0539
 2488.0000    80.9199     8.6517     0.0231     2.4971   -42.6558     5.4279     6.4935     7.8938
 2488.5000    81.2277     8.6530     0.0232     2.5039   -42.7879     5.4302     6.4981     8.0106
 2489.0000    81.2410     8.6693     0.0233     2.5092   -42.7717     5.4701     6.4564     8.2402
 2489.5000    80.9552     8.6710     0.0234     2.5103   -42.9028     5.5484     6.5505     8.8335
 2490.0000    80.6693     8.6572     0.0235     2.5063   -43.0341     5.6279     6.6909     9.6007
 2490.5000    80.5318     8.6587     0.0236     2.5102   -43.1655     5.6303     6.7875     9.5419
 2491.0000    80.0975     8.6602     0.0237     2.5148   -43.2969     5.6327     6.8382     9.2261
 2491.5000    79.8117     8.6616     0.0238     2.5185   -43.1298     5.6351     6.8422     9.1051
 2492.0000    79.5258     8.6629     0.0239     2.5171   -42.9666     5.6375     6.7992     8.9891
 2492.5000    79.4926     8.6792     0.0240     2.5156   -42.8035     5.6400     6.7563     8.8013
 2493.0000    79.3991     8.6806     0.0241     2.5179   -42.6421     5.6429     6.7139     8.2908
 2493.5000    79.5586     8.6820     0.0240     2.5210   -42.6259     5.6844     6.7642     7.8527
 2494.0000    79.7310     8.6834     0.0228     2.5218   -42.6086     5.7261     6.8149     7.4891
 2494.5000    80.0280     8.6851     0.0214     2.5189   -42.4454     5.7682     6.9133     8.7793
 2495.0000    80.4839     8.7013     0.0216     2.5152   -42.4295     5.8106     6.9659     9.2192
 2495.5000    80.9399     8.6878     0.0217     2.5115   -42.2664     5.8131     7.0664     9.6148
 2496.0000    81.2475     8.6890     0.0218     2.5100   -42.2504     5.8156     7.1193    10.0274
 2496.5000    81.1073     8.6906     0.0249     2.5116   -42.3819     5.8181     7.0260     9.6956
 2497.0000    80.8214     8.6919     0.0265     2.5164   -42.3620     5.8206     6.8393     9.2466
 2497.5000    80.9833     8.6932     0.0281     2.5252   -42.4974     5.8231     6.7034     9.0024
 2498.0000    81.2909     8.6947     0.0282     2.5306   -42.6288     5.7022     6.6147     8.7631
 2498.5000    81.7470     8.6961     0.0268     2.5314   -42.7602     5.5541     6.5731     7.9002
 2499.0000    82.0757     8.6966     0.0254     2.5284   -42.8916     5.4427     6.4435     7.7554
 2499.5000    82.3648     8.6948     0.0240     2.5165   -43.0229     5.3699     6.3155     7.9791
 2500.0000    82.0762     8.6929     0.0226     2.4989   -43.3449     5.3108     6.2328     8.3444
 2500.5000    81.4964     8.6911     0.0167     2.4878   -43.4826     5.1700     6.1905     8.6413
 2501.0000    81.1802     8.6893     0.0108     2.4806   -43.4699     5.1735     6.1483     8.5278
 2501.5000    80.3171     8.6878     0.0048     2.4836   -43.4597     5.1770     6.1591     8.2437
 2502.0000    79.4679     8.6888     0.0065     2.4919   -43.4495     5.1088     6.2480     7.8602
 2502.5000    79.3303     8.6896     0.0141     2.5055   -43.5873     5.0771     6.3382     7.6508
 2503.0000    80.0902     8.6904     0.0172     2.5138   -43.7250     5.0814     6.4297     7.6014
 2503.5000    81.1432     8.6912     0.0173     2.5124   -43.7145     5.0849     6.4334     7.8189
 2504.0000    83.5315     8.7068     0.0189     2.5079   -43.8526     5.0883     6.2624     8.0415
 2504.5000    84.4362     8.7078     0.0175     2.5080   -43.9878     5.0568     6.0959     8.1574
 2505.0000    84.4510     8.7086     0.0176     2.5110   -43.9776     5.0602     6.0256     8.0503
 2505.5000    83.8752     8.7242     0.0192     2.5141   -44.1153     5.0289     5.9371     8.0546
 2506.0000    83.2962     8.7250     0.0194     2.5149   -44.1052     4.9634     5.8594     7.6282
 2506.5000    83.3106     8.7258     0.0195     2.5149   -44.0950     4.9327     5.7828     7.3235
 2507.0000    83.6217     8.7266     0.0196     2.5142   -44.0848     4.8027     5.7042     7.0310
 2507.5000    84.5264     8.7274     0.0181     2.5090   -44.2251     4.7076     5.6266     6.8437
 2508.0000    85.8761     8.7282     0.0183     2.4993   -44.2123     4.6145     5.4826     6.7529
 2508.5000    87.6710     8.7290     0.0153     2.4873   -44.2022     4.5231     5.4108     6.8511
 2509.0000    89.4674     8.7300     0.0094     2.4769   -44.1920     4.4032     5.3399     6.8548
 2509.5000    89.7770     8.7308     0.0035     2.4664   -44.1818     4.2864     5.1987     6.7184
 2510.0000    88.9048     8.7316     0.0006     2.4642   -44.3195     4.1441     5.0605     6.5846
 2510.5000    88.0291     8.7324     0.0098     2.4740   -44.4573     3.9790     4.8922     6.4093
 2511.0000    86.2631     8.7332     0.0174     2.4816   -44.5950     3.8735     4.7622     6.3250
 2511.5000    85.8288     8.7340     0.0220     2.4877   -44.7328     3.7707     4.6670     6.1541
 2512.0000    85.8469     8.7347     0.0221     2.4924   -44.7200     3.6707     4.5749     5.6608
 2512.5000    86.4548     8.7355     0.0252     2.4990   -44.7098     3.6209     4.5775     4.5322
 2513.0000    87.9529     8.7364     0.0253     2.5081   -44.6997     3.5758     4.5802     4.9481
 2513.5000    88.5608     8.7372     0.0285     2.5149   -44.6895     3.5293     4.6145     5.2311
 2514.0000    87.6667     8.7381     0.0301     2.5044   -44.5314     3.4596     4.6811     5.2700
 2514.5000    86.8128     8.7389     0.0287     2.5007   -44.4777     3.4859     4.7167     5.3829
 2515.0000    85.9371     8.7397     0.0258     2.5023   -44.3639     3.5392     4.7848     5.5744
 2515.5000    85.2097     8.7405     0.0289     2.5031   -44.3529     3.5882     4.8206     5.8528
 2516.0000    84.7754     8.7413     0.0320     2.5061   -44.1948     3.6662     4.8234     6.1020
 2516.5000    84.9418     8.7421     0.0366     2.5092   -44.0370     3.7195     4.8594     4.8983
 2517.0000    85.4013     8.7429     0.0413     2.5122   -44.0266     3.7998     4.8958     5.7031
 2517.5000    86.1576     8.7437     0.0414     2.5162   -43.8683     3.8551     4.8986     6.3705
 2518.0000    86.9199     8.7445     0.0384     2.5138   -43.7101     3.9112     4.9014     6.6427
 2518.5000    88.1747     8.7603     0.0355     2.5041   -43.6997     3.9139     4.9381     6.6922
 2519.0000    89.6170     8.7760     0.0306     2.4944   -43.6873     3.9709     4.9750     6.4198
 2519.5000    89.9245     8.7767     0.0246     2.4862   -43.6771     4.0287     4.9779     6.2970
 2520.0000    89.0524     8.7775     0.0217     2.4975   -43.6669     4.1156     5.0175     6.4328
 2520.5000    87.8799     8.7783     0.0248     2.5088   -43.6568     4.1755     5.1329     6.4798
 2521.0000    87.3008     8.7791     0.0278     2.5194   -43.6466     4.2656     5.4163     6.2648
 2521.5000    88.2055     8.7502     0.0339     2.5262   -43.7869     4.3283     5.5706     6.3990
 2522.0000    89.1101     8.7510     0.0354     2.5277   -43.7741     4.4541     5.5738     6.5812
 2522.5000    88.8207     8.7370     0.0340     2.5255   -43.9144     4.5525     5.6932     6.8154
 2523.0000    87.9323     8.7230     0.0341     2.5233   -43.9017     4.7110     5.7754     7.0094
