~VERSION INFORMATION
 VERS.                2.0:   CWLS LOG ASCII STANDARD - VERSION 2.0
 WRAP.                 NO:   ONE LINE PER DEPTH STEP
~WELL INFORMATION
#MNEM.UNIT      DATA TYPE    INFORMATION
#----------   ------------   ------------------------------
 STRT.F          740.0000:   START DEPTH
 STOP.F         2749.0000:   STOP DEPTH
 STEP.F            0.5000:   STEP LENGTH
 NULL.          -999.2500:   NO VALUE
 COMP.    FENIX & SCISSON:   COMPANY
 WELL.   FENIX SHX #11-10:   WELL
 FLD .                NPR:   FIELD
 LOC .      S10 T38N R78W:   LOCATION
 CNTY.            NATRONA:   COUNTY
 STAT.            WYOMING:   STATE
 CTRY. UNITED STATES OF AMERICA:   COUNTRY
 SRVC.              WELEX:   SERVICE COMPANY
 DATE.        09-APR-1980:   LOGDATE
 API .     49025108060000:   API NUMBER
~CURVE INFORMATION
#MNEM.UNIT       API CODE    CURVE DESCRIPTION
#----------   ------------   ------------------------------
 DEPT.F                  :   
 GRD .GAPI   45 310 01 00:   GAMMA RAY FROM DENSITY LOG
 CALD.IN     45 280 60 00:   CALIPER FROM DENSITY LOG
 TEND.LBS    45 635 01 00:   TENSION FROM DENSITY LOG
 RHOB.G/C3   45 350 01 00:   BULK DENSITY
 CORR.G/C3   45 356 01 00:   DENSITY CORRECTION
~PARAMETER INFORMATION
#MNEM.UNIT          VALUE    DESCRIPTION
#----------   ------------   ------------------------------
 EKB .F         5287.0000:   Kelly bushing
 EGL .F         5277.0000:   Ground level
 EDF .F            0.0000:   Drilling floor
 EPD .F         5277.0000:   Permanent datum
 TD  .F         2762.0000:   Total depth
 DATE.        09-APR-1980:   Date logged
 CLNT.            A2DTECH:   Client Code
 SL  . 474' FNL & 644' FWL:   Surface Location
 PD  .                 GL:   Permanent Datum
 LMF .                 KB:   Log Measured From
 DMF .                 KB:   Drilling Measured From
 DAPD.F                10:   Feet Above Permanent Datum
 DD  .F              2762:   Depth driller
 DL  .F            2751.5:   Depth logger
 BLI .F              2750:   Bottom log interval
 TLI .F               750:   Top log interval
 CS1 .IN            9.625:   Casing size
 CBD1.      9.625" @ 760':   Casing driller 1
 BS1 .IN             8.75:   Bit size
 BSD1.F              2762:   Depth drilled with bit1
 DFT .                AIR:   Type fluid in hole
 TCS .HRS               3:   Time Circ. stopped
 MRT .F               118:   Maximum recorded temp.
 ENGI.            BENTSEN:   Recorded By
 WITN.           DINSMORE:   Witnessed by
 ORIG.         2.5" PRINT:   Origin of data
 UWI .     49025108060000:   Unique Well ID
 DICO. A2D TECHNOLOGIES, INC.:   Digitizing Company
~OTHER INFORMATION
~A   DEPT       GRD      CALD       TEND       RHOB       CORR   
# ...
 2021.0000    85.2480     8.5990  1399.5220     2.5690     0.0600
 2021.5000    85.6860     8.5990  1399.7990     2.5710     0.0640
 2022.0000    86.2500     8.5990  1400.0770     2.5770     0.0710
 2022.5000    86.7930     8.5990  1400.3550     2.5830     0.0780
 2023.0000    87.3650     8.5990  1400.6331     2.5840     0.0770
 2023.5000    87.9010     8.5990  1400.9110     2.5720     0.0640
 2024.0000    88.3250     8.5990  1401.1880     2.5590     0.0520
 2024.5000    87.6070     8.5990  1401.4659     2.5450     0.0400
 2025.0000    86.9670     8.5990  1401.7440     2.5400     0.0260
 2025.5000    86.2120     8.5990  1402.0220     2.5430     0.0260
 2026.0000    86.3300     8.5990  1402.2990     2.5310     0.0210
 2026.5000    86.9640     8.5990  1402.5770     2.5130     0.0050
 2027.0000    87.6210     8.5990  1402.8550     2.4990    -0.0020
 2027.5000    87.3270     8.5990  1403.1331     2.5070     0.0070
 2028.0000    86.4210     8.5990  1403.4110     2.5190     0.0130
 2028.5000    85.4920     8.5990  1403.6880     2.5140     0.0200
 2029.0000    85.9790     8.5990  1403.9659     2.5090     0.0140
 2029.5000    86.5620     8.5990  1404.2440     2.5020     0.0070
 2030.0000    87.2100     8.5990  1404.5220     2.5060     0.0020
 2030.5000    87.7900     8.5990  1404.8000     2.5190     0.0110
 2031.0000    88.1960     8.5990  1405.0770     2.5300     0.0200
 2031.5000    88.5880     8.5990  1405.3550     2.5360     0.0280
 2032.0000    88.9710     8.5990  1405.6331     2.5360     0.0360
 2032.5000    89.3680     8.5990  1405.9110     2.5140     0.0240
 2033.0000    89.7410     8.5990  1406.1890     2.4970     0.0110
 2033.5000    90.1540     8.5990  1406.4659     2.4950     0.0020
 2034.0000    90.2410     8.5990  1406.7440     2.5040     0.0060
 2034.5000    90.3240     8.5990  1407.0220     2.4990     0.0100
 2035.0000    90.3910     8.5990  1407.3000     2.5000     0.0140
 2035.5000    90.4670     8.5990  1407.5780     2.5090     0.0330
 2036.0000    90.5410     8.5990  1407.8550     2.5110     0.0320
 2036.5000    90.6200     8.5990  1408.1331     2.4990     0.0220
 2037.0000    90.6830     8.5990  1408.4110     2.4980     0.0210
 2037.5000    90.7650     8.5990  1408.6890     2.5130     0.0350
 2038.0000    90.4700     8.5970  1408.9670     2.5220     0.0490
 2038.5000    90.0730     8.5930  1409.2440     2.5160     0.0490
 2039.0000    89.6870     8.5900  1409.5220     2.5080     0.0390
 2039.5000    88.7480     8.5870  1409.8000     2.4950     0.0320
 2040.0000    87.5800     8.5830  1410.0780     2.5000     0.0220
 2040.5000    86.4200     8.5800  1410.3560     2.5110     0.0280
 2041.0000    85.7400     8.5770  1410.6331     2.4990     0.0160
 2041.5000    85.3250     8.5730  1410.9110     2.4870     0.0050
 2042.0000    84.9160     8.5700  1411.1890     2.4820    -0.0010
 2042.5000    84.4860     8.5660  1411.4670     2.4800    -0.0030
 2043.0000    84.1020     8.5630  1411.7450     2.4850     0.0030
 2043.5000    83.6760     8.5600  1412.0220     2.4920     0.0070
 2044.0000    84.1970     8.5640  1412.3000     2.4980     0.0120
 2044.5000    84.8170     8.5690  1412.5780     2.5050     0.0170
 2045.0000    85.4820     8.5740  1412.8560     2.5110     0.0290
 2045.5000    86.1010     8.5800  1413.1340     2.5180     0.0410
 2046.0000    86.7400     8.5850  1413.4110     2.5210     0.0450
 2046.5000    87.4470     8.5900  1413.6890     2.5220     0.0450
 2047.0000    87.6060     8.5950  1413.9670     2.5150     0.0460
 2047.5000    86.8490     8.5980  1414.2450     2.5090     0.0400
 2048.0000    86.1660     8.5850  1414.5229     2.5030     0.0300
 2048.5000    85.4740     8.5740  1414.8000     2.4970     0.0210
 2049.0000    84.7600     8.5630  1415.0780     2.4920     0.0120
 2049.5000    84.0710     8.5510  1415.3560     2.4960     0.0150
 2050.0000    83.3790     8.5400  1415.6340     2.5070     0.0250
 2050.5000    82.6420     8.5280  1415.9110     2.5180     0.0350
 2051.0000    82.7200     8.5210  1416.1890     2.5210     0.0320
 2051.5000    83.2590     8.5260  1416.4670     2.5240     0.0240
 2052.0000    84.5430     8.5300  1416.7450     2.5320     0.0350
 2052.5000    87.0930     8.5340  1417.0229     2.5380     0.0400
 2053.0000    89.5190     8.5390  1417.3000     2.5300     0.0350
 2053.5000    90.1930     8.5430  1417.5780     2.5280     0.0300
 2054.0000    90.7350     8.5470  1417.8560     2.5280     0.0310
 2054.5000    90.0150     8.5520  1418.1340     2.5280     0.0320
 2055.0000    89.3360     8.5560  1418.4120     2.5220     0.0310
 2055.5000    89.1800     8.5610  1418.6890     2.5150     0.0270
 2056.0000    89.8040     8.5650  1418.9670     2.5080     0.0240
 2056.5000    90.3550     8.5690  1419.2450     2.5030     0.0220
 2057.0000    90.9150     8.5740  1419.5229     2.5100     0.0360
 2057.5000    91.3970     8.5780  1419.8010     2.5180     0.0430
 2058.0000    91.6660     8.5830  1420.0780     2.5220     0.0470
 2058.5000    91.9260     8.5870  1420.3560     2.5200     0.0470
 2059.0000    91.4200     8.5910  1420.6340     2.5050     0.0400
 2059.5000    90.7980     8.5960  1420.9120     2.5020     0.0340
 2060.0000    90.1810     8.5990  1421.1899     2.5050     0.0270
 2060.5000    89.6230     8.5930  1421.4680     2.5090     0.0200
 2061.0000    89.8070     8.5890  1421.7460     2.5120     0.0140
 2061.5000    89.9940     8.5840  1422.0229     2.5080     0.0070
 2062.0000    90.2130     8.5800  1422.3030     2.5060     0.0160
 2062.5000    90.4180     8.5750  1422.5780     2.5030     0.0330
 2063.0000    90.6250     8.5700  1422.8400     2.5170     0.0390
 2063.5000    90.8260     8.5660  1422.9550     2.5120     0.0280
 2064.0000    91.0760     8.5610  1423.0640     2.5070     0.0270
 2064.5000    91.2640     8.5690  1423.1680     2.5080     0.0320
 2065.0000    91.2820     8.5830  1423.2750     2.5070     0.0360
 2065.5000    90.0220     8.5970  1423.3810     2.5040     0.0260
 2066.0000    88.9190     8.6110  1423.4871     2.4760     0.0120
 2066.5000    88.3300     8.6240  1423.5930     2.4470    -0.0030
 2067.0000    88.4030     8.6380  1423.6990     2.4250    -0.0090
 2067.5000    88.3980     8.6360  1423.8051     2.4370    -0.0020
 2068.0000    88.6640     8.6330  1423.9110     2.4560     0.0160
 2068.5000    89.4550     8.6300  1424.0170     2.5010     0.0310
 2069.0000    91.1520     8.6270  1424.1230     2.4950     0.0200
 2069.5000    92.8310     8.6240  1424.2290     2.4910    -0.0010
 2070.0000    94.6480     8.6210  1424.3350     2.4970     0.0150
 2070.5000    95.6230     8.6180  1424.4410     2.5040     0.0260
 2071.0000    95.5180     8.6150  1424.5470     2.5110     0.0390
 2071.5000    95.5310     8.6120  1424.6541     2.5180     0.0460
 2072.0000    95.5530     8.6090  1424.7600     2.5120     0.0390
 2072.5000    95.5450     8.6060  1424.8660     2.5030     0.0180
 2073.0000    96.0830     8.6030  1424.9720     2.4930     0.0140
 2073.5000    96.7560     8.6000  1425.0780     2.5070     0.0260
 2074.0000    97.4510     8.5970  1425.1840     2.5070     0.0270
 2074.5000    98.1200     8.5930  1425.2900     2.5080     0.0280
 2075.0000    98.7710     8.5900  1425.3960     2.4970     0.0150
 2075.5000    99.5600     8.5870  1425.5020     2.4900     0.0020
 2076.0000    99.0400     8.5840  1425.6090     2.4880     0.0110
 2076.5000    97.7680     8.5810  1425.7150     2.4870     0.0190
 2077.0000    96.7090     8.5780  1425.8210     2.4970     0.0290
 2077.5000    94.9170     8.5750  1425.9270     2.5030     0.0350
 2078.0000    92.6880     8.5720  1426.0330     2.5000     0.0410
 2078.5000    90.3240     8.5690  1426.1390     2.4980     0.0470
 2079.0000    89.9630     8.5660  1426.2450     2.4950     0.0540
 2079.5000    89.7230     8.5630  1426.3510     2.4910     0.0580
 2080.0000    88.7000     8.5600  1426.4570     2.4700     0.0570
 2080.5000    86.8160     8.5720  1426.5640     2.4480     0.0570
 2081.0000    85.1480     8.5880  1426.6700     2.4370     0.0630
 2081.5000    83.7890     8.6050  1426.7760     2.4330     0.0670
