~VERSION INFORMATION
 VERS.                2.0:   CWLS LOG ASCII STANDARD - VERSION 2.0
 WRAP.                 NO:   ONE LINE PER DEPTH STEP
~WELL INFORMATION
#MNEM.UNIT      DATA TYPE    INFORMATION
#----------   ------------   ------------------------------
 STRT.F          388.0000:   START DEPTH
 STOP.F         3166.0000:   STOP DEPTH
 STEP.F            0.5000:   STEP LENGTH
 NULL.          -999.2500:   NO VALUE
 COMP.    PENIX & SCISSON:   COMPANY
 WELL. PENIX NPR 3 "AX" #34-28:   WELL
 FLD .                NPR:   FIELD
 LOC .      S28 T39N R78W:   LOCATION
 CNTY.            NATRONA:   COUNTY
 STAT.            WYOMING:   STATE
 CTRY. UNITED STATES OF AMERICA:   COUNTRY
 SRVC.              WELEX:   SERVICE COMPANY
 DATE.        15-DEC-1978:   LOGDATE
 API .     49025107950000:   API NUMBER
~CURVE INFORMATION
#MNEM.UNIT       API CODE    CURVE DESCRIPTION
#----------   ------------   ------------------------------
 DEPT.F                  :   
 CALD.IN     45 280 60 00:   CALIPER FROM DENSITY LOG
 GRD .GAPI   45 310 01 00:   GAMMA RAY FROM DENSITY LOG
 RHOB.G/C3   45 350 01 00:   BULK DENSITY
 CORR.G/C3   45 356 01 00:   DENSITY CORRECTION
 NPHI.DEC    42 890 03 00:   NEUTRON POROSITY SANDSTONE
 SPR .MV     07 010 01 00:   SPONTANEOUS POTENTIAL
 SGRD.OHMM   07 220 05 00:   SHALLOW GUARD
 ILD .OHMM   07 120 46 00:   DEEP INDUCTION RESISTIVITY
 ILM .OHMM   07 120 44 00:   INDUCTION LOG MEDIUM RESISTIVITY
 TENR.LBS    07 635 01 00:   TENSION FROM RESISTIVITY
~PARAMETER INFORMATION
#MNEM.UNIT          VALUE    DESCRIPTION
#----------   ------------   ------------------------------
 EKB .F         5039.0000:   Kelly bushing
 EGL .F         5029.0000:   Ground level
 EDF .F            0.0000:   Drilling floor
 TD  .F         3159.0000:   Total depth
 DATE.        15-DEC-1978:   Date logged
 CLNT.            A2DTECH:   Client Code
 SL  . 2434' FNL & 1651' FWL:   Surface Location
 PD  .                 GL:   Permanent Datum
 EPD .F              5029:   Elevation Permanent Datum
 LMF .                 KB:   Log Measured From
 DMF .                 KB:   Drilling Measured From
 DAPD.F                10:   Feet Above Permanent Datum
 DD  .F              3155:   Depth driller
 DL  .F              3159:   Depth logger
 BLI .F              3157:   Bottom log interval
 TLI .F               350:   Top log interval
 CS1 .IN            8.625:   Casing size
 CBD1.      8.625" @ 383':   Casing driller 1
 CBL1.F               398:   Casing logger 1
 BS1 .IN            7.875:   Bit size
 BSD1.F              3155:   Depth drilled with bit1
 DFT .           CHEM/GEL:   Type fluid in hole
 DFD .                8.5:   Density
 DFV .                 55:   Viscosity
 DFPH.                 10:   pH
 DFL .               10.8:   Fluid loss
 MSS .           FLOWLINE:   Source of sample
 RMS .OHMM           1.65:   Rm
 MST .F                65:   Rm Meas. temp.
 RMF .OHMM           1.32:   Rmf
 MFST.F                65:   Rmf Meas. temp.
 RMC .OHMM           1.98:   Rmc
 MCST.F                65:   Rmc Meas. temp.
 MFSS.               CALC:   Source Rmf.
 RMB .OHMM              1:   Rm. at BHT
 BHT .F               107:   BHT.
 TCS .HRS               8:   Time Circ. stopped
 MRT .F               107:   Maximum recorded temp.
 LUN .               1892:   Logging unit number
 LUL .             CASPER:   Logging unit location
 ENGI.               REIN:   Recorded By
 WITN.              AMEND:   Witnessed by
 ORIG.           5" PRINT:   Origin of data
 UWI .     49025107950000:   Unique Well ID
 DICO. A2D TECHNOLOGIES, INC.:   Digitizing Company
~OTHER INFORMATION
~A   DEPT     CALD         GRD      RHOB       CORR       NPHI        SPR       SGRD        ILD        ILM       TENR   
# ...
 2398.0000     8.9815   136.0925     2.5762     0.0302     0.1973   -54.9314     8.7161     6.9538     7.4221  1708.2496
 2398.5000     8.9810   131.2474     2.5741     0.0241     0.2002   -54.7323     9.0447     6.9526     7.4212  1728.7181
 2399.0000     8.9998   139.2735     2.5550    -0.0044     0.2042   -54.5332     8.9600     6.9518     7.4203  1728.9230
 2399.5000     9.0190   139.6566     2.5549     0.0016     0.2030   -54.7373     8.7940     6.9508     7.4196  1749.3510
 2400.0000     9.0181   139.6373     2.5579     0.0076     0.2002   -54.3371     8.5508     6.9502     7.4184  1749.5558
 2400.5000     8.9987   137.7960     2.5466    -0.0079     0.1958   -54.6881     8.3401     6.9491     7.4737  1711.7383
 2401.0000     8.9958   139.5936     2.5528    -0.0068     0.1925   -54.7443     8.6293     6.9489     7.4865  1709.3376
 2401.5000     9.0349   145.2061     2.5678     0.0032     0.1934   -54.7463     8.7097     6.9485     7.4862  1689.2239
 2402.0000     9.0338   156.8511     2.5718     0.0112     0.1954   -54.9499     8.7903     6.8836     7.4853  1689.3333
 2402.5000     9.0327   149.9785     2.5748     0.0091     0.1982   -54.7503     8.8507     6.8830     7.4848  1689.4424
 2403.0000     9.0714   149.9698     2.5808     0.0191     0.1998   -54.7523     8.6867     6.8188     7.4842  1689.5518
 2403.5000     9.0708   156.3784     2.5777     0.0211     0.2007   -54.7543     8.5258     6.7550     7.4144  1709.8844
 2404.0000     9.0697   160.7878     2.5505     0.0129     0.2027   -54.7563     8.3678     6.6918     7.3451  1750.4410
 2404.5000     9.0686   163.9943     2.5574     0.0087     0.2063   -54.7584     8.2128     6.5071     7.2765  1730.3707
 2405.0000     9.0675   158.3292     2.5625     0.0066     0.2063   -54.7604     8.0606     6.3273     7.1417  1730.4363
 2405.5000     9.0861   155.0876     2.5553     0.0085     0.2051   -54.7624     7.9853     6.2682     7.0748  1730.5240
 2406.0000     9.0852   158.2853     2.5714     0.0246     0.2031   -54.9660     7.9847     6.2676     6.9440  1669.9833
 2406.5000     9.1045   150.6166     2.5683     0.0246     0.2011   -54.9680     8.0589     6.2090     6.8790  1670.0706
 2407.0000     9.1034   149.3873     2.5653     0.0245     0.1975   -54.7684     8.1337     6.1510     6.8146  1670.1798
 2407.5000     9.1020   151.3777     2.5531     0.0183     0.1943   -54.7704     8.2092     6.1507     6.7512  1670.2452
 2408.0000     9.1009   156.1852     2.5551     0.0222     0.1939   -54.3691     8.2854     6.0931     6.7506  1670.4199
 2408.5000     9.0999   154.5534     2.5530     0.0242     0.1939   -54.7744     8.2847     6.0927     6.7500  1670.5291
 2409.0000     9.0992   146.8848     2.5550     0.0261     0.1931   -54.5748     8.2841     6.0922     6.8126  1670.6165
 2409.5000     9.0983   146.0579     2.5529     0.0260     0.1907   -54.3752     8.3044     6.2062     6.8757  1690.9720
 2410.0000     9.1015   145.6335     2.5509     0.0300     0.1874   -54.1755     8.2269     6.2058     7.1265  1691.1033
 2410.5000     9.1047   144.4042     2.5418     0.0177     0.1834   -54.7824     8.2262     6.2634     7.1911  1691.2125
 2411.0000     9.1078   141.1626     2.5518     0.0196     0.1790   -54.7844     8.2256     6.2631     7.2691  1691.2781
 2411.5000     9.1110   139.9333     2.5467     0.0114     0.1757   -54.7864     8.2252     6.3211     7.2690  1691.4092
 2412.0000     9.1142   141.5212     2.5386     0.0033     0.1721   -54.5868     8.2245     6.3796     7.2008  1691.5403
 2412.5000     9.1174   143.1090     2.5305    -0.0110     0.1750   -54.5888     8.2239     6.4389     7.2003  1691.6277
 2413.0000     9.1205   141.8797     2.5344    -0.0152     0.1790   -54.9941     8.2233     6.4385     7.1998  1691.7371
 2413.5000     9.1237   146.2848     2.5465    -0.0132     0.1786   -54.9961     8.2994     6.4378     7.1992  1671.6426
 2414.0000     9.1276   148.2664     2.5505     0.0110     0.1750   -55.1997     8.2990     6.4374     7.1987  1671.7081
 2414.5000     9.1471   141.4051     2.5776     0.0251     0.1730   -54.7985     8.3753     6.4971     7.1981  1671.8173
 2415.0000     9.1654   144.6091     2.5755     0.0229     0.1734   -54.8005     8.3751     6.4966     7.1976  1671.9482
 2415.5000     9.1447   145.7989     2.5674     0.0188     0.1799   -54.8025     8.3748     6.5572     7.1972  1672.0793
 2416.0000     9.1637   137.7235     2.5523     0.0086     0.1843   -54.4012     8.2963     6.5566     7.1967  1732.8668
 2416.5000     9.1635   139.7138     2.5522     0.0064     0.1880   -54.6049     8.2191     6.5560     7.1960  1732.9763
 2417.0000     9.1617   152.9729     2.5491     0.0063     0.1855   -54.6069     8.0671     6.5556     7.1955  1733.0858
 2417.5000     9.1604   156.5687     2.5451     0.0042     0.1823   -54.6093     7.8972     6.5551     7.1949  1712.9689
 2418.0000     9.1593   153.3227     2.5480     0.0082     0.1835   -54.2080     7.7895     6.4938     7.1944  1733.3047
 2418.5000     9.1584   154.1100     2.5540     0.0202     0.1884   -54.4117     7.6832     6.3734     7.1939  1692.9611
 2419.0000     9.1571   152.0758     2.5610     0.0262     0.1908   -54.4137     7.6779     6.3730     7.0606  1693.0703
 2419.5000     9.1761   157.6882     2.5690     0.0302     0.1977   -54.6173     7.6773     6.2550     6.9296  1693.1796
 2420.0000     9.1549   165.7091     2.5499     0.0179     0.2009   -54.2161     7.6056     6.1390     6.7384  1753.9696
 2420.5000     9.1739   164.4861     2.5287     0.0016     0.1981   -54.4197     7.3954     6.0252     6.6753  1713.6252
 2421.0000     9.1728   149.9670     2.5185    -0.0005     0.1965   -54.4217     7.1911     5.8586     6.5516  1693.5074
 2421.5000     9.2115   155.5838     2.5074    -0.0067     0.1933   -54.4237     7.0578     5.8039     6.3705  1713.8440
 2422.0000     9.1908   159.9932     2.5144    -0.0027     0.1905   -54.2241     6.9271     5.6436     6.1944  1713.9532
 2422.5000     9.1897   179.2847     2.5325     0.0154     0.1876   -54.4277     6.7987     5.4875     6.0234  1693.8353
 2423.0000     9.2046   181.6863     2.5475     0.0295     0.1840   -54.6313     6.6727     5.4363     5.8568  1693.9446
 2423.5000     9.2083   160.3298     2.5535     0.0395     0.1836   -54.6333     6.6722     5.2370     5.8564  1694.0540
 2424.0000     9.2065   144.6078     2.5626     0.0394     0.1840   -54.4337     6.7341     5.1400     5.8017  1653.7078
 2424.5000     9.2255   141.7730     2.5555     0.0312     0.1840   -54.6373     6.9893     5.0919     5.8012  1694.2725
 2425.0000     9.2454   144.9619     2.5554     0.0271     0.1824   -54.6393     7.2743     5.1392     5.8006  1734.8376
 2425.5000     9.2435   137.7046     2.5674     0.0250     0.1820   -54.6414     7.5492     5.2354     5.8548  1734.9034
 2426.0000     9.2019   134.4630     2.5724     0.0107     0.1804   -54.4417     7.6194     5.3336     6.0204  1735.0568
 2426.5000     9.2017   135.6484     2.5724     0.0227     0.1756   -54.8470     7.7615     5.5873     6.2485  1735.1226
 2427.0000     9.2001   135.6265     2.5723     0.0145     0.1732   -54.6474     8.0551     5.6394     6.7310  1735.2321
 2427.5000     9.1785   140.0315     2.5703     0.0144     0.1732   -54.8510     8.2825     5.7986     6.8573  1735.3196
 2428.0000     9.1573   144.0341     2.5622     0.0204     0.1732   -54.4498     8.5950     5.9073     7.1170  1735.4729
 2428.5000     9.1562   141.9999     2.5571     0.0102     0.1764   -54.6534     8.2809     5.9621     7.1831  1718.8407
 2429.0000     9.1551   150.0182     2.5500     0.0121     0.1760   -54.4538     8.1279     6.1879     7.1824  1715.4194
 2429.5000     9.1540   142.1823     2.5499     0.0120     0.1736   -54.4558     8.0521     6.3039     7.1387  1715.5289
 2430.0000     9.1730   134.3463     2.5368    -0.0002     0.1728   -54.4578     7.9031     6.3623     7.1150  1715.6383
 2430.5000     9.1518   127.8263     2.5075    -0.0125     0.1708   -54.8630     7.9026     6.4214     7.0482  1695.6061
 2431.0000     9.1507   134.6416     2.5014    -0.0349     0.1692   -54.8650     8.2780     6.4208     6.9826  1715.9446
