~VERSION INFORMATION
 VERS.                2.0:   CWLS LOG ASCII STANDARD - VERSION 2.0
 WRAP.                 NO:   ONE LINE PER DEPTH STEP
~WELL INFORMATION
#MNEM.UNIT      DATA TYPE    INFORMATION
#----------   ------------   ------------------------------
 STRT.F           70.0000:   START DEPTH
 STOP.F         2751.5000:   STOP DEPTH
 STEP.F            0.5000:   STEP LENGTH
 NULL.          -999.2500:   NO VALUE
 COMP.          INTEX OIL:   COMPANY
 WELL. INTEX N.P.R. "AX" #75-20:   WELL
 FLD .             TEAPOT:   FIELD
 LOC .      S20 T39N R78W:   LOCATION
 CNTY.            NATRONA:   COUNTY
 STAT.            WYOMING:   STATE
 CTRY. UNITED STATES OF AMERICA:   COUNTRY
 SRVC.       SCHLUMBERGER:   SERVICE COMPANY
 DATE.        06-MAY-1966:   LOGDATE
 API .     49025095120000:   API NUMBER
~CURVE INFORMATION
#MNEM.UNIT       API CODE    CURVE DESCRIPTION
#----------   ------------   ------------------------------
 DEPT.F                  :   
 CALD.IN     45 280 60 00:   CALIPER FROM DENSITY LOG
 GRD .GAPI   45 310 01 00:   GAMMA RAY FROM DENSITY LOG
 RHOB.G/C3   45 350 01 00:   BULK DENSITY
 CORR.G/C3   45 356 01 00:   DENSITY CORRECTION
 SPR .MV     05 010 01 00:   SPONTANEOUS POTENTIAL
 ILD .OHMM   05 120 46 00:   DEEP INDUCTION RESISTIVITY
 ASN .OHMM   05 041 16 00:   AMPLIFIED SHORT NORMAL 16"
~PARAMETER INFORMATION
#MNEM.UNIT          VALUE    DESCRIPTION
#----------   ------------   ------------------------------
 EKB .F         5016.3000:   Kelly bushing
 EGL .F         5006.0000:   Ground level
 EDF .F            0.0000:   Drilling floor
 TD  .F         2750.0000:   Total depth
 DATE.        06-MAY-1966:   Date logged
 CLNT.            A2DTECH:   Client Code
 PD  .                 GL:   Permanent Datum
 DD  .F              2750:   Depth driller
 DL  .F              2746:   Depth logger
 BLI .F              2745:   Bottom log interval
 CS1 .IN            10.75:   Casing size
 CBD1.       10.75" @ 30':   Casing driller 1
 BS1 .IN            7.875:   Bit size
 DFT .           OIL/EMUL:   Type fluid in hole
 DFD .                9.8:   Density
 DFV .                 43:   Viscosity
 DFPH.                  8:   pH
 DFL .               11.8:   Fluid loss
 MSS .         CIRCULATED:   Source of sample
 RMS .OHMM           1.84:   Rm
 MST .F                73:   Rm Meas. temp.
 RMF .OHMM           1.21:   Rmf
 MFST.F                74:   Rmf Meas. temp.
 MFSS.                 FP:   Source Rmf.
 RMB .OHMM           1.27:   Rm. at BHT
 BHT .F               106:   BHT.
 TCS .HRS             1.5:   Time Circ. stopped
 MRT .F               106:   Maximum recorded temp.
 LUN .               3527:   Logging unit number
 LUL .               CSPR:   Logging unit location
 ENGI.               HAUG:   Recorded By
 WITN.      TUTTLE/HUDSON:   Witnessed by
 ORIG.           5" PRINT:   Origin of data
 UWI .     49025095120000:   Unique Well ID
 DICO. A2D TECHNOLOGIES, INC.:   Digitizing Company
 DAPD.F              10.3:   Feet Above Permanent Datum
 BSD1.F              2750:   Depth drilled with bit1
 MCSS.                 FP:   Source Rmc.
 EPD .F              5006:   Elevation Permanent Datum
 LMF .                 KB:   Log Measured From
 DMF .                 KB:   Drilling Measured From
 TLI .F                88:   Top log interval
~OTHER INFORMATION
~A   DEPT     CALD        GRD       RHOB       CORR        SPR        ILD          ASN 
# ...
 2663.5000     7.7660   137.2180     2.4940     0.0580   -35.2290     5.1290     7.8770
 2664.0000     7.8200   136.0960     2.4960     0.0430   -35.2840     5.0260     7.7690
 2664.5000     7.8710   135.4440     2.5010     0.0340   -35.3690     4.9230     7.6780
 2665.0000     7.9240   135.9330     2.4750     0.0230   -35.4540     4.8200     7.6690
 2665.5000     7.9420   135.1970     2.4730     0.0130   -35.5380     4.8090     7.6820
 2666.0000     7.9400   132.7860     2.4780     0.0120   -35.6100     5.0360     7.6950
 2666.5000     7.9280   132.3990     2.4760     0.0160   -35.3920     5.2990     7.7890
 2667.0000     7.9170   132.1470     2.4770     0.0080   -35.1530     5.5980     7.9870
 2667.5000     7.9040   130.3170     2.4840     0.0110   -34.9080     5.9630     8.2430
 2668.0000     7.8930   130.8020     2.4890     0.0170   -34.6550     6.3190     8.5580
 2668.5000     7.8810   130.2200     2.4780     0.0190   -34.9220     6.6740     9.5510
 2669.0000     7.8690   133.0600     2.4790     0.0030   -35.2940     7.0290    10.2590
 2669.5000     7.8580   135.5910     2.4900     0.0080   -35.6670     7.3860    10.7410
 2670.0000     7.8460   136.5440     2.4850     0.0120   -36.0070     7.7480    11.3170
 2670.5000     7.8340   138.5190     2.4820     0.0050   -35.9970     8.1430    11.8170
 2671.0000     7.8220   139.9790     2.4930     0.0030   -35.9950     7.9950    11.7580
 2671.5000     7.8100   142.7290     2.4930     0.0070   -35.9940     7.8140    11.5950
 2672.0000     7.7990   144.0730     2.4810     0.0090   -35.9940     7.6310    11.4320
 2672.5000     7.7860   143.9210     2.4750     0.0060   -35.8690     7.4500    11.2700
 2673.0000     7.7980   143.2420     2.4800     0.0030   -35.6030     7.2690    11.1070
 2673.5000     7.8140   140.8320     2.4870     0.0030   -35.3390     7.0870    10.9440
 2674.0000     7.8310   138.3080     2.4940     0.0120   -35.0740     6.9050    10.7780
 2674.5000     7.8460   135.8370     2.4840     0.0320   -34.8100     6.7210    10.5690
 2675.0000     7.8620   133.4950     2.4740     0.0180   -34.5430     6.7780    10.4780
 2675.5000     7.8580   133.1710     2.4780    -0.0010   -34.2700     6.8820    10.4560
 2676.0000     7.8480   131.3590     2.4860     0.0070   -34.4340     6.9870    10.6460
 2676.5000     7.8390   131.0340     2.4870     0.0100   -34.6950     7.0920    10.9660
 2677.0000     7.8310   133.9560     2.4870     0.0150   -34.9590     7.1980    11.2850
 2677.5000     7.8220   134.3380     2.4870     0.0140   -35.2240     7.3060    11.6050
 2678.0000     7.8130   131.5080     2.4820     0.0110   -35.4900     7.4150    11.9270
 2678.5000     7.8040   123.4520     2.4770     0.0070   -35.7550     7.5580    12.2490
 2679.0000     7.7950   117.1170     2.4750     0.0050   -35.9900     8.0410    12.5830
 2679.5000     7.7860   110.4530     2.4890     0.0170   -36.2180     8.7650    13.0530
 2680.0000     7.7770   102.6650     2.4970     0.0280   -36.5100     9.7480    14.3310
 2680.5000     7.7690    92.3140     2.4770     0.0270   -37.6540    11.2520    15.9430
 2681.0000     7.7580    82.9970     2.4590     0.0280   -38.9170    12.7390    17.9950
 2681.5000     7.7540    75.1800     2.4440     0.0400   -40.3450    14.2240    20.0470
 2682.0000     7.7010    70.7700     2.4260     0.0570   -43.9950    15.7590    22.9220
 2682.5000     7.5500    67.5940     2.3920     0.0650   -48.9430    18.5470    26.9810
 2683.0000     7.4670    66.1970     2.3670     0.0460   -53.9010    21.3800    31.0400
 2683.5000     7.5320    65.4330     2.3690     0.0300   -58.8820    24.2100    34.0520
 2684.0000     7.5860    62.9560     2.3610     0.0250   -62.2740    27.0390    36.7550
 2684.5000     7.6520    59.2230     2.3700     0.0300   -65.1930    29.8640    39.4590
 2685.0000     7.6510    55.4670     2.3980     0.0350   -67.0350    32.6440    41.1400
 2685.5000     7.5830    51.6310     2.4440     0.0360   -67.9450    35.4310    42.5670
 2686.0000     7.5610    50.0130     2.4840     0.0270   -68.8200    38.1990    48.9320
 2686.5000     7.6150    50.7020     2.5260     0.0270   -68.9710    43.5670    53.3300
 2687.0000     7.6610    52.6480     2.5700     0.0300   -69.0250    49.4990    58.9690
 2687.5000     7.7110    55.0280     2.5930     0.0300   -68.8280    53.8040    64.9160
 2688.0000     7.7580    57.0780     2.5660     0.0260   -68.6270    55.2320    71.8530
 2688.5000     7.8110    59.2900     2.5410     0.0230   -68.4210    52.2700    75.8180
 2689.0000     7.7980    60.5190     2.4960     0.0250   -68.3470    48.2040    76.8090
 2689.5000     7.7490    60.0930     2.4480     0.0300   -68.4090    45.8750    70.8620
 2690.0000     7.7070    58.9030     2.3970     0.0230   -68.5030    43.6230    65.9070
 2690.5000     7.6630    57.4600     2.3460     0.0140   -68.9620    41.3670    60.9510
 2691.0000     7.6200    54.8780     2.3110     0.0090   -70.7120    40.1710    57.9780
 2691.5000     7.5770    53.1870     2.3060     0.0080   -72.5420    39.4050    56.9870
 2692.0000     7.5310    51.8370     2.3020     0.0070   -74.3700    38.8260    55.0050
 2692.5000     7.5080    51.2460     2.3000     0.0070   -75.7590    38.5700    54.0140
 2693.0000     7.5110    53.7670     2.3050     0.0090   -76.0890    38.5020    53.2350
 2693.5000     7.5110    56.2280     2.3070     0.0180   -76.4410    38.4260    50.6390
 2694.0000     7.5240    57.3160     2.3090     0.0250   -76.4060    38.1760    49.2190
 2694.5000     7.5370    58.9850     2.3290     0.0330   -76.2110    37.2880    48.0480
 2695.0000     7.5510    61.1440     2.3460     0.0400   -75.7550    36.4270    46.8720
 2695.5000     7.5640    64.0400     2.3630     0.0480   -75.2980    35.5680    45.6910
 2696.0000     7.5770    67.0440     2.3600     0.0500   -74.8340    34.7090    44.8380
 2696.5000     7.5900    67.6870     2.3490     0.0370   -74.6990    33.8660    44.1870
 2697.0000     7.6040    67.1680     2.3320     0.0180   -74.8010    33.6810    43.5360
 2697.5000     7.6180    65.8620     2.3260     0.0080   -74.6610    33.8560    42.8840
 2698.0000     7.6200    66.1110     2.3230     0.0180   -73.5320    34.0270    42.2360
 2698.5000     7.5920    66.0720     2.3160     0.0260   -72.4060    34.1690    41.5830
 2699.0000     7.5610    67.2860     2.3010     0.0280   -72.3650    35.1700    41.2710
 2699.5000     7.5360    69.2800     2.2950     0.0220   -73.5600    36.2580    41.6480
 2700.0000     7.4920    69.6940     2.2890     0.0200   -74.6770    37.3500    41.8560
 2700.5000     7.5320    67.1540     2.2810     0.0230   -75.4950    37.9980    41.0930
 2701.0000     7.6220    64.5630     2.2940     0.0470   -75.5470    36.2310    40.3830
 2701.5000     7.6660    61.4390     2.3270     0.0700   -75.4730    33.9950    39.6770
 2702.0000     7.5860    62.7210     2.3470     0.0900   -74.6790    31.7580    37.6150
 2702.5000     7.5060    64.2670     2.3180     0.0740   -73.1440    29.6060    35.3790
 2703.0000     7.4680    65.0290     2.3020     0.0360   -71.6200    27.2560    33.1370
 2703.5000     7.5250    65.1280     2.2930     0.0210   -70.4930    24.9930    30.9140
 2704.0000     7.5850    66.4350     2.2830     0.0150   -70.8720    22.7310    29.2170
 2704.5000     7.5460    69.0600     2.2930     0.0130   -70.2280    20.4750    27.7840
 2705.0000     7.4890    71.8070     2.3140     0.0190   -69.2480    18.9580    26.3520
 2705.5000     7.4730    71.3360     2.3270     0.0270   -68.2710    17.5590    24.9190
 2706.0000     7.5480    71.0340     2.3270     0.0290   -67.8970    16.1700    23.4880
 2706.5000     7.6290    69.9950     2.3340     0.0290   -67.6070    14.8700    22.0590
 2707.0000     7.7030    69.8670     2.3400     0.0340   -67.3220    13.9310    20.7710
 2707.5000     7.6920    71.5130     2.3430     0.0380   -67.0370    12.9850    19.6570
 2708.0000     7.6630    73.9390     2.3470     0.0410   -66.6550    12.0370    18.5490
 2708.5000     7.7090    76.4540     2.3590     0.0400   -64.2810    11.0900    17.4420
