~VERSION INFORMATION
 VERS.                2.0:   CWLS LOG ASCII STANDARD - VERSION 2.0
 WRAP.                 NO:   ONE LINE PER DEPTH STEP
~WELL INFORMATION
#MNEM.UNIT      DATA TYPE    INFORMATION
#----------   ------------   ------------------------------
 STRT.F          728.0000:   START DEPTH
 STOP.F         3296.0000:   STOP DEPTH
 STEP.F            0.5000:   STEP LENGTH
 NULL.          -999.2500:   NO VALUE
 COMP.    FENIX & SCISSON:   COMPANY
 WELL. FENIX TX "AX" #55-34:   WELL
 FLD . N. P. R. - WILDCAT:   FIELD
 LOC .      S34 T39N R78W:   LOCATION
 CNTY.            NATRONA:   COUNTY
 STAT.            WYOMING:   STATE
 CTRY. UNITED STATES OF AMERICA:   COUNTRY
 SRVC.       SCHLUMBERGER:   SERVICE COMPANY
 DATE.        22-JUL-1981:   LOGDATE
 API .     49025108770000:   API NUMBER
~CURVE INFORMATION
#MNEM.UNIT       API CODE    CURVE DESCRIPTION
#----------   ------------   ------------------------------
 DEPT.F                  :   
 TENS.LBS    60 635 01 00:   TENSION FROM SONIC LOG
 DT  .US/F   60 520 00 00:   DELTA TIME
 RHOB.G/C3   45 350 01 00:   BULK DENSITY
 TEND.LBS    45 635 01 00:   TENSION FROM DENSITY LOG
 CORR.G/C3   45 356 01 00:   DENSITY CORRECTION
 CALD.IN     45 280 60 00:   CALIPER FROM DENSITY LOG
 NPHI.DEC    42 890 03 00:   NEUTRON POROSITY SANDSTONE
 TENR.LBS    07 635 01 00:   TENSION FROM RESISTIVITY
 SPR .MV     07 010 01 00:   SPONTANEOUS POTENTIAL
 GRR .GAPI   07 310 01 00:   GAMMA RAY FROM RESISTIVITY
 SFL .OHMM   07 220 01 00:   SHALLOW FOCUSED LOG RESISTIVITY
 ILM .OHMM   07 120 44 00:   INDUCTION LOG MEDIUM RESISTIVITY
 ILD .OHMM   07 120 46 00:   DEEP INDUCTION RESISTIVITY
~PARAMETER INFORMATION
#MNEM.UNIT          VALUE    DESCRIPTION
#----------   ------------   ------------------------------
 EKB .F         5092.0000:   Kelly bushing
 EGL .F         5082.0000:   Ground level
 EDF .F            0.0000:   Drilling floor
 TD  .F         3170.0000:   Total depth
 DATE.        22-JUL-1981:   Date logged
 CLNT.            A2DTECH:   Client Code
 SL  . 2012' FSL & 2774' FWL:   Surface Location
 PD  .                 GL:   Permanent Datum
 EPD .F              5082:   Elevation Permanent Datum
 LMF .                 KB:   Log Measured From
 DMF .                 KB:   Drilling Measured From
 DAPD.F                10:   Feet Above Permanent Datum
 DD  .F              3170:   Depth driller
 DL  .F              3110:   Depth logger
 BLI .F              3104:   Bottom log interval
 TLI .F               753:   Top log interval
 CS1 .IN            9.625:   Casing size
 CBD1.      9.625" @ 751':   Casing driller 1
 CBL1.F               753:   Casing logger 1
 BS1 .IN            7.875:   Bit size
 BSD1.F              3170:   Depth drilled with bit1
 DFT .                FGM:   Type fluid in hole
 DFD .                  9:   Density
 DFV .                  9:   Viscosity
 DFPH.                9.8:   pH
 DFL .                8.6:   Fluid loss
 MSS .           MUD/TANK:   Source of sample
 RMS .OHMM           1.72:   Rm
 MST .F                72:   Rm Meas. temp.
 RMF .OHMM           1.17:   Rmf
 MFST.F                70:   Rmf Meas. temp.
 MFSS.               MEAS:   Source Rmf.
 RMB .OHMM           0.90:   Rm. at BHT
 BHT .F               144:   BHT.
 TCS .HRS            1215:   Time Circ. stopped
 TLAB.HRS            0400:   Time logger at bottom
 MRT .F               144:   Maximum recorded temp.
 LUN .               8035:   Logging unit number
 LUL .               CSPR:   Logging unit location
 ENGI.            PURPICH:   Recorded By
 WITN.           R. SCOTT:   Witnessed by
 ORIG.           5" PRINT:   Origin of data
 UWI .     49025108770000:   Unique Well ID
 DICO. A2D TECHNOLOGIES, INC.:   Digitizing Company
~OTHER INFORMATION
~A   DEPT     TENS         DT         RHOB      TEND      CORR       CALD         NPHI     TENR        SPR         GRR       SFL        ILM        ILD   
# ...
 2600.0000  1800.1010    85.1030     2.5480  1198.7640     0.0090     7.7170     0.2900   648.6820   -38.8680   142.8320     6.6290     5.5790     5.8570
 2600.5000  1798.7010    85.1660     2.5520  1199.0861     0.0140     7.7160     0.2940   648.5120   -38.8760   141.7010     6.8690     5.5280     5.7880
 2601.0000  1797.3020    84.9650     2.5560  1199.4070     0.0190     7.7150     0.2980   648.3420   -38.8830   143.2500     6.8690     5.4770     5.7190
 2601.5000  1795.9030    84.3610     2.5600  1199.7280     0.0260     7.7130     0.3010   648.1710   -38.8920   145.5050     6.4300     5.4260     5.6500
 2602.0000  1794.5040    75.6590     2.5570  1200.0490     0.0240     7.7120     0.3070   648.0010   -38.9570   147.7980     6.1230     5.3750     5.5810
 2602.5000  1793.1040    70.7540     2.5570  1200.3700     0.0150     7.7110     0.3030   647.8310   -39.0230   148.0760     5.8150     5.3250     5.5620
 2603.0000  1791.7050    68.5330     2.5610  1200.6920     0.0070     7.7100     0.2940   647.6600   -39.0890   140.4840     5.5110     5.3130     5.6650
 2603.5000  1790.3060    66.3130     2.5700  1201.0129     0.0000     7.7100     0.2990   647.4900   -39.1550   123.6290     5.5110     5.3130     6.4280
 2604.0000  1788.9070    64.7230     2.5900  1201.3340    -0.0010     7.7070     0.2970   647.3190   -39.2210   105.2000     7.2650     6.0350     7.1820
 2604.5000  1787.5070    68.4320     2.6140  1201.6550     0.0060     7.7060     0.2520   647.1490   -39.2800    82.1130     9.5570     6.7160     7.9360
 2605.0000  1786.1080    77.0720     2.6350  1201.9760     0.0150     7.6650     0.1880   646.9790   -39.2790    63.1580    27.0790     7.1260     8.6900
 2605.5000  1784.7090    81.6400     2.6530  1202.2980     0.0230     7.6130     0.1490   646.8080   -39.2790    68.0560    42.1880     7.1910     8.9620
 2606.0000  1783.3090    86.5400     2.6500  1202.6190     0.0310     7.5870     0.1390   646.6380   -39.2790    83.3020    53.1290     7.0610     8.4320
 2606.5000  1782.4771    91.3090     2.6330  1202.9399     0.0400     7.6320     0.1570   646.4670   -39.2790   113.5900    37.0110     6.8060     7.5310
 2607.0000  1782.4771    91.1080     2.6080  1203.2610     0.0400     7.6730     0.1840   646.2970   -39.2790   123.2950    19.6370     6.2980     6.9320
 2607.5000  1782.4771    89.7800     2.5850  1203.5820     0.0270     7.7220     0.2150   646.1270   -39.2790   141.8440     9.1300     5.7310     6.2930
 2608.0000  1782.4771    88.5510     2.5620  1203.9030     0.0150     7.7490     0.2480   645.9560   -39.2790   147.8670     6.8050     5.1630     5.6710
 2608.5000  1787.5220    87.3820     2.5420  1204.2250     0.0060     7.7470     0.2800   645.7860   -39.2790   147.5370     5.5010     4.5880     5.0490
 2609.0000  1792.5861    86.8850     2.5430  1204.5460     0.0120     7.7490     0.2970   645.6160   -39.2790   145.7930     5.1690     4.6730     4.8030
 2609.5000  1797.6500    86.2720     2.5530  1204.8669     0.0170     7.7510     0.2990   645.4450   -39.2790   144.1230     5.3390     4.9160     5.0660
 2610.0000  1802.6180    85.6700     2.5590  1205.1880     0.0230     7.7520     0.2990   645.2750   -39.2790   142.4540     5.9610     5.1190     5.2780
 2610.5000  1802.6180    86.8410     2.5590  1205.5090     0.0220     7.7530     0.2960   645.1040   -39.2810   140.7660     6.5830     5.2160     5.4110
 2611.0000  1802.6180    89.7840     2.5520  1205.8311     0.0180     7.7550     0.2870   644.9340   -39.2710   139.0250     7.1280     5.2640     5.5110
 2611.5000  1802.6180    92.7260     2.5420  1206.1520     0.0140     7.7560     0.2790   644.7640   -39.1170   139.4160     7.3920     5.3620     5.6140
 2612.0000  1803.2480    94.5320     2.5380  1206.4730     0.0090     7.7570     0.2690   644.5930   -39.2700   149.1070     7.1910     5.3300     5.6140
 2612.5000  1804.2800    92.6520     2.5330  1206.7939     0.0100     7.7590     0.2620   644.4230   -39.2930   160.1320     6.7110     5.1050     5.4170
 2613.0000  1805.3130    89.8160     2.5240  1207.1150     0.0140     7.7600     0.2810   644.2520   -39.3090   171.1930     5.9600     4.8800     5.2440
 2613.5000  1806.3450    86.9800     2.5170  1207.4370     0.0170     7.7620     0.3140   644.0820   -39.3220   182.1590     5.2090     4.6550     5.0720
 2614.0000  1807.3781    84.1440     2.5120  1207.7581     0.0200     7.7630     0.3520   643.9120   -39.3350   192.2980     4.4580     4.4630     4.8920
 2614.5000  1808.4100    81.7630     2.5220  1208.0790     0.0230     7.7640     0.2980   643.7410   -39.3480   176.7090     3.9250     4.5040     4.8920
 2615.0000  1809.4430    82.8000     2.5350  1208.4000     0.0210     7.7660     0.2980   643.5710   -39.3620   157.7580     5.2350     4.6670     5.1080
 2615.5000  1810.4750    83.8370     2.5480  1208.7209     0.0170     7.7670     0.2990   643.4010   -39.3750   142.6190     6.8380     4.9250     5.3170
 2616.0000  1811.5081    84.8740     2.5610  1209.0430     0.0150     7.7690     0.2630   643.2300   -39.3880   134.9020     8.4400     5.1840     5.5260
 2616.5000  1812.5400    85.6700     2.5690  1209.3640     0.0190     7.7700     0.2330   643.0600   -39.4010   129.1800     9.2120     5.4430     5.7360
 2617.0000  1813.5730    85.4900     2.5600  1209.6851     0.0210     7.7710     0.2370   642.8890   -39.4150   130.0180     8.4500     5.7020     5.9450
 2617.5000  1814.6050    85.2670     2.5420  1210.0060     0.0180     7.7730     0.2460   642.7190   -39.4280   131.4930     7.8170     5.9480     6.1540
 2618.0000  1815.6379    85.3680     2.5280  1210.3270     0.0040     7.7740     0.2550   642.5490   -39.4410   133.0150     7.1840     6.0970     6.3250
 2618.5000  1816.6700    86.6920     2.5320  1210.6479     0.0090     7.7760     0.2640   642.3780   -39.4540   133.1660     6.8060     6.2100     6.4420
 2619.0000  1817.7030    88.1310     2.5380  1210.9700     0.0140     7.7770     0.2690   642.2080   -39.4680   132.6330     6.9760     6.2100     6.5010
 2619.5000  1818.7350    89.5690     2.5440  1211.2910     0.0200     7.7780     0.2630   642.0380   -39.4740   132.0530     7.1150     6.2100     6.5010
 2620.0000  1819.7670    90.6670     2.5470  1211.6121     0.0230     7.7800     0.2580   641.8670   -39.4740   132.9030     7.2580     6.1040     6.4470
 2620.5000  1820.8000    91.7750     2.5490  1211.9330     0.0220     7.7810     0.2540   641.6970   -39.4740   134.0900     6.9020     5.9620     6.2980
 2621.0000  1821.8320    92.7190     2.5500  1212.2540     0.0190     7.7820     0.2610   641.5260   -39.4730   134.3170     6.4520     5.8200     6.1500
 2621.5000  1822.7590    93.9950     2.5460  1212.5760     0.0160     7.7840     0.2700   641.3560   -39.4350   131.6790     6.0020     5.6780     6.0010
 2622.0000  1822.7590    95.3630     2.5390  1212.8970     0.0170     7.7850     0.2750   641.1860   -39.3920   128.8050     5.7170     5.5360     5.8520
 2622.5000  1802.6180    96.2440     2.5340  1213.2180     0.0240     7.7860     0.2770   641.0150   -39.3490   126.1460     5.6650     5.3940     5.7030
 2623.0000  1802.6180    94.3030     2.5300  1213.5389     0.0310     7.7940     0.2790   640.8450   -39.3070   126.5540     5.7670     5.2510     5.5540
 2623.5000  1806.5291    91.9630     2.5250  1213.8600     0.0320     7.8080     0.2830   640.6740   -39.2780   127.6820     5.8230     5.1090     5.4060
 2624.0000  1810.9600    89.6240     2.5200  1214.1820     0.0310     7.8210     0.2900   640.5040   -39.2780   128.9170     5.8230     5.0750     5.3130
 2624.5000  1815.3910    87.3820     2.5140  1214.5031     0.0240     7.8260     0.2970   640.3340   -39.2790   131.3640     5.6070     5.0750     5.3130
 2625.0000  1819.8220    87.1800     2.5200  1214.8240     0.0190     7.7980     0.2920   640.1630   -39.2830   133.5020     5.4110     5.1960     5.3940
 2625.5000  1822.7590    87.6990     2.5340  1215.1450     0.0140     7.7700     0.2850   639.9930   -39.4860   130.5040     5.7300     5.3120     5.5150
