~VERSION INFORMATION
 VERS.                2.0:   CWLS LOG ASCII STANDARD - VERSION 2.0
 WRAP.                 NO:   ONE LINE PER DEPTH STEP
~WELL INFORMATION
#MNEM.UNIT      DATA TYPE    INFORMATION
#----------   ------------   ------------------------------
 STRT.F          176.5000:   START DEPTH
 STOP.F         3010.0000:   STOP DEPTH
 STEP.F            0.5000:   STEP LENGTH
 NULL.          -999.2500:   NO VALUE
 COMP.    FENIX & SCISSON:   COMPANY
 WELL.   FENIX "A" #36-28:   WELL
 FLD .              NPR 3:   FIELD
 LOC .      S28 T39N R78W:   LOCATION
 CNTY.            NATRONA:   COUNTY
 STAT.            WYOMING:   STATE
 CTRY. UNITED STATES OF AMERICA:   COUNTRY
 SRVC.       SCHLUMBERGER:   SERVICE COMPANY
 DATE.        19-AUG-1977:   LOGDATE
 API .     49025104150000:   API NUMBER
~CURVE INFORMATION
#MNEM.UNIT       API CODE    CURVE DESCRIPTION
#----------   ------------   ------------------------------
 DEPT.F                  :   
 SPR .MV     07 010 01 00:   SPONTANEOUS POTENTIAL
 ILM .OHMM   07 120 44 00:   INDUCTION LOG MEDIUM RESISTIVITY
 ILD .OHMM   07 120 46 00:   INDUCTION LOG DEEP RESISTIVITY
 LL8 .OHMM   07 220 08 00:   LATEROLOG-8 RESISTIVITY
 GRD .GAPI   45 310 01 00:   GAMMA RAY FROM DENSITY LOG
 CALD.IN     45 280 60 00:   CALIPER FROM DENSITY LOG
 RHOB.G/C3   45 350 01 00:   BULK DENSITY
 DCOR.G/C3   45 356 01 00:   DENSITY CORRECTION
~PARAMETER INFORMATION
#MNEM.UNIT          VALUE    DESCRIPTION
#----------   ------------   ------------------------------
 EKB .F         5107.0000:   Kelly bushing
 EGL .F         5097.0000:   Ground level
 EDF .F            0.0000:   Drilling floor
 TD  .F         3012.0000:   Total depth
 DATE.        19-AUG-1977:   Date logged
 CLNT.            A2DTECH:   Client Code
 SL  . 1650' FSL & 1650' FWL:   Surface Location
 PD  .                 GL:   Permanent Datum
 EPD .F              5097:   Elevation Permanent Datum
 LMF .                 KB:   Log Measured From
 DMF .                 KB:   Drilling Measured From
 DAPD.F                10:   Feet Above Permanent Datum
 DD  .F              3010:   Depth driller
 DL  .F              3011:   Depth logger
 BLI .F              3005:   Bottom log interval
 TLI .F               215:   Top log interval
 CS1 .IN            8.625:   Casing size
 CBD1.      8.625" @ 205':   Casing driller 1
 CBL1.F               215:   Casing logger 1
 BS1 .IN            7.875:   Bit size
 BSD1.F              3010:   Depth drilled with bit1
 DFT .                FGM:   Type fluid in hole
 DFD .                8.8:   Density
 DFV .                 33:   Viscosity
 DFPH.               10.5:   pH
 DFL .               10.6:   Fluid loss
 MSS .            MUD PIT:   Source of sample
 RMS .OHMM            .19:   Rm
 MST .F                76:   Rm Meas. temp.
 RMF .OHMM            .17:   Rmf
 MFST.F                78:   Rmf Meas. temp.
 MFSS.               MEAS:   Source Rmf.
 RMB .OHMM            .13:   Rm. at BHT
 BHT .F               112:   BHT.
 TCS .HRS            0700:   Time Circ. stopped
 TLAB.HRS            1400:   Time logger at bottom
 MRT .F               112:   Maximum recorded temp.
 LUN .               5642:   Logging unit number
 ENGI.          CHALUPSKY:   Recorded By
 WITN.     WES PETTINGILL:   Witnessed by
 ORIG.           5" PRINT:   Origin of data
 UWI .     49025104150000:   Unique Well ID
 DICO. A2D TECHNOLOGIES, INC.:   Digitizing Company
 LUL .               CSPR:   Logging unit location
~OTHER INFORMATION
~A   DEPT      SPR        ILM        ILD        LL8        GRD       CALD       RHOB       DCOR   
# ...
 2039.5000   -67.6310     8.4340     8.7800    11.7500   116.2230     8.3770     2.4080     0.0240
 2040.0000   -68.0680     8.4700     8.8020    11.9580   114.4380     8.3790     2.4000     0.0090
 2040.5000   -68.6700     8.5070     8.8240    12.0480   112.3710     8.3820     2.4140     0.0190
 2041.0000   -68.8010     8.4460     8.7590    11.7050   112.4220     8.3840     2.4240     0.0120
 2041.5000   -68.6720     8.3840     8.6760    11.3000   112.6490     8.3870     2.4380     0.0310
 2042.0000   -68.5400     8.3220     8.5940    11.4780   111.0850     8.3890     2.4600     0.0460
 2042.5000   -68.4070     8.2610     8.5110    11.2910   109.1910     8.3910     2.4450     0.0370
 2043.0000   -68.2740     8.1990     8.4290    10.9310   110.6680     8.3940     2.4340     0.0280
 2043.5000   -68.1350     8.1370     8.4650    10.6070   113.6030     8.3960     2.4560     0.0410
 2044.0000   -68.1730     8.1260     8.5090    10.6420   116.4400     8.3990     2.4220     0.0310
 2044.5000   -68.2870     8.1260     8.5530    10.8650   119.0800     8.4010     2.4330     0.0410
 2045.0000   -68.4050     8.1260     8.5960    11.5960   121.1940     8.4040     2.4560     0.0580
 2045.5000   -68.5420     8.1260     8.6640    12.7280   124.0030     8.4060     2.4300     0.0360
 2046.0000   -68.7440     8.1260     8.5760    12.4520   122.3080     8.4090     2.4070     0.0140
 2046.5000   -68.9380     8.0680     8.3810    11.8370   118.6270     8.4110     2.4090     0.0230
 2047.0000   -68.9730     7.9410     8.1850    11.2220   114.4820     8.4130     2.4000     0.0160
 2047.5000   -68.4930     7.8150     7.9900    10.6070   110.3910     8.4160     2.4080     0.0350
 2048.0000   -68.0330     7.6880     7.7940    10.3110   106.8500     8.4180     2.4260     0.0570
 2048.5000   -67.7420     7.5990     7.5990    10.3110   104.5570     8.4210     2.4340     0.0500
 2049.0000   -67.9520     7.5530     7.4030    10.1200   101.7330     8.4150     2.4240     0.0350
 2049.5000   -68.0580     7.4830     7.1480     9.4550   104.0770     8.4070     2.4140     0.0240
 2050.0000   -67.8970     7.5220     7.1740     8.9050   107.5490     8.3980     2.4020     0.0260
 2050.5000   -67.7450     7.5990     7.2100     9.7030   110.5690     8.3890     2.3910     0.0080
 2051.0000   -67.5910     7.6770     7.2470    10.7940   108.5550     8.3800     2.3820     0.0040
 2051.5000   -67.4360     7.7540     7.2800    10.7590   106.5530     8.3720     2.3830     0.0150
 2052.0000   -67.3260     7.5530     6.8870    10.6960   104.5900     8.3630     2.3900     0.0220
 2052.5000   -67.8370     7.3190     6.6770    10.6070   102.6270     8.3540     2.3960     0.0110
 2053.0000   -68.3370     7.0840     6.6220     9.8170   100.2500     8.3460     2.4000     0.0070
 2053.5000   -68.8310     6.8500     6.5830     8.9400    98.2510     8.3370     2.3970     0.0110
 2054.0000   -69.2850     6.6160     6.1250     8.5170    97.1010     8.3280     2.3960     0.0150
 2054.5000   -69.4380     6.3820     5.7380     8.3020    97.2910     8.3240     2.4230     0.0310
 2055.0000   -69.5770     6.1470     5.6780     7.8330    98.2820     8.3250     2.4190     0.0210
 2055.5000   -69.6640     5.7910     5.6220     7.3310    99.7060     8.3260     2.4130     0.0310
 2056.0000   -69.5840     5.8390     5.4810     6.8280   102.5840     8.3270     2.4090     0.0470
 2056.5000   -69.4990     5.9390     5.6370     7.3100   105.3910     8.3290     2.4300     0.0410
 2057.0000   -69.7840     6.2580     5.8670     7.8860   108.9340     8.3300     2.4470     0.0480
 2057.5000   -70.2160     6.6070     6.1740     8.7380   105.6950     8.3310     2.4640     0.0420
 2058.0000   -69.9620     6.9570     6.0620    10.0360   100.7310     8.3320     2.4740     0.0610
 2058.5000   -69.6040     7.2140     6.2200    11.4020    97.1070     8.3330     2.4460     0.0340
 2059.0000   -69.2450     6.9160     6.3460    10.7110    98.5470     8.3340     2.4330     0.0300
 2059.5000   -68.8890     6.5660     5.9420     9.7830   101.0220     8.3350     2.4580     0.0380
 2060.0000   -68.8720     6.2170     5.6220     8.8370    98.4240     8.3360     2.4470     0.0460
 2060.5000   -69.2650     5.8680     5.3030     7.8910    96.6180     8.3370     2.4240     0.0360
 2061.0000   -69.4840     5.5180     5.0010     6.9450   101.2870     8.3390     2.4340     0.0550
 2061.5000   -69.2040     5.1880     4.9150     5.9990   104.8420     8.3400     2.4400     0.0460
 2062.0000   -68.9340     5.0940     4.8210     5.4810   108.3790     8.3410     2.4140     0.0390
 2062.5000   -69.1870     5.1560     4.8780     6.0740   110.7160     8.3420     2.4240     0.0560
 2063.0000   -69.4260     5.2940     4.9450     7.0490   108.6090     8.3430     2.4390     0.0470
 2063.5000   -69.6640     5.4720     5.0120     8.0250   106.5200     8.3500     2.4560     0.0660
 2064.0000   -69.9020     5.4410     5.0790     9.1540   109.3770     8.3570     2.4360     0.0330
 2064.5000   -70.1390     5.3810     5.1460     8.4450   112.8110     8.3650     2.4030     0.0420
 2065.0000   -70.2890     5.4190     5.2130     7.0320   115.1840     8.3730     2.4080     0.0330
 2065.5000   -70.3240     5.4540     5.2790     6.4040   114.8850     8.3800     2.4150     0.0540
 2066.0000   -70.3590     5.4900     5.3460     6.9470   112.2210     8.3880     2.4230     0.0480
 2066.5000   -70.3930     5.5250     5.4130     7.3470   111.0050     8.3950     2.4280     0.0370
 2067.0000   -70.4260     5.7050     5.4800     7.1630   113.7960     8.4030     2.4080     0.0250
 2067.5000   -70.4650     5.9140     5.6300     7.0190   116.0740     8.4110     2.3880     0.0140
 2068.0000   -70.2030     6.1230     6.0570     7.2140   117.7270     8.4180     2.4000     0.0200
 2068.5000   -69.6980     6.3320     6.4840     8.6230   116.1740     8.4260     2.4160     0.0310
 2069.0000   -68.8840     6.5400     6.9120     9.9940   114.2220     8.4340     2.4320     0.0420
 2069.5000   -68.1080     6.7490     7.4150    12.1590   112.2280     8.4410     2.4450     0.0510
 2070.0000   -67.8930     6.8910     7.3210    11.6460   111.1360     8.4410     2.4200     0.0410
 2070.5000   -67.6780     6.8470     7.2070    10.4290   110.2260     8.4400     2.4080     0.0240
 2071.0000   -66.9230     6.7430     7.0920     9.2120   107.9890     8.4390     2.4200     0.0330
 2071.5000   -66.0590     6.6380     6.9780     8.6680   105.7810     8.4390     2.4300     0.0250
 2072.0000   -65.1930     6.5330     6.8630     8.6860   102.2960     8.4380     2.4470     0.0380
 2072.5000   -64.9440     6.4290     6.7140     8.7440   103.6220     8.4370     2.4570     0.0440
 2073.0000   -65.0730     6.3460     6.7550     8.6640   105.9070     8.4370     2.4460     0.0360
 2073.5000   -65.1010     6.4590     6.8390     8.4540   106.9100     8.4360     2.4560     0.0310
 2074.0000   -65.0700     6.5530     6.9230     8.5850   106.2040     8.4350     2.4400     0.0460
 2074.5000   -65.0380     6.6470     7.0070     9.4030   102.8860     8.4350     2.4230     0.0340
 2075.0000   -65.0060     6.7410     7.0910    10.2170    99.5990     8.4340     2.4140     0.0390
 2075.5000   -64.9740     6.8350     7.1740     9.6590    96.3520     8.4330     2.4270     0.0410
 2076.0000   -64.9440     6.9200     7.2580     8.9870    93.1870     8.4330     2.4450     0.0290
 2076.5000   -65.0510     6.9920     7.3420     9.6440    91.1130     8.4320     2.4250     0.0170
 2077.0000   -65.3860     7.0640     7.4260    10.3110    93.1070     8.4310     2.4350     0.0260
 2077.5000   -65.7030     7.1350     7.5100     9.6550    98.1580     8.4310     2.4580     0.0490
 2078.0000   -65.5880     7.2070     7.5930     8.9870   104.1380     8.4300     2.4440     0.0440
 2078.5000   -65.4520     7.2800     7.6770    10.1350   109.6800     8.4290     2.4360     0.0390
 2079.0000   -65.3270     7.1190     7.7620    11.6150   110.6760     8.4290     2.4380     0.0510
 2079.5000   -65.4670     6.9130     7.4080    11.8290   106.5990     8.4280     2.4320     0.0350
