~VERSION INFORMATION
 VERS.                2.0:   CWLS LOG ASCII STANDARD - VERSION 2.0
 WRAP.                 NO:   ONE LINE PER DEPTH STEP
~WELL INFORMATION
#MNEM.UNIT      DATA TYPE    INFORMATION
#----------   ------------   ------------------------------
 STRT.F           40.0000:   START DEPTH
 STOP.F         3326.0000:   STOP DEPTH
 STEP.F            0.5000:   STEP LENGTH
 NULL.          -999.2500:   NO VALUE
 COMP.    FENIX & SCISSON:   COMPANY
 WELL.  FENIX "AX" #53-15:   WELL
 FLD .              NPR-3:   FIELD
 LOC .      S15 T38N R78W:   LOCATION
 CNTY.            NATRONA:   COUNTY
 STAT.            WYOMING:   STATE
 CTRY. UNITED STATES OF AMERICA:   COUNTRY
 SRVC.              WELEX:   SERVICE COMPANY
 DATE.        02-MAR-1977:   LOGDATE
 API .     49025102640000:   API NUMBER
~CURVE INFORMATION
#MNEM.UNIT       API CODE    CURVE DESCRIPTION
#----------   ------------   ------------------------------
 DEPT.F                  :   
 CALD.IN     42 280 60 00:   CALIPER
 TEND.LBS    42 635 01 00:   TENSION FROM NEUTRON POROSITY LOG
 GRD .GAPI   42 310 30 00:   GAMMA RAY
 NPHI.DEC    42 890 03 00:   NEUTRON POROSITY SANDSTONE
 DPHI.DEC    45 890 12 00:   DENSITY POROSITY SANDSTONE
 SPR .MV     07 010 01 00:   SPONTANEOUS POTENTIAL
 ILD .OHMM   07 120 46 00:   DEEP INDUCTION RESISTIVITY
 ILM .OHMM   07 120 44 00:   INDUCTION LOG MEDIUM RESISTIVITY
 SGRD.OHMM   07 220 05 00:   SHALLOW SHORT GUARD RESISTIVITY
~PARAMETER INFORMATION
#MNEM.UNIT          VALUE    DESCRIPTION
#----------   ------------   ------------------------------
 EKB .F            0.0000:   Kelly bushing
 EGL .F         5251.0000:   Ground level
 EDF .F            0.0000:   Drilling floor
 TD  .F          750.0000:   Total depth
 DATE.        02-MAR-1977:   Date logged
 CLNT.            A2DTECH:   Client Code
 SL  . 1650' FNL & 2360' FEL:   Surface Location
 PD  .                 GL:   Permanent Datum
 EPD .F              5253:   Elevation Permanent Datum
 LMF .                 GL:   Log Measured From
 DMF .                 GL:   Drilling Measured From
 DD  .F               750:   Depth driller
 DL  .F               747:   Depth logger
 BLI .F               745:   Bottom log interval
 CS1 .IN            8.625:   Casing size
 CBD1.       8.625" @ 40':   Casing driller 1
 CBL1.F                44:   Casing logger 1
 BS1 .IN            7.875:   Bit size
 BSD1.F               750:   Depth drilled with bit1
 DFT .           CHEM-GEL:   Type fluid in hole
 MSS .           FLOWLINE:   Source of sample
 RMS .OHMM          0.425:   Rm
 MST .F                56:   Rm Meas. temp.
 RMF .OHMM          0.466:   Rmf
 MFST.F                56:   Rmf Meas. temp.
 RMC .OHMM          0.712:   Rmc
 MCST.F                56:   Rmc Meas. temp.
 MFSS.               MEAS:   Source Rmf.
 MCSS.               MEAS:   Source Rmc.
 RMB .OHMM          0.350:   Rm. at BHT
 BHT .F                68:   BHT.
 TCS .HRS               2:   Time Circ. stopped
 MRT .F                68:   Maximum recorded temp.
 LUN .               8611:   Logging unit number
 LUL .            GILLETH:   Logging unit location
 ENGI.          D. LAWSON:   Recorded By
 WITN.           S. BURKL:   Witnessed by
 ORIG.           5" PRINT:   Origin of data
 UWI .     49025102640000:   Unique Well ID
 DICO. A2D TECHNOLOGIES, INC.:   Digitizing Company
~OTHER INFORMATION
~A   DEPT     CALD       TEND         GRD        NPHI     DPHI        SPR        ILD        ILM       SGRD   
# ...
 2595.0000     8.3420   154.8450   127.2750     0.3060     0.0720  -999.2500  -999.2500  -999.2500  -999.2500
 2595.5000     8.3440   154.8450   124.4200     0.2980     0.0710  -999.2500  -999.2500  -999.2500  -999.2500
 2596.0000     8.3450   154.8450   122.2790     0.2910     0.0740  -999.2500  -999.2500  -999.2500  -999.2500
 2596.5000     8.3470   154.8450   124.7720     0.2850     0.0720  -999.2500  -999.2500  -999.2500  -999.2500
 2597.0000     8.3490   154.8450   122.3120     0.2800     0.0700  -999.2500  -999.2500  -999.2500  -999.2500
 2597.5000     8.3510   154.8450   119.1900     0.2820     0.0750  -999.2500  -999.2500  -999.2500  -999.2500
 2598.0000     8.3520   154.8450   125.3030     0.2820     0.0770  -999.2500  -999.2500  -999.2500  -999.2500
 2598.5000     8.3540   151.6310   129.4060     0.2790     0.0830  -999.2500  -999.2500  -999.2500  -999.2500
 2599.0000     8.3560   147.9010   131.2820     0.2800     0.0840  -999.2500  -999.2500  -999.2500  -999.2500
 2599.5000     8.3570   144.1700   127.1370     0.2840     0.0780  -999.2500  -999.2500  -999.2500  -999.2500
 2600.0000     8.3590   140.4390   126.0410     0.2920     0.0810  -999.2500  -999.2500  -999.2500  -999.2500
 2600.5000     8.3610   136.7080   130.4100     0.3140     0.0720  -999.2500  -999.2500  -999.2500  -999.2500
 2601.0000     8.3630   138.2480   136.8740     0.3140     0.0780  -999.2500  -999.2500  -999.2500  -999.2500
 2601.5000     8.3640   144.9350   136.0670     0.3200     0.0800  -999.2500  -999.2500  -999.2500  -999.2500
 2602.0000     8.3660   151.6220   131.4810     0.3250     0.0850  -999.2500  -999.2500  -999.2500  -999.2500
 2602.5000     8.3680   158.3080   131.7190     0.3310     0.0970  -999.2500  -999.2500  -999.2500  -999.2500
 2603.0000     8.3690   164.9950   135.2160     0.3330     0.0910  -999.2500  -999.2500  -999.2500  -999.2500
 2603.5000     8.4030   171.6820   138.2010     0.3360     0.0950  -999.2500  -999.2500  -999.2500  -999.2500
 2604.0000     8.4490   169.2310   141.1570     0.3390     0.0880  -999.2500  -999.2500  -999.2500  -999.2500
 2604.5000     8.4550   158.6730   139.5860     0.3340     0.0920  -999.2500  -999.2500  -999.2500  -999.2500
 2605.0000     8.4280   148.1150   131.6500     0.3270     0.0970  -999.2500  -999.2500  -999.2500  -999.2500
 2605.5000     8.4000   137.5570   127.9380     0.3240     0.1100  -999.2500  -999.2500  -999.2500  -999.2500
 2606.0000     8.3740   143.4870   124.6760     0.3270     0.0990  -999.2500  -999.2500  -999.2500  -999.2500
 2606.5000     8.3490   140.9790   130.4930     0.3230     0.1050  -999.2500  -999.2500  -999.2500  -999.2500
 2607.0000     8.3460   138.4720   134.0180     0.3200     0.1010  -999.2500  -999.2500  -999.2500  -999.2500
 2607.5000     8.3430   135.9640   136.5960     0.3220     0.1030  -999.2500  -999.2500  -999.2500  -999.2500
 2608.0000     8.3390   136.3880   137.4880     0.3250     0.1000  -999.2500  -999.2500  -999.2500  -999.2500
 2608.5000     8.3360   139.0990   137.1580     0.3230     0.0870  -999.2500  -999.2500  -999.2500  -999.2500
 2609.0000     8.3320   141.8100   130.6790     0.3170     0.0760  -999.2500  -999.2500  -999.2500  -999.2500
 2609.5000     8.3290   144.5200   132.7820     0.3130     0.0790  -999.2500  -999.2500  -999.2500  -999.2500
 2610.0000     8.3250   147.2310   133.9750     0.3180     0.0840  -999.2500  -999.2500  -999.2500  -999.2500
 2610.5000     8.3220   149.9420   139.3030     0.3220     0.0850  -999.2500  -999.2500  -999.2500  -999.2500
 2611.0000     8.3180   152.6530   140.3090     0.3210     0.0900  -999.2500  -999.2500  -999.2500  -999.2500
 2611.5000     8.3150   154.1760   138.5580     0.3180     0.0930  -999.2500  -999.2500  -999.2500  -999.2500
 2612.0000     8.3110   150.6770   137.2280     0.3150     0.0910  -999.2500  -999.2500  -999.2500  -999.2500
 2612.5000     8.3020   147.1780   142.7940     0.3130     0.0850  -999.2500  -999.2500  -999.2500  -999.2500
 2613.0000     8.2880   143.6800   144.9920     0.3130     0.0760  -999.2500  -999.2500  -999.2500  -999.2500
 2613.5000     8.2740   140.1810   146.5400     0.3140     0.0740  -999.2500  -999.2500  -999.2500  -999.2500
 2614.0000     8.2600   136.6820   142.3410     0.3040     0.0720  -999.2500  -999.2500  -999.2500  -999.2500
 2614.5000     8.2460   133.1830   140.1030     0.2960     0.0770  -999.2500  -999.2500  -999.2500  -999.2500
 2615.0000     8.2320   129.6840   138.7970     0.2930     0.0820  -999.2500  -999.2500  -999.2500  -999.2500
 2615.5000     8.2290   126.1850   141.0810     0.2920     0.0860  -999.2500  -999.2500  -999.2500  -999.2500
 2616.0000     8.2270   126.0820   142.4550     0.3040     0.0890  -999.2500  -999.2500  -999.2500  -999.2500
 2616.5000     8.2260   128.0100   138.5280     0.3100     0.0860  -999.2500  -999.2500  -999.2500  -999.2500
 2617.0000     8.2240   129.9390   137.8300     0.3070     0.0810  -999.2500  -999.2500  -999.2500  -999.2500
 2617.5000     8.2230   131.8680   142.4150     0.3070     0.0890  -999.2500  -999.2500  -999.2500  -999.2500
 2618.0000     8.2210   133.7970   138.3190     0.3090     0.0920  -999.2500  -999.2500  -999.2500  -999.2500
 2618.5000     8.2200   136.4140   130.8040     0.3160     0.0930  -999.2500  -999.2500  -999.2500  -999.2500
 2619.0000     8.2180   142.6820   136.6020     0.3140     0.0830  -999.2500  -999.2500  -999.2500  -999.2500
 2619.5000     8.2170   144.8550   141.7680     0.3100     0.0870  -999.2500  -999.2500  -999.2500  -999.2500
 2620.0000     8.2150   144.0600   142.3250     0.2960     0.0900  -999.2500  -999.2500  -999.2500  -999.2500
 2620.5000     8.2140   143.1310   142.8610     0.3030     0.0800  -999.2500  -999.2500  -999.2500  -999.2500
 2621.0000     8.2120   142.2020   143.4090     0.2880     0.0700  -999.2500  -999.2500  -999.2500  -999.2500
 2621.5000     8.2110   141.2740   143.4850     0.2820     0.0670  -999.2500  -999.2500  -999.2500  -999.2500
 2622.0000     8.2090   140.3450   141.1240     0.2750     0.0720  -999.2500  -999.2500  -999.2500  -999.2500
 2622.5000     8.2050   139.4160   139.0430     0.2880     0.0740  -999.2500  -999.2500  -999.2500  -999.2500
 2623.0000     8.2010   138.4870   136.8930     0.2860     0.0670  -999.2500  -999.2500  -999.2500  -999.2500
 2623.5000     8.1970   137.5590   134.5600     0.2820     0.0660  -999.2500  -999.2500  -999.2500  -999.2500
 2624.0000     8.1920   136.6300   132.1260     0.2780     0.0530  -999.2500  -999.2500  -999.2500  -999.2500
 2624.5000     8.1800   135.7010   117.1890     0.2790     0.0370  -999.2500  -999.2500  -999.2500  -999.2500
 2625.0000     8.1410   134.8650    98.7830     0.2800     0.0360  -999.2500  -999.2500  -999.2500  -999.2500
 2625.5000     8.1040   144.8910   109.9410     0.2660     0.0420  -999.2500  -999.2500  -999.2500  -999.2500
 2626.0000     8.0700   154.8450   125.6840     0.2550     0.0540  -999.2500  -999.2500  -999.2500  -999.2500
 2626.5000     8.0670   153.9860   141.4960     0.2970     0.0710  -999.2500  -999.2500  -999.2500  -999.2500
 2627.0000     8.0640   153.0390   146.7970     0.3160     0.0710  -999.2500  -999.2500  -999.2500  -999.2500
 2627.5000     8.0610   152.0930   144.1060     0.3210     0.0770  -999.2500  -999.2500  -999.2500  -999.2500
 2628.0000     8.0570   151.1470   150.8730     0.3250     0.0740  -999.2500  -999.2500  -999.2500  -999.2500
 2628.5000     8.0540   150.2010   148.2820     0.3240     0.0600  -999.2500  -999.2500  -999.2500  -999.2500
 2629.0000     8.0510   149.2550   145.3910     0.3190     0.0620  -999.2500  -999.2500  -999.2500  -999.2500
 2629.5000     8.0480   148.3080   140.1250     0.3160     0.0580  -999.2500  -999.2500  -999.2500  -999.2500
 2630.0000     8.0440   147.3620   136.2290     0.3130     0.0580  -999.2500  -999.2500  -999.2500  -999.2500
 2630.5000     8.0410   146.4160   138.3020     0.3010     0.0670  -999.2500  -999.2500  -999.2500  -999.2500
 2631.0000     8.0380   145.4700   141.4720     0.2930     0.0700  -999.2500  -999.2500  -999.2500  -999.2500
