~VERSION INFORMATION
 VERS.                2.0:   CWLS LOG ASCII STANDARD - VERSION 2.0
 WRAP.                 NO:   ONE LINE PER DEPTH STEP
~WELL INFORMATION
#MNEM.UNIT      DATA TYPE    INFORMATION
#----------   ------------   ------------------------------
 STRT.F           16.0000:   START DEPTH
 STOP.F         4208.0000:   STOP DEPTH
 STEP.F            0.5000:   STEP LENGTH
 NULL.          -999.2500:   NO VALUE
 COMP.    FENIX & SCISSON:   COMPANY
 WELL. FENIX NPR 3 "MX" #41-10:   WELL
 FLD .                NPR:   FIELD
 LOC .      S10 T38N R78W:   LOCATION
 CNTY.            NATRONA:   COUNTY
 STAT.            WYOMING:   STATE
 CTRY. UNITED STATES OF AMERICA:   COUNTRY
 SRVC.       SCHLUMBERGER:   SERVICE COMPANY
 DATE.        04-NOV-1978:   LOGDATE
 API .     49025107260000:   API NUMBER
~CURVE INFORMATION
#MNEM.UNIT       API CODE    CURVE DESCRIPTION
#----------   ------------   ------------------------------
 DEPT.F                  :   
 TENR.LBS    07 635 01 00:   TENSION FROM RESISTIVITY
 SPR .MV     07 010 01 00:   SPONTANEOUS POTENTIAL
 SFL .OHMM   07 220 01 00:   SHALLOW FOCUSED LOG RESISTIVITY
 ILD .OHMM   07 120 46 00:   DEEP INDUCTION RESISTIVITY
 ILM .OHMM   07 120 44 00:   INDUCTION LOG MEDIUM RESISTIVITY
 CALD.IN     45 280 60 00:   CALIPER FROM DENSITY LOG
 GRD .GAPI   45 310 01 00:   GAMMA RAY FROM DENSITY LOG
 TEND.LBS    45 635 01 00:   TENSION FROM DENSITY LOG
 RHOB.G/C3   45 350 01 00:   BULK DENSITY
 CORR.G/C3   45 356 01 00:   DENSITY CORRECTION
 NPHI.DEC    42 890 03 00:   NEUTRON POROSITY SANDSTONE
~PARAMETER INFORMATION
#MNEM.UNIT          VALUE    DESCRIPTION
#----------   ------------   ------------------------------
 EKB .F         5237.0000:   Kelly bushing
 EGL .F         5227.0000:   Ground level
 EDF .F            0.0000:   Drilling floor
 TD  .F         4200.0000:   Total depth
 DATE.        04-NOV-1978:   Date logged
 CLNT.            A2DTECH:   Client Code
 SL  . 70' FNL & 2370' FWL:   Surface Location
 PD  .                 GL:   Permanent Datum
 EPD .F              5227:   Elevation Permanent Datum
 LMF .                 KB:   Log Measured From
 DMF .                 KB:   Drilling Measured From
 DAPD.F                10:   Feet Above Permanent Datum
 DD  .F              4200:   Depth driller
 DL  .F              4191:   Depth logger
 BLI .F              4185:   Bottom log interval
 TLI .F               506:   Top log interval
 CS1 .IN            9.625:   Casing size
 CBD1.      9.625" @ 500':   Casing driller 1
 CBL1.F               506:   Casing logger 1
 BS1 .IN             8.75:   Bit size
 BSD1.F              4200:   Depth drilled with bit1
 DFT .                FGM:   Type fluid in hole
 DFD .                9.3:   Density
 DFV .                 42:   Viscosity
 DFPH.               11.5:   pH
 DFL .                6.4:   Fluid loss
 MSS .               TANK:   Source of sample
 RMS .OHMM           1.08:   Rm
 MST .F                67:   Rm Meas. temp.
 RMF .OHMM           0.83:   Rmf
 MFST.F                67:   Rmf Meas. temp.
 MFSS.               MEAS:   Source Rmf.
 RMB .OHMM           0.58:   Rm. at BHT
 BHT .F               125:   BHT.
 TCS .HRS            0430:   Time Circ. stopped
 TLAB.HRS            0830:   Time logger at bottom
 MRT .F               125:   Maximum recorded temp.
 LUN .               8039:   Logging unit number
 LUL .               CSPR:   Logging unit location
 ENGI.          STADULLIS:   Recorded By
 WITN.              AMEND:   Witnessed by
 ORIG.           5" PRINT:   Origin of data
 UWI .     49025107260000:   Unique Well ID
 DICO. A2D TECHNOLOGIES, INC.:   Digitizing Company
~OTHER INFORMATION
~A   DEPT     TENR        SPR        SFL        ILD        ILM       CALD         GRD      TEND       RHOB       CORR       NPHI   
# ...
  992.0000   542.1690   -24.6490    10.5660    11.3780    10.2530    12.3180    93.5410   891.4930     2.5080     0.0330     0.2670
  992.5000   542.1690   -24.6630    10.4760    11.2870    10.1810    12.3050    92.6900   891.8000     2.5130     0.0390     0.2680
  993.0000   542.1690   -24.6770    10.3930    11.2040    10.1090    12.2950    91.8490   892.1080     2.5180     0.0450     0.2700
  993.5000   542.1690   -24.6910    10.3100    11.1200    10.0370    12.2920    91.1320   892.4150     2.5220     0.0450     0.2720
  994.0000   542.1690   -24.7020    10.2270    11.0370     9.9650    12.2890    91.4520   892.7220     2.5160     0.0300     0.2690
  994.5000   542.1690   -24.6890    10.1440    10.9540     9.8930    12.2860    91.5870   893.0290     2.5040     0.0160     0.2630
  995.0000   542.1690   -24.6720    10.0610    10.8700     9.8130    12.2840    93.2940   893.3370     2.4920     0.0070     0.2650
  995.5000   542.1690   -24.6540     9.9780    10.7870     9.7950    12.2810    97.7730   893.6440     2.4810     0.0090     0.2700
  996.0000   542.1690   -24.6370     9.8950    10.7550     9.7590    12.2780   100.3820   893.9510     2.4740     0.0100     0.2760
  996.5000   542.1690   -24.6200     9.8120    10.7290     9.7230    12.2750   100.6100   894.2580     2.4790     0.0120     0.2680
  997.0000   542.1690   -24.6030     9.7290    10.7020     9.6870    12.2720   101.0970   894.5660     2.4960     0.0170     0.2610
  997.5000   542.1690   -24.5860     9.6330    10.6760     9.6510    12.2700   101.6400   894.8730     2.5190     0.0210     0.2590
  998.0000   542.1690   -24.5690     9.6330    10.6500     9.6150    12.2670   101.5940   895.1800     2.5340     0.0260     0.2650
  998.5000   542.1690   -24.5520     9.6330    10.6240     9.5800    12.2640   101.5560   895.4870     2.5360     0.0270     0.2700
  999.0000   542.1690   -24.5350     9.6330    10.5970     9.5440    12.2610    99.5560   895.7950     2.5340     0.0240     0.2720
  999.5000   542.1690   -24.5180     9.6330    10.5710     9.5080    12.2590    97.3960   896.1020     2.5330     0.0210     0.2700
 1000.0000   542.1690   -24.5010     9.6330    10.5450     9.4720    12.2540    95.1170   896.4090     2.5280     0.0180     0.2690
 1000.5000   542.1690   -24.4840     9.6330    10.5190     9.4360    12.2660    92.9330   896.7170     2.5210     0.0140     0.2720
 1001.0000   542.1690   -24.4670     9.6330    10.4920     9.4000    12.2950    90.8170   897.0240     2.5140     0.0110     0.2750
 1001.5000   542.1690   -24.4500     9.6330    10.4660     9.3640    12.3230    88.2830   897.3310     2.5080     0.0080     0.2830
 1002.0000   542.1690   -24.4330     9.6330    10.4400     9.3280    12.3520    89.8690   897.6380     2.5060     0.0140     0.2920
 1002.5000   542.1690   -24.4160     9.6330    10.4140     9.2920    12.3790    92.6190   897.9460     2.5120     0.0200     0.2940
 1003.0000   542.1690   -24.3990     9.6330    10.3880     9.2510    12.4230    95.1050   898.2530     2.5190     0.0260     0.2850
 1003.5000   542.1690   -24.3820     9.6330    10.3610     9.2070    12.4610    96.3650   898.5600     2.5270     0.0330     0.2780
 1004.0000   542.1690   -24.3650     9.6330    10.3350     9.1630    12.5020    97.6860   898.8670     2.5340     0.0390     0.2730
 1004.5000   542.1690   -24.3470     9.6330    10.3090     9.1200    12.5420    99.1720   899.1750     2.5540     0.0450     0.2740
 1005.0000   542.1690   -24.3320     9.6330    10.2820     9.0760    12.5790    98.1340   899.4820     2.5530     0.0520     0.2780
 1005.5000   542.1690   -24.3120     9.6320    10.2530     9.0320    12.5960    95.6270   899.7890     2.5500     0.0490     0.2810
 1006.0000   542.1690   -24.2970     9.6100    10.2300     8.9890    12.6130    93.4240   900.0960     2.5440     0.0400     0.2890
 1006.5000   542.1690   -24.1870     9.5860    10.1740     8.9450    12.6290    92.6670   900.4040     2.5370     0.0310     0.2980
 1007.0000   542.1690   -24.1110     9.5600    10.3310     8.9020    12.6450    92.7200   900.7110     2.5300     0.0260     0.2990
 1007.5000   542.1690   -24.1070     9.5340    10.3160     8.8580    12.6620    93.0340   901.0180     2.5180     0.0230     0.2960
 1008.0000   542.1690   -24.1070     9.5090    10.2460     8.8150    12.6780    93.5030   901.3250     2.5040     0.0170     0.2940
 1008.5000   542.1690   -24.1070     9.4840    10.1760     8.7710    12.6940    94.2800   901.6330     2.4890     0.0080     0.2910
 1009.0000   542.1690   -24.1050     9.4560    10.1050     8.7270    12.7100    95.2590   901.9400     2.4840     0.0050     0.2880
 1009.5000   542.1690   -24.0610     9.3020    10.0350     8.6830    12.7270    96.1600   902.2470     2.4860     0.0060     0.2880
 1010.0000   542.1690   -24.0100     9.1320     9.9640     8.6400    12.7430    97.3910   902.5550     2.5060     0.0060     0.2900
 1010.5000   542.1690   -23.9590     8.9620     9.8940     8.6210    12.7590    98.4590   902.8620     2.5230     0.0180     0.2950
 1011.0000   542.1690   -23.9110     8.7920     9.8240     8.6210    12.7760   100.3580   903.1690     2.5200     0.0320     0.3000
 1011.5000   542.1690   -23.9090     8.6210     9.7530     8.6210    12.7730   101.6490   903.4760     2.5140     0.0330     0.3010
 1012.0000   542.1690   -23.9080     8.4630     9.6830     8.6210    12.7340   101.1590   903.6140     2.5060     0.0280     0.3030
 1012.5000   542.1690   -23.9090     8.9140     9.6310     8.6210    12.6960   100.1210   903.6140     2.4970     0.0210     0.3110
 1013.0000   542.1690   -23.9090     9.2830     9.6230     8.6210    12.6570    99.0230   903.6140     2.4990     0.0140     0.3140
 1013.5000   542.1690   -23.9090     9.2830     9.6160     8.6210    12.6190    97.7320   903.6140     2.5050     0.0110     0.3040
 1014.0000   542.1690   -23.9090     9.2830     9.6080     8.6210    12.5800    95.9840   903.6140     2.5120     0.0080     0.2970
 1014.5000   542.1690   -23.9090     9.0660     9.6010     8.6210    12.5430    94.1430   903.6140     2.5150     0.0060     0.2890
 1015.0000   542.1690   -23.9090     8.8820     9.5930     8.6210    12.5010    93.7750   903.6140     2.5140     0.0110     0.2820
 1015.5000   542.1690   -23.9090     8.6210     9.5850     8.6210    12.4980    94.2100   903.6140     2.5220     0.0170     0.2780
 1016.0000   542.1690   -23.9090     8.7560     9.5780     8.6210    12.4970    95.4280   903.6140     2.5310     0.0240     0.2820
 1016.5000   542.1690   -23.9090     8.8820     9.5700     8.6210    12.4980    97.3780   903.6140     2.5330     0.0260     0.2870
 1017.0000   542.1690   -23.9090     9.0090     9.5630     8.6210    12.4980    99.2650   903.6140     2.5190     0.0190     0.2910
 1017.5000   542.1690   -23.9090     9.1130     9.5550     8.6210    12.4980   100.1510   903.6140     2.5050     0.0140     0.2960
 1018.0000   542.1690   -23.9090     9.1390     9.5480     8.6210    12.4980   100.2950   903.6140     2.4950     0.0090     0.2980
 1018.5000   542.1690   -23.9090     9.1610     9.5400     8.6210    12.4980   100.4870   903.6140     2.4980     0.0110     0.2970
 1019.0000   542.1690   -23.9090     9.1820     9.5320     8.6210    12.4980   100.7030   903.6140     2.5020     0.0130     0.2960
 1019.5000   542.1690   -23.9090     9.2040     9.5250     8.6210    12.4980   100.4920   903.6140     2.5020     0.0150     0.2940
 1020.0000   542.1690   -23.9090     9.2260     9.5170     8.6210    12.4980    99.3070   903.6140     2.5040     0.0180     0.2950
 1020.5000   542.1690   -23.9090     9.2480     9.5100     8.6220    12.4980    98.1600   903.6140     2.5120     0.0200     0.2960
 1021.0000   542.1690   -23.9090     9.2830     9.5020     8.6220    12.4980    97.1090   903.6140     2.5190     0.0260     0.2900
 1021.5000   542.1690   -23.9090     9.2620     9.4950     8.6210    12.4980    96.0440   903.6140     2.5260     0.0300     0.2820
 1022.0000   542.1690   -23.9090     9.2070     9.4870     8.6230    12.4980    96.5410   903.6140     2.5310     0.0340     0.2770
