~VERSION INFORMATION
 VERS.                2.0:   CWLS LOG ASCII STANDARD - VERSION 2.0
 WRAP.                 NO:   ONE LINE PER DEPTH STEP
~WELL INFORMATION
#MNEM.UNIT      DATA TYPE    INFORMATION
#----------   ------------   ------------------------------
 STRT.F          211.0000:   START DEPTH
 STOP.F         3244.0000:   STOP DEPTH
 STEP.F            0.5000:   STEP LENGTH
 NULL.          -999.2500:   NO VALUE
 COMP.    FENIX & SCISSON:   COMPANY
 WELL.  FENIX "AX" #84-15:   WELL
 FLD .  TEAPOT DOME NPR-3:   FIELD
 LOC .      S15 T38N R78W:   LOCATION
 CNTY.            NATRONA:   COUNTY
 STAT.            WYOMING:   STATE
 CTRY. UNITED STATES OF AMERICA:   COUNTRY
 SRVC.           BIRDWELL:   SERVICE COMPANY
 DATE.        17-MAR-1978:   LOGDATE
 API .     49025106050000:   API NUMBER
~CURVE INFORMATION
#MNEM.UNIT       API CODE    CURVE DESCRIPTION
#----------   ------------   ------------------------------
 DEPT.F                  :   
 SPR .MV     05 010 01 00:   SPONTANEOUS POTENTIAL
 SN  .OHMM   05 040 16 00:   SHORT NORMAL
 ILD .OHMM   05 120 46 00:   INDUCTION LOG DEEP
 CALD.IN     45 280 60 00:   CALIPER FROM DENSITY LOG
 GRD .GAPI   45 310 01 00:   GAMMA RAY FROM DENSITY LOG
 RHOB.G/C3   45 350 01 00:   BULK DENSITY
 CORR.G/C3   45 356 01 00:   DENSITY CORRECTION
~PARAMETER INFORMATION
#MNEM.UNIT          VALUE    DESCRIPTION
#----------   ------------   ------------------------------
 EKB .F         5251.0000:   Kelly bushing
 EGL .F         5241.0000:   Ground level
 TD  .F         3250.0000:   Total depth
 CLNT.            A2DTECH:   Client Code
 SL  . 359' FEL & 2310' FNL:   Surface Location
 PD  .                 GL:   Permanent Datum
 LMF .                 KB:   Log Measured From
 DMF .                 KB:   Drilling Measured From
 DATE.        17-MAR-1978:   Date Logged [DD-MMM-YYYY]
 DD  .F              3250:   Depth driller
 DL  .F              3250:   Depth logger
 BLI .F              3244:   Bottom log interval
 TLI .F               224:   Top log interval
 CS1 .IN            8.625:   Casing size
 CBD1.             8.625":   Casing driller 1
 CBL1.F               224:   Casing logger 1
 BS1 .IN            7.875:   Bit size
 BSD1.F              3250:   Depth drilled with bit1
 MSS .           FLOWLINE:   Source of sample
 RMS .OHMM            1.3:   Rm
 MST .F                70:   Rm Meas. temp.
 RMF .OHMM            1.1:   Rmf
 MFST.F                70:   Rmf Meas. temp.
 MFSS.               MEAS:   Source Rmf.
 RMC .OHMM            1.4:   Rmc
 MCST.F                70:   Rmc Meas. temp.
 RMB .OHMM           0.77:   Rm. at BHT
 BHT .F               118:   BHT.
 TCS .HRS               6:   Time Circ. stopped
 MRT .F               118:   Maximum recorded temp.
 LUN .               2958:   Logging unit number
 LUL .               CASP:   Logging unit location
 ENGI.             MILLER:   Recorded By
 WITN.           MCGINLEY:   Witnessed by
 ORIG.           5" PRINT:   Origin of data
 UWI .     49025106050000:   Unique Well ID
 DICO. A2D TECHNOLOGIES, INC.:   Digitizing Company
~OTHER INFORMATION
~A   DEPT      SPR         SN        ILD       CALD         GRD      RHOB       CORR   
# ...
 2804.5000   -29.7760    12.8712    13.1419    10.0873    82.6132     2.4525     0.0262
 2805.0000   -29.7662    12.9667    13.2400    10.0879    82.6298     2.4608     0.0338
 2805.5000   -29.9076    12.8826    13.3389    10.0885    81.8924     2.4714     0.0338
 2806.0000   -29.7541    12.7991    13.4384    10.0891    79.2030     2.4599     0.0263
 2806.5000   -29.8983    12.5405    13.3517    10.0898    79.9670     2.4418     0.0218
 2807.0000   -30.1888    12.2021    13.2654    10.0891    81.6320     2.4319     0.0234
 2807.5000   -30.3330    11.9556    12.9978    10.0858    84.1978     2.4296     0.0264
 2808.0000   -30.3219    11.7138    12.6448    10.0825    86.0129     2.4334     0.0295
 2808.5000   -30.1622    11.3979    12.2089    10.0793    85.2754     2.4357     0.0312
 2809.0000   -30.0025    11.0134    11.7178    10.0760    81.8348     2.4379     0.0342
 2809.5000   -29.8428    10.6417    11.2288    10.0727    82.2990     2.4432     0.0342
 2810.0000   -29.6831    10.2783    10.6502    10.0695    84.2643     2.4561     0.0327
 2810.5000   -29.6742     9.9968    10.1489    10.0662    90.0848     2.4682     0.0313
 2811.0000   -29.5143     9.8045     9.6712    10.0629    98.4483     2.4736     0.0298
 2811.5000   -29.3856     9.7409     9.3451    10.0597   110.5837     2.4765     0.0329
 2812.0000   -29.1850     9.7452     9.2836    10.0564   111.1943     2.4720     0.0299
 2812.5000   -29.0332     9.8176     9.4194    10.0531   103.7034     2.4515     0.0208
 2813.0000   -29.0256    10.3836     9.8256    10.0499    95.4573     2.4386     0.0178
 2813.5000   -29.0166    11.5299    10.3208    10.0466    86.9121     2.4325     0.0209
 2814.0000   -29.0066    13.5348    11.1470    10.0433    78.4568     2.4348     0.0255
 2814.5000   -28.9977    14.6168    12.9966    10.0401    78.2288     2.4355     0.0331
 2815.0000   -28.9889    15.1405    14.7374    10.0387    78.2455     2.4347     0.0377
 2815.5000   -29.1925    15.6829    15.9170    10.0398    77.3578     2.4264     0.0408
 2816.0000   -29.2730    16.0653    16.4884    10.0408    75.8696     2.4324     0.0485
 2816.5000   -29.4148    16.2520    16.7274    10.0568    76.1832     2.4483     0.0463
 2817.0000   -29.5567    16.4869    16.9700    10.0727    77.3977     2.4420     0.0243
 2817.5000   -29.6983    16.4942    16.9781    10.0889    82.2158     2.4316     0.0167
 2818.0000   -29.6875    16.6230    16.9863    10.0899    81.7787     2.4217     0.0168
 2818.5000   -29.5278    16.7537    16.9945    10.0611    79.5397     2.4126     0.0199
 2819.0000   -29.0665    17.0032    16.8848     9.9876    72.1956     2.4103     0.0245
 2819.5000   -28.6051    17.4705    17.2493     9.8396    71.7583     2.4171     0.0279
 2820.0000   -28.2946    17.9710    17.6217     9.8255    71.3213     2.4293     0.0336
 2820.5000   -27.9841    18.4860    17.9996     9.8565    70.7244     2.4377     0.0367
 2821.0000   -27.9752    18.7531    18.5228     9.8576    70.1272     2.4338     0.0413
 2821.5000   -27.8155    19.1568    19.0612     9.8437    68.9621     2.4421     0.0444
 2822.0000   -27.6558    19.5692    19.9984     9.7404    66.5730     2.4532     0.0475
 2822.5000   -27.7979    20.1299    20.8572     9.6669    65.2350     2.4815     0.0475
 2823.0000   -27.9397    20.5632    21.7528     9.6680    62.6957     2.4800     0.0445
 2823.5000   -28.0817    20.8604    22.8453     9.6692    56.2525     2.4777     0.0414
 2824.0000   -28.2236    21.1618    23.8264     9.6702    46.9576     2.4557     0.0355
 2824.5000   -28.2125    21.3189    24.6773     9.6561    42.7634     2.4405     0.0307
 2825.0000   -28.3545    21.4772    25.2054     9.6570    42.7800     2.4465     0.0235
 2825.5000   -28.4987    21.4867    25.7449     9.6574    43.3939     2.4503     0.0205
 2826.0000   -28.4876    21.3474    25.9326     9.6577    46.7105     2.4321     0.0190
 2826.5000   -28.4787    21.3571    25.7607     9.6581    47.1742     2.4124     0.0206
 2827.0000   -28.4698    21.0714    24.7152     9.6585    47.4878     2.4163     0.0252
 2827.5000   -28.6140    20.7898    23.2171     9.6589    48.7023     2.4239     0.0267
 2828.0000   -28.7560    20.3720    22.4024     9.6593    52.6195     2.4222     0.0238
 2828.5000   -29.0468    20.0997    21.9516     9.6596    61.9421     2.4131     0.0223
 2829.0000   -29.6410    19.6915    21.8332     9.6600    62.2557     2.4123     0.0223
 2829.5000   -29.9338    19.4304    21.8416     9.6604    62.5693     2.4123     0.0239
 2830.0000   -29.9246    19.3044    21.6952     9.6608    64.9850     2.4130     0.0239
 2830.5000   -29.7630    19.3130    21.7036     9.6612    66.3496     2.4130     0.0240
 2831.0000   -29.4524    19.3209    21.5581     9.6615    65.4425     2.4138     0.0225
 2831.5000   -29.2927    19.4650    21.7169     9.6619    64.8747     2.4138     0.0226
 2832.0000   -29.2839    19.4737    21.8752     9.6623    65.0415     2.4137     0.0226
 2832.5000   -29.1242    19.6182    21.8820     9.6627    64.7545     2.4077     0.0242
 2833.0000   -29.1623    19.6268    21.8887     9.6631    62.6657     2.4069     0.0242
 2833.5000   -29.2595    19.6356    22.0483     9.6634    61.3276     2.4069     0.0258
 2834.0000   -29.3992    19.6445    22.2090     9.6638    60.2865     2.4053     0.0273
 2834.5000   -29.5412    19.6534    22.2159     9.6642    61.3542     2.3970     0.0289
 2835.0000   -29.5323    19.6623    22.2436     9.6646    61.3675     2.3795     0.0335
 2835.5000   -29.5234    19.6729    22.5427     9.6650    61.2306     2.3621     0.0411
 2836.0000   -29.5143    19.6816    22.5496     9.6653    60.9436     2.3378     0.0518
 2836.5000   -29.5053    19.8278    22.7140     9.6657    60.5064     2.3120     0.0685
 2837.0000   -29.4962    20.2546    23.3621     9.6661    60.0693     2.2923     0.0806
 2837.5000   -29.4857    20.8349    24.7067     9.6665    59.1817     2.2559     0.0792
 2838.0000   -29.4768    21.5814    25.9475     9.6668    52.5969     2.1657     0.1307
 2838.5000   -29.6210    22.0460    27.4409     9.6672    47.1963     2.1914     0.2672
 2839.0000   -29.7630    22.5206    28.2239     9.6676    47.6633     2.2710     0.2748
 2839.5000   -29.9049    22.8460    28.4296     9.6680    50.3793     2.2801     0.1665
 2840.0000   -30.0469    23.0130    28.6369     9.6684    57.0258     2.4325     0.1036
 2840.5000   -30.3374    21.7803    28.6457     9.6687    58.6619     2.4021     0.0158
 2841.0000   -30.3286    20.4686    27.4779     9.6691    58.0746     2.4165     0.0128
 2841.5000   -30.4706    19.6412    25.4054     9.6695    57.9378     2.4089     0.0129
 2842.0000   -30.0091    19.1111    23.2206     9.6699    59.9063     2.4104     0.0144
 2842.5000   -29.6983    18.8460    21.7160     9.6703    62.7725     2.4134     0.0175
 2843.0000   -29.3859    18.5863    21.1250     9.6706    65.3383     2.4157     0.0191
 2843.5000   -29.2262    18.3549    20.9850     9.6710    65.7988     2.4173     0.0191
 2844.0000   -29.0665    18.2379    20.9930     9.6714    65.2114     2.4210     0.0207
 2844.5000   -29.0576    18.1176    20.9995     9.6718    65.2281     2.4232     0.0237
 2845.0000   -29.0487    18.0021    21.1526     9.6722    65.0879     2.4444     0.0268
 2845.5000   -29.1907    18.0101    21.6053     9.6725    64.9543     2.4550     0.0344
 2846.0000   -29.1818    18.0182    22.2218     9.6729    64.5172     2.4618     0.0375
 2846.5000   -29.3260    18.0262    23.0154     9.6733    62.5785     2.4671     0.0406
 2847.0000   -29.3152    18.0342    23.6721     9.6737    60.1894     2.4641     0.0405
 2847.5000   -29.3062    18.0422    24.1787     9.6595    60.0526     2.4451     0.0359
 2848.0000   -29.2972    18.0503    23.0240     9.6605    60.0661     2.4390     0.0271
 2848.5000   -29.4389    17.9328    22.1017     9.6616    60.6099     2.4336     0.0196
 2849.0000   -29.4299    17.6935    21.8030     9.6626    66.1006     2.4135     0.0166
 2849.5000   -29.4208    17.2160    21.6585     9.6636    70.4641     2.4079     0.0151
