~VERSION INFORMATION
 VERS.                2.0:   CWLS LOG ASCII STANDARD - VERSION 2.0
 WRAP.                 NO:   ONE LINE PER DEPTH STEP
~WELL INFORMATION
#MNEM.UNIT      DATA TYPE    INFORMATION
#----------   ------------   ------------------------------
 STRT.F          200.5000:   START DEPTH
 STOP.F         3164.0000:   STOP DEPTH
 STEP.F            0.5000:   STEP LENGTH
 NULL.          -999.2500:   NO VALUE
 COMP. FENIX & SCISSON U.S NAVY:   COMPANY
 WELL. FENIX & SCISSON "A" #83-4:   WELL
 FLD .              NPR-3:   FIELD
 LOC .       S4 T38N R78W:   LOCATION
 CNTY.            NATRONA:   COUNTY
 STAT.            WYOMING:   STATE
 CTRY. UNITED STATES OF AMERICA:   COUNTRY
 SRVC.       SCHLUMBERGER:   SERVICE COMPANY
 DATE.        25-MAY-1977:   LOGDATE
 API .     49025103660000:   API NUMBER
~CURVE INFORMATION
#MNEM.UNIT       API CODE    CURVE DESCRIPTION
#----------   ------------   ------------------------------
 DEPT.F                  :   
 CALD.IN     45 280 60 00:   CALIPER FROM DENSITY LOG
 GRD .GAPI   45 310 01 00:   GAMMA RAY FROM DENSITY LOG
 RHOB.G/C3   45 350 01 00:   BULK DENSITY
 CORR.G/C3   45 356 01 00:   DENSITY CORRECTION
 SPR .MV     07 010 01 00:   SPONTANEOUS POTENTIAL
 SFLU.OHMM   07 220 01 00:   SPHERICALLY FOCUSED LOG UNAVERAGED RESISTIVITY
 ILD .OHMM   07 120 46 00:   DEEP INDUCTION RESISTIVITY
 ILM .OHMM   07 120 44 00:   INDUCTION LOG MEDIUM RESISTIVITY
~PARAMETER INFORMATION
#MNEM.UNIT          VALUE    DESCRIPTION
#----------   ------------   ------------------------------
 EKB .F         5163.0000:   Kelly bushing
 EGL .F         5149.0000:   Ground level
 EDF .F            0.0000:   Drilling floor
 EPD .F            0.0000:   Permanent datum
 TD  .F         3173.0000:   Total depth
 DATE.        25-MAY-1977:   Date logged
 CLNT.            A2DTECH:   Client Code
 SL  . 1650' FNL & 330 ' FEL:   Surface Location
 PD  .                 GL:   Permanent Datum
 DAPD.F                14:   Feet Above Permanent Datum
 DD  .F              3173:   Depth driller
 DL  .F              3157:   Depth logger
 BLI .F              3165:   Bottom log interval
 TLI .F               200:   Top log interval
 CS1 .IN            8.625:   Casing size
 CBD1.      8.625" @ 204':   Casing driller 1
 CBL1.F               220:   Casing logger 1
 BS1 .IN            7.875:   Bit size
 BSD1.F              3173:   Depth drilled with bit1
 DFT .            KCL MUD:   Type fluid in hole
 DFD .                8.8:   Density
 DFV .                 37:   Viscosity
 DFPH.                7.5:   pH
 DFL .                4.4:   Fluid loss
 MSS .           FLOWLINE:   Source of sample
 RMS .OHMM            .39:   Rm
 MST .F                79:   Rm Meas. temp.
 RMF .OHMM            .31:   Rmf
 MFST.F                79:   Rmf Meas. temp.
 RMC .OHMM            .63:   Rmc
 MCST.F                79:   Rmc Meas. temp.
 MFSS.           FANN KIT:   Source Rmf.
 MCSS.           FANN KIT:   Source Rmc.
 RMB .OHMM            .27:   Rm. at BHT
 BHT .F               112:   BHT.
 TCS .HRS             2.5:   Time Circ. stopped
 MRT .F               112:   Maximum recorded temp.
 LUN .               8611:   Logging unit number
 LUL .             CASPER:   Logging unit location
 ENGI.            C. DOAK:   Recorded By
 WITN.      B. HARRINGTON:   Witnessed by
 ORIG.       2.5"5" PRINT:   Origin of data
 UWI .     49025103660000:   Unique Well ID
 DICO. A2D TECHNOLOGIES, INC.:   Digitizing Company
~OTHER INFORMATION
~A   DEPT     CALD        GRD         RHOB     CORR        SPR       SFLU        ILD        ILM   
# ...
  767.5000     9.2958   105.0267     2.4975     0.0211   -33.0250    11.9525     8.6315     8.4769
  768.0000     9.2961   105.0298     2.4778     0.0133   -33.0274    11.5270     8.6306     8.4760
  768.5000     9.2962   106.3706     2.4759     0.0094   -33.0289    11.9494     8.6293     8.4748
  769.0000     9.2963   105.5939     2.4779     0.0095   -33.0313    11.9481     8.6289     8.3221
  769.5000     9.3200   102.7076     2.4701     0.0017   -33.0328    12.1641     8.6271     8.0255
  770.0000     9.3437   100.3761     2.4544     0.0056   -33.0351    12.6105     8.6262     8.1706
  770.5000     9.3674    99.6026     2.4642     0.0057   -33.0367    13.0660     8.6254     8.4705
  771.0000     9.3912    98.8275     2.4780     0.0136   -33.0390    12.6015     8.6240     8.4696
  771.5000     9.4141    99.6104     2.5055     0.0176   -33.0406    12.5996     8.6227     8.4683
  772.0000     9.3365   101.1699     2.5075     0.0176   -33.0429    12.5982     8.7791     8.4674
  772.5000     9.3367   103.2889     2.5056     0.0334   -33.0445    12.3707     8.9378     8.4662
  773.0000     9.3368   103.2904     2.5036     0.0296   -33.0468    11.9304     8.9369     8.1648
  773.5000     9.3371   103.5185     2.5095     0.0335   -33.0484    12.1460     8.9355     8.1636
  774.0000     9.3372   100.4072     2.5174     0.0364   -33.0507    12.1447     8.4631     8.1627
  774.5000     9.3375    99.6337     2.5174     0.0375   -33.0523    11.5072     8.1615     7.8718
  775.0000     9.3376    98.8586     2.5194     0.0376   -33.0546    11.5060     7.9015     7.5917
  775.5000     9.3379    98.8633     2.5214     0.0377   -33.0562    11.7140     8.0133     7.1900
  776.0000     9.3379   100.4228     2.5214     0.0299   -32.6694    12.1371     8.0125     7.1893
  776.5000     9.3772   100.4274     2.5097     0.0260   -33.0600    11.7109     7.8678     7.0595
  777.0000     9.3773   100.4305     2.5058     0.0260   -33.0624    11.7097     7.8670     7.0588
  777.5000     9.3775   101.2134     2.4999     0.0104   -33.0639    11.4982     7.7250     7.0577
  778.0000     9.3777   101.9947     2.4960     0.0144   -33.0663    11.4970     7.5859     6.9310
  778.5000     9.3779   101.9994     2.4882     0.0184   -33.0678    11.2894     7.5848     6.9296
  779.0000     9.4170   102.0025     2.4882     0.0184   -33.0702    11.2882     7.7204     6.9289
  779.5000     9.3394   102.7853     2.4863     0.0184   -33.0717    11.2865     7.7195     6.9279
  780.0000     9.4563   105.1231     2.4824     0.0224   -33.0741    12.5775     7.5806     6.9272
  780.5000     9.4057   105.1277     2.4804     0.0258   -33.0756    11.0815     7.5795     6.8021
  781.0000     9.4567   105.1308     2.4804     0.0304   -33.0779    10.8819     7.4430     6.8014
  781.5000     9.4180   105.9137     2.5001     0.0305   -33.0795    10.8802     7.3086     6.8004
  782.0000     9.4182   106.6950     2.5099     0.0384   -33.0818    10.8791     7.1771     6.7997
  782.5000     9.3795   105.9215     2.5159     0.0424   -33.0834    11.4833     7.5756     6.7987
  783.0000     9.3796   105.1464     2.5159     0.0424   -33.0857    11.2765     7.7130     6.9220
  783.5000     9.3021   103.5946     2.5081     0.0425   -33.0873    10.8746     7.8524     7.0471
  784.0000     9.2633   106.7106     2.5081     0.0464   -33.0896    11.4779     7.4389     7.0464
  784.5000     9.2635   107.4934     2.5160     0.0347   -33.0912    11.4773     7.7114     7.1738
  785.0000     9.2248   108.2747     2.5219     0.0348   -33.0935    11.6854     7.7110     7.1731
  785.5000     9.2250   107.5012     2.5199     0.0348   -33.0951    11.6835     7.7098     7.1720
  786.0000     9.2252   106.7261     2.5062     0.0349   -33.0974    11.6823     7.7087     7.1713
  786.5000     9.1865   106.7308     2.5004     0.0310   -33.0990    12.1103     7.7079     7.1702
  787.0000     9.1866   106.7339     2.4984     0.0310   -33.1013    12.1090     7.8472     7.0411
  787.5000     9.1091   103.6257     2.4925     0.0310   -33.1028    12.1071     7.8460     7.0401
  788.0000     9.1870   102.0725     2.4769     0.0272   -33.1052    12.1058     7.8452     7.0397
  788.5000     9.1873   101.2989     2.4651     0.0194   -33.1067    12.3246     7.9874     6.9123
  789.0000     9.1874   101.3020     2.4671     0.0155   -33.1091    12.5480     8.1318     6.9116
  789.5000     9.0320   102.0849     2.4651     0.0156   -32.7215    12.5460     8.2792     6.7869
  790.0000     9.1479   104.4226     2.4828     0.0195   -32.7239    12.0995     8.4288     6.7859
  790.5000     9.1091   104.4273     2.5025     0.0280   -32.7254    11.2543     8.4276     6.9088
  791.0000     9.1092   104.4304     2.5065     0.0363   -32.7278    11.8798     8.4267     7.9814
  791.5000     9.1094   102.8786     2.5104     0.0433   -32.7293    12.5394     8.5790     8.1265
  792.0000     9.1096   105.2163     2.5183     0.0434   -32.3425    12.5381     8.7345     8.1256
  792.5000     9.1098   104.4428     2.5085     0.0434   -32.3441    11.4535     8.7336     8.2725
  793.0000     9.1100   104.4459     2.5066     0.0435   -32.7355    11.0459     9.0535     8.4224
  793.5000     9.1102   102.8942     2.5164     0.0396   -32.7371    11.2455     9.3851     8.4211
  794.0000     9.1104   105.2334     2.4968     0.0397   -32.7394    12.5316    10.0851     8.4207
  794.5000     9.1106   105.2366     2.4890     0.0397   -32.7410    13.7139    10.4545     8.4194
  795.0000     9.1108   104.4615     2.4850     0.0398   -32.7433    13.7125     9.3798     8.4181
  795.5000     9.1110   102.9097     2.4988     0.0320   -32.7449    13.4649     9.5513     8.4169
  796.0000     9.1112   101.3564     2.5126     0.0320   -32.7472    13.4635     9.3793     8.4164
  796.5000     9.1114   100.5829     2.5166     0.0321   -33.1379    13.4614     9.0452     8.4152
  797.0000     9.1116   100.5860     2.5166     0.0321   -33.1402    13.7053     9.0443     8.2633
  797.5000     9.1118   100.5907     2.5284     0.0401   -33.1418    13.4578     8.7220     8.2620
  798.0000     9.1120   101.3720     2.5441     0.0480   -33.5332    12.9790     8.7212     8.2612
  798.5000     9.1122   100.5985     2.5461     0.0480   -33.1457    12.2925     8.5637     8.2599
  799.0000     9.1124   101.3798     2.5461     0.0520   -33.1480    12.2912     8.5633     8.2591
  799.5000     9.1126   100.6062     2.5422     0.0521   -33.1495    12.5132     8.4083     8.2578
  800.0000     9.1128    99.8311     2.5383     0.0521   -33.1519    12.5119     8.7150     8.2570
  800.5000     9.1130    99.1913     2.5282     0.0491   -33.1541    12.3291     8.7140     8.2557
  801.0000     9.1136   100.6342     2.5207     0.0443   -33.1606    12.2846     8.7125     8.2547
  801.5000     9.1141   101.4218     2.5050     0.0365   -33.1642    12.2825     8.7120     8.2532
  802.0000     9.1147   105.3273     2.5011     0.0365   -33.1696    11.8454     8.7100     8.2523
  802.5000     9.1152   106.8934     2.4853     0.0326   -33.1732    11.8434     8.5526     7.9581
  803.0000     9.1158   108.4644     2.4854     0.0326   -33.1786    11.8407     8.5516     7.9572
  803.5000     9.1163   108.4739     2.5031     0.0327   -33.1822    11.8400     8.3971     7.8134
  804.0000     9.1169   109.2667     2.5070     0.0327   -33.9656    11.8387     8.3961     7.6727
  804.5000     9.1174   110.0547     2.5070     0.0366   -33.5802    11.2124     8.3947     7.3992
  805.0000     9.1176   111.6261     2.5090     0.0367   -33.5856    11.0104     8.2435     7.2659
  805.5000     9.1238   111.6357     2.5169     0.0367   -33.5892    11.0085     7.8089     7.2650
  806.0000     9.1300   110.0931     2.5169     0.0367   -33.5946    11.0073     7.8080     7.1337
  806.5000     9.1362   110.1028     2.5228     0.0367   -33.5982    10.2383     7.5296     7.1325
  807.0000     9.1423   109.3386     2.5228     0.0367   -33.6036    10.6137     7.5288     7.1317
  807.5000     9.1485   108.5696     2.5268     0.0368   -33.6072    10.6119     7.3927     7.0028
