~VERSION INFORMATION
 VERS.                2.0:   CWLS LOG ASCII STANDARD - VERSION 2.0
 WRAP.                 NO:   ONE LINE PER DEPTH STEP
~WELL INFORMATION
#MNEM.UNIT      DATA TYPE    INFORMATION
#----------   ------------   ------------------------------
 STRT.F          492.0000:   START DEPTH
 STOP.F         3008.0000:   STOP DEPTH
 STEP.F            0.5000:   STEP LENGTH
 NULL.          -999.2500:   NO VALUE
 COMP.    FENIX & SCISSON:   COMPANY
 WELL. FENIX & SCISSON AX #24-28:   WELL
 FLD .             TEAPOT:   FIELD
 LOC .      S28 T39N R78W:   LOCATION
 CNTY.            NATRONA:   COUNTY
 STAT.            WYOMING:   STATE
 CTRY. UNITED STATES OF AMERICA:   COUNTRY
 SRVC.              WELEX:   SERVICE COMPANY
 DATE.        03-AUG-1980:   LOGDATE
 API .     49025108490000:   API NUMBER
~CURVE INFORMATION
#MNEM.UNIT       API CODE    CURVE DESCRIPTION
#----------   ------------   ------------------------------
 DEPT.F                  :   
 SPR .MV     07 010 01 00:   SPONTANEOUS POTENTIAL
 ILD .OHMM   07 120 46 00:   DEEP INDUCTION RESISTIVITY
 ILM .OHMM   07 120 44 00:   INDUCTION LOG MEDIUM RESISTIVITY
 SGRD.OHMM   07 220 05 00:   SHALLOW SHORT GUARD RESISTIVITY
 GRD .GAPI   45 310 01 00:   GAMMA RAY FROM DENSITY LOG
 CALD.IN     45 280 60 00:   CALIPER FROM DENSITY LOG
 CORR.G/C3   45 356 01 00:   DENSITY CORRECTION
 RHOB.G/C3   45 350 01 00:   BULK DENSITY
~PARAMETER INFORMATION
#MNEM.UNIT          VALUE    DESCRIPTION
#----------   ------------   ------------------------------
 EKB .F         5061.0000:   Kelly bushing
 EGL .F         5051.0000:   Ground level
 TD  .F         3000.0000:   Total depth
 CLNT.            A2DTECH:   Client Code
 SL  . 2350' FNL & 1000' FWL:   Surface Location
 DATE.         3-AUG-1980:   Date Logged [DD-MMM-YYYY]
 DD  .F              3000:   Depth driller
 DL  .F              3010:   Depth logger
 BLI .F              3008:   Bottom log interval
 TLI .F               308:   Top log interval
 CS1 .              8.625:   Casing size
 CBD1.      8.625" @ 393':   Casing driller 1
 BS1 .IN            7.875:   Bit size
 BSD1.F              3000:   Depth drilled with bit1
 DFT .     WATER BASE MUD:   Type fluid in hole
 DFD .                8.9:   Density
 TCS .HRS               8:   Time Circ. stopped
 MRT .F               115:   Maximum recorded temp.
 ENGI.           WACHTELL:   Recorded By
 WITN.           DINSMORE:   Witnessed by
 ORIG.      2.5" 5" PRINT:   Origin of data
 UWI .     49025108490000:   Unique Well ID
 DICO. A2D TECHNOLOGIES, INC.:   Digitizing Company
 PD  .                 GL:   Permanent Datum
 EPD .F              3051:   Elevation Permanent Datum
 LMF .                 KB:   Log Measured From
 DMF .                 KB:   Drilling Measured From
 DAPD.F                10:   Feet Above Permanent Datum
 DFV .                 43:   Viscosity
 DFPH.                9.5:   pH
 DFL .                7.2:   Fluid loss
 MSS .           FLOWLINE:   Source of sample
 RMS .OHMM             .9:   Rm
 MST .F                80:   Rm Meas. temp.
 RMF .OHMM            .72:   Rmf
 MFST.F                80:   Rmf Meas. temp.
 MFSS.               MEAS:   Source Rmf.
 RMC .OHMM           1.08:   Rmc
 MCST.F                80:   Rmc Meas. temp.
 MCSS.               MEAS:   Source Rmc.
 RMB .OHMM            .06:   Rm. at BHT
 BHT .F               115:   BHT.
 LUN .               1892:   Logging unit number
 LUL .             CASPER:   Logging unit location
~OTHER INFORMATION
~A   DEPT      SPR        ILD        ILM       SGRD        GRD       CALD       CORR       RHOB   
# ...
 2962.5000   -23.6235     3.0197     4.0215     4.1352   101.9865     8.3682     0.0015     2.5811
 2963.0000   -23.6339     3.0601     4.0568     3.9329   105.3544     8.3382     0.0014     2.5714
 2963.5000   -23.5124     3.0164     4.1105     3.8439   105.5761     8.3516     0.0028     2.5436
 2964.0000   -23.6566     3.0148     4.1082     3.7640   102.6472     8.3794     0.0011     2.5293
 2964.5000   -23.6667     2.9717     4.0752     3.8139   100.8437     8.4505    -0.0022     2.5374
 2965.0000   -23.6768     2.9292     4.0470     3.8645   100.8093     8.4928    -0.0039     2.5501
 2965.5000   -23.6868     2.9198     3.9346     3.9158   102.2027     8.5062     0.0024     2.5582
 2966.0000   -23.6969     2.8857     3.8254     3.9678   103.7533     8.4038     0.0207     2.5454
 2966.5000   -23.7070     2.8716     3.6179     3.9648   103.9749     8.2585     0.0345     2.5334
 2967.0000   -23.7173     2.8282     3.4692     3.9070   104.1944     8.2430     0.0608     2.5401
 2967.5000   -23.7277     2.7636     3.3729     3.8439   104.8648     8.2708     0.1057     2.5535
 2968.0000   -23.7381     2.7056     3.3248     3.5702   106.2098     8.2986     0.0434     2.5618
 2968.5000   -23.7485     2.6281     3.2775     3.4271   108.0403     8.3265     0.0479     2.5488
 2969.0000   -23.4597     2.5388     3.2757     3.3892   110.4730     8.3417     0.1317     2.5510
 2969.5000   -23.4717     2.5025     3.2739     3.3866   111.3682     8.4107     0.1720     2.5688
 2970.0000   -23.4821     2.4668     3.2721     3.4538   110.0146     8.4532     0.0381     2.5785
 2970.5000   -23.4926     2.4315     3.2703     3.5255   108.2111     8.4666     0.0193     2.5664
 2971.0000   -23.5050     2.4302     3.2577     3.5717   106.4077     8.4508     0.0424     2.5656
 2971.5000   -23.5150     2.4289     3.1649     3.5690   102.4721     8.3632     0.0827     2.6044
 2972.0000   -23.5251     2.4276     3.0747     3.6167    99.6514     8.2034     0.1106     2.6053
 2972.5000   -23.2366     2.4263     3.0454     3.6137    98.9724     8.1014     0.0778     2.5669
 2973.0000   -23.2476     2.4249     3.0437     3.5611    98.9505     8.0859     0.0652     2.5448
 2973.5000   -23.2577     2.4236     3.0420     3.5093    99.8501     8.1567     0.0588     2.5309
 2974.0000   -22.9701     2.4222     3.0403     3.3621   100.9745     8.2278     0.0586     2.5951
 2974.5000   -22.9807     2.4209     3.0383     3.2191   101.8741     8.2559     0.0647     2.6279
 2975.0000   -22.9911     2.4085     3.0367     3.0821   102.7736     8.2257     0.0707     2.6390
 2975.5000   -23.0015     2.3850     3.0351     2.9827   103.6732     8.0948     0.0846     2.5821
 2976.0000   -23.0119     2.3362     2.9918     2.8772   103.6732     8.0216     0.1109     2.5096
 2976.5000   -23.0223     2.3009     2.9088     2.8750   102.7736     8.0350     0.1309     2.5177
 2977.0000   -22.8997     2.2661     2.8673     2.8331   100.9516     8.0484     0.1479     2.5498
 2977.5000   -22.7455     2.1897     2.8658     2.8706    98.8882     8.0904     0.1617     2.5856
 2978.0000   -22.7580     2.1584     2.8250     2.9489    97.3763     8.1182     0.1759     2.6013
 2978.5000   -22.7681     2.1573     2.7465     3.0303    98.5007     8.1463     0.1879     2.6064
 2979.0000   -22.7782     2.1561     2.7073     3.1131   100.0750     8.1305     0.1893     2.5965
 2979.5000   -22.7882     2.1253     2.7059     3.1544   101.6492     8.1006     0.1829     2.5733
 2980.0000   -22.7983     2.1242     2.7119     3.1962   103.6732     8.0707     0.1578     2.5501
 2980.5000   -22.8084     2.1230     2.7406     3.1938   105.4723     8.0244     0.1188     2.5545
 2981.0000   -22.8185     2.1218     2.7389     3.1033   106.8216     7.9673     0.1031     2.5641
 2981.5000   -22.8289     2.1207     2.7239     2.9305    89.3969     7.9519     0.0967     2.5588
 2982.0000   -22.8393     2.0903     2.6831     2.8509    52.3829     7.9364     0.0966     2.5445
 2982.5000   -22.8497     2.0538     2.6067     2.8488    30.3598     7.9353     0.1042     2.5497
 2983.0000   -22.8601     2.0310     2.5506     2.8580    30.3598     7.9487     0.1149     2.5638
 2983.5000   -22.8705     1.9922     2.4944     2.9393    30.8096     7.9621     0.1241     2.5795
 2984.0000   -22.8810     1.9351     2.4441     3.0411    31.2594     7.9764     0.1302     2.5838
 2984.5000   -22.8914     1.9183     2.4093     3.2189    31.4843     8.0175     0.1176     2.5673
 2985.0000   -22.9018     1.8909     2.4080     3.4071    31.2594     8.0164     0.1128     2.5463
 2985.5000   -22.9140     1.8896     2.4067     3.6422    30.8096     8.0154     0.1219     2.5530
 2986.0000   -22.9241     1.8886     2.4054     3.7422    30.3598     8.0143     0.1280     2.5776
 2986.5000   -22.9342     1.9139     2.4376     3.7394    30.1349     7.9700     0.1327     2.5588
 2987.0000   -22.9442     1.9666     2.4362     3.7892    30.8096     7.8968     0.1355     2.5423
 2987.5000   -22.9543     2.0490     2.5031     3.9476    30.8096     7.8525     0.1322     2.5404
 2988.0000   -22.9644     2.1348     2.5384     4.3482    30.3548     7.8966     0.1351     2.5728
 2988.5000   -22.6768     2.1935     2.6463     4.6616    29.6567     7.9369     0.1412     2.5930
 2989.0000   -22.6875     2.2544     2.7332     4.8613    29.0105     7.8346     0.1442     2.6025
 2989.5000   -22.3993     2.3507     2.9247     4.9996    28.7856     7.7759     0.1425     2.6010
 2990.0000   -22.4107     2.4219     3.0936     5.1417    28.7856     7.7748     0.1330     2.6001
 2990.5000   -22.4211     2.5206     3.3792     5.1910    28.7856     7.8170     0.1264     2.6001
 2991.0000   -22.4315     2.6649     3.5890     5.1864    29.0105     7.8737     0.1233     2.6015
 2991.5000   -22.4420     2.7788     3.7123     5.1147    29.6852     7.9457     0.1309     2.6022
 2992.0000   -22.4524     2.8726     3.9004     4.5094    30.3598     8.0157     0.1355     2.6021
 2992.5000   -22.4647     2.9618     4.0662     3.2613  -999.2500  -999.2500  -999.2500  -999.2500
 2993.0000   -22.4748     2.9401     4.1470     2.5411  -999.2500  -999.2500  -999.2500  -999.2500
 2993.5000   -22.4849     2.8558     4.0314     2.2422  -999.2500  -999.2500  -999.2500  -999.2500
 2994.0000   -22.4949     2.6101     3.6078     3.0696  -999.2500  -999.2500  -999.2500  -999.2500
 2994.5000   -22.5050     2.3676     2.9720     4.0080  -999.2500  -999.2500  -999.2500  -999.2500
 2995.0000   -22.5151     2.1182     2.7723     4.6758  -999.2500  -999.2500  -999.2500  -999.2500
 2995.5000   -22.5253     2.0029     2.6219     5.0089  -999.2500  -999.2500  -999.2500  -999.2500
 2996.0000   -22.5357     1.9472     2.5845     5.4410  -999.2500  -999.2500  -999.2500  -999.2500
 2996.5000   -22.5461     1.9194     2.6555     5.6687  -999.2500  -999.2500  -999.2500  -999.2500
 2997.0000   -22.6300     1.9451     2.8460     5.9059  -999.2500  -999.2500  -999.2500  -999.2500
 2997.5000   -22.9590     2.0303     3.3273     5.9842  -999.2500  -999.2500  -999.2500  -999.2500
 2998.0000   -23.1726     2.3096     3.7697     6.0679  -999.2500  -999.2500  -999.2500  -999.2500
 2998.5000   -23.1830     2.6566     4.1521     6.1543  -999.2500  -999.2500  -999.2500  -999.2500
 2999.0000   -23.1935     2.9855     4.3811     6.2255  -999.2500  -999.2500  -999.2500  -999.2500
 2999.5000   -23.2059     3.4489     4.6161     6.2203  -999.2500  -999.2500  -999.2500  -999.2500
 3000.0000   -23.2160     3.6830     4.8792     6.2155  -999.2500  -999.2500  -999.2500  -999.2500
 3000.5000   -23.2260     3.8403     5.0865     6.1762  -999.2500  -999.2500  -999.2500  -999.2500
 3001.0000   -23.2361     4.0298     5.2298     6.0357  -999.2500  -999.2500  -999.2500  -999.2500
 3001.5000   -23.2462     4.1754     5.2674     5.9031  -999.2500  -999.2500  -999.2500  -999.2500
 3002.0000   -23.2562     4.2939     5.2645     5.7793  -999.2500  -999.2500  -999.2500  -999.2500
 3002.5000   -23.2664     4.3168     5.1889     5.7750  -999.2500  -999.2500  -999.2500  -999.2500
