~VERSION INFORMATION
 VERS.                2.0:   CWLS LOG ASCII STANDARD - VERSION 2.0
 WRAP.                 NO:   ONE LINE PER DEPTH STEP
~WELL INFORMATION
#MNEM.UNIT      DATA TYPE    INFORMATION
#----------   ------------   ------------------------------
 STRT.F            2.0000:   START DEPTH
 STOP.F         3008.0000:   STOP DEPTH
 STEP.F            0.5000:   STEP LENGTH
 NULL.          -999.2500:   NO VALUE
 COMP.       FLUOR DANIEL:   COMPANY
 WELL.   FLUOR "X" #25-23:   WELL
 FLD .          N.P.R. #3:   FIELD
 LOC .      S23 T38N R78W:   LOCATION
 CNTY.            NATRONA:   COUNTY
 STAT.            WYOMING:   STATE
 CTRY. UNITED STATES OF AMERICA:   COUNTRY
 SRVC.      WESTERN ATLAS:   SERVICE COMPANY
 DATE.        21-APR-1995:   LOGDATE
 API .     49025227090000:   API NUMBER
~CURVE INFORMATION
#MNEM.UNIT       API CODE    CURVE DESCRIPTION
#----------   ------------   ------------------------------
 DEPT.F                  :   
 GRR .GAPI   07 310 01 00:   GAMMA RAY FROM RESISTIVITY
 TENR.LBS    07 635 01 00:   TENSION FROM RESISTIVITY
 RILD.OHMM   07 120 46 00:   RESISTIVITY INDUCTION LOG DEEP
 RILM.OHMM   07 120 44 00:   RESISTIVITY INDUCTION LOG MEDIUM
~PARAMETER INFORMATION
#MNEM.UNIT          VALUE    DESCRIPTION
#----------   ------------   ------------------------------
 EKB .F         5285.0000:   Kelly bushing
 EGL .F         5275.0000:   Ground level
 EDF .F         5284.0000:   Drilling floor
 TD  .F         3000.0000:   Total depth
 CLNT.            A2DTECH:   Client Code
 SL  . 2343' FSL & 1264' FWL:   Surface Location
 PD  .                 GL:   Permanent Datum
 EPD .F              5275:   Elevation Permanent Datum
 DMF .                 KB:   Drilling Measured From
 DAPD.                 10:   Feet Above Permanent Datum
 DATE.        21-APR-1995:   Date Logged [DD-MMM-YYYY]
 DD  .F              3000:   Depth driller
 DL  .F              3000:   Depth logger
 BLI .F              2999:   Bottom log interval
 TLI .F                 0:   Top log interval
 CS1 .IN            9.625:   Casing size
 CBD1.       9.625" @ 53':   Casing driller 1
 CBL1.F                53:   Casing logger 1
 BS1 .IN             6.25:   Bit size
 BSD1.F              3000:   Depth drilled with bit1
 DFT .                OIL:   Type fluid in hole
 MRT .F               114:   Maximum recorded temp.
 LUN .            HL 6530:   Logging unit number
 LUL .             CASPER:   Logging unit location
 ENGI.        VERN RAUTIO:   Recorded By
 WITN.        GARY STRONG:   Witnessed by
 ORIG.         2.5" PRINT:   Origin of data
 UWI .     49025227090000:   Unique Well ID
 DICO. A2D TECHNOLOGIES,INC.:   Digitizing Company
 LMF .                 KB:   Log Measured From
~OTHER INFORMATION
~A    DEPT      GRR      TENR       RILD       RILM   
# ...
  659.0000    97.7227     2.6471     4.2388     3.9349
  659.5000   100.3714   -11.9349     4.9179     5.2016
  660.0000   101.7109   -11.7647     6.3588     6.7036
  660.5000    97.6856   -11.5899     8.2356     8.5747
  661.0000    95.3145     3.2539     9.0515     9.3839
  661.5000    90.5835     3.3919     9.4645     9.7760
  662.0000    84.6725     3.5299     9.6618     9.7741
  662.5000    75.4677     3.6765     7.6048     8.0842
  663.0000    69.3108     3.8235     6.9249     6.8702
  663.5000    76.1392     3.9706     5.7668     6.0798
  664.0000    95.3084     4.1177     4.9667     5.1041
  664.5000   105.0851     4.2887     4.2775     4.1467
  665.0000   114.0023     4.4267     3.9421     3.5832
  665.5000   137.6854   -10.1471     3.7837     3.6239
  666.0000   138.2641   -10.0000     3.7312     3.7604
  666.5000   137.6629    -9.8529     3.7492     4.2128
  667.0000   129.3921    -9.7059     3.8607     4.5686
  667.5000   111.4459    -9.5588     4.2418     5.0220
  668.0000   105.7699    -9.4118     4.9136     5.5204
  668.5000   105.6145    -9.2444     5.6608     5.8348
  669.0000   104.5664    -9.1064     6.5739     6.2741
  669.5000   103.9646    -8.9684     7.1277     6.7661
  670.0000   103.9528     5.8824     7.7282     7.4422
  670.5000   103.3489     6.0294     8.0456     7.9444
  671.0000   102.1578     6.1765     8.1655     8.2778
  671.5000    99.7866     6.3235     8.5048     8.7366
  672.0000    96.2355    -8.2353     8.7462     8.9747
  672.5000    90.3246    -8.0716     9.0745     9.0954
  673.0000    94.2531   -22.6471     9.3193     9.2176
  673.5000    99.0562   -22.5000     9.5125     9.2285
  674.0000   102.0902   -37.0694     9.6972     9.4671
  674.5000    99.7168   -51.6373     9.8261     9.6348
  675.0000   101.7697   -51.4706     9.8218     9.7233
  675.5000   106.1806   -43.2607     9.5556     9.7209
  676.0000   104.3995   -21.7426     9.5519     9.5878
  676.5000   102.0283   -21.6046     9.5480     9.7167
  677.0000   102.0171   -21.4667     9.5441     9.7148
  677.5000   102.0058    -6.6177     9.5402     9.7129
  678.0000   104.4011    -6.4706     9.7209     9.9777
  678.5000   104.3422   -21.0527     9.7943     9.9757
  679.0000   102.8279   -20.8824    10.0591    10.0085
  679.5000   100.7137   -20.7078    10.3311    10.2458
  680.0000    99.2723   -20.5698    10.3265    10.3746
  680.5000   100.7552   -20.4319    10.3225    10.6876
  681.0000   100.9440   -20.2939    10.4593    10.9563
  681.5000    98.9603   -20.1471    10.5978    11.2550
  682.0000    98.1868   -20.0000    10.8845    11.4064
  682.5000   101.8876   -19.8529    10.8797    11.4040
  683.0000   104.2362   -19.7059    11.1748    11.7149
  683.5000   102.9597   -19.5350    11.1694    11.5549
  684.0000   103.5989   -19.3971    11.3406    11.5525
  684.5000   108.5349   -19.2591    11.4668    11.7082
  685.0000   110.0885   -19.1176    11.4616    11.7878
  685.5000   106.7435   -18.9706    11.6134    12.0243
  686.0000   104.1631   -18.8235    11.7673    12.3520
  686.5000   104.1518   -18.6765    11.9322    12.5177
  687.0000   105.3205   -18.5002    12.0810    12.5152
  687.5000   107.0792   -18.3622    12.2410    12.5128
  688.0000   104.0866   -18.2243    12.2354    12.5102
  688.5000   100.3067   -18.0863    12.3044    12.5506
  689.0000    96.7708   -17.9412    12.5759    12.6761
  689.5000    95.8247   -17.7941    13.0759    12.8337
  690.0000   100.2951   -17.6471    13.0708    13.3759
  690.5000   104.3519   -17.5000    13.2439    13.6163
  691.0000   101.0951   -17.3274    13.4195    13.3702
  691.5000    99.3139   -17.1894    13.2336    13.3676
  692.0000    98.1227   -17.0515    13.0502    13.0079
  692.5000    99.2920    -2.2059    13.0449    12.9892
  693.0000   101.6400    -4.3625    13.0396    12.6551
  693.5000   102.8087    -1.9118    12.7881    12.6525
  694.0000   103.4888   -16.4996    12.5091    12.3119
  694.5000   104.2832   -16.3235    12.1700    12.3094
  695.0000   105.1348   -16.1546    11.8402    11.9775
  695.5000   105.1209   -16.0166    11.6763    11.8141
  696.0000   105.1091   -30.5882    11.5148    11.6529
  696.5000   106.2754   -45.1525    11.0520    11.0362
  697.0000   106.8541   -45.0000    10.1388    10.0213
  697.5000   107.4336   -44.8529     9.1926     9.1985
  698.0000   108.0115   -44.7059     8.4388     8.5309
  698.5000   109.8210   -44.5316     7.6047     7.8193
  699.0000   113.6283   -29.6877     6.7362     6.7889
  699.5000   119.5734   -29.5497     6.1469     6.3159
  700.0000   127.4332   -29.4118     6.0727     5.9104
  700.5000   122.7106   -43.9797     5.7348     5.9080
  701.0000   119.1680   -43.8235     5.4156     5.7478
  701.5000   117.9852   -43.6765     5.1596     5.5915
  702.0000   119.1624   -43.5294     5.1589     5.5894
  702.5000   120.6637   -28.6529     5.1969     5.4379
  703.0000   123.6245   -28.5149     5.2992     5.4358
  703.5000   126.6932   -28.3769     5.2984     5.5128
  704.0000   128.5900   -13.5294     5.2977     5.5807
  704.5000   125.9892   -13.3824     5.2970     5.5783
  705.0000   129.7636   -13.2353     5.3758     5.6816
  705.5000   130.9410   -13.0882     5.4411     5.7268
  706.0000   129.7580   -12.9122     5.5385     5.7240
  706.5000   125.0236   -12.7742     5.5889     5.8002
  707.0000   123.2627   -12.9269     5.5881     5.7976
  707.5000   125.6687   -13.4872     5.5872     5.7174
  708.0000   130.5014   -14.0474     5.4372     5.7152
  708.5000   133.2832   -14.6077     5.4365     5.7038
  709.0000   133.2802   -15.1680     5.4358     5.5579
  709.5000   133.2768   -15.7282     5.3555     5.5557
  710.0000   133.2740   -16.2885     5.2891     5.4467
  710.5000   132.0912   -16.8487     5.2884     5.3637
  711.0000   132.0884   -17.4090     5.2165     5.3024
  711.5000   135.7278   -17.9693     5.2158     5.3984
  712.0000   139.1624   -18.5295     5.2862     5.3961
  712.5000   136.2093   -19.0898     5.2854     5.5421
  713.0000   127.2863   -19.6501     5.3568     5.5399
  713.5000   119.8375   -20.2103     5.4292     5.6260
  714.0000   117.1327   -20.7706     5.4285     5.6877
  714.5000   122.0379   -21.3309     5.4418     5.6851
  715.0000   124.9849   -21.8911     5.5761     5.7982
  715.5000   125.5721   -22.4514     5.5753     5.8364
  716.0000   126.1593   -23.0117     5.5745     5.8337
  716.5000   127.3364   -23.5719     5.7267     5.9916
  717.0000   127.3333   -24.1322     5.7259     5.9893
  717.5000   126.9959   -24.6924     5.8825     6.0693
  718.0000   121.3334   -25.2527     6.0432     6.1490
  718.5000   118.4867   -25.8130     6.1306     6.3154
  719.0000   120.2413   -26.3732     6.2075     6.4269
  719.5000   124.9583   -26.9335     6.3161     6.5595
  720.0000   129.6752   -27.4938     6.3763     6.6586
  720.5000   127.9025   -27.3392     6.3753     6.6554
  721.0000   122.5742   -26.9006     6.2885     6.4751
  721.5000   117.8024   -26.4620     6.2031     6.3855
  722.0000   116.6844   -26.0234     6.2023     6.2971
  722.5000   116.6814   -25.5848     6.0358     6.2848
  723.0000   117.8590   -25.1462     6.0253     6.1239
  723.5000   119.6528   -24.7076     5.8729     6.1214
  724.0000   122.5718   -24.2690     5.7713     6.0882
  724.5000   124.9288   -23.8304     5.7144     5.9530
  725.0000   123.7461   -23.3918     5.7136     5.9501
  725.5000   123.7433   -22.9532     5.7127     5.9478
  726.0000   123.7404   -22.5146     5.7900     5.9455
  726.5000   123.7375   -22.0760     5.7891     5.9432
  727.0000   123.7345   -21.6374     5.7884     5.9409
  727.5000   123.7316   -21.1988     5.7098     5.9385
  728.0000   124.2636   -20.7602     5.7090     5.9361
  728.5000   125.2340   -20.3216     5.7082     5.9594
  729.0000   126.0826   -19.8830     5.7074     6.0122
  729.5000   126.0793   -19.4444     5.7067     6.0097
  730.0000   123.1267   -19.0058     5.7058     5.9260
  730.5000   122.5339   -18.5672     5.7050     5.9237
  731.0000   123.7542   -18.1286     5.7043     5.9215
  731.5000   124.8882   -17.6900     5.7814     5.9192
