~VERSION INFORMATION
 VERS.                2.0:   CWLS LOG ASCII STANDARD - VERSION 2.0
 WRAP.                 NO:   ONE LINE PER DEPTH STEP
~WELL INFORMATION
#MNEM.UNIT      DATA TYPE    INFORMATION
#----------   ------------   ------------------------------
 STRT.F            0.5000:   START DEPTH
 STOP.F         1380.0000:   STOP DEPTH
 STEP.F            0.5000:   STEP LENGTH
 NULL.          -999.2500:   NO VALUE
 COMP.       FLUOR DANIEL:   COMPANY
 WELL. FLUOR 84 "X" #1-14:   WELL
 FLD .          N.P.R. #3:   FIELD
 LOC .      S14 T38N R78W:   LOCATION
 CNTY.            NATRONA:   COUNTY
 STAT.            WYOMING:   STATE
 CTRY. UNITED STATES OF AMERICA:   COUNTRY
 SRVC.     ATLAS WIRELINE:   SERVICE COMPANY
 DATE.        24-AUG-1994:   LOGDATE
 API .     49025226370000:   API NUMBER
~CURVE INFORMATION
#MNEM.UNIT       API CODE    CURVE DESCRIPTION
#----------   ------------   ------------------------------
 DEPT.F                  :   
 GRR .GAPI   07 310 01 00:   GAMMA RAY FROM RESISTIVITY
 RILD.OHMM   07 120 46 00:   INDUCTION LOG DEEP RESISTIVITY
 RILM.OHMM   07 120 44 00:   INDUCTION LOG MEDIUM RESISTIVITY
 TENR.LBS    07 635 01 00:   TENSION FROM RESISTIVITY
~PARAMETER INFORMATION
#MNEM.UNIT          VALUE    DESCRIPTION
#----------   ------------   ------------------------------
 EKB .F         5326.0000:   Kelly bushing
 EGL .F         5316.0000:   Ground level
 EDF .F         5325.0000:   Drilling floor
 TD  .F         1368.0000:   Total depth
 CLNT.            A2DTECH:   Client Code
 PD  .                 GL:   Permanent Datum
 EPD .F              5316:   Elevation Permanent Datum
 LMF .                 KB:   Log Measured From
 DMF .                 KB:   Drilling Measured From
 DAPD.F                10:   Feet Above Permanent Datum
 DATE.        24-AUG-1994:   Date Logged [DD-MMM-YYYY]
 DD  .F              1368:   Depth driller
 DL  .F              1364:   Depth logger
 BLI .F              1356:   Bottom log interval
 TLI .F                 0:   Top log interval
 CS1 .IN            9.625:   Casing size
 CBD1.       9.625" @ 56':   Casing driller 1
 CBL1.F                56:   Casing logger 1
 BS1 .IN             8.75:   Bit size
 BSD1.F              1368:   Depth drilled with bit1
 DFT .                AIR:   Type fluid in hole
 LUN .            HL 6530:   Logging unit number
 LUL .             CASPER:   Logging unit location
 WITN.        GARY STRONG:   Witnessed by
 ORIG.         2.5" PRINT:   Origin of data
 UWI .     49025226370000:   Unique Well ID
 DICO. A2D TECHNOLOGIES, INC.:   Digitizing Company
 SL  . 2551' FNL & 575' FEL:   Surface Location
~OTHER INFORMATION
~A    DEPT      GRR      RILD       RILM       TENR   
# ...
  657.5000   124.7156     4.7574     4.8648   -31.5282
  658.0000   122.9094     4.6916     4.4958   -31.3056
  658.5000   122.3017     3.7108     3.9453   -31.0831
  659.0000   127.6821     3.3228     3.4964   -30.8605
  659.5000   130.6673     3.0585     3.1444   -30.6380
  660.0000   132.4548     2.9749     2.9685   -30.4154
  660.5000   136.6376     2.8936     2.9465   -30.1929
  661.0000   143.2155     2.8932     2.9680   -29.9703
  661.5000   141.8974     2.8929     3.0759   -29.7478
  662.0000   131.5641     2.9326     3.3434   -29.5252
  662.5000   125.0251     3.1415     3.5718   -29.3027
  663.0000   120.8883     3.3653     3.8261   -29.0801
  663.5000   118.6204     3.6071     4.0985   -28.8576
  664.0000   122.0197     3.7623     4.2126   -28.6350
  664.5000   122.7943     3.9786     4.3299   -28.4124
  665.0000   122.1867     4.1497     4.3296   -28.1899
  665.5000   124.7295     4.2513     4.3894   -27.9673
  666.0000   125.1630     4.3204     4.4499   -27.7448
  666.5000   124.3602     4.3690     4.4496   -27.5222
  667.0000   122.3254     4.3683     4.4493   -27.2997
  667.5000   120.4841     4.3677     4.4490   -27.0771
  668.0000   120.9742     4.3307     4.4487   -26.8546
  668.5000   124.7156     4.2280     4.3873   -26.6320
  669.0000   125.4232     4.0900     4.2618   -26.4095
  669.5000   123.2984     3.8667     3.9186   -26.1869
  670.0000   120.8583     3.6055     3.6030   -25.9644
  670.5000   119.3543     3.3619     3.3187   -25.7418
  671.0000   118.1297     3.1783     3.1449   -25.5193
  671.5000   122.0672     3.0485     3.0242   -25.2967
  672.0000   124.4551     3.0481     2.9734   -25.0742
  672.5000   122.6483     3.0229     2.9417   -24.8516
  673.0000   118.4478     3.0054     2.9415   -24.6291
  673.5000   115.4450     2.9639     2.9413   -24.4065
  674.0000   114.8373     2.8044     2.8474   -24.1840
  674.5000   115.4273     2.7278     2.7833   -23.9614
  675.0000   117.2148     2.7274     2.7294   -23.7389
  675.5000   119.6012     2.6897     2.6539   -23.5163
  676.0000   124.3828     2.5804     2.5287   -23.2938
  676.5000   125.5718     2.4416     2.3259   -23.0712
  677.0000   123.7663     2.2166     2.1239   -22.8486
  677.5000   123.1586     2.0124     1.9799   -22.6261
  678.0000   126.7666     1.9042     1.7907   -22.4035
  678.5000   130.4302     1.9039     1.8660   -22.1810
  679.0000   134.5093     1.9843     2.0547   -21.9584
  679.5000   132.3323     2.1285     2.2315   -21.7359
  680.0000   125.1896     2.2853     2.4570   -21.5133
  680.5000   120.5140     2.5175     2.7810   -21.2908
  681.0000   118.6727     2.7759     3.0202   -21.0682
  681.5000   117.6986     3.0680     3.3256   -20.8457
  682.0000   120.3873     3.4125     3.6618   -20.6231
  682.5000   122.6397     3.6087     3.7637   -20.4006
  683.0000   124.2589     3.6859     3.7635   -20.1780
  683.5000   124.8488     3.6205     3.7632   -19.9555
  684.0000   123.6407     3.5200     3.7115   -19.7329
  684.5000   125.1967     3.3278     3.5593   -19.5104
  685.0000   128.9323     3.0895     3.3172   -19.2878
  685.5000   133.7053     2.8647     3.0924   -19.0653
  686.0000   134.0878     2.6334     2.8477   -18.7983
  686.5000   131.0388     2.3877     2.6144   -18.5799
  687.0000   128.6448     2.2720     2.4038   -48.0712
  687.5000   133.0584     2.1479     2.1861   -18.1432
  688.0000   143.3276     2.0750     2.0738    -3.0881
  688.5000   145.7140     2.1201     2.0520    -2.8697
  689.0000   145.7051     2.2400     2.1361    -2.6513
  689.5000   142.1035     2.4328     2.3120   -17.2849
  690.0000   134.9090     2.6061     2.5046   -46.7250
  690.5000   128.3133     2.7917     2.8010   -46.5066
  691.0000   124.1129     3.0321     3.1758   -46.2883
  691.5000   121.1100     3.2931     3.6007   -45.8468
  692.0000   124.0952     3.6767     4.0267   -30.2189
  692.5000   128.8767     4.2197     4.5031   -15.9496
  693.0000   132.4607     4.4583     4.8524   -15.7270
  693.5000   135.4459     4.5196     5.0306   -18.0031
  694.0000   132.4430     4.5817     5.0871   -44.9781
  694.5000   126.4420     4.6447     5.0867   -44.7329
  695.0000   126.4371     4.7096     5.0864   -44.5104
  695.5000   127.0272     4.8461     5.0860   -49.0612
  696.0000   125.1097     5.1247     5.1562   -58.9414
  696.5000   121.9968     5.4193     5.2998   -43.8427
  697.0000   120.4132     5.6410     5.5228   -43.6202
  697.5000   120.7336     5.8004     5.6767   -43.3976
  698.0000   123.9890     5.8660     5.7550   -43.1751
  698.5000   122.3444     5.8651     5.7546   -28.1157
  699.0000   117.9263     5.8643     5.8339   -27.8932
  699.5000   114.9790     5.8635     5.8335   -27.6300
  700.0000   120.3593     5.7753     5.8331   -26.7368
  700.5000   124.5509     5.7316     5.7584   -41.3691
  701.0000   124.7225     5.7032     5.6731   -41.0303
  701.5000   123.9521     5.7032     5.5947   -40.7366
  702.0000   126.3473     5.7032     5.5940   -40.4429
  702.5000   127.5449     5.7032     5.5167   -55.0595
  703.0000   127.5449     5.4721     5.5160   -54.7365
  703.5000   126.9461     5.3972     5.5152   -54.4427
  704.0000   126.3473     5.3233     5.5145   -69.0476
  704.5000   123.9521     5.3972     5.5902   -53.8553
  705.0000   120.3593     5.5481     5.7454   -68.4524
  705.5000   117.9641     5.5481     5.6661   -53.2679
  706.0000   117.9641     5.5481     5.5879   -52.9742
  706.5000   119.1617     5.4721     5.5107   -52.6786
  707.0000   123.3533     5.3972     5.4346   -52.3810
  707.5000   128.7821     5.3960     5.4339   -52.0833
  708.0000   134.2276     5.3233     5.5115   -51.7857
  708.5000   137.8006     5.3972     5.5890   -51.4881
  709.0000   139.5210     5.4721     5.6675   -51.1905
  709.5000   136.1321     5.4721     5.7384   -50.8929
  710.0000   128.2634     5.4823     5.7482   -50.5953
  710.5000   123.0716     5.5602     5.8970   -50.2976
  711.0000   120.3593     5.6392     6.0608   -50.0000
  711.5000   122.9980     5.7824     6.1612   -45.5348
  712.0000   123.3533     5.8811     6.2478   -34.5238
  712.5000   121.4071     5.9647     6.4013   -34.2262
  713.0000   120.1957     6.1334     6.4246   -33.9286
  713.5000   119.7605     6.2811     6.5148   -33.6310
  714.0000   119.7605     6.3966     6.5773   -33.3333
  714.5000   121.3692     6.4875     6.6676   -33.0357
  715.0000   124.1717     6.5464     6.6665   -32.7381
  715.5000   124.5509     6.5464     6.6301   -32.4405
  716.0000   123.4573     6.5464     6.5364   -32.1429
  716.5000   121.0340     6.4567     6.3183   -31.8452
  717.0000   118.6106     6.0886     5.9016   -31.5476
  717.5000   115.2994     5.4042     5.3567   -31.1913
  718.0000   112.8703     4.8010     4.2938   -30.8976
  718.5000   112.6108     4.1187     3.5051   -30.6039
  719.0000   116.0279     3.5302     2.7095   -30.3102
  719.5000   120.4510     3.0548     2.2454   -44.9405
  720.0000   127.5449     2.3926     1.9019   -44.6037
  720.5000   132.9341     1.9190     1.7752   -44.3100
  721.0000   143.1138     1.6718     1.6569   -44.0163
  721.5000   155.0898     1.5821     1.6116   -43.7226
  722.0000   156.4710     1.6041     1.6114   -43.4289
  722.5000   154.4910     1.6718     1.7024   -43.1352
  723.0000   151.4970     1.8927     1.9004   -42.8415
  723.5000   146.1078     2.2027     2.3360   -42.5478
  724.0000   140.7186     2.5283     2.8321   -42.2541
  724.5000   126.3473     2.8231     3.4813   -41.9604
  725.0000   113.1737     3.2405     4.3987   -41.6667
  725.5000   109.5808     3.9850     5.7131   -41.3691
  726.0000   108.3832     5.2504     7.3187   -55.9602
  726.5000   108.3254     6.7294     8.0580   -55.6548
  727.0000   106.5868     8.2755     8.8720   -55.3571
  727.5000    99.4012     9.6309     9.3730   -55.0595
  728.0000    96.4072     9.7646     9.6334   -54.7619
  728.5000   101.1976     9.4990     9.2424   -54.4643
  729.0000   107.2335     8.2583     8.1512   -54.1667
  729.5000   111.3773     7.0013     6.8962   -53.8691
  730.0000   111.4172     6.3511     5.9152   -53.5714
