~VERSION INFORMATION
 VERS.                2.0:   CWLS LOG ASCII STANDARD - VERSION 2.0
 WRAP.                 NO:   ONE LINE PER DEPTH STEP
~WELL INFORMATION
#MNEM.UNIT      DATA TYPE    INFORMATION
#----------   ------------   ------------------------------
 STRT.F          600.0000:   START DEPTH
 STOP.F         3201.0000:   STOP DEPTH
 STEP.F            0.5000:   STEP LENGTH
 NULL.          -999.2500:   NO VALUE
 COMP.    FENIX & SCISSON:   COMPANY
 WELL. FENIX & SCISSON 38 "AX" #3-34:   WELL
 FLD .              NPR 3:   FIELD
 LOC .      S34 T39N R78W:   LOCATION
 CNTY.            NATRONA:   COUNTY
 STAT.            WYOMING:   STATE
 CTRY. UNITED STATES OF AMERICA:   COUNTRY
 SRVC.              WELEX:   SERVICE COMPANY
 DATE.        16-SEP-1980:   LOGDATE
 API .     49025108560000:   API NUMBER
~CURVE INFORMATION
#MNEM.UNIT       API CODE    CURVE DESCRIPTION
#----------   ------------   ------------------------------
 DEPT.F                  :   
 CORR.G/C3   45 356 01 00:   DENSITY CORRECTION
 GRD .GAPI   45 310 01 00:   GAMMA RAY FROM DENSITY LOG
 RHOB.G/C3   45 350 01 00:   BULK DENSITY
 TEND.LBS    45 635 01 00:   TENSION FORM DENSITY LOG
 CALD.IN     45 280 60 00:   CALIPER FROM DENSITY LOG
 SPR .MV     07 010 01 00:   SPONTANEOUS POTENTIAL FROM RES.
 ILD .OHMM   07 120 46 00:   DEEP INDUCTION RESISTIVITY
 ILM .OHMM   07 120 44 00:   INDUCTION LOG MEDIUM RESISTIVITY
 GURD.OHMM   07 220 05 00:   GUARD LOG RESISTIVITY
~PARAMETER INFORMATION
#MNEM.UNIT          VALUE    DESCRIPTION
#----------   ------------   ------------------------------
 EKB .F         5205.0000:   Kelly bushing
 EGL .F         5195.0000:   Ground level
 TD  .F         3202.0000:   Total depth
 CLNT.            A2DTECH:   Client Code
 SL  . 582' FSL & 1600' FWL:   Surface Location
 PD  .                 GL:   Permanent Datum
 EPD .F              5195:   Elevation Permanent Datum
 LMF .                 KB:   Log Measured From
 DMF .                 KB:   Drilling Measured From
 DAPD.F                10:   Feet Above Permanent Datum
 DATE.        16-SEP-1980:   Date Logged [DD-MMM-YYYY]
 DD  .F              3200:   Depth driller
 DL  .F              3203:   Depth logger
 BLI .F              3201:   Bottom log interval
 TLI .F               600:   Top log interval
 CS1 .IN            8.625:   Casing size
 CBD1.      8.625" @ 580':   Casing driller 1
 CBL1.F               600:   Casing logger 1
 BS1 .IN            7.875:   Bit size
 BSD1.F              3200:   Depth drilled with bit1
 DFT .          DISPERSED:   Type fluid in hole
 DFD .                8.8:   Density
 DFV .                 40:   Viscosity
 DFPH.                 11:   pH
 DFL .                  8:   Fluid loss
 MSS .           FLOWLINE:   Source of sample
 RMS .OHMM           1.33:   Rm
 MST .F                65:   Rm Meas. temp.
 RMF .OHMM           1.15:   Rmf
 MFST.F                65:   Rmf Meas. temp.
 MFSS.               MEAS:   Source Rmf.
 RMC .OHMM           1.50:   Rmc
 MCST.F                65:   Rmc Meas. temp.
 MCSS.               MEAS:   Source Rmc.
 RMB .OHMM            .75:   Rm. at BHT
 BHT .F               115:   BHT.
 TCS .HRS               8:   Time Circ. stopped
 MRT .F               115:   Maximum recorded temp.
 LUN .               1892:   Logging unit number
 LUL .             CASPER:   Logging unit location
 ENGI.    PERIMMER / REIN:   Recorded By
 WITN.              FIVAS:   Witnessed by
 ORIG.         2.5" PRINT:   Origin of data
 UWI .     49025108560000:   Unique Well ID
 DICO. A2D TECHNOLOGIES, INC.:   Digitizing Company
~OTHER INFORMATION
~A   DEPT       CORR       GRD        RHOB      TEND       CALD       SPR          ILD        ILM       GURD 
# ...
 2826.5000     0.0732    87.4413     2.5214   431.4758     8.7028   -30.4759     8.8807    10.1245    10.6462
 2827.0000     0.0751    86.8284     2.5183   432.3019     8.6518   -30.7074     8.4983     9.8415     9.7877
 2827.5000     0.0720    87.5538     2.5197   433.0209     8.7782   -30.8133     8.1950     9.5660    10.7766
 2828.0000     0.0689    94.0719     2.5212   433.7396     8.9186   -30.8342     7.7211     9.3967    10.9179
 2828.5000     0.0688    92.4826     2.5151   434.4880     8.8572   -30.8512     7.4147     8.9928     9.8484
 2829.0000     0.0658    89.4835     2.4971   435.2409     8.7960   -30.8682     7.2070     8.5489     9.0687
 2829.5000     0.0567    87.9999     2.4739   435.9940     8.7648   -30.8852     6.9087     8.0778     8.9680
 2830.0000     0.0505    87.5633     2.4558   436.7469     8.8313   -30.2509     6.4300     7.6374    10.2205
 2830.5000     0.0445    86.1864     2.4425   437.4998     8.9120   -29.5413     5.9904     7.1218     9.5917
 2831.0000     0.0414    79.8546     2.4334   438.2528     8.8698   -29.1290     5.7573     6.6409     6.6819
 2831.5000     0.0414    80.2942     2.4262   439.1314     8.7909   -29.1506     5.7529     6.2611     6.7695
 2832.0000     0.0413    83.6458     2.4232   439.8500     8.7279   -29.1715     5.7485     5.8994     6.8582
 2832.5000     0.0413    86.9852     2.4246   440.5121     8.8464   -29.4897     5.7435     5.7701     6.4822
 2833.0000     0.0442    84.2071     2.4261   441.4076     8.9163   -29.8079     5.7394     5.7661     6.5451
 2833.5000     0.0441    82.8739     2.4321   442.0180     8.8139   -29.8253     5.7353     5.7613     7.0457
 2834.0000     0.0441    85.0940     2.4441   442.7710     8.7527   -29.8434     5.7311     5.8379     7.7453
 2834.5000     0.0380    88.2216     2.4421   443.5242     8.7560   -29.8614     5.9020     5.9157     8.7623
 2835.0000     0.0289    88.6465     2.4395   453.8245     8.7879   -29.8795     6.0735     5.9941     9.6476
 2835.5000     0.0258    89.0721     2.4470   475.1505     8.8199   -29.8976     6.2501     6.1659     9.5066
 2836.0000     0.0298    87.6945     2.4564   475.9037     8.8375   -30.2197     6.4811     6.4731     8.9859
 2836.5000     0.0348    89.0204     2.4596   476.7996     8.7158   -30.2367     6.7407     7.0319     8.4786
 2837.0000     0.0325    87.8199     2.4423   477.5187     8.6247   -30.2537     6.9256     7.4049     8.2257
 2837.5000     0.0272    86.5242     2.4348   478.2377     8.6833   -30.2711     7.0169     7.4552     7.9789
 2838.0000     0.0255    87.4050     2.4362   478.9564     8.9215   -30.2892     7.0115     7.3469     7.9027
 2838.5000     0.0255    90.7072     2.4377   479.6754     8.9166   -30.3951     7.0062     7.2411     8.0046
 2839.0000     0.0254    92.9340     2.4439   480.4216     8.7939   -30.6265     7.0008     7.1368     8.2228
 2839.5000     0.0284    92.9621     2.4502   481.1747     8.7379   -30.6446     6.8993     6.9226     8.5649
 2840.0000     0.0283    91.9820     2.4568   481.9277     8.7485   -30.3643     6.7493     6.7429     8.7984
 2840.5000     0.0314    91.4519     2.4549   482.6806     8.7951   -30.0801     6.5167     6.6456     8.7605
 2841.0000     0.0342    90.5766     2.4473   483.4338     8.7935   -29.7959     6.4225     6.6824     8.2800
 2841.5000     0.0275    90.0991     2.4465   484.1868     8.7922   -29.5117     6.3296     6.7289     7.9216
 2842.0000     0.0211    90.0721     2.4480   485.0668     8.8508   -29.5301     6.2380     6.8174     7.6313
 2842.5000     0.0190    90.0397     2.4524   455.6650     8.9094   -29.2445     6.3205     6.9084     7.5182
 2843.0000     0.0204    93.1674     2.4629   470.1572     8.8159   -29.2651     6.5175     6.9035     7.5118
 2843.5000     0.0219    97.1959     2.4734   487.2235     8.7570   -29.4464     6.6710     6.7980     7.5054
 2844.0000     0.0248    96.7199     2.4812   487.9518     8.7557   -29.6052     6.5263     6.4893     7.6038
 2844.5000     0.0338    93.4039     2.4896   488.7049     8.7845   -29.9235     6.3001     6.2527     7.8111
 2845.0000     0.0458    89.3845     2.4987   489.4579     8.8148   -30.2417     6.1236     6.1624     7.9402
 2845.5000     0.0487    88.9820     2.5055   490.2107     8.9311   -30.2590     6.0351     6.0735     8.2135
 2846.0000     0.0487    89.4105     2.5078   485.7106     8.8400   -30.3274     5.9478     5.9851     8.4656
 2846.5000     0.0486    89.8437     2.5093   461.5360     8.7489   -30.5964     6.1105     5.9812     8.2252
 2847.0000     0.0486    91.5989     2.5138   462.4945     8.7177   -30.6145     6.1276     6.0607     7.7747
 2847.5000     0.0496    95.6274     2.5197   463.2131     8.7882   -30.6325     6.1868     6.1497     7.4515
 2848.0000     0.0528    95.6637     2.5272   463.8555     8.8349   -30.3494     6.1382     6.4127     7.2414
 2848.5000     0.0591    95.1259     2.5333   464.6508     8.7539   -30.3692     5.9244     6.2792     7.2353
 2849.0000     0.0694    94.1531     2.5437   465.3614     8.7123   -30.3863     5.8387     6.0581     7.4339
 2849.5000     0.0701    92.4289     2.5391   466.1145     8.7441   -30.4036     5.7542     5.8749     7.1038
 2850.0000     0.0512    84.0861     2.5416   466.8675     8.8892   -29.8179     5.6710     5.7894     6.5026
 2850.5000     0.0451    77.9460     2.5481   470.2409     8.8279   -29.8374     5.5888     5.7857     6.6321
 2851.0000     0.0451    76.2673     2.5434   492.0404     8.7068   -29.7926     5.6629     5.7819     6.8129
 2851.5000     0.0484    73.7887     2.5415   499.2470     8.6457   -29.5723     5.7378     5.7781     6.9026
 2852.0000     0.0516    76.4659     2.5450   500.0000     8.6814   -29.2920     5.8126     5.8549     6.8964
 2852.5000     0.0569    78.2422     2.5494   500.7530     8.7697   -29.3090     5.9705     5.9556     6.8902
 2853.0000     0.0557    77.7658     2.5494   501.5059     8.7915   -29.0248     6.1338     6.0953     6.9570
 2853.5000     0.0493    78.2571     2.5462   502.2591     8.7762   -28.7406     6.2151     6.2208     8.0701
 2854.0000     0.0447    81.1355     2.5398   503.0385     8.7758   -28.7590     6.3848     6.3436    10.1337
 2854.5000     0.0386    85.8226     2.5320   503.7571     8.9368   -28.7771     6.3800     6.4283     9.9826
 2855.0000     0.0385    93.8739     2.5261   474.3557     8.9954   -28.7952     6.3751     6.6962     9.7012
 2855.5000     0.0415    98.3465     2.5229   475.1506     8.9642   -29.1145     6.3703     6.6918     9.9657
 2856.0000     0.0414   101.0236     2.5150   495.5884     8.9928   -29.1354     6.2364     6.7807    10.3803
 2856.5000     0.0380   104.1512     2.5040   506.7772     9.0215   -29.1524     6.0169     6.5906    10.6633
 2857.0000     0.0228   105.9275     2.4980   507.5301     8.9526   -29.4706     5.7679     6.4603     9.5451
 2857.5000     0.0172   105.4128     2.4874   508.2832     8.8690   -29.4880     5.6063     6.2688     6.3801
 2858.0000     0.0141   104.9755     2.4708   498.6881     8.9407   -29.5060     5.3743     5.7256     5.7761
 2858.5000     0.0154   105.4004     2.4779   479.6687     9.0460   -29.8253     4.8547     5.2656     5.7699
 2859.0000     0.0186   105.3694     2.5011   480.4661     8.9247   -29.9690     4.5171     4.7103     5.7651
 2859.5000     0.0199   104.6441     2.5122   481.1848     8.8934   -30.0811     4.2560     4.5780     5.3742
 2860.0000     0.0259   103.0588     2.5221   482.0237     8.9221   -29.8795     4.0919     4.5125     5.8357
 2860.5000     0.0319    94.0243     2.5391   482.6807     9.0134   -29.8994     4.0579     4.5254     6.5150
 2861.0000     0.0378    85.4402     2.5353   483.4336     9.0693   -29.9164     4.1689     4.5696     6.1799
 2861.5000     0.0499    83.6126     2.5247   484.1867     8.9017   -29.9337     4.2829     4.5980     5.5254
 2862.0000     0.0588    84.2163     2.5232   484.9397     8.9216   -29.9504     4.4001     4.6903     5.4250
 2862.5000     0.0448    87.9504     2.5246   485.6927     9.0801   -29.6662     4.5940     4.8189     5.4950
