~VERSION INFORMATION
 VERS.                2.0:   CWLS LOG ASCII STANDARD - VERSION 2.0
 WRAP.                 NO:   ONE LINE PER DEPTH STEP
~WELL INFORMATION
#MNEM.UNIT      DATA TYPE    INFORMATION
#----------   ------------   ------------------------------
 STRT.F           90.0000:   START DEPTH
 STOP.F         3342.0000:   STOP DEPTH
 STEP.F            0.5000:   STEP LENGTH
 NULL.          -999.2500:   NO VALUE
 COMP. LAWRENCE ALLISON AND ASSOCIATES:   COMPANY
 WELL. LAWERNCE "X" #83-3:   WELL
 FLD .             NPR #3:   FIELD
 LOC .       S3 T38N R78W:   LOCATION
 CNTY.            NATRONA:   COUNTY
 STAT.            WYOMING:   STATE
 CTRY. UNITED STATES OF AMERICA:   COUNTRY
 SRVC.      DRESSER ATLAS:   SERVICE COMPANY
 DATE.        23-APR-1985:   LOGDATE
 API .     49025110210000:   API NUMBER
~CURVE INFORMATION
#MNEM.UNIT       API CODE    CURVE DESCRIPTION
#----------   ------------   ------------------------------
 DEPT.F                  :   
 TENR.LBS    07 635 01 00:   TENSION FROM RESISTIVITY
 CALR.IN     07 280 01 00:   CALIPER FROM RESISTIVITY
 SPR .MV     07 010 01 00:   SPONTANEOUS POTENTIAL
 GRR .GAPI   07 310 01 00:   GAMMA RAY FROM RESISTIVITY
 RFOC.OHMM   07 220 04 00:   RESISTIVITY FOCUSED LOG RES.
 RILD.OHMM   07 120 46 00:   DEEP INDUCTION RESISTIVITY
 RILM.OHMM   07 120 44 00:   INDUCTION LOG MEDIUM RESISTIVITY
 NPHI.DEC    42 890 03 00:   NEUTRON POROSITY SANDSTONE
 RHOB.G/C3   45 350 01 00:   BULK DENSITY
 TEND.LBS    45 635 01 00:   TENSION FROM DENSITY LOG
 CORR.G/C3   45 356 01 00:   DENSITY CORRECTION
~PARAMETER INFORMATION
#MNEM.UNIT          VALUE    DESCRIPTION
#----------   ------------   ------------------------------
 EKB .F         5125.0000:   Kelly bushing
 EGL .F         5112.0000:   Ground level
 EDF .F            0.0000:   Drilling floor
 TD  .F         3330.0000:   Total depth
 DATE.        23-APR-1985:   Date logged
 CLNT.            A2DTECH:   Client Code
 SL  . 1745' FNL & 612' FEL:   Surface Location
 PD  .                 GL:   Permanent Datum
 DD  .F              3330:   Depth driller
 DL  .F              3328:   Depth logger
 BLI .F              3326:   Bottom log interval
 CS1 .IN            8.625:   Casing size
 CBD1.      8.625" @ 526':   Casing driller 1
 CBL1.F               528:   Casing logger 1
 BS1 .IN            7.875:   Bit size
 DFT .            KCL-GEL:   Type fluid in hole
 DFD .                9.1:   Density
 DFV .                 43:   Viscosity
 DFPH.                  8:   pH
 DFL .                  8:   Fluid loss
 MSS .           FLOWLINE:   Source of sample
 RMS .OHMM          0.445:   Rm
 MST .F                72:   Rm Meas. temp.
 RMF .OHMM           0.36:   Rmf
 MFST.F                70:   Rmf Meas. temp.
 RMC .OHMM           0.55:   Rmc
 MCST.F                72:   Rmc Meas. temp.
 MFSS.               MEAS:   Source Rmf.
 RMB .OHMM          0.286:   Rm. at BHT
 BHT .F               116:   BHT.
 TCS .HRS               3:   Time Circ. stopped
 MRT .F               116:   Maximum recorded temp.
 LUN .               6274:   Logging unit number
 LUL .               GLTE:   Logging unit location
 ENGI.             RAUTIO:   Recorded By
 WITN.             STRONG:   Witnessed by
 ORIG.           5" PRINT:   Origin of data
 UWI .     49025110210000:   Unique Well ID
 DICO. A2D TECHNOLOGIES, INC.:   Digitizing Company
 DAPD.                 13:   Feet Above Permanent Datum
 BSD1.               3330:   Depth drilled with bit1
 MCSS.               CALC:   Source Rmc.
 EPD .               5112:   Elevation Permanent Datum
 LMF .                 KB:   Log Measured From
 DMF .                 KB:   Drilling Measured From
~OTHER INFORMATION
~A   DEPT     TENR       CALR        SPR         GRR      RFOC       RILD       RILM       NPHI       RHOB       TEND       CORR   
# ...
 2926.5000   -69.5570     9.5140   -66.7540   128.3770     5.0620     3.7600     4.0110     0.2690     2.5510   -44.1250     0.0080
 2927.0000   -71.1560     9.5130   -66.9810   132.8240     4.7770     3.4300     3.6970     0.2760     2.5460   -44.8740     0.0100
 2927.5000   -72.7540     9.5130   -66.6180   139.5670     4.4360     3.1090     3.3830     0.2840     2.5370   -45.6230     0.0120
 2928.0000   -74.3520     9.5120   -66.2500   154.8120     3.9580     2.8290     3.0690     0.2910     2.5160   -45.1140     0.0180
 2928.5000   -68.7940     9.5120   -65.8840   172.3190     3.4990     2.7100     2.7770     0.2950     2.4960   -44.1670     0.0260
 2929.0000   -55.5830     9.5120   -65.5150   189.6600     3.0300     2.7020     2.9060     0.2980     2.4760   -43.2200     0.0360
 2929.5000   -55.5830     9.5110   -65.1550   200.4940     2.5100     2.7020     3.1760     0.3000     2.4690   -42.2720     0.0480
 2930.0000   -55.5830     9.5110   -64.8620   194.5940     2.8570     2.7520     3.4460     0.2760     2.4970   -41.3250     0.0560
 2930.5000   -53.5010     9.5100   -64.7040   165.8510     3.5560     2.8760     3.7170     0.2360     2.5320   -40.3780     0.0270
 2931.0000   -50.5400     9.5100   -64.9950   139.6210     4.2560     3.3100     3.9870     0.2290     2.5670   -39.4310     0.0210
 2931.5000   -47.5780     9.5090   -65.2770   125.9300     5.2820     3.7430     4.2760     0.2220     2.5830   -38.4840     0.0280
 2932.0000   -45.6130     9.5090   -65.5620   120.8090     5.1790     4.1770     4.6470     0.2170     2.5890   -37.5370     0.0300
 2932.5000   -45.2700     9.5090   -65.8470   117.9660     5.0910     4.6110     4.9610     0.2150     2.5900   -36.5890     0.0260
 2933.0000   -44.9050     9.5080   -66.1310   117.2430     5.1760     5.0440     5.1160     0.2170     2.5890   -32.0720     0.0260
 2933.5000   -44.5400     9.5050   -66.4180   116.9760     5.2890     5.2730     5.2700     0.2190     2.5890   -15.3390     0.0330
 2934.0000   -44.1750     9.5020   -66.8340   115.0830     5.4010     5.3420     5.4250     0.2210     2.5820   -12.7800     0.0430
 2934.5000   -43.8110     9.4980   -67.7310   111.9600     5.5140     5.4110     5.5810     0.2190     2.5730   -28.2260     0.0370
 2935.0000   -43.4460     9.4940   -66.9000   111.5590     5.6270     5.4810     5.6380     0.2210     2.5630   -43.6710     0.0220
 2935.5000   -43.0810     9.4900   -66.0220   112.8210     5.7390     5.5500     5.6950     0.2210     2.5580   -42.7290     0.0180
 2936.0000   -42.7160     9.4860   -66.0440   114.5520     5.8520     5.6200     5.7530     0.2180     2.5650   -39.1430     0.0170
 2936.5000   -42.3510     9.4820   -66.5330   112.5190     6.0060     5.6600     5.8430     0.2200     2.5740   -35.5580     0.0200
 2937.0000   -41.9860     9.4780   -66.9970   109.5880     5.9940     5.7040     5.8380     0.2220     2.5780   -31.9720     0.0230
 2937.5000   -41.6220     9.4750   -66.3720   108.7300     5.9510     5.7370     5.8270     0.2210     2.5800   -28.3860     0.0230
 2938.0000   -41.2570     9.4710   -65.7560   108.7130     5.9740     5.6740     5.8170     0.2170     2.5800   -25.8960     0.0230
 2938.5000   -40.8920     9.4670   -65.1460   108.7240     6.0230     5.6520     5.8060     0.2120     2.5780   -25.8960     0.0230
 2939.0000   -40.5270     9.4630   -64.8540   110.3350     6.0730     5.6320     5.7950     0.2140     2.5750   -25.8960     0.0240
 2939.5000   -40.1620     9.4590   -64.8530   113.4060     6.1170     5.4320     5.7040     0.2190     2.5720   -25.8960     0.0280
 2940.0000   -39.7970     9.4550   -64.8510   115.8350     5.9290     5.2470     5.5290     0.2230     2.5690   -25.8960     0.0310
 2940.5000   -39.4320     9.4510   -64.8510   116.9840     5.7170     5.0450     5.3530     0.2220     2.5650   -25.8960     0.0340
 2941.0000   -39.0680     9.4470   -64.8510   116.6710     5.5490     5.0450     5.2330     0.2200     2.5580   -25.8960     0.0320
 2941.5000   -38.7030     9.4440   -64.8520   116.2050     5.7130     5.0780     5.4510     0.2190     2.5520   -25.8960     0.0290
 2942.0000   -38.3380     9.4400   -64.8540   114.0360     5.8770     5.3360     5.6160     0.2190     2.5560   -25.8960     0.0290
 2942.5000   -37.9730     9.4360   -64.8430   111.0530     6.0400     5.5940     5.7900     0.2160     2.5680   -25.8960     0.0240
 2943.0000   -37.6080     9.4320   -64.4870   109.4190     6.2040     5.8520     5.9280     0.2130     2.5740   -25.8960     0.0180
 2943.5000   -37.2430     9.4290   -64.1100   110.2740     6.4050     6.1170     6.1740     0.2090     2.5670   -25.8960     0.0120
 2944.0000   -36.8780     9.4070   -63.7250   110.0120     6.2640     5.8820     6.0970     0.2070     2.5600   -25.8960     0.0110
 2944.5000   -36.5140     9.4080   -63.8870   110.8640     6.0180     5.6660     5.8940     0.2080     2.5530   -25.8960     0.0140
 2945.0000   -36.1490     9.4130   -64.1590   113.0900     5.7720     5.5680     5.6900     0.2070     2.5480   -25.8960     0.0160
 2945.5000   -35.7840     9.4300   -64.4350   114.6450     5.5270     5.3630     5.4860     0.2090     2.5450   -25.8960     0.0190
 2946.0000   -35.7560     9.4090   -64.7120   114.0840     5.2810     5.0910     5.2830     0.2130     2.5400   -25.8960     0.0160
 2946.5000   -36.0270     9.4310   -64.9880   111.5130     5.0910     4.7740     5.0790     0.2160     2.5350   -25.8960     0.0130
 2947.0000   -36.2980     9.4290   -65.2410   111.0920     5.1360     4.2940     4.6180     0.2180     2.5320   -25.8960     0.0100
 2947.5000   -36.5680     9.4290   -65.2020   115.9050     5.1850     3.7180     4.1040     0.2200     2.5290   -26.2000     0.0110
 2948.0000   -36.8390     9.4290   -65.1550   125.1680     5.0370     3.1410     3.5910     0.2190     2.5190   -26.8650     0.0140
 2948.5000   -37.1100     9.4290   -65.1090   147.2190     4.4230     2.6040     3.0770     0.2420     2.4980   -27.5300     0.0150
 2949.0000   -37.3810     9.4270   -65.0650   168.5740     3.4770     2.4650     2.5800     0.2860     2.4570   -28.1950     0.0150
 2949.5000   -37.6520     9.4490   -65.0440   189.6830     2.6390     2.4900     2.7220     0.3100     2.4060   -28.8590     0.0160
 2950.0000   -37.9230     9.4460   -64.3770   205.9400     1.9950     2.5190     2.9300     0.2980     2.3390   -29.5240     0.0360
 2950.5000   -38.1940     9.4450   -63.7460   193.7090     2.4480     2.5620     3.1580     0.2600     2.3430   -30.1890     0.0510
 2951.0000   -38.4650     9.4430   -64.2070   165.3420     3.3490     2.7040     3.9170     0.2340     2.3860   -30.8540     0.0380
 2951.5000   -38.7360     9.4410   -64.7100   133.6990     4.2490     2.9520     4.7560     0.2180     2.4420   -31.5190     0.0190
 2952.0000   -39.0070     9.4380   -65.2100   106.3440     5.7570     3.4320     5.3300     0.2010     2.4970   -32.1840    -0.0020
 2952.5000   -39.2780     9.4360   -65.7080    94.4160     6.3930     4.1310     4.9530     0.1930     2.5360   -32.8490    -0.0040
 2953.0000   -39.5480     9.4340   -66.2060    93.4320     6.4640     4.8310     5.3180     0.1880     2.5320   -33.5140    -0.0020
 2953.5000   -39.8190     9.4320   -66.7090    94.4080     6.5240     5.5810     6.3460     0.1880     2.5280   -34.1790     0.0010
 2954.0000   -40.0900     9.4300   -67.2200    96.4620     6.5840     6.1170     6.3290     0.1890     2.5250   -34.8430     0.0040
 2954.5000   -40.3610     9.4290   -66.8560    98.5330     6.5240     6.0060     6.2970     0.1950     2.5230   -35.5080     0.0160
 2955.0000   -40.6320     9.4090   -66.3580   100.6110     6.3460     5.8800     6.1630     0.2020     2.5180   -36.1730     0.0250
 2955.5000   -40.9030     9.4170   -65.8580   102.7150     6.1270     5.6700     5.9300     0.2080     2.5100   -36.8380     0.0180
 2956.0000   -41.1740     9.4230   -65.3570   102.7970     5.8940     5.4600     5.6840     0.2150     2.5080   -37.5030     0.0080
 2956.5000   -41.4450     9.4280   -64.8610   102.4080     5.5360     5.2820     5.4620     0.2170     2.5120   -38.1680     0.0040
