~VERSION INFORMATION
 VERS.                2.0:   CWLS LOG ASCII STANDARD - VERSION 2.0
 WRAP.                 NO:   ONE LINE PER DEPTH STEP
~WELL INFORMATION
#MNEM.UNIT      DATA TYPE    INFORMATION
#----------   ------------   ------------------------------
 STRT.F           48.0000:   START DEPTH
 STOP.F         3235.5000:   STOP DEPTH
 STEP.F            0.5000:   STEP LENGTH
 NULL.          -999.2500:   NO VALUE
 COMP.    TESORO PEROLEUM:   COMPANY
 WELL. TESORO P46 T 28 N.P.R. #3-28:   WELL
 FLD .        TEAPOT DOME:   FIELD
 LOC .      S28 T39N R78W:   LOCATION
 CNTY.            NATRONA:   COUNTY
 STAT.            WYOMING:   STATE
 CTRY. UNITED STATES OF AMERICA:   COUNTRY
 SRVC.      DRESSER ATLAS:   SERVICE COMPANY
 DATE.        17-SEP-1975:   LOGDATE
 API .     49025102530000:   API NUMBER
~CURVE INFORMATION
#MNEM.UNIT       API CODE    CURVE DESCRIPTION
#----------   ------------   ------------------------------
 DEPT.F                  :   
 CALD.IN     45 280 60 00:   CALIPER FROM DENSITY LOG
 RHOB.G/C3   45 350 01 00:   BULK DENSITY
 CORR.G/C3   45 356 01 00:   DENSITY CORRECTION
 TEND.LBS    45 635 01 00:   TENSION FORM DENSITY LOG
 NPHI.DEC    42 890 03 00:   NEUTRON POROSITY SANDSTONE
 SPR .MV     07 010 01 00:   SPONTANEOUS POTENTIAL
 ILD .OHMM   07 120 46 00:   DEEP INDUCTION RESISTIVITY
 ILM .OHMM   07 120 44 00:   INDUCTION LOG MEDIUM RESISTIVITY
 SFL .OHMM   07 220 01 00:   SHALLOW FOCUSED LOG RESISTIVITY
 GRD .GAPI   45 310 01 00:   GAMMA RAY FROM DENSITY LOG
~PARAMETER INFORMATION
#MNEM.UNIT          VALUE    DESCRIPTION
#----------   ------------   ------------------------------
 EKB .F         5088.0000:   Kelly bushing
 EGL .F         5075.0000:   Ground level
 TD  .F         3218.0000:   Total depth
 CLNT.            A2DTECH:   Client Code
 SL  . 2310' FWL & 1650' FSL:   Surface Location
 PD  .                 GL:   Permanent Datum
 EPD .F              5075:   Elevation Permanent Datum
 LMF .                 KB:   Log Measured From
 DMF .                 KB:   Drilling Measured From
 DAPD.F                13:   Feet Above Permanent Datum
 DATE.        17-SEP-1975:   Date Logged [DD-MMM-YYYY]
 DD  .F              3218:   Depth driller
 DL  .F              3217:   Depth logger
 BLI .F              3215:   Bottom log interval
 TLI .F               395:   Top log interval
 CS1 .IN            8.625:   Casing size
 CBD1.      8.625" @ 393':   Casing driller 1
 CBL1.F               395:   Casing logger 1
 BS1 .IN            7.875:   Bit size
 BSD1.F              3218:   Depth drilled with bit1
 DFT .           CHEM GEL:   Type fluid in hole
 DFD .                9.5:   Density
 DFV .                 60:   Viscosity
 DFPH.                9.5:   pH
 DFL .                 11:   Fluid loss
 MSS .           FLOWLINE:   Source of sample
 RMS .OHMM           0.55:   Rm
 MST .F                60:   Rm Meas. temp.
 RMF .OHMM           0.48:   Rmf
 MFST.F                62:   Rmf Meas. temp.
 MFSS.               MEAS:   Source Rmf.
 RMC .OHMM            1.6:   Rmc
 MCST.F                62:   Rmc Meas. temp.
 MCSS.               MEAS:   Source Rmc.
 RMB .OHMM            0.3:   Rm. at BHT
 BHT .F               112:   BHT.
 TCS .HRS               5:   Time Circ. stopped
 MRT .F               112:   Maximum recorded temp.
 LUN .               6008:   Logging unit number
 LUL .              GLTTE:   Logging unit location
 ENGI.            MILHOAN:   Recorded By
 WITN.               WOLF:   Witnessed by
 ORIG.           5" PRINT:   Origin of data
 UWI .     49025102530000:   Unique Well ID
 DICO. A2DTECHNOLOGIES,INC.:   Digitizing Company
~OTHER INFORMATION
~A   DEPT     CALD       RHOB       CORR       TEND       NPHI         SPR         ILD        ILM        SFL      GRD   
# ...
 2627.5000     8.7565     2.6044     0.0173  1627.8904     0.2290   -26.1854     6.7823     6.6656     6.8547    81.9200
 2628.0000     8.7725     2.6075     0.0159  1639.2749     0.2234   -26.3431     7.1232     6.9441     7.1502    80.7440
 2628.5000     8.7885     2.6060     0.0140  1637.8799     0.2183   -26.6162     7.3268     7.2435     7.6693    81.2555
 2629.0000     8.8045     2.6023     0.0131  1621.7521     0.2150   -26.9109     7.7487     7.5559     7.8345    81.9910
 2629.5000     8.8056     2.6116     0.0133  1620.4161     0.2120   -27.2049     8.1948     8.1041     8.0623    80.3403
 2630.0000     8.7916     2.6167     0.0134  1619.1387     0.2128   -27.2020     8.6666     8.6920     8.7376    77.2453
 2630.5000     8.7776     2.6145     0.0151  1618.1270     0.2161   -27.1991     8.9144     9.0668     9.9418    73.1907
 2631.0000     8.7787     2.6063     0.0152  1616.9183     0.2194   -27.1962     8.9180     9.1982     9.9459    70.5754
 2631.5000     8.7799     2.6033     0.0154  1615.7003     0.2251   -27.1932     8.8599     9.0755     9.6765    70.1132
 2632.0000     8.7510     2.6030     0.0140  1614.5016     0.2376   -26.8927     8.6206     8.8306     9.2197    71.3419
 2632.5000     8.7520     2.6035     0.0141  1613.2931     0.2358   -26.8898     8.4463     8.4737     8.9077    72.0849
 2633.0000     8.7334     2.6072     0.0143  1612.0847     0.2358   -26.5892     8.3332     8.1850     8.6063    72.3482
 2633.5000     8.7238     2.6027     0.0159  1601.9398     0.2345   -26.4336     8.3374     8.2653     8.4898    72.8593
 2634.0000     8.7251     2.5983     0.0175  1594.4047     0.2285   -26.2857     8.3409     8.4868     8.6133    73.1154
 2634.5000     8.7261     2.5968     0.0162  1593.2261     0.2266   -26.2821     8.5200     8.7304     8.7899    73.6237
 2635.0000     8.7421     2.5968     0.0163  1592.1451     0.2234   -26.1304     8.7029     8.8570     8.9884    73.6471
 2635.5000     8.7432     2.5991     0.0148  1590.8676     0.2199   -25.9794     8.8283     9.1112     9.3759    73.9104
 2636.0000     8.7594     2.6007     0.0120  1589.7280     0.2256   -26.3161     8.7707     9.0513     9.5114    73.9338
 2636.5000     8.7604     2.5992     0.0122  1588.5198     0.2307   -26.5688     8.7127     8.9928     9.5154    73.7114
 2637.0000     8.7613     2.5918     0.0123  1587.3114     0.2321   -26.8628     8.4781     8.8123     9.3874    74.2204
 2637.5000     8.7624     2.5825     0.0140  1586.1028     0.2336   -27.1575     8.2493     8.6947     9.1341    75.2034
 2638.0000     8.7635     2.5715     0.0186  1584.6782     0.2372   -27.4529     8.1388     8.5192     8.5825    76.6661
 2638.5000     8.7645     2.5618     0.0233  1583.6855     0.2444   -27.4493     8.1470     8.4055     7.5215    78.2389
 2639.0000     8.7805     2.5468     0.0249  1582.3203     0.2416   -27.4464     8.5122     8.2933     6.7779    79.1124
 2639.5000     8.7816     2.5589     0.0251  1581.1410     0.2250   -27.4434     8.8580     8.2975     6.1935    79.6207
 2640.0000     8.7976     2.6011     0.0237  1580.0607     0.2262   -27.4405     8.8617     8.4185     9.4115    77.4852
 2640.5000     8.7987     2.6064     0.0146  1578.8522     0.2310   -27.2670     8.7421     8.5406    10.3800    75.1039
 2641.0000     8.8149     2.5966     0.0089  1577.5062     0.2346   -27.1363     8.5662     8.5446     9.8213    77.2921
 2641.5000     8.8309     2.5907     0.0075  1576.4351     0.2400   -26.8358     8.5095     8.6685     9.4231    76.3560
 2642.0000     8.8319     2.5884     0.0077  1575.2266     0.2429   -26.8329     8.6329     8.8555     9.1611    73.9806
 2642.5000     8.8328     2.5885     0.0078  1574.0179     0.2434   -26.5323     8.6966     9.0466     9.0447    73.2834
 2643.0000     8.8340     2.5916     0.0099  1572.8097     0.2437   -26.2318     8.8219     9.3063     9.0493    74.0274
 2643.5000     8.8350     2.5969     0.0126  1571.6013     0.2422   -26.2289     9.0113     9.4411     9.1801    72.6115
 2644.0000     8.8360     2.6044     0.0157  1570.2354     0.2349   -25.9284     9.3336     9.7122     9.5759    72.6357
 2644.5000     8.8371     2.6105     0.0174  1568.9584     0.2307   -25.9254     9.5341     9.7847     9.9888    73.1439
 2645.0000     8.8381     2.6075     0.0190  1567.9758     0.2312   -25.9225     9.6715     9.7894    10.2752    73.1673
 2645.5000     8.8391     2.6061     0.0191  1566.7675     0.2327   -25.9196     9.6763     9.7272    10.3513    72.7110
 2646.0000     8.8404     2.6054     0.0208  1565.5194     0.2369   -25.9167     9.5467     9.7319    10.2826    72.4945
 2646.5000     8.8414     2.6009     0.0209  1564.3506     0.2383   -25.9137     9.4179     9.6008    10.1445    72.7578
 2647.0000     8.8424     2.5979     0.0195  1563.1420     0.2389   -25.9101     9.1645     9.3418     9.7342    74.2205
 2647.5000     8.8435     2.5965     0.0212  1561.9829     0.2425   -26.2048     9.0408     9.0278     9.3395    75.6831
 2648.0000     8.8445     2.5980     0.0213  1575.8307     0.2385   -26.2019     8.7967     8.7234     9.0865    76.9059
 2648.5000     8.8455     2.6003     0.0215  1574.4358     0.2372   -26.1990     8.5600     8.4880     8.8404    78.6169
 2649.0000     8.8315     2.6034     0.0261  1573.2566     0.2372   -26.3449     8.4452     8.4921     8.6010    80.1354
 2649.5000     8.7276     2.6064     0.0308  1572.0779     0.2288   -26.4915     8.3322     8.4372     8.4274    80.5802
 2650.0000     8.6837     2.6072     0.0339  1555.7930     0.2248   -26.7862     8.3357     8.5002     8.3714    79.8840
 2650.5000     8.6847     2.6028     0.0324  1539.5085     0.2287   -26.7826     8.4021     8.5688     8.3757    78.9478
 2651.0000     8.7010     2.6055     0.0267  1523.2235     0.2325   -27.0774     8.4593     8.6984     8.5561    78.0117
 2651.5000     8.7020     2.6082     0.0208  1537.1500     0.2397   -27.3720     8.5819     9.0006     9.6359    77.7894
 2652.0000     8.7030     2.6234     0.0164  1551.0771     0.2355   -27.3690     8.7662     9.1310     9.5729    77.3177
 2652.5000     8.7016     2.6287     0.0211  1552.3615     0.2234   -27.3661     8.9544     9.3932     9.2490    76.5929
 2653.0000     8.6999     2.6280     0.0257  1563.5302     0.2198   -27.0655     9.2104     9.5293     8.9976    75.6778
 2653.5000     8.6982     2.6236     0.0274  1547.5399     0.2179   -27.0619     9.3431     9.5338     9.0022    74.7346
 2654.0000     8.6965     2.6177     0.0275  1561.4670     0.2197   -26.7614     9.4777     9.6050     9.5221    74.2760
 2654.5000     8.6948     2.6178     0.0246  1553.6757     0.2236   -26.4609     9.6142     9.8122    10.0720    74.2994
 2655.0000     8.6932     2.6193     0.0202  1540.5757     0.2202   -26.7272     9.8891    10.0939     9.8587    74.3181
 2655.5000     8.6915     2.6239     0.0173  1539.0933     0.2193   -26.4223     9.7342    10.5291     9.6676    74.8166
 2656.0000     8.6898     2.6302     0.0160  1537.6115     0.2201   -26.4165    10.3156    10.7593     9.8082    74.5955
 2656.5000     8.6881     2.6281     0.0131  1536.1289     0.2198   -26.4107    10.5851    10.8367    10.2311    72.7484
 2657.0000     8.6746     2.6152     0.0102  1534.6472     0.2188   -26.2560    10.7354    10.9949    10.8220    71.7497
 2657.5000     8.6764     2.6115     0.0089  1533.1647     0.2178   -26.2750    10.8878    10.7603    10.9783    72.0130
 2658.0000     8.6779     2.6108     0.0092  1546.8278     0.2167   -26.3932    11.1968    11.0696    10.6810    70.5925
 2658.5000     8.6943     2.6116     0.0095  1545.3062     0.2148   -26.3860    11.5146    11.3866    10.5371    72.7701
 2659.0000     8.6958     2.6147     0.0098  1543.8066     0.2133   -26.3802    11.9240    11.7126    10.6895    72.5320
 2659.5000     8.6973     2.6208     0.0100  1542.2960     0.2111   -26.6720    12.1775    12.0480    11.1513    71.5682
 2660.0000     8.6987     2.6269     0.0101  1540.7856     0.2087   -26.6662    12.3504    12.3930    12.2135    68.7531
 2660.5000     8.7001     2.6263     0.0103  1539.0070     0.2071   -26.9594    12.3529    12.5718    12.3039    65.8932
