~VERSION INFORMATION
 VERS.                2.0:   CWLS LOG ASCII STANDARD - VERSION 2.0
 WRAP.                 NO:   ONE LINE PER DEPTH STEP
~WELL INFORMATION
#MNEM.UNIT      DATA TYPE    INFORMATION
#----------   ------------   ------------------------------
 STRT.F          261.0000:   START DEPTH
 STOP.F         2875.0000:   STOP DEPTH
 STEP.F            0.5000:   STEP LENGTH
 NULL.          -999.2500:   NO VALUE
 COMP.   LAWRENCE ALLISON:   COMPANY
 WELL. LAWRENCE ALLISON "X" #85-20:   WELL
 FLD .          N.P.R. #3:   FIELD
 LOC .      S20 T39N R78W:   LOCATION
 CNTY.            NATRONA:   COUNTY
 STAT.            WYOMING:   STATE
 CTRY. UNITED STATES OF AMERICA:   COUNTRY
 SRVC.      DRESSER ATLAS:   SERVICE COMPANY
 DATE.        23-JUL-1986:   LOGDATE
 API .     49025111030000:   API NUMBER
~CURVE INFORMATION
#MNEM.UNIT       API CODE    CURVE DESCRIPTION
#----------   ------------   ------------------------------
 DEPT.F                  :   
 CORR.G/C3   45 356 01 00:   DENSITY CORRECTION
 RHOB.G/C3   45 350 01 00:   BULK DENSITY
 CNC .DEC    42 890 03 00:   NEUTRON POROSITY SANDSTONE
 GRR .GAPI   07 310 01 00:   GAMMA RAY FROM RESISTIVITY
 CALR.IN     07 280 01 00:   CALIPER FROM RESISTIVITY
 SPR .MV     07 010 01 00:   SPONTANEOUS POTENTIAL
 TENR.LBS    07 635 01 00:   TENSION FROM RESISTIVITY
 RILD.OHMM   07 120 46 00:   DEEP INDUCTION RESISTIVITY
 RILM.OHMM   07 120 44 00:   INDUCTION LOG MEDIUM RESISTIVITY
 RFOC.OHMM   07 220 04 00:   RESISTIVITY FOCUSED LOG RES.
~PARAMETER INFORMATION
#MNEM.UNIT          VALUE    DESCRIPTION
#----------   ------------   ------------------------------
 EKB .F         5007.0000:   Kelly bushing
 EGL .F         4995.0000:   Ground level
 EDF .F            0.0000:   Drilling floor
 EPD .F         4995.0000:   Permanent datum
 TD  .F         2874.0000:   Total depth
 CLNT.            A2DTECH:   Client Code
 SL  . 307' FEL & 2237' FSL:   Surface Location
 DATE.        23-JUL-1986:   Date Logged [DD-MMM-YYYY]
 DD  .F              2870:   Depth driller
 DL  .F              2874:   Depth logger
 BLI .F              2872:   Bottom log interval
 TLI .F              2205:   Top log interval
 CS1 .              8.625:   Casing size
 CBD1.      8.625" @ 261':   Casing driller 1
 CBL1.IN              261:   Casing logger 1
 BS1 .IN            7.875:   Bit size
 BSD1.F              2870:   Depth drilled with bit1
 DFT .            KCL-GEL:   Type fluid in hole
 DFD .                9.0:   Density
 DFV .                 37:   Viscosity
 MSS .           MUD TANK:   Source of sample
 RMS .OHMM          0.257:   Rm
 MST .F                89:   Rm Meas. temp.
 RMF .OHMM           0.19:   Rmf
 MFST.F                89:   Rmf Meas. temp.
 MFSS.               CALC:   Source Rmf.
 RMC .OHMM           0.32:   Rmc
 MCST.F                89:   Rmc Meas. temp.
 MCSS.               CALC:   Source Rmc.
 RMB .OHMM           0.20:   Rm. at BHT
 BHT .F               116:   BHT.
 TCS .HRS               4:   Time Circ. stopped
 MRT .F               116:   Maximum recorded temp.
 LUN .            HL 6264:   Logging unit number
 LUL .           GILLETTE:   Logging unit location
 ENGI.      P.M. FAHLSING:   Recorded By
 WITN.           JENNINGS:   Witnessed by
 ORIG.         2.5" PRINT:   Origin of data
 UWI .     49025111030000:   Unique Well ID
 DICO. A2D TECHNOLOGIES, INC.:   Digitizing Company
~OTHER INFORMATION
~A   DEPT     CORR       RHOB        CNC         GRR        CALR      SPR        TENR       RILD      RILM         RFOC 
# ...
 1936.0000  -999.2500  -999.2500  -999.2500   119.3592     9.9763   -93.0707   -73.1540     6.5704     6.0837     8.0886
 1936.5000  -999.2500  -999.2500  -999.2500   123.3840     9.9763   -92.7824   -73.0316     6.8434     6.1664     7.5539
 1937.0000  -999.2500  -999.2500  -999.2500   128.7164     9.9763   -92.4942   -72.9093     7.0313     6.4232     7.4496
 1937.5000  -999.2500  -999.2500  -999.2500   134.0488     9.9763   -92.2059   -72.7869     7.2243     6.7826     7.8648
 1938.0000  -999.2500  -999.2500  -999.2500   137.0073     9.9763   -92.2117   -72.6645     7.2228     7.0651     8.4169
 1938.5000  -999.2500  -999.2500  -999.2500   135.8115     9.9732   -91.9235   -72.5421     7.2214     7.2596     8.7657
 1939.0000  -999.2500  -999.2500  -999.2500   133.4287     9.9763   -91.9294   -72.4197     7.2199     7.2586     8.8836
 1939.5000  -999.2500  -999.2500  -999.2500   130.4525     9.9763   -91.6410   -72.2973     6.9289     7.1592     9.1265
 1940.0000  -999.2500  -999.2500  -999.2500   130.4436     9.9763   -91.6276   -72.1749     6.5595     6.8712     9.1240
 1940.5000  -999.2500  -999.2500  -999.2500   128.6544     9.9763   -91.3586   -72.0525     6.2952     6.4128     9.1215
 1941.0000  -999.2500  -999.2500  -999.2500   125.0846     9.9763   -91.3921   -71.9301     6.0414     5.6575     8.7539
 1941.5000  -999.2500  -999.2500  -999.2500   122.7019    10.0059   -91.6647   -71.8077     5.9584     4.9503     7.8477
 1942.0000  -999.2500  -999.2500  -999.2500   123.2865    10.0059   -91.9648   -71.6853     5.9571     5.1708     6.3089
 1942.5000  -999.2500  -999.2500  -999.2500   125.6515    10.0113   -92.3039   -71.5629     6.0379     5.6989     5.9726
 1943.0000  -999.2500  -999.2500  -999.2500   123.8622    10.0356   -92.6078   -71.4405     6.1196     6.0889     5.9710
 1943.5000  -999.2500  -999.2500  -999.2500   117.9187    10.0356   -92.8647   -71.3182     6.1182     6.2393     7.2239
 1944.0000  -999.2500  -999.2500  -999.2500   113.1620    10.0356   -93.1647   -71.1958     6.1170     6.2272     8.5047
 1944.5000  -999.2500  -999.2500  -999.2500   119.0879    10.0356   -93.1706   -71.0734     6.1157     6.0452     8.6192
 1945.0000  -999.2500  -999.2500  -999.2500   117.8921    10.0356   -93.1765   -70.9510     6.0316     5.6307     8.3851
 1945.5000  -999.2500  -999.2500  -999.2500   114.9158    10.0356   -93.1823   -70.8286     5.8680     5.0442     8.1575
 1946.0000  -999.2500  -999.2500  -999.2500   110.1592    10.0653   -93.1883   -70.7062     5.7089     4.6688     7.5151
 1946.5000  -999.2500  -999.2500  -999.2500   112.5242    10.0653   -93.1941   -70.5838     5.4788     4.5416     6.9233
 1947.0000  -999.2500  -999.2500  -999.2500   115.4827    10.0950   -93.2000   -70.4614     5.2580     4.4927     6.2918
 1947.5000  -999.2500  -999.2500  -999.2500   117.2543    10.1034   -93.2059   -70.3390     5.0651     4.5852     5.6406
 1948.0000  -999.2500  -999.2500  -999.2500   118.4324    10.1246   -93.2940   -70.2166     4.8662     4.6962     5.3399
 1948.5000  -999.2500  -999.2500  -999.2500   120.2039    10.1543   -93.9785   -70.0942     4.6474     4.6605     5.4860
 1949.0000  -999.2500  -999.2500  -999.2500   122.5689    10.1543   -94.7843   -69.9718     4.5214     4.4539     6.0333
 1949.5000  -999.2500  -999.2500  -999.2500   126.1209    10.1543   -95.3824   -69.8494     4.3392     4.3094     6.5455
 1950.0000  -999.2500  -999.2500  -999.2500   124.9251    10.1543   -95.5883   -69.7270     4.2215     4.3682     6.4551
 1950.5000  -999.2500  -999.2500  -999.2500   120.7619    10.1441   -95.4922   -69.6047     4.3970     4.4488     5.7819
 1951.0000  -999.2500  -999.2500  -999.2500   124.9073    10.1246   -95.3048   -69.4823     4.4653     4.4878     5.3275
 1951.5000  -999.2500  -999.2500  -999.2500   125.5767    10.1246   -95.6059   -69.3599     4.3952     4.3436     5.0471
 1952.0000  -999.2500  -999.2500  -999.2500   124.8896    10.1246   -95.9059   -69.2375     4.3943     4.2482     5.1263
 1952.5000  -999.2500  -999.2500  -999.2500   127.2546    10.1246   -96.3235   -69.1151     4.3934     4.3060     5.5751
 1953.0000  -999.2500  -999.2500  -999.2500   133.7740    10.1246   -96.8000   -68.9927     4.5141     4.3905     6.4735
 1953.5000  -999.2500  -999.2500  -999.2500   138.5129    10.0950   -97.1000   -68.8703     4.6380     4.6028     6.7117
 1954.0000  -999.2500  -999.2500  -999.2500   137.9105    10.0950   -97.1059   -68.7479     4.7653     4.7967     5.3650
 1954.5000  -999.2500  -999.2500  -999.2500   128.4061    10.0824   -96.8176   -68.6255     4.8298     4.9986     5.2492
 1955.0000  -999.2500  -999.2500  -999.2500   120.6821    10.0653   -96.6863   -68.5031     4.9624     5.1734     6.2624
 1955.5000  -999.2500  -999.2500  -999.2500   117.7059    10.0521   -96.2412   -68.3807     5.0987     5.2450     6.9034
 1956.0000  -999.2500  -999.2500  -999.2500   117.6577    10.0356   -96.1019   -68.2583     5.2387     5.3176     6.9974
 1956.5000  -999.2500  -999.2500  -999.2500   119.4686    10.0059   -95.8098   -68.1010     5.3825     5.4242     7.0929
 1957.0000  -999.2500  -999.2500  -999.2500   120.6467    10.0059   -95.6706   -67.8042     5.4553     5.4234     7.1713
 1957.5000  -999.2500  -999.2500  -999.2500   121.8247    10.0059   -95.5196   -67.5075     5.4542     5.4227     7.1888
 1958.0000  -999.2500  -999.2500  -999.2500   121.8159    10.0059   -95.3882   -67.2107     5.5280     5.3483     7.1672
 1958.5000  -999.2500  -999.2500  -999.2500   121.2135    10.0059   -95.1000   -66.9140     5.3007     5.1331     7.1653
 1959.0000  -999.2500  -999.2500  -999.2500   120.0177    10.0059   -94.8118   -66.6173     5.0914     5.0378     7.0434
 1959.5000  -999.2500  -999.2500  -999.2500   117.0415    10.0059   -94.5235   -66.3205     5.0942     5.2737     6.4266
 1960.0000  -999.2500  -999.2500  -999.2500   111.0979    10.0059   -94.2353   -66.0238     5.2302     5.4189     5.3394
 1960.5000  -999.2500  -999.2500  -999.2500   108.7102    10.0059   -94.2423   -65.7271     5.3009     5.4927     5.2319
 1961.0000  -999.2500  -999.2500  -999.2500   108.1128    10.0059   -93.9529   -65.4303     5.3727     5.5674     5.3894
 1961.5000  -999.2500  -999.2500  -999.2500   109.3056    10.0356   -94.2540   -65.1336     5.4454     5.6430     6.6446
 1962.0000  -999.2500  -999.2500  -999.2500   110.4886    10.0356   -94.5540   -64.8368     5.5276     5.7199     7.8676
 1962.5000  -999.2500  -999.2500  -999.2500   111.0781    10.0356   -94.8539   -64.5401     5.6033     5.7977     7.7587
 1963.0000  -999.2500  -999.2500  -999.2500   112.2611    10.0356   -95.1539   -64.2434     5.6694     5.7182     7.5803
 1963.5000  -999.2500  -999.2500  -999.2500   112.8507    10.0356   -95.7480   -63.9466     5.5582     5.2680     7.3073
 1964.0000  -999.2500  -999.2500  -999.2500   113.4009    10.0356   -96.0479   -63.6499     5.1286     4.8532     6.9166
 1964.5000  -999.2500  -999.2500  -999.2500   112.7986    10.0356   -96.3479   -63.3532     4.7230     4.5326     6.5468
 1965.0000  -999.2500  -999.2500  -999.2500   114.0751    10.0356   -96.9420   -63.0564     4.4809     4.1191     6.2818
 1965.5000  -999.2500  -999.2500  -999.2500   117.7459    10.0356   -96.3596   -62.7597     4.3586     3.8998     5.9129
 1966.0000  -999.2500  -999.2500  -999.2500   122.0296    10.0356   -95.7772   -62.4630     4.3100     4.0622     5.4886
 1966.5000  -999.2500  -999.2500  -999.2500   125.2260    10.0356   -95.4882   -62.1662     4.3221     4.2895     4.7518
 1967.0000  -999.2500  -999.2500  -999.2500   119.5984    10.0356   -94.9065   -61.8695     4.4415     4.5295     4.4498
 1967.5000  -999.2500  -999.2500  -999.2500   114.0799    10.0356   -94.6182   -61.5727     4.5641     4.7181     5.3807
 1968.0000  -999.2500  -999.2500  -999.2500   106.4847    10.0356   -94.6241   -61.2760     4.6740     4.7823     6.5633
 1968.5000  -999.2500  -999.2500  -999.2500   101.1987    10.0059   -94.3353   -60.9793     4.5931     4.7816     7.4237
 1969.0000  -999.2500  -999.2500  -999.2500    97.1098    10.0059   -94.3416   -60.6825     4.2843     4.5892     8.0560
