~VERSION INFORMATION
 VERS.                2.0:   CWLS LOG ASCII STANDARD - VERSION 2.0
 WRAP.                 NO:   ONE LINE PER DEPTH STEP
~WELL INFORMATION
#MNEM.UNIT      DATA TYPE    INFORMATION
#----------   ------------   ------------------------------
 STRT.F          150.0000:   START DEPTH
 STOP.F         2980.0000:   STOP DEPTH
 STEP.F            0.5000:   STEP LENGTH
 NULL.          -999.2500:   NO VALUE
 COMP. FENIX & SCISSION U.S. NAVY:   COMPANY
 WELL.   FENIX "A" #84-20:   WELL
 FLD .             NPR #3:   FIELD
 LOC .      S20 T39N R78W:   LOCATION
 CNTY.            NATRONA:   COUNTY
 STAT.            WYOMING:   STATE
 CTRY. UNITED STATES OF AMERICA:   COUNTRY
 SRVC.       SCHLUMBERGER:   SERVICE COMPANY
 DATE.        21-FEB-1977:   LOGDATE
 API .     49025103020000:   API NUMBER
~CURVE INFORMATION
#MNEM.UNIT       API CODE    CURVE DESCRIPTION
#----------   ------------   ------------------------------
 DEPT.F                  :   
 NPHI.DEC    42 890 03 00:   NEUTRON POROSITY SANDSTONE
 GRD .GAPI   45 310 01 00:   GAMMA RAY FROM DENSITY LOG
 CALD.IN     45 280 60 00:   CALIPER FROM DENSITY LOG
 RHOB.G/C3   45 350 01 00:   BULK DENSITY
 DCOR.G/C3   45 356 01 00:   DENSITY CORRECTION
 SPR .MV     07 010 01 00:   SPONTANEOUS POTENTIAL
 LLD .OHMM   11 220 10 00:   LATEROLOG DEEP
 LLS .OHMM   11 220 09 00:   LATEROLOG SHALLOW
 MSFL.OHMM   07 270 04 00:   MICRO SPHERICALLY FOCUSED RES.
~PARAMETER INFORMATION
#MNEM.UNIT          VALUE    DESCRIPTION
#----------   ------------   ------------------------------
 EKB .F         5006.0000:   Kelly bushing
 EGL .F         4996.0000:   Ground level
 EDF .F            0.0000:   Drilling floor
 TD  .F         2973.0000:   Total depth
 DATE.        21-FEB-1977:   Date logged
 CLNT.            A2DTECH:   Client Code
 SL  . 330' FEL & 2310' FNL:   Surface Location
 PD  .                 GL:   Permanent Datum
 EPD .F              4996:   Elevation Permanent Datum
 LMF .                 KB:   Log Measured From
 DMF .                 KB:   Drilling Measured From
 DAPD.F                10:   Feet Above Permanent Datum
 DD  .F              2973:   Depth driller
 DL  .F              2971:   Depth logger
 BLI .F              2970:   Bottom log interval
 TLI .F               164:   Top log interval
 CS1 .IN            8.625:   Casing size
 CBD1.      8.625" @ 167':   Casing driller 1
 CBL1.F               164:   Casing logger 1
 BS1 .IN            7.875:   Bit size
 BSD1.F              2973:   Depth drilled with bit1
 DFT .            KCL MUD:   Type fluid in hole
 DFD .                9.5:   Density
 DFV .                 35:   Viscosity
 DFPH.                6.5:   pH
 DFL .                 11:   Fluid loss
 MSS .              CIRC.:   Source of sample
 RMS .OHMM           0.27:   Rm
 MST .F                72:   Rm Meas. temp.
 RMF .OHMM           0.19:   Rmf
 MFST.F                72:   Rmf Meas. temp.
 RMC .OHMM           0.35:   Rmc
 MCST.F                72:   Rmc Meas. temp.
 MFSS.               MEAS:   Source Rmf.
 MCSS.               CALC:   Source Rmc.
 RMB .OHMM           0.18:   Rm. at BHT
 BHT .F               110:   BHT.
 TCS .HRS            0300:   Time Circ. stopped
 TLAB.HRS            1000:   Time logger at bottom
 MRT .F               110:   Maximum recorded temp.
 LUN .               7711:   Logging unit number
 LUL .               CSPR:   Logging unit location
 ENGI.             SAYLER:   Recorded By
 WITN.               JAPP:   Witnessed by
 ORIG.           5" PRINT:   Origin of data
 UWI .     49025103020000:   Unique Well ID
 DICO. A2D TECHNOLOGIES, INC.:   Digitizing Company
~OTHER INFORMATION
~A   DEPT       NPHI       GRD      CALD       RHOB       DCOR        SPR        LLD        LLS       MSFL   
# ...
 2595.5000     0.3340   139.5180    10.0650     2.5330     0.0290   -48.2570     6.0720     7.1730     9.2000
 2596.0000     0.3360   138.7720    10.0520     2.5260     0.0240   -48.4780     5.9810     7.1060     9.0720
 2596.5000     0.3460   137.9060    10.0400     2.5110     0.0120   -48.5820     5.8590     7.0400     9.1280
 2597.0000     0.3610   137.6000    10.0290     2.5020     0.0180   -48.6930     5.7380     6.9140     9.2410
 2597.5000     0.3700   138.7670    10.0210     2.5090     0.0240   -48.7880     5.6160     6.7470     9.1100
 2598.0000     0.3630   140.5960    10.0120     2.5160     0.0190   -48.6120     5.4940     6.5810     8.7820
 2598.5000     0.3540   142.3990    10.0040     2.5120     0.0160   -48.4300     5.3720     6.4140     8.5410
 2599.0000     0.3450   142.8550     9.9950     2.5080     0.0180   -48.2340     5.2880     6.2810     8.4310
 2599.5000     0.3470   143.1310     9.9860     2.4990     0.0200   -48.0500     5.2300     6.3250     8.3200
 2600.0000     0.3490   143.4430     9.9780     2.4910     0.0220   -47.8550     5.1720     6.3610     7.9770
 2600.5000     0.3510   144.6360     9.9690     2.4930     0.0210   -47.6670     5.1130     6.3980     8.0010
 2601.0000     0.3520   145.6410     9.9620     2.4900     0.0190   -47.4910     5.0550     6.2810     8.0630
 2601.5000     0.3540   146.5690     9.9690     2.4900     0.0250   -47.2520     4.9970     6.0990     8.1250
 2602.0000     0.3560   147.2020     9.9450     2.5100     0.0350   -47.5550     4.9390     5.9460     7.7230
 2602.5000     0.3580   147.6230     9.9160     2.5200     0.0320   -48.2700     4.8560     5.7290     7.3150
 2603.0000     0.3600   145.1340     9.8880     2.5190     0.0290   -48.9210     4.9040     5.8340     7.1440
 2603.5000     0.3590   142.5920     9.8600     2.5140     0.0290   -49.5830     4.9870     6.0160     7.6170
 2604.0000     0.3520   140.6700     9.8520     2.5080     0.0280   -50.2450     5.0710     6.1670     8.1250
 2604.5000     0.3440   139.8700     9.8470     2.5050     0.0180   -50.8980     5.1540     6.2140     8.1250
 2605.0000     0.3380   140.3560     9.8420     2.5130     0.0280   -51.6080     5.2370     6.2550     8.1980
 2605.5000     0.3380   140.7340     9.8370     2.5250     0.0370   -52.1100     5.3200     6.3630     8.2740
 2606.0000     0.3360   140.7190     9.8320     2.5370     0.0350   -52.3260     5.4040     6.5910     8.3490
 2606.5000     0.3310   139.2240     9.8270     2.5230     0.0290   -52.5750     5.4870     6.8190     8.4290
 2607.0000     0.3250   137.7660     9.8220     2.5140     0.0210   -52.7550     5.6250     7.0140     8.8090
 2607.5000     0.3220   136.7380     9.8170     2.5100     0.0190   -52.3780     5.6170     6.9480     9.0720
 2608.0000     0.3200   136.6680     9.8120     2.5060     0.0150   -52.0530     5.5940     6.8910     9.0720
 2608.5000     0.3180   137.0850     9.8070     2.5190     0.0320   -51.6930     5.5710     6.8330     9.0720
 2609.0000     0.3130   137.7250     9.8020     2.5260     0.0310   -51.3490     5.5480     6.7760     8.8600
 2609.5000     0.3080   138.8730     9.7970     2.5240     0.0360   -51.0060     5.5230     6.8400     8.4290
 2610.0000     0.3010   140.0180     9.8010     2.5270     0.0370   -50.6510     5.5770     6.9510     9.0510
 2610.5000     0.2990   141.1830     9.8050     2.5230     0.0270   -50.3090     5.6820     7.0610     9.2840
 2611.0000     0.2970   141.2500     9.8090     2.5180     0.0190   -50.0200     5.7870     7.1710     9.3450
 2611.5000     0.2970   141.0440     9.8130     2.5200     0.0250   -50.1220     5.8920     7.2810     9.4120
 2612.0000     0.3040   140.8590     9.8180     2.5540     0.0400   -50.2160     5.9970     7.3910     9.8140
 2612.5000     0.3110   141.7900     9.8220     2.5440     0.0320   -50.3260     6.1020     7.5010     9.9460
 2613.0000     0.3180   142.7480     9.8260     2.5280     0.0230   -50.4300     6.2590     7.6660     9.9460
 2613.5000     0.3290   143.7360     9.8300     2.5120     0.0160   -50.5340     6.1880     7.5830    10.5100
 2614.0000     0.3380   144.7410     9.8340     2.5040     0.0150   -50.6350     5.8700     7.2210    10.1230
 2614.5000     0.3460   145.5210     9.8440     2.5090     0.0210   -50.7550     5.5510     6.8590     9.3350
 2615.0000     0.3520   144.2450     9.8580     2.5050     0.0270   -50.7130     5.2330     6.4970     8.5470
 2615.5000     0.3480   141.7600     9.8720     2.5170     0.0320   -50.4990     5.0080     5.9440     7.9770
 2616.0000     0.3390   139.7520     9.8860     2.5150     0.0370   -50.3050     4.7670     5.9510     7.9770
 2616.5000     0.3310   138.8520     9.9010     2.5260     0.0400   -50.1070     4.8670     5.9670     8.3020
 2617.0000     0.3260   137.9440     9.9150     2.5230     0.0330   -49.9070     4.9540     5.9820     8.6050
 2617.5000     0.3230   137.0350     9.9290     2.5190     0.0260   -49.7100     4.9720     5.9970     9.0720
 2618.0000     0.3200   136.1260     9.9430     2.5110     0.0190   -49.5100     4.9890     6.0120     8.4290
 2618.5000     0.3040   135.2220     9.9570     2.4970     0.0180   -49.3130     5.0070     6.0280     8.4930
 2619.0000     0.2950   134.8210     9.9720     2.5000     0.0250   -49.1120     5.0240     6.0430     8.5850
 2619.5000     0.2830   134.5000     9.9860     2.5040     0.0310   -48.9160     5.1300     6.1520     8.1250
 2620.0000     0.2700   134.1660    10.0000     2.5100     0.0310   -48.7210     5.5090     6.5480     8.8270
 2620.5000     0.2600   131.7720    10.0140     2.5260     0.0290   -48.4990     5.8870     6.9450     9.6590
 2621.0000     0.2630   129.0500    10.0280     2.5430     0.0290   -48.5040     6.2660     7.3410    10.2970
 2621.5000     0.2680   126.4760    10.0450     2.5400     0.0300   -48.7920     6.6440     7.7380    10.9030
 2622.0000     0.2730   126.5190    10.0620     2.5430     0.0350   -49.0480     7.0140     8.1250    10.7340
 2622.5000     0.2790   130.5590    10.0790     2.5370     0.0230   -49.3160     6.6560     7.6820    10.3370
 2623.0000     0.2870   133.7950    10.0970     2.5290     0.0160   -49.5790     6.3060     7.2500     9.9460
 2623.5000     0.2950   138.1490    10.1140     2.5230     0.0220   -49.8440     5.9560     6.8190     9.4480
 2624.0000     0.3040   143.2160    10.1310     2.5180     0.0280   -50.0600     5.6070     6.3870     8.9570
 2624.5000     0.3120   148.7130    10.1490     2.5200     0.0340   -49.5010     5.2570     5.9550     8.4670
 2625.0000     0.3210   153.0520    10.1660     2.5160     0.0340   -48.5130     4.9080     5.5230     7.9770
 2625.5000     0.3310   159.4480    10.1830     2.4980     0.0330   -47.6140     4.4590     4.9190     7.3950
 2626.0000     0.3400   162.9560    10.2000     2.4820     0.0340   -46.7140     3.9440     4.3150     5.9490
 2626.5000     0.3350   164.8810    10.2080     2.4690     0.0470   -45.7150     3.4290     3.7120     4.5950
 2627.0000     0.3190   158.1420    10.2000     2.4630     0.0610   -45.2520     2.9140     3.1080     3.8130
 2627.5000     0.3010   148.0650    10.1920     2.4610     0.0700   -45.5440     2.3990     2.5040     2.7460
 2628.0000     0.2800   140.3140    10.1830     2.4660     0.0370   -45.7390     3.6630     3.8880     8.2760
 2628.5000     0.2670   132.6480    10.1750     2.4980     0.0190   -45.9580     5.4310     5.8350     8.2520
 2629.0000     0.2680   128.4280    10.1720     2.5220     0.0210   -45.9090     5.8960     6.3950     8.2100
 2629.5000     0.2680   125.6730    10.1720     2.5300     0.0250   -45.7510     5.9730     6.5430     8.1680
 2630.0000     0.2650   123.0630    10.1720     2.5520     0.0310   -45.6020     6.0540     6.6370     8.1250
 2630.5000     0.2590   121.2550    10.1720     2.5550     0.0350   -45.4560     6.2530     6.9460     8.4080
 2631.0000     0.2600   122.2830    10.1720     2.5440     0.0230   -45.3070     6.4610     7.4110     8.7030
 2631.5000     0.2610   124.6960    10.1720     2.5330     0.0190   -45.1510     6.6370     7.2560     9.0020
