~VERSION INFORMATION
 VERS.                2.0:   CWLS LOG ASCII STANDARD - VERSION 2.0
 WRAP.                 NO:   ONE LINE PER DEPTH STEP
~WELL INFORMATION
#MNEM.UNIT      DATA TYPE    INFORMATION
#----------   ------------   ------------------------------
 STRT.F          204.5000:   START DEPTH
 STOP.F         2964.0000:   STOP DEPTH
 STEP.F            0.5000:   STEP LENGTH
 NULL.          -999.2500:   NO VALUE
 COMP.    FENIX & SCISSON:   COMPANY
 WELL. FENIX NPR 3 "AX" #14-28:   WELL
 FLD .  TEAPOT DOME NPR-3:   FIELD
 LOC .      S28 T39N R78W:   LOCATION
 CNTY.            NATRONA:   COUNTY
 STAT.            WYOMING:   STATE
 CTRY. UNITED STATES OF AMERICA:   COUNTRY
 SRVC.           BIRDWELL:   SERVICE COMPANY
 DATE.        24-MAY-1978:   LOGDATE
 API .     49025106450000:   API NUMBER
~CURVE INFORMATION
#MNEM.UNIT       API CODE    CURVE DESCRIPTION
#----------   ------------   ------------------------------
 DEPT.F                  :   
 SPR .MV     05 010 01 00:   SPONTANEOUS POTENTIAL
 CORR.G/C3   45 356 01 00:   DENSITY CORRECTION
 DEN .G/C3   45 350 01 00:   DENSITY
 CALD.IN     45 280 60 00:   CALIPER FROM DENSITY LOG
 GRD .GAPI   45 310 01 00:   GAMMA RAY FROM DENSITY LOG
 SN  .OHMM   05 040 16 00:   SHORT NORMAL 16"
 ILD .OHMM   05 120 46 00:   DEEP INDUCTION RESISTIVITY
~PARAMETER INFORMATION
#MNEM.UNIT          VALUE    DESCRIPTION
#----------   ------------   ------------------------------
 EKB .F         5042.0000:   Kelly bushing
 EGL .F         5032.0000:   Ground level
 EDF .F            0.0000:   Drilling floor
 TD  .F         2957.0000:   Total depth
 DATE.        24-MAY-1978:   Date logged
 CLNT.            A2DTECH:   Client Code
 SL  . 2410' FNL & 280' FWL:   Surface Location
 PD  .                 GL:   Permanent Datum
 EPD .F              5032:   Elevation Permanent Datum
 LMF .                 KB:   Log Measured From
 DMF .                 KB:   Drilling Measured From
 DAPD.F                10:   Feet Above Permanent Datum
 DD  .F              2950:   Depth driller
 DL  .F              2957:   Depth logger
 BLI .F              2951:   Bottom log interval
 TLI .F               225:   Top log interval
 CS1 .IN            8.625:   Casing size
 CBL1.F               225:   Casing logger 1
 BS1 .IN            7.875:   Bit size
 BSD1.F              2950:   Depth drilled with bit1
 DFT .       CHEMICAL GEL:   Type fluid in hole
 DFD .                  9:   Density
 DFV .                 34:   Viscosity
 DFPH.               10.5:   pH
 DFL .                  6:   Fluid loss
 MSS .           FLOWLINE:   Source of sample
 RMS .OHMM            1.5:   Rm
 MST .F                70:   Rm Meas. temp.
 RMF .OHMM            1.1:   Rmf
 MFST.F                78:   Rmf Meas. temp.
 RMC .OHMM            2.8:   Rmc
 MCST.F                72:   Rmc Meas. temp.
 MFSS.               MEAS:   Source Rmf.
 RMB .OHMM           0.95:   Rm. at BHT
 BHT .F               110:   BHT.
 TCS .HRS               2:   Time Circ. stopped
 MRT .F               110:   Maximum recorded temp.
 LUN .               2958:   Logging unit number
 LUL .               CASP:   Logging unit location
 ENGI.             MILLER:   Recorded By
 WITN.            RHOADES:   Witnessed by
 ORIG.           5" PRINT:   Origin of data
 UWI .     49025106450000:   Unique Well ID
 DICO. A2D TECHNOLOGIES, INC.:   Digitizing Company
~OTHER INFORMATION
~A   DEPT      SPR       CORR        DEN       CALD         GRD        SN        ILD   
# ...
  750.5000    -8.6000     0.1420     2.4320     8.7700   111.2210     6.8850     7.5250
  751.0000    -8.6000     0.1440     2.4170     8.7700   109.9330     6.8850     7.4770
  751.5000    -8.6000     0.1550     2.4170     8.7700   110.8440     6.8860     7.4290
  752.0000    -8.6000     0.1660     2.4180     8.7700   111.6980     6.8860     7.4050
  752.5000    -8.6000     0.1780     2.4260     8.7700   109.5220     6.8860     7.3940
  753.0000    -8.6000     0.1850     2.4340     8.7700   106.6740     6.8860     7.3840
  753.5000    -8.6000     0.1820     2.4410     8.7700   102.8320     6.8860     7.3740
  754.0000    -8.6000     0.1790     2.4400     8.7700   103.7060     6.8860     7.3630
  754.5000    -8.6000     0.1760     2.4390     8.7700   106.3870     6.8860     7.3530
  755.0000    -8.6000     0.1740     2.4380     8.7700   108.6280     6.8860     7.3420
  755.5000    -8.6000     0.1750     2.4350     8.7700   110.7890     6.8860     7.3320
  756.0000    -8.6000     0.1760     2.4300     8.7700   109.6940     6.8860     7.3220
  756.5000    -8.6000     0.1770     2.4250     8.7700   108.4900     6.8860     7.3110
  757.0000    -8.6000     0.1780     2.4230     8.7700   107.1280     6.8860     7.3010
  757.5000    -8.6000     0.1720     2.4200     8.7700   105.8620     6.8860     7.2910
  758.0000    -8.6000     0.1640     2.4180     8.7700   105.5060     6.8860     7.2800
  758.5000    -8.6000     0.1570     2.4170     8.7700   107.6170     6.8860     7.2700
  759.0000    -8.6000     0.1500     2.4150     8.7700   108.8990     6.8860     7.2600
  759.5000    -8.6000     0.1420     2.4180     8.7700   108.6420     6.8860     7.2490
  760.0000    -8.6000     0.1350     2.4260     8.7700   108.3430     6.8860     7.2390
  760.5000    -8.6000     0.1320     2.4340     8.7700   108.0170     6.8860     7.2280
  761.0000    -8.6000     0.1290     2.4410     8.7700   107.4470     6.8860     7.2180
  761.5000    -8.6000     0.1270     2.4490     8.7700   108.5380     6.8860     7.2080
  762.0000    -8.6000     0.1250     2.4560     8.7700   110.2760     6.8860     7.1970
  762.5000    -8.6000     0.1220     2.4640     8.7700   110.1090     6.8860     7.1870
  763.0000    -8.6000     0.1200     2.4710     8.7700   107.4500     6.8860     7.1770
  763.5000    -8.6000     0.1180     2.4790     8.7700   105.1450     6.8860     7.1660
  764.0000    -8.6000     0.1150     2.4860     8.7700   105.4040     6.8860     7.1560
  764.5000    -8.6000     0.1140     2.4930     8.7700   105.8170     6.8850     7.1440
  765.0000    -8.6000     0.1160     2.4890     8.7700   106.2730     6.8870     7.1400
  765.5000    -8.6000     0.1170     2.4850     8.7700   107.6570     6.8670     7.1350
  766.0000    -8.6000     0.1180     2.4810     8.7700   108.7870     6.8340     7.1300
  766.5000    -8.6000     0.1190     2.4830     8.7700   110.9950     6.8030     7.1250
  767.0000    -8.6000     0.1210     2.4850     8.7700   112.9890     6.7720     7.1200
  767.5000    -8.6000     0.1220     2.4810     8.7700   111.8230     6.7400     7.1160
  768.0000    -8.6000     0.1250     2.4760     8.7700   109.8880     6.7090     7.1110
  768.5000    -8.6000     0.1290     2.4780     8.7700   107.6050     6.6780     7.1060
  769.0000    -8.6000     0.1330     2.4860     8.7700   107.7090     6.6470     7.1010
  769.5000    -8.6000     0.1370     2.4930     8.7700   109.1190     6.6370     7.0960
  770.0000    -8.6000     0.1340     2.4960     8.7700   109.8800     6.6370     7.0910
  770.5000    -8.6000     0.1280     2.4970     8.7700   105.4230     6.6370     7.0870
  771.0000    -8.6000     0.1230     2.4970     8.7700   104.0310     6.6370     7.0820
  771.5000    -8.6000     0.1180     2.4930     8.7700   103.8720     6.6370     7.0770
  772.0000    -8.6000     0.1110     2.4840     8.7700   106.4040     6.6370     7.0720
  772.5000    -8.6000     0.1190     2.4750     8.7700   108.9110     6.6370     7.0670
  773.0000    -8.6000     0.1370     2.4780     8.7700   110.8900     6.6370     7.0630
  773.5000    -8.6000     0.1500     2.4850     8.7700   109.7470     6.6260     7.0580
  774.0000    -8.6000     0.1470     2.4930     8.7700   108.7610     6.6100     7.0530
  774.5000    -8.6000     0.1450     2.4990     8.7700   108.1340     6.5950     7.0480
  775.0000    -8.6000     0.1430     2.5030     8.7700   108.1850     6.5800     7.0430
  775.5000    -8.6000     0.1390     2.5070     8.7700   108.1910     6.5650     7.0380
  776.0000    -8.6000     0.1340     2.5050     8.7700   108.3270     6.5490     7.0340
  776.5000    -8.6000     0.1310     2.5040     8.7700   109.9900     6.5340     7.0290
  777.0000    -8.6000     0.1350     2.5060     8.7700   111.3010     6.5160     7.0230
  777.5000    -8.6000     0.1380     2.5090     8.7700   113.1610     6.5730     7.0200
  778.0000    -8.6000     0.1410     2.5110     8.7700   112.0770     6.6420     7.0140
  778.5000    -8.6000     0.1330     2.5110     8.7700   109.1730     6.7100     7.0510
  779.0000    -8.6000     0.1250     2.5100     8.7700   107.7600     6.7790     7.0950
  779.5000    -8.6000     0.1220     2.5100     8.7700   107.3450     6.8470     7.1390
  780.0000    -8.6000     0.1220     2.5100     8.7700   106.5920     6.9160     7.1830
  780.5000    -8.6000     0.1220     2.5090     8.7700   106.9690     6.9840     7.2280
  781.0000    -8.6000     0.1220     2.5090     8.7700   107.7640     7.0530     7.2760
  781.5000    -8.6000     0.1220     2.5060     8.7700   111.8570     7.1210     7.3830
  782.0000    -8.6000     0.1220     2.5000     8.7700   114.1680     7.1900     7.5020
  782.5000    -8.6000     0.1220     2.4940     8.7700   110.3480     7.2580     7.6200
  783.0000    -8.6000     0.1270     2.4910     8.7700   107.1350     7.3270     7.7390
  783.5000    -8.6000     0.1330     2.4900     8.7700   103.3780     7.3950     7.8580
  784.0000    -8.6000     0.1390     2.4900     8.7690   102.3110     7.4630     7.9770
  784.5000    -8.6000     0.1450     2.4890     8.7660   102.9840     7.5320     8.0960
  785.0000    -8.6000     0.1510     2.4850     8.7630   103.4280     7.5830     8.1570
  785.5000    -8.6000     0.1570     2.4790     8.7600   104.4720     7.6280     8.1990
  786.0000    -8.6000     0.1610     2.4780     8.7580   106.4930     7.6730     8.2410
  786.5000    -8.6000     0.1570     2.4770     8.7550   108.3630     7.7170     8.2830
  787.0000    -8.6000     0.1530     2.4770     8.7520   110.1910     7.7620     8.3260
  787.5000    -8.6000     0.1490     2.4760     8.7490   113.2200     7.8070     8.3680
  788.0000    -8.6000     0.1440     2.4750     8.7470   111.6460     7.8520     8.4100
  788.5000    -8.6000     0.1400     2.4740     8.7440   106.4880     7.8970     8.4520
  789.0000    -8.6000     0.1360     2.4720     8.7410   105.2060     7.9420     8.4940
  789.5000    -8.6000     0.1320     2.4700     8.7390   106.0920     7.9640     8.5370
  790.0000    -8.6000     0.1270     2.4680     8.7350   106.4610     7.9110     8.5790
  790.5000    -8.6000     0.1260     2.4650     8.7350   105.3700     7.8580     8.6210
  791.0000    -8.6000     0.1270     2.4670     8.7300   105.6210     7.8300     8.6630
  791.5000    -8.6000     0.1270     2.4690     8.8120   105.5740     7.8320     8.7060
  792.0000    -8.6000     0.1270     2.4710     8.8450   106.8070     7.8310     8.7450
  792.5000    -8.6000     0.1270     2.4730     8.8230   109.4520     7.8310     8.5950
  793.0000    -8.6000     0.1280     2.4750     8.8090   107.8590     7.8310     8.4550
  793.5000    -8.6000     0.1280     2.4830     8.7970   103.8720     7.7520     8.3150
  794.0000    -8.6000     0.1280     2.4890     8.7860   103.4510     7.6360     8.1750
  794.5000    -8.6000     0.1290     2.4950     8.7740   103.0690     7.5210     8.0350
  795.0000    -8.6000     0.1290     2.5020     8.7700   102.4300     7.4050     7.8950
  795.5000    -8.6000     0.1290     2.5080     8.7700   101.4910     7.2900     7.7550
