~VERSION INFORMATION
 VERS.                2.0:   CWLS LOG ASCII STANDARD - VERSION 2.0
 WRAP.                 NO:   ONE LINE PER DEPTH STEP
~WELL INFORMATION
#MNEM.UNIT      DATA TYPE    INFORMATION
#----------   ------------   ------------------------------
 STRT.F            0.5000:   START DEPTH
 STOP.F         4128.0000:   STOP DEPTH
 STEP.F            0.5000:   STEP LENGTH
 NULL.          -999.2500:   NO VALUE
 COMP. LAWRENCE ALLISON ASSOC WEST:   COMPANY
 WELL. LAWRENCE NPR "AX" #12-33:   WELL
 FLD .      NPR - WILDCAT:   FIELD
 LOC .      S33 T39N R78W:   LOCATION
 CNTY.            NATRONA:   COUNTY
 STAT.            WYOMING:   STATE
 CTRY. UNITED STATES OF AMERICA:   COUNTRY
 SRVC.      DRESSER ATLAS:   SERVICE COMPANY
 DATE.        04-AUG-1984:   LOGDATE
 API .     49025109720000:   API NUMBER
~CURVE INFORMATION
#MNEM.UNIT       API CODE    CURVE DESCRIPTION
#----------   ------------   ------------------------------
 DEPT.F                  :   
 CORR.G/C3   45 356 01 00:   DENSITY CORRECTION
 TEND.LBS    45 635 01 00:   TENSION FROM DENSITY LOG
 RHOB.G/C3   45 350 01 00:   BULK DENSITY
 GRR .GAPI   07 310 01 00:   GAMMA RAY FROM RESISTIVITY
 SPR .MV     07 010 01 00:   SPONTANEOUS POTENTIAL
 RFOC.OHMM   07 220 04 00:   RESISTIVITY FOCUSED LOG RES.
 RILM.OHMM   07 120 44 00:   RESISTIVITY INDUCTION LOG MEDIUM
 RILD.OHMM   07 120 46 00:   RESISTIVITY INDUCTION LOG MEDIUM
 TENR.LBS    07 635 01 00:   TENSION FROM RESISTIVITY
 CALR.IN     07 280 01 00:   CALIPER FROM RESISTIVITY
 DT  .US/F   60 520 00 00:   DELTA TIME
 TENS.LBS    60 635 01 00:   TENSION FROM SONIC
 SPHI.DEC    60 890 00 00:   SONIC POROSITY
~PARAMETER INFORMATION
#MNEM.UNIT          VALUE    DESCRIPTION
#----------   ------------   ------------------------------
 EKB .F         5170.0000:   Kelly bushing
 EGL .F         5157.0000:   Ground level
 EDF .F            0.0000:   Drilling floor
 TD  .F         4121.0000:   Total depth
 DATE.        04-AUG-1984:   Date logged
 CLNT.            A2DTECH:   Client Code
 SL  . 857' FNL & 751' FWL:   Surface Location
 PD  .                 GL:   Permanent Datum
 EPD .F              5157:   Elevation Permanent Datum
 LMF .                 KB:   Log Measured From
 DMF .                 KB:   Drilling Measured From
 DAPD.F                13:   Feet Above Permanent Datum
 DD  .F              4120:   Depth driller
 DL  .F              4121:   Depth logger
 BLI .F              4119:   Bottom log interval
 CS1 .IN            8.625:   Casing size
 CBD1.      8.625" @ 625':   Casing driller 1
 CBL1.F               624:   Casing logger 1
 BS1 .IN            7.875:   Bit size
 BSD1.F              4120:   Depth drilled with bit1
 DFT .            GEL/KCL:   Type fluid in hole
 DFD .                9.1:   Density
 DFV .                 40:   Viscosity
 DFPH.                8.5:   pH
 DFL .                 11:   Fluid loss
 MSS .               TANK:   Source of sample
 RMS .OHMM           .302:   Rm
 MST .F                84:   Rm Meas. temp.
 RMF .OHMM            .22:   Rmf
 MFST.F                84:   Rmf Meas. temp.
 RMC .OHMM            .38:   Rmc
 MCST.F                84:   Rmc Meas. temp.
 MFSS.               CALC:   Source Rmf.
 MCSS.               CALC:   Source Rmc.
 RMB .OHMM            .19:   Rm. at BHT
 BHT .F               132:   BHT.
 TCS .HRS               4:   Time Circ. stopped
 MRT .F               132:   Maximum recorded temp.
 LUN .               6307:   Logging unit number
 LUL .               GLTE:   Logging unit location
 ENGI.           FAHLSING:   Recorded By
 WITN.       ROBERT SCOTT:   Witnessed by
 ORIG.           5" PRINT:   Origin of data
 UWI .     49025109720000:   Unique Well ID
 DICO. A2D TECHNOLOGIES, INC.:   Digitizing Company
~OTHER INFORMATION
~A    DEPT    CORR       TEND       RHOB         GRR       SPR       RFOC       RILM       RILD       TENR       CALR         DT       TENS       SPHI   
# ...
 3640.5000     0.1430   -45.0000     2.3290   152.0800   -57.9010    10.0310     9.2530     9.1280   -21.9500     7.9210    87.2980   -57.7390     0.2690
 3641.0000     0.1050   -45.0000     2.3580   143.8570   -57.9210    10.3970    10.1190     9.4700   -21.9410     7.9220    88.3460   -57.3590     0.2720
 3641.5000     0.0670   -45.0000     2.4030   135.5980   -58.2380    11.3780    10.9860     9.8130   -21.9330     7.9220    88.4980   -56.9790     0.2700
 3642.0000     0.0370   -45.0000     2.4490   129.6730   -58.5550    12.3950    11.8520    10.0310   -21.9250     7.9140    85.6360   -56.5990     0.2610
 3642.5000     0.0340   -45.0000     2.4980   125.2160   -58.8700    15.0390    12.1690    10.1230   -21.9170     7.9020    82.7940   -56.2190     0.2280
 3643.0000     0.0440   -45.0000     2.4920   124.1430   -59.1860    15.9110    12.1690    10.1230   -21.9090     7.9020    80.1900   -55.8390     0.2120
 3643.5000     0.0540   -45.0000     2.4850   124.4590   -59.5010    16.7840    10.4290     9.5930   -21.9010     7.9020    79.2310   -55.4590     0.2050
 3644.0000     0.0640   -45.0000     2.4830   126.1450   -59.8170    17.6560     9.1470     8.8900   -21.8920     7.9100    79.3210   -55.0790     0.2050
 3644.5000     0.0690   -45.0000     2.4670   132.6870   -60.1330    18.7520     7.8650     8.1870   -21.8840     7.9200    79.4710   -54.8400     0.2080
 3645.0000     0.0750   -45.0000     2.4500   143.8800   -60.4550    17.3110     5.9920     7.4840   -21.8760     7.9020    80.0900   -54.9670     0.2110
 3645.5000     0.0970   -45.0000     2.4330   155.4030   -60.8170    11.8790     6.6250     6.7810   -21.8680     7.8830    82.4420   -55.0940     0.2240
 3646.0000     0.1390   -45.0000     2.4310   161.1770   -60.8450     6.4460     7.8010     6.0780   -21.8600     7.8710    85.8760   -55.2210     0.2610
 3646.5000     0.1210   -45.0000     2.4640   139.9690   -60.7590     4.9390     8.1930     5.5500   -21.8520     7.8620    89.7000   -55.3480     0.2800
 3647.0000     0.0960   -45.0000     2.4840   115.1350   -60.6700     7.9120     8.1930     6.3080   -21.8440     7.8630    88.2530   -55.4750     0.2690
 3647.5000     0.0970   -45.0000     2.4880   115.2310   -60.5820    13.0310     7.8710     6.8150   -21.8350     7.8630    84.5240   -55.6020     0.2480
 3648.0000     0.1040   -45.0000     2.4580   126.2640   -60.4950    18.5810     7.5850     6.8780   -21.8270     7.8630    78.6890   -55.7290     0.2250
 3648.5000     0.1120   -45.0000     2.4340   138.1610   -60.4060    18.7520     7.3000     6.8780   -21.8190     7.8630    79.1010   -55.8560     0.2020
 3649.0000     0.1070   -45.0000     2.4210   150.0900   -60.3110    14.6220     7.0140     6.8780   -21.8110     7.8630    81.6000   -55.9830     0.2170
 3649.5000     0.0980   -45.0000     2.4220   160.9950   -60.1020    10.2800     6.7530     6.7530   -21.8030     7.8640    83.9990   -56.1100     0.2350
 3650.0000     0.0880   -45.0000     2.4290   169.9640   -60.0590     8.0430     6.5500     6.6910   -21.7950     7.8690    85.6970   -56.2370     0.2540
 3650.5000     0.0790   -45.0000     2.4340   178.0310   -60.0520     8.0430     6.2670     6.4350   -21.7870     7.8740    87.3960   -56.3640     0.2720
 3651.0000     0.0610   -45.0000     2.4280   184.2710   -60.4070     8.0430     5.9850     6.1510   -21.7780     7.8790    88.9820   -56.4910     0.2780
 3651.5000     0.0350   -45.0000     2.4240   188.4270   -60.8890     7.6110     5.6180     5.8660   -21.7700     7.8760    89.7030   -56.6180     0.2830
 3652.0000     0.0180   -45.0000     2.4240   189.5590   -61.3740     7.4040     5.6400     5.5820   -21.7620     7.8520    90.2000   -56.7450     0.2880
 3652.5000     0.0310   -45.0000     2.4230   190.9160   -61.8590     7.9690     5.6830     5.2980   -21.7540     7.8280    90.8950   -56.8720     0.2900
 3653.0000     0.0640   -45.0000     2.4220   184.0100   -62.3450     8.0430     5.7220     4.9850   -21.7460     7.8040    90.8530   -56.9990     0.2900
 3653.5000     0.0610   -45.0000     2.4220   174.5240   -62.8310     7.5570     5.7750     4.8710   -21.7380     7.8080    90.8110   -57.1260     0.2900
 3654.0000     0.0560   -45.0000     2.4120   160.1490   -63.3230     7.3360     5.7750     4.7450   -21.7300     7.8130    90.4900   -57.2520     0.2950
 3654.5000     0.0620   -45.0000     2.4000   165.2680   -63.6150     8.8590     5.0370     4.6180   -21.7210     7.8180    89.9350   -57.3790     0.3010
 3655.0000     0.0980   -45.0000     2.3870   182.3980   -63.8530     8.9820     4.4640     4.5050   -21.7130     7.8220    90.2220   -57.5060     0.3070
 3655.5000     0.1250   -45.0000     2.3840   186.0880   -64.0900     6.9300     4.8640     4.4640   -21.7050     7.8170    92.1900   -57.6330     0.3130
 3656.0000     0.1050   -45.0000     2.3900   177.6950   -64.3170     5.0640     5.2290     4.4640   -21.6970     7.8110    94.0280   -57.7600     0.3210
 3656.5000     0.0720   -45.0000     2.4090   172.9130   -64.7850     4.4640     5.5930     4.6200   -21.6890     7.8060    95.0050   -57.8870     0.3190
 3657.0000     0.0510   -45.0000     2.4080   175.4170   -65.2590     6.8830     5.7750     4.7940   -21.6810     7.8030    94.0350   -58.0140     0.3150
 3657.5000     0.0440   -45.0000     2.4060   180.1080   -65.7300     9.6680     5.8290     4.9850   -21.6730     7.8030    92.3950   -58.1410     0.2990
 3658.0000     0.0460   -45.0000     2.4100   179.9590   -66.0390     9.3750     5.9640     5.2960   -21.6640     7.8030    90.8010   -58.2680     0.2900
 3658.5000     0.0730   -45.0000     2.4290   177.8430   -66.0340     8.9560     6.2370     5.6410   -21.6560     7.8030    90.8010   -58.3950     0.2910
 3659.0000     0.0780   -45.0000     2.4340   175.7440   -66.0320     8.5780     6.5090     5.9870   -21.6480     7.8030    91.1490   -58.5220     0.2930
 3659.5000     0.0760   -45.0000     2.4350   173.6650   -65.9740     8.5000     6.7820     6.1590   -21.6400     7.8030    90.8970   -58.6490     0.2910
 3660.0000     0.0740   -45.0000     2.4380   174.1040   -65.6160     8.9820     7.0550     6.1590   -21.6320     7.8030    90.4190   -58.7760     0.2890
 3660.5000     0.0720   -45.0000     2.4480   179.0890   -65.2580     8.9820     7.2020     6.1590   -21.6240     7.8030    89.8030   -58.9030     0.2810
 3661.0000     0.0710   -45.0000     2.4570   181.7100   -64.9000     8.5260     6.8070     5.9580   -21.6160     7.8030    89.5030   -59.0300     0.2790
 3661.5000     0.0690   -45.0000     2.4650   180.4920   -64.5400     8.1170     6.3670     5.7340   -21.6070     7.8030    89.3220   -59.1570     0.2770
 3662.0000     0.0670   -45.0000     2.4670   179.0510   -64.1950     8.8180     5.9270     5.5100   -21.5990     7.8110    89.0470   -59.2840     0.2770
 3662.5000     0.0710   -45.0000     2.4550   180.7550   -63.6110     8.9000     5.4870     5.2860   -21.5910     7.8230    88.7990   -59.4110     0.2780
 3663.0000     0.0790   -45.0000     2.4420   185.1600   -63.6410     7.4740     5.2380     5.0960   -21.5830     7.8230    89.9580   -59.5380     0.2830
 3663.5000     0.0870   -45.0000     2.4420   187.7420   -63.7180     6.1880     5.1780     4.9190   -21.5750     7.8230    91.1010   -59.6650     0.2900
 3664.0000     0.0950   -45.0000     2.4490   180.0440   -64.0810     5.0310     5.1240     4.7610   -21.5670     7.8230    91.7020   -59.7920     0.2990
 3664.5000     0.1200   -45.0000     2.4550   167.3290   -64.4410     6.2430     4.7830     4.3640   -21.5590     7.8260    90.4000   -59.9190     0.2880
 3665.0000     0.1420   -45.0000     2.4120   165.0610   -64.8010     7.3450     4.4730     4.0040   -21.5500     7.8430    88.3220   -60.0460     0.2700
 3665.5000     0.1230   -45.0000     2.3680   183.5890   -65.1620     7.8960     4.1620     3.6440   -21.5420     7.8590    86.0940   -60.1730     0.2450
 3666.0000     0.1040   -45.0000     2.3230   203.0660   -65.5880     7.8960     3.8520     3.1760   -21.5340     7.8760    85.1950   -60.3000     0.2450
