~VERSION INFORMATION
 VERS.                2.0:   CWLS LOG ASCII STANDARD - VERSION 2.0
 WRAP.                 NO:   ONE LINE PER DEPTH STEP
~WELL INFORMATION
#MNEM.UNIT      DATA TYPE    INFORMATION
#----------   ------------   ------------------------------
 STRT.F          230.0000:   START DEPTH
 STOP.F         3480.0000:   STOP DEPTH
 STEP.F            0.5000:   STEP LENGTH
 NULL.          -999.2500:   NO VALUE
 COMP.    FENIX & SCISSON:   COMPANY
 WELL. FENIX NPR 3 "AX" #33-15:   WELL
 FLD .                NPR:   FIELD
 LOC .      S15 T38N R78W:   LOCATION
 CNTY.            NATRONA:   COUNTY
 STAT.            WYOMING:   STATE
 CTRY. UNITED STATES OF AMERICA:   COUNTRY
 SRVC.       SCHLUMBERGER:   SERVICE COMPANY
 DATE.        19-MAR-1981:   LOGDATE
 API .     49025108760000:   API NUMBER
~CURVE INFORMATION
#MNEM.UNIT       API CODE    CURVE DESCRIPTION
#----------   ------------   ------------------------------
 DEPT.F                  :   
 TENR.LBS    07 635 01 00:   TENSION
 SFL .OHMM   07 220 01 00:   SHALLOW FOCUSED LOG RESISTIVITY
 ILM .OHMM   07 120 44 00:   INDUCTION LOG MEDIUM RESISTIVITY
 ILD .OHMM   07 120 46 00:   INDUCTION LOG DEEP RESISTIVITY
 SPR .MV     07 010 01 00:   SPONTANEOUS POTENTIAL
 CALD.IN     45 280 60 00:   CALIPER FROM DENSITY LOG
 GRD .GAPI   45 310 01 00:   GAMMA RAY FROM DENSITY LOG
 CORR.G/C3   45 356 01 00:   DENSITY CORRECTION
 RHOB.G/C3   45 350 01 00:   BULK DENSITY
~PARAMETER INFORMATION
#MNEM.UNIT          VALUE    DESCRIPTION
#----------   ------------   ------------------------------
 EKB .F         5286.0000:   Kelly bushing
 EGL .F         5276.0000:   Ground level
 EDF .F            0.0000:   Drilling floor
 TD  .F         3500.0000:   Total depth
 DATE.        19-MAR-1981:   Date logged
 CLNT.            A2DTECH:   Client Code
 SL  . 1545' FNL & 1467' FWL:   Surface Location
 PD  .                 GL:   Permanent Datum
 EPD .F              5276:   Elevation Permanent Datum
 LMF .                 KB:   Log Measured From
 DMF .                 KB:   Drilling Measured From
 DAPD.F                10:   Feet Above Permanent Datum
 DD  .F              3500:   Depth driller
 DL  .F              3476:   Depth logger
 BLI .F              3470:   Bottom log interval
 TLI .F               234:   Top log interval
 CS1 .IN            8.625:   Casing size
 CBD1.      8.625" @ 250':   Casing driller 1
 CBL1.F               234:   Casing logger 1
 BS1 .IN            7.875:   Bit size
 BSD1.F              3500:   Depth drilled with bit1
 DFT .                FGM:   Type fluid in hole
 DFD .                8.9:   Density
 DFV .                 39:   Viscosity
 DFPH.                9.5:   pH
 DFL .                 10:   Fluid loss
 MSS .               TANK:   Source of sample
 RMS .OHMM           2.26:   Rm
 MST .F                54:   Rm Meas. temp.
 RMF .OHMM           1.60:   Rmf
 MFST.F                54:   Rmf Meas. temp.
 MFSS.               MEAS:   Source Rmf.
 RMB .OHMM            .87:   Rm. at BHT
 BHT .F               140:   BHT.
 TCS .HRS            1030:   Time Circ. stopped
 TLAB.HRS            1300:   Time logger at bottom
 MRT .F               140:   Maximum recorded temp.
 LUN .               8039:   Logging unit number
 LUL .               CSPR:   Logging unit location
 ENGI.           C. PFARR:   Recorded By
 WITN.           R. SCOTT:   Witnessed by
 ORIG.     2.5", 5" PRINT:   Origin of data
 UWI .     49025108760000:   Unique Well ID
 DICO. A2D TECHNOLOGIES, INC.:   Digitizing Company
~OTHER INFORMATION
~A   DEPT     TENR          SFL      ILM        ILD        SPR         CALD       GRD      CORR         RHOB 
# ...
 2164.5000  1305.2209     9.6390     6.9800     7.4160   -30.4340     8.6210   128.6850    -0.0070     2.5310
 2165.0000  1305.2209     9.3550     6.9000     7.3290   -30.5660     8.6210   128.7390    -0.0020     2.5390
 2165.5000  1305.2209     9.1830     6.8270     7.2170   -30.6980     8.6210   128.8380     0.0030     2.5590
 2166.0000  1305.2209     9.3930     6.8620     7.2400   -30.8290     8.6210   129.6040     0.0070     2.5730
 2166.5000  1305.2209     9.6920     6.9110     7.3140   -30.9600     8.6210   132.7090     0.0090     2.5770
 2167.0000  1305.2209    10.0750     6.9610     7.3880   -31.0950     8.6210   135.9200     0.0120     2.5670
 2167.5000  1305.2209    10.0320     7.0100     7.4630   -31.1550     8.6210   135.5290     0.0130     2.5550
 2168.0000  1305.2209     9.9530     7.0600     7.5370   -31.0790     8.6210   132.9700     0.0080     2.5640
 2168.5000  1305.2209     9.8900     7.1100     7.6110   -30.9840     8.6210   130.3230     0.0140     2.5730
 2169.0000  1305.2209    10.0430     7.1590     7.6850   -30.8900     8.6210   129.1920     0.0150     2.5750
 2169.5000  1305.6710    10.4230     7.2170     7.7590   -30.7950     8.6210   129.1960     0.0120     2.5630
 2170.0000  1307.7111    10.8020     7.4010     7.8330   -30.7010     8.6210   128.9950     0.0090     2.5510
 2170.5000  1309.7510    11.1820     7.6240     7.9180   -30.6060     8.6210   127.4390     0.0100     2.5390
 2171.0000  1311.7910    11.6850     7.9180     7.9470   -30.5120     8.6210   125.2600     0.0140     2.5450
 2171.5000  1313.8311    11.6660     7.8840     7.9820   -30.4170     8.6210   122.6920     0.0170     2.5520
 2172.0000  1315.8710    11.5980     7.7640     8.0160   -30.3220     8.6210   121.1620     0.0210     2.5560
 2172.5000  1317.9120    11.5290     7.6450     8.0500   -30.2290     8.6240   126.6900     0.0120     2.5480
 2173.0000  1319.9520    11.4700     7.5250     8.0660   -30.1330     8.6340   130.0090     0.0050     2.5420
 2173.5000  1321.9919    10.4660     7.4050     8.0660   -30.0400     8.6440   132.4100     0.0030     2.5340
 2174.0000  1324.0320     9.9870     7.2170     8.0660   -29.9640     8.6540   134.0220     0.0040     2.5320
 2174.5000  1326.0720     9.8900     7.2170     8.0660   -30.0570     8.6620   132.8940     0.0080     2.5530
 2175.0000  1328.1121     9.7080     7.2170     7.9180   -30.1810     8.6470   131.3210     0.0140     2.5750
 2175.5000  1330.1530     9.8900     7.1170     7.8090   -30.3140     8.6410   129.8380     0.0210     2.5850
 2176.0000  1332.1930     9.8120     7.0340     7.7170   -30.3340     8.6450   129.8660     0.0220     2.5850
 2176.5000  1334.2330     9.4730     6.9550     7.6300   -30.2180     8.6480   130.9710     0.0160     2.5680
 2177.0000  1336.2729     9.3550     6.9550     7.5640   -30.1080     8.6520   130.0710     0.0110     2.5500
 2177.5000  1338.3130     9.5510     6.9550     7.3090   -29.9960     8.6550   127.2890     0.0090     2.5410
 2178.0000  1340.3530     9.7780     6.8270     7.0540   -29.8830     8.6590   125.3340     0.0060     2.5430
 2178.5000  1342.3940     9.8900     6.4040     6.8270   -29.7720     8.6620   124.0040     0.0070     2.5510
 2179.0000  1344.4340     9.5680     5.8150     6.2200   -29.6600     8.6480   124.1240     0.0300     2.5430
 2179.5000  1346.4740     9.1830     5.2250     5.6730   -29.5470     8.6170   124.2990     0.0620     2.4860
 2180.0000  1348.5140     7.2730     4.6350     5.1250   -29.4360     8.7740   123.5250     0.0670     2.3730
 2180.5000  1350.5540     5.5990     4.0450     4.5780   -29.3240     8.9560   122.3000     0.0320     2.2580
 2181.0000  1352.5940     3.9250     3.7730     4.4580   -29.2050     9.0440   121.5920    -0.0040     2.2570
 2181.5000  1354.6350     3.1930     4.0830     4.6930   -29.2310     8.8100   121.6320    -0.0200     2.3630
 2182.0000  1356.6750     4.9180     4.3950     4.9310   -29.5450     8.5500   120.9140    -0.0050     2.4650
 2182.5000  1358.7150     7.0450     4.7070     5.1680   -29.8450     8.4200   118.8340     0.0070     2.5100
 2183.0000  1360.7550     8.3710     5.0190     5.4060   -30.1660     8.4190   116.7170     0.0050     2.5260
 2183.5000  1362.7950     9.0150     5.3320     5.6430   -30.4690     8.4200   116.5900     0.0040     2.5420
 2184.0000  1364.8350     8.9860     5.6440     5.8810   -30.7260     8.4200   118.2940     0.0090     2.5570
 2184.5000  1366.8760     8.9260     5.9560     6.1180   -30.5310     8.4210   120.5830     0.0130     2.5660
 2185.0000  1368.9160     8.8660     6.1590     6.3560   -30.3350     8.4210   122.4560     0.0070     2.5580
 2185.5000  1370.9561     8.8490     6.2590     6.5930   -30.1300     8.4210   122.0410     0.0060     2.5530
 2186.0000  1372.9960     8.9240     6.3580     6.7610   -29.9850     8.4220   120.5980     0.0060     2.5460
 2186.5000  1375.0360     9.0050     6.4580     6.8700   -30.2260     8.4220   119.1530     0.0070     2.5390
 2187.0000  1377.0760     9.0850     6.5570     6.9790   -30.4360     8.4220   120.3280     0.0040     2.5290
 2187.5000  1379.1160     9.1650     6.5990     7.0880   -30.6690     8.4230   124.6160     0.0030     2.5260
 2188.0000  1381.1570     9.2460     6.6510     7.2170   -30.8880     8.4230   129.1490     0.0040     2.5270
 2188.5000  1383.1970     9.3260     6.7020     7.2170   -31.1150     8.4230   134.8100     0.0060     2.5340
 2189.0000  1385.5420     9.4030     6.7060     7.2170   -31.3390     8.4240   136.2700     0.0080     2.5430
 2189.5000  1385.0861     9.5970     6.7260     7.2170   -31.5370     8.4240   135.2590     0.0100     2.5520
 2190.0000  1384.5490     9.7910     6.7450     7.2270   -31.5410     8.4240   131.9900     0.0090     2.5410
 2190.5000  1384.0129    10.0750     6.7650     7.2600   -31.4230     8.4250   130.4520    -0.0030     2.5280
 2191.0000  1383.4760     9.9470     6.7840     7.2940   -31.2770     8.4250   133.7680    -0.0070     2.5160
 2191.5000  1382.9399     9.7640     6.8040     7.3280   -31.1320     8.4250   136.1230    -0.0060     2.5150
 2192.0000  1382.4030     9.5810     6.8230     7.3620   -30.9890     8.4260   136.3960    -0.0020     2.5240
 2192.5000  1381.8669     9.1830     6.8430     7.3960   -30.8450     8.4260   134.1300     0.0100     2.5390
 2193.0000  1381.3300     9.2870     6.8620     7.4290   -30.7010     8.4260   132.1800     0.0190     2.5520
 2193.5000  1380.7939     9.5660     6.8820     7.4630   -30.5570     8.4270   132.2130     0.0220     2.5500
 2194.0000  1380.2570     9.8450     6.9010     7.4970   -30.4130     8.4270   133.2330     0.0260     2.5380
 2194.5000  1379.7200    10.1250     6.9210     7.5310   -30.2690     8.4270   135.0770     0.0020     2.5270
 2195.0000  1379.1840    10.4040     6.9400     7.5640   -30.1240     8.4280   135.4710     0.0040     2.5250
 2195.5000  1378.6470    10.6840     6.9540     7.5970   -29.9830     8.4280   134.0660     0.0070     2.5270
 2196.0000  1378.1110    11.0530     6.9370     7.6280   -29.8330     8.4280   131.7980     0.0030     2.5300
 2196.5000  1377.5740    10.6640     6.9170     7.5920   -29.6940     8.4290   129.5340     0.0070     2.5310
 2197.0000  1377.0380    10.0880     6.8970     7.5580   -29.5820     8.4290   127.9540     0.0030     2.5310
 2197.5000  1376.5010     9.5130     6.8770     7.5240   -29.7650     8.4290   128.8570     0.0030     2.5300
 2198.0000  1375.9650     9.0150     6.8560     7.4900   -29.9350     8.4300   130.4070     0.0050     2.5300
 2198.5000  1375.4280     9.0150     6.8350     7.4560   -30.1200     8.4300   131.9660     0.0050     2.5360
 2199.0000  1374.8920     9.0150     6.8260     7.4210   -30.2960     8.4300   133.5270     0.0050     2.5370
 2199.5000  1374.3550     9.0150     6.8270     7.3870   -30.4750     8.4310   135.1010     0.0080     2.5420
 2200.0000  1373.8180     9.0150     6.8270     7.3530   -30.6550     8.4310   135.4420     0.0110     2.5450
 2200.5000  1373.2820     9.3120     6.8270     7.3180   -30.8340     8.4310   134.9080     0.0130     2.5420
