~VERSION INFORMATION
 VERS.                2.0:   CWLS LOG ASCII STANDARD - VERSION 2.0
 WRAP.                 NO:   ONE LINE PER DEPTH STEP
~WELL INFORMATION
#MNEM.UNIT      DATA TYPE    INFORMATION
#----------   ------------   ------------------------------
 STRT.F         2933.0000:   START DEPTH
 STOP.F         5494.0000:   STOP DEPTH
 STEP.F            0.5000:   STEP LENGTH
 NULL.          -999.2500:   NO VALUE
 COMP.    FENIX & SCISSON:   COMPANY
 WELL. FENIX "TPX" #56-10:   WELL
 FLD .        TEAPOT DOME:   FIELD
 LOC .      S10 T38N R78W:   LOCATION
 CNTY.            NATRONA:   COUNTY
 STAT.            WYOMING:   STATE
 CTRY. UNITED STATES OF AMERICA:   COUNTRY
 SRVC.       SCHLUMBERGER:   SERVICE COMPANY
 DATE.        22-MAY-1978:   LOGDATE
 API .     49025106100000:   API NUMBER
~CURVE INFORMATION
#MNEM.UNIT       API CODE    CURVE DESCRIPTION
#----------   ------------   ------------------------------
 DEPT.F                  :   
 NPHI.DEC    42 890 03 00:   NEUTRON POROSITY SANDSTONE
 GRD .GAPI   45 310 01 00:   GAMMA RAY FROM DENSITY LOG
 CALD.IN     45 280 60 00:   CALIPER FROM DENSITY LOG
 CORR.G/C3   45 356 01 00:   DENSITY CORRECTION
 RHOB.G/C3   45 350 01 00:   BULK DENSITY
 SPR .MV     07 010 01 00:   SPONTANEOUS POTENTIAL
 ILD .OHMM   07 120 46 00:   INDUCTION LOG DEEP RESISTIVITY
 ILM .OHMM   07 120 44 00:   INDUCTION LOG MEDIUM RESISTIVITY
 SFL .OHMM   07 220 01 00:   SHALLOW FOCUSED LOG RESISITIVITY
 DT  .US/F   60 520 00 00:   DELTA TIME
~PARAMETER INFORMATION
#MNEM.UNIT          VALUE    DESCRIPTION
#----------   ------------   ------------------------------
 EKB .F         5212.0000:   Kelly bushing
 EGL .F         5202.0000:   Ground level
 TD  .F         5500.0000:   Total depth
 CLNT.            A2DTECH:   Client Code
 SL  . 1270' FSL & 2130' FEL:   Surface Location
 PD  .                 GL:   Permanent Datum
 EPD .F              5202:   Elevation Permanent Datum
 LMF .                 KB:   Log Measured From
 DMF .                 KB:   Drilling Measured From
 DAPD.F                10:   Feet Above Permanent Datum
 DATE.        22-MAY-1978:   Date Logged [DD-MMM-YYYY]
 DD  .F              5500:   Depth driller
 DL  .F              5499:   Depth logger
 BLI .F              5497:   Bottom log interval
 TLI .F              2971:   Top log interval
 CS1 .IN            8.625:   Casing size
 CBD1.     8.625" @ 2972':   Casing driller 1
 CBL1.F              2971:   Casing logger 1
 BS1 .IN            7.875:   Bit size
 BSD1.F              5500:   Depth drilled with bit1
 DFT .                FGM:   Type fluid in hole
 DFD .                9.3:   Density
 DFV .                 57:   Viscosity
 DFPH.               10.5:   pH
 DFL .                  6:   Fluid loss
 MSS .           MUD TANK:   Source of sample
 RMS .OHMM           0.93:   Rm
 MST .F                58:   Rm Meas. temp.
 RMF .OHMM           0.71:   Rmf
 MFST.F                61:   Rmf Meas. temp.
 MFSS.               MEAS:   Source Rmf.
 RMB .OHMM           0.27:   Rm. at BHT
 BHT .F               198:   BHT.
 TCS .HRS            1500:   Time Circ. stopped
 TLAB.HRS            0100:   Time logger at bottom
 MRT .F               198:   Maximum recorded temp.
 LUN .               8039:   Logging unit number
 LUL .               CSPR:   Logging unit location
 ENGI.          CHALUPSKY:   Recorded By
 WITN.            RHOADES:   Witnessed by
 ORIG.      2.5" 5" PRINT:   Origin of data
 UWI .     49025106100000:   Unique Well ID
 DICO. A2D TECHNOLOGIES, INC.:   Digitizing Company
~OTHER INFORMATION
~A  DEPTH     NPHI        GRD       CALD       CORR       RHOB        SPR        ILD        ILM        SFL         DT
# ...
 3134.0000     0.2545   100.3012     9.8492     0.0500     2.4906   -55.4743     4.4677     4.9009     5.3878    82.6898
 3134.5000     0.2646   103.3392     9.8601     0.0503     2.4729   -55.7747     4.5275     4.9676     6.0591    81.6423
 3135.0000     0.2909   104.4578     9.9144     0.0190     2.4536   -56.0747     4.6253     4.8288     6.2279    82.4745
 3135.5000     0.2933   105.0723     9.8845     0.0058     2.4535   -56.6773     4.8463     4.9969     6.0429    83.9083
 3136.0000     0.2856   104.4808     9.8847     0.0072     2.4758   -57.2856     5.0143     5.1707     5.4152    84.4385
 3136.5000     0.2809   104.4940     9.8848     0.0278     2.4876   -57.2731     5.2605     5.3879     5.3452    83.5427
 3137.0000     0.2803   103.7491     9.8736     0.0366     2.4843   -57.2749     5.3317     5.4230     5.6090    83.6231
 3137.5000     0.2898   102.1067     9.8251     0.0366     2.4784   -57.2764     5.2913     5.3765     5.6863    83.7773
 3138.0000     0.2927   100.7188     9.8116     0.0366     2.4728   -57.4271     5.2519     5.3060     5.6457    83.4831
 3138.5000     0.2945    99.7207     9.7653     0.0365     2.4816   -57.5778     5.3230     5.4521     5.5670    83.9394
 3139.0000     0.2886    99.7349     9.7655     0.0350     2.5008   -58.1763     5.5068     5.6028     5.5275    84.9220
 3139.5000     0.2807    99.4871     9.7656     0.0365     2.5172   -58.4762     5.6977     5.7577     5.5263    84.5512
 3140.0000     0.2651    98.8752     9.7358     0.0524     2.5423   -58.7762     6.0190     5.9995     5.6411    82.8271
 3140.5000     0.2386    98.8684     9.7359     0.0923     2.5748   -58.7777     6.3656     6.2514     6.0860    80.8816
 3141.0000     0.2182   100.4299     9.7361     0.0893     2.5615   -58.1821     6.6399     6.6050     7.1485    77.8502
 3141.5000     0.2136   104.8731     9.7362     0.0587     2.5009   -57.4373     6.8070     6.8348     8.0945    76.1522
 3142.0000     0.2147   112.4602     9.7664     0.0011     2.4757   -56.9830     6.8982     6.9753     8.4786    76.3825
 3142.5000     0.2271   112.6855     9.7665     0.0525     2.4964   -56.6741     6.9906     7.0692     8.4180    79.1696
 3143.0000     0.2437   108.2670     9.7667     0.0893     2.5097   -56.6958     6.9376     7.0731     7.7994    80.6785
 3143.5000     0.2496   100.4475     9.7668     0.1422     2.4905   -56.8465     6.8869     7.4222     7.1270    81.4356
 3144.0000     0.2407    95.0377     9.7670     0.1598     2.4387   -56.9972     7.3758     7.7781     7.0276    79.6363
 3144.5000     0.2260    92.0374     9.8272     0.1539     2.3835   -56.8495     8.0105     8.1047     7.5819    76.1828
 3145.0000     0.2100    90.2421     9.8574     0.1120     2.3482   -56.4028     8.4623     8.3867     9.1602    73.7820
 3145.5000     0.2079    89.0491     9.8877     0.0650     2.3627   -55.9565     8.8165     8.7389    10.7663    72.5741
 3146.0000     0.2105    88.4585     9.9501     0.0793     2.4394   -55.9583     9.3137     9.2331    11.2192    73.1808
 3146.5000     0.2105    88.4226    10.0080     0.1204     2.5249   -56.4075     9.6338     9.5544    11.2116    74.8514
 3147.0000     0.2081    89.0846    10.0415     0.1224     2.5511   -57.0060     9.8689     9.8185    11.3636    73.5032
 3147.5000     0.2052    96.3254    10.0683     0.0876     2.5272   -57.0075    10.1096    10.0201    11.6769    72.7565
 3148.0000     0.2028    98.1607    10.0685     0.0449     2.5200   -57.4567    10.2454    10.2259    12.1648    72.0098
 3148.5000     0.2004    98.7590    10.0085     0.0317     2.5300   -57.3089    10.3812    10.3639    12.1582    70.9623
 3149.0000     0.1987    98.1681    10.0087     0.0302     2.5377   -57.0119    10.2297    10.3587    12.1516    71.4938
 3149.5000     0.2052    98.8628     9.9788     0.0331     2.5451   -57.0137     9.9435    10.2102    12.1450    71.9501
 3150.0000     0.2147   100.4000     9.9790     0.0346     2.5495   -57.3137     9.5324     9.9261    11.8885    74.8125
 3150.5000     0.2232   105.7980     9.9791     0.0360     2.5524   -57.4644     9.0125     9.3859    11.4627    76.3966
 3151.0000     0.2309   106.6506     9.9793     0.0375     2.5506   -57.8256     8.8825     8.9991    10.8246    77.4544
 3151.5000     0.2337   105.2939     9.9794     0.0330     2.5365   -58.3345     8.7544     8.7487    10.2591    78.0611
 3152.0000     0.2355   103.2926     9.9940     0.0250     2.5196   -58.5136     8.6281     8.6241     9.8356    77.9159
 3152.5000     0.2378   102.2645    10.0098     0.0153     2.4996   -58.2161     8.4391     8.5012     9.5613    76.5677
 3153.0000     0.2323   101.8773    10.0099     0.0124     2.4822   -57.6210     8.1507     8.2644     9.2946    75.8210
 3153.5000     0.2238   104.8318    10.0101     0.0171     2.4686   -57.1747     7.7062     8.1466     9.2266    75.9179
 3154.0000     0.2294   111.3501    10.0102     0.0307     2.4743   -56.7284     7.0869     7.8109     9.9513    76.8275
 3154.5000     0.2633   117.8242    10.1305     0.0637     2.4835   -56.2743     6.2521     7.2840    10.3699    79.0153
 3155.0000     0.3016   120.3111    10.2808     0.1123     2.4799   -56.1343     5.8298     6.6069     8.8965    81.5791
 3155.5000     0.3130   120.6145    10.4912     0.1123     2.4195   -56.1361     5.4361     5.9927     6.4629    87.0235
 3156.0000     0.3256   119.9199    10.3712     0.0849     2.3883   -56.1376     4.9992     5.5115     5.1596    90.9895
 3156.5000     0.3083   118.8336    10.0110     0.0181     2.3765   -55.5420     4.7266     5.0631     4.6814    91.8285
 3157.0000     0.2912   118.2430    10.0111     0.0093     2.4149   -54.9461     4.5312     4.7821     4.4671    92.4355
 3157.5000     0.2931   118.2548    10.0113     0.0246     2.4739   -54.6491     4.4044     4.4077     4.4963    89.1364
 3158.0000     0.3022   118.8691    10.0114     0.0638     2.4946   -54.9494     4.2811     4.3149     4.6203    87.4897
 3158.5000     0.3131   119.4833    10.0116     0.0747     2.5064   -55.5479     4.1902     4.2830     4.8134    88.0985
 3159.0000     0.3128   120.7000    10.0417     0.0639     2.4827   -56.1464     4.2165     4.3108     4.8786    87.3540
 3159.5000     0.3060   121.9167    10.0728     0.0459     2.4665   -56.4463     4.3313     4.3393     4.8753    86.7598
 3160.0000     0.2977   121.9285    10.1041     0.0460     2.4709   -56.4478     4.3895     4.3973     4.8726    86.3160
 3160.5000     0.2924   120.7349    10.1323     0.0473     2.4753   -56.4493     4.4477     4.4566     4.8700    87.2286
 3161.0000     0.2835   120.7093    10.0382     0.0355     2.4658   -56.4507     4.5059     4.4544     4.8674    86.5523
 3161.5000     0.2788   120.7592    10.0124     0.0135     2.4525   -56.6274     4.5028     4.5145     4.9327    86.4884
 3162.0000     0.2888   121.9759    10.0126     0.0061     2.4564   -57.0510     4.5633     4.5754     4.9697    86.7984
 3162.5000     0.2949   120.0550    10.0278     0.0105     2.4841   -57.6495     4.5595     4.7073     4.9267    86.6535
 3163.0000     0.2876   113.9381    10.1417     0.0222     2.4885   -57.9495     4.6200     4.9049     4.8562    87.7153
 3163.5000     0.2651   107.8862    10.1041     0.0178     2.4870   -57.9509     4.6812     5.1757     4.6881    85.2415
 3164.0000     0.2448   104.2901     9.9916     0.0104     2.4968   -57.9524     4.8156     5.5065     4.8509    81.6398
 3164.5000     0.2110   102.6496     9.9533     0.0060     2.5075   -57.8046     5.7979     6.1926     6.3541    77.8126
 3165.0000     0.1753   102.1674     9.9535     0.0015     2.5040   -57.6564     7.3263     7.1106     8.2085    73.3086
 3165.5000     0.1728   102.7831     9.9395     0.0001     2.4995   -57.0613     8.1228     7.9413    10.3858    71.8122
 3166.0000     0.1743   103.1413     9.9237     0.0030     2.5047   -56.6150     8.8206     8.6264    12.3454    71.5188
 3166.5000     0.1800   105.9905     9.9253     0.0088     2.5254   -56.4672     9.5124     9.2416    12.7741    71.9785
 3167.0000     0.1876   110.4777     9.9273     0.0178     2.5401   -56.1701    10.1172     9.9006    12.4990    73.1889
