~VERSION INFORMATION
 VERS.                2.0:   CWLS LOG ASCII STANDARD - VERSION 2.0
 WRAP.                 NO:   ONE LINE PER DEPTH STEP
~WELL INFORMATION
#MNEM.UNIT      DATA TYPE    INFORMATION
#----------   ------------   ------------------------------
 STRT.F          200.5000:   START DEPTH
 STOP.F         3164.0000:   STOP DEPTH
 STEP.F            0.5000:   STEP LENGTH
 NULL.          -999.2500:   NO VALUE
 COMP. FENIX & SCISSON U.S NAVY:   COMPANY
 WELL. FENIX & SCISSON "A" #83-4:   WELL
 FLD .              NPR-3:   FIELD
 LOC .       S4 T38N R78W:   LOCATION
 CNTY.            NATRONA:   COUNTY
 STAT.            WYOMING:   STATE
 CTRY. UNITED STATES OF AMERICA:   COUNTRY
 SRVC.       SCHLUMBERGER:   SERVICE COMPANY
 DATE.        25-MAY-1977:   LOGDATE
 API .     49025103660000:   API NUMBER
~CURVE INFORMATION
#MNEM.UNIT       API CODE    CURVE DESCRIPTION
#----------   ------------   ------------------------------
 DEPT.F                  :   
 CALD.IN     45 280 60 00:   CALIPER FROM DENSITY LOG
 GRD .GAPI   45 310 01 00:   GAMMA RAY FROM DENSITY LOG
 RHOB.G/C3   45 350 01 00:   BULK DENSITY
 CORR.G/C3   45 356 01 00:   DENSITY CORRECTION
 SPR .MV     07 010 01 00:   SPONTANEOUS POTENTIAL
 SFLU.OHMM   07 220 01 00:   SPHERICALLY FOCUSED LOG UNAVERAGED RESISTIVITY
 ILD .OHMM   07 120 46 00:   DEEP INDUCTION RESISTIVITY
 ILM .OHMM   07 120 44 00:   INDUCTION LOG MEDIUM RESISTIVITY
~PARAMETER INFORMATION
#MNEM.UNIT          VALUE    DESCRIPTION
#----------   ------------   ------------------------------
 EKB .F         5163.0000:   Kelly bushing
 EGL .F         5149.0000:   Ground level
 EDF .F            0.0000:   Drilling floor
 EPD .F            0.0000:   Permanent datum
 TD  .F         3173.0000:   Total depth
 DATE.        25-MAY-1977:   Date logged
 CLNT.            A2DTECH:   Client Code
 SL  . 1650' FNL & 330 ' FEL:   Surface Location
 PD  .                 GL:   Permanent Datum
 DAPD.F                14:   Feet Above Permanent Datum
 DD  .F              3173:   Depth driller
 DL  .F              3157:   Depth logger
 BLI .F              3165:   Bottom log interval
 TLI .F               200:   Top log interval
 CS1 .IN            8.625:   Casing size
 CBD1.      8.625" @ 204':   Casing driller 1
 CBL1.F               220:   Casing logger 1
 BS1 .IN            7.875:   Bit size
 BSD1.F              3173:   Depth drilled with bit1
 DFT .            KCL MUD:   Type fluid in hole
 DFD .                8.8:   Density
 DFV .                 37:   Viscosity
 DFPH.                7.5:   pH
 DFL .                4.4:   Fluid loss
 MSS .           FLOWLINE:   Source of sample
 RMS .OHMM            .39:   Rm
 MST .F                79:   Rm Meas. temp.
 RMF .OHMM            .31:   Rmf
 MFST.F                79:   Rmf Meas. temp.
 RMC .OHMM            .63:   Rmc
 MCST.F                79:   Rmc Meas. temp.
 MFSS.           FANN KIT:   Source Rmf.
 MCSS.           FANN KIT:   Source Rmc.
 RMB .OHMM            .27:   Rm. at BHT
 BHT .F               112:   BHT.
 TCS .HRS             2.5:   Time Circ. stopped
 MRT .F               112:   Maximum recorded temp.
 LUN .               8611:   Logging unit number
 LUL .             CASPER:   Logging unit location
 ENGI.            C. DOAK:   Recorded By
 WITN.      B. HARRINGTON:   Witnessed by
 ORIG.       2.5"5" PRINT:   Origin of data
 UWI .     49025103660000:   Unique Well ID
 DICO. A2D TECHNOLOGIES, INC.:   Digitizing Company
~OTHER INFORMATION
~A   DEPT     CALD        GRD         RHOB     CORR        SPR       SFLU        ILD        ILM   
  200.5000  -999.2500  -999.2500     1.4342  -999.2500  -999.2500  -999.2500  -999.2500  -999.2500
  201.0000     8.1782    75.7141     1.4264    -0.4036  -999.2500  -999.2500  -999.2500  -999.2500
  201.5000     8.1784    76.5125     1.4264    -0.4074  -999.2500  -999.2500  -999.2500  -999.2500
  202.0000     8.1791    77.3062     1.4402    -0.3995  -999.2500  -999.2500  -999.2500  -999.2500
  202.5000     8.1796    76.5361     1.4363    -0.4034  -999.2500  -999.2500  -999.2500  -999.2500
  203.0000     8.1803    76.5455     1.4051    -0.4073  -999.2500  -999.2500  -999.2500  -999.2500
  203.5000     8.1808    76.5597     1.3739    -0.4269  -999.2500  -999.2500  -999.2500  -999.2500
  204.0000     8.1815    76.5691     1.3428    -0.4269  -999.2500  -999.2500  -999.2500  -999.2500
  204.5000     8.1819    77.3675     1.3126    -0.4425  -999.2500  -999.2500  -999.2500  -999.2500
  205.0000     8.1827    77.3769     1.3106    -0.4464  -999.2500  -999.2500  -999.2500  -999.2500
  205.5000     8.1831    77.3910     1.3048    -0.4503  -999.2500  -999.2500  -999.2500  -999.2500
  206.0000     8.1838    78.1847     1.3087    -0.4502  -999.2500  -999.2500  -999.2500  -999.2500
  206.5000     8.1843    78.9832     1.3146    -0.4541  -999.2500  -999.2500  -999.2500  -999.2500
  207.0000     8.1850    78.9926     1.3186    -0.4541  -999.2500  -999.2500  -999.2500  -999.2500
  207.5000     8.1855    79.0067     1.3325    -0.4579  -999.2500  -999.2500  -999.2500  -999.2500
  208.0000     8.1862    79.8004     1.3442    -0.4579  -999.2500  -999.2500  -999.2500  -999.2500
  208.5000     8.2651    79.8145     1.3501    -0.4618  -999.2500  -999.2500  -999.2500  -999.2500
  209.0000     8.2658    79.0397     1.3819    -0.4578  -999.2500  -999.2500  -999.2500  -999.2500
  209.5000     8.2588    79.8381     1.4158    -0.4460  -999.2500  -999.2500  -999.2500  -999.2500
  210.0000     8.2517    81.4161     1.4496    -0.4263  -999.2500  -999.2500  -999.2500  -999.2500
  210.5000     8.2447    80.6459     1.5349    -0.4183  -999.2500  -999.2500  -999.2500  -999.2500
  211.0000     8.2376    81.4396     1.5290    -0.4143  -999.2500  -999.2500  -999.2500  -999.2500
  211.5000     8.2306    81.8380     1.5939    -0.4104  -999.2500  -999.2500  -999.2500  -999.2500
  212.0000     8.2236    81.0632     1.6175    -0.4064  -999.2500  -999.2500  -999.2500  -999.2500
  212.5000     8.2165    79.5088     1.6922    -0.4002  -999.2500  -999.2500  -999.2500  -999.2500
  213.0000     8.2095    77.9496     1.7138    -0.3985  -999.2500  -999.2500  -999.2500  -999.2500
  213.5000     8.2024    77.1795     1.7414    -0.3887  -999.2500  -999.2500  -999.2500  -999.2500
  214.0000     8.1540    75.6204     1.8063    -0.3790  -999.2500  -999.2500  -999.2500  -999.2500
  214.5000     8.1937    75.6345     1.9006    -0.3512  -999.2500  -999.2500  -999.2500  -999.2500
  215.0000     8.1944    77.2125     1.9341    -0.3315  -999.2500  -999.2500  -999.2500  -999.2500
  215.5000     8.1949    76.8423     2.0537    -0.3118  -999.2500  -999.2500  -999.2500  -999.2500
  216.0000     8.4701    78.4203     2.0635    -0.2292  -999.2500  -999.2500  -999.2500  -999.2500
  216.5000     8.9411    80.7873     2.2463    -0.2134  -999.2500  -999.2500  -999.2500  -999.2500
  217.0000     8.7066    83.9338     2.2581    -0.1583  -999.2500  -999.2500  -999.2500  -999.2500
  217.5000     9.0212    88.6536     2.3860    -0.0117  -999.2500  -999.2500  -999.2500  -999.2500
  218.0000     8.9036    91.0158     2.4941     0.0698  -999.2500  -999.2500  -999.2500     2.9117
  218.5000     8.5514    93.3828     2.3880     0.0620  -999.2500  -999.2500  -999.2500     2.9115
  219.0000     9.1011    93.3922     2.3959     0.0490  -999.2500  -999.2500     3.8198     3.2820
  219.5000     9.6113    93.4063     2.4273     0.0385  -999.2500  -999.2500     4.0327     3.6997
  220.0000    10.7508    93.4157     2.4667     0.0386    -1.1185  -999.2500     4.6608     4.1705
  220.5000    12.9856    93.4299     2.4804     0.0386    -2.2828  -999.2500     5.4855     4.7011
  221.0000    12.8682    93.4393     2.4725     0.0387    -5.2011  -999.2500     6.4557     5.2994
  221.5000    12.8686    95.4109     2.4667     0.0387    -8.1193     7.8778     7.3276     5.7901
  222.0000    12.9086    95.4157     2.4549     0.0349   -11.0376     8.4687     7.7353     5.7890
  222.5000    12.9090    95.4298     2.4529     0.0310   -13.9558     8.3155     7.4591     5.8944
  223.0000    12.9489    95.4392     2.4490     0.0271   -16.8741     8.0181     7.4577     5.9940
  223.5000    12.9886    95.4533     2.4491     0.0272   -18.5852     7.7318     7.4567     6.0953
  224.0000    12.9501    95.4628     2.4629     0.0351   -20.1606     7.5915     7.3214     6.1982
  224.5000    12.9506    95.4769     2.4668     0.0351   -21.7360     7.4543     7.4543     6.3029
  225.0000    12.9905    95.4863     2.4688     0.0391   -23.3114     8.0129     7.7278     6.4471
  225.5000    12.9518    96.6847     2.4727     0.0392   -24.8868     8.1582     7.8680     6.4467
  226.0000    12.9525    96.6941     2.4728     0.0392   -26.4621     8.4575     8.0102     6.5633
  226.5000    12.9529    95.1397     2.4728     0.0393   -28.6892     8.6110     8.1556     6.6824
  227.0000    12.9929    94.3649     2.4690     0.0354   -29.3535     8.7666     8.3035     6.7548
  227.5000    12.9541    93.5947     2.4670     0.0355   -29.3567     8.9257     8.3019     6.8280
  228.0000    12.9940    93.6042     2.4651     0.0395   -30.9117     9.0870     8.4520     6.9021
  228.5000    12.9945    94.4026     2.4611     0.0395   -31.6900     9.4209     8.4509     6.9769
  229.0000    12.9955    94.4120     2.4730     0.0435   -32.8575     9.2903     8.1486     7.0496
  229.5000    12.9959    93.6418     2.4809     0.0435   -33.2482     8.2965     7.8577     7.0487
  230.0000    12.9962    92.8670     2.4848     0.0436   -33.6405     7.7152     7.8562     7.0482
  230.5000    12.9969    92.0969     2.4888     0.0476   -34.0312     7.4398     7.3077     6.9350
  231.0000    12.9973    92.8905     2.4888     0.0476   -34.4234     7.8536     7.3063     6.8236
  231.5000    12.9983    92.9047     2.4888     0.0477   -34.8141     7.9961     7.1743     6.7140
  232.0000    12.9988    93.6984     2.4889     0.0517   -34.8188     8.5951     7.1729     6.6061
  232.5000    12.9210    93.7125     2.4869     0.0543   -34.8219     8.9109     7.3030     6.5000
  233.0000    12.9215    93.7219     2.4830     0.0557   -34.8266     8.4381     7.3016     6.3956
  233.5000    12.8828    93.7361     2.4771     0.0558   -34.8297     8.4370     7.3006     6.3149
  234.0000    12.9619    93.7455     2.4654     0.0637   -35.2220     8.2839     7.2992     6.2004
  234.5000    12.9624    95.3281     2.4634     0.0716   -35.6127     8.2829     7.4316     6.1996
  235.0000    12.9631    96.9061     2.4575     0.0756   -36.0050     8.2812     7.8450     6.3247
  235.5000    12.9635    97.7045     2.4497     0.0874   -36.0081     8.4314     8.1332     6.4523
  236.0000    12.9642    97.7139     2.3769     0.0875   -37.1755     8.5838     9.0654     6.5824
  236.5000    12.9647    97.7281     2.3416     0.0836   -37.5662     8.7394    13.1377     6.7152
  237.0000    12.9262    97.7375     2.3426     0.0798   -38.3461     9.2254    18.6954     6.9049
  237.5000    12.5090    97.7516     2.2925     0.0680   -38.7368     9.5643    14.2209     6.9044
  238.0000    12.0919    98.5453     2.3502     0.0484   -39.1291    10.0961     9.7385     6.9040
  238.5000    11.6747   100.5170     2.4020     0.0249   -39.1322    10.4669     9.7378     7.0334
  239.0000    11.2575    99.7374     2.4479     0.0210   -39.1369    10.6560     9.5612     7.1652
  239.5000    10.8404    98.1830     2.4519     0.0171   -38.7524    11.0473     9.5606     7.2996
  240.0000    10.8512    97.4081     2.4479     0.0093   -37.9819    11.0458     9.7333     7.4364
  240.5000     9.9892    96.6380     2.4518     0.0094   -37.5974    11.2453     9.7313     7.5758
