~VERSION INFORMATION
 VERS.                2.0:   CWLS LOG ASCII STANDARD - VERSION 2.0
 WRAP.                 NO:   ONE LINE PER DEPTH STEP
~WELL INFORMATION
#MNEM.UNIT      DATA TYPE    INFORMATION
#----------   ------------   ------------------------------
 STRT.F            0.0000:   START DEPTH
 STOP.F         3964.0000:   STOP DEPTH
 STEP.F            0.5000:   STEP LENGTH
 NULL.          -999.2500:   NO VALUE
 COMP. LAWRENCE ALLISON & ASSOCIATES:   COMPANY
 WELL. LAWRENCE NPR 3 "X" #43-10:   WELL
 FLD .              N P R:   FIELD
 LOC .      S10 T38N R78W:   LOCATION
 CNTY.            NATRONA:   COUNTY
 STAT.            WYOMING:   STATE
 CTRY. UNITED STATES OF AMERICA:   COUNTRY
 SRVC.      DRESSER ATLAS:   SERVICE COMPANY
 DATE.        07-AUG-1985:   LOGDATE
 API .     49025111390000:   API NUMBER
~CURVE INFORMATION
#MNEM.UNIT       API CODE    CURVE DESCRIPTION
#----------   ------------   ------------------------------
 DEPT.F                  :   
 CNC .DEC    42 890 03 00:   NEUTRON PORISITY SANDSTONE
 RHOB.G/C3   45 350 01 00:   BULK DENSITY
 CORR.G/C3   45 356 01 00:   DENSITY CORRECTION
 TEND.LBS    45 635 01 00:   TENSION FROM DENSITY LOG
 GRR .GAPI   07 310 01 00:   GAMMA RAY FROM RESISTIVITY
 CALR.IN     07 280 01 00:   CALIPER FROM RESISTIVITY
 SPR .MV     07 010 01 00:   SPONTANEOUS POTENTIAL
 TENR.LBS    07 635 01 00:   TENSION FROM RESISTIVITY
 RILD.OHMM   07 120 46 00:   DEEP INDUCTION RESISTIVITY
 RILM.OHMM   07 120 44 00:   INDUCTION LOG MEDIUM RESISTIVITY
 RFOC.OHMM   07 220 04 00:   RESISTIVITY FOCUSED LOG RES.
 DT  .US/F   60 520 00 00:   DELTA TIME
 TENS.LBS    60 635 01 00:   TENSION FROM SONIC
~PARAMETER INFORMATION
#MNEM.UNIT          VALUE    DESCRIPTION
#----------   ------------   ------------------------------
 EKB .F         5223.0000:   Kelly bushing
 EGL .F         5211.0000:   Ground level
 EDF .F            0.0000:   Drilling floor
 EPD .F         5211.0000:   Permanent datum
 TD  .F         3950.0000:   Total depth
 DATE.        07-AUG-1985:   Date logged
 CLNT.            A2DTECH:   Client Code
 SL  . 2016' FNL & 2230' FWL:   Surface Location
 PD  .                 GL:   Permanent Datum
 DD  .F              3950:   Depth driller
 DL  .F              3950:   Depth logger
 BLI .F              3948:   Bottom log interval
 CS1 .IN            8.625:   Casing size
 CBD1.      8.625" @ 518':   Casing driller 1
 CBL1.F               520:   Casing logger 1
 BS1 .IN            7.875:   Bit size
 DFT .            KCL-GEL:   Type fluid in hole
 DFD .                8.9:   Density
 DFV .                 40:   Viscosity
 DFPH.                  9:   pH
 DFL .                 12:   Fluid loss
 MSS .           FLOWLINE:   Source of sample
 RMS .OHMM           .318:   Rm
 MST .F                82:   Rm Meas. temp.
 RMF .OHMM            .24:   Rmf
 MFST.F                82:   Rmf Meas. temp.
 RMC .OHMM            .40:   Rmc
 MCST.F                82:   Rmc Meas. temp.
 MFSS.               CALC:   Source Rmf.
 RMB .OHMM            .19:   Rm. at BHT
 BHT .F               140:   BHT.
 TCS .HRS               4:   Time Circ. stopped
 MRT .F               140:   Maximum recorded temp.
 LUN .               6264:   Logging unit number
 LUL .               GLTE:   Logging unit location
 ENGI.           FAHLSING:   Recorded By
 WITN.             STRONG:   Witnessed by
 ORIG.           5" PRINT:   Origin of data
 UWI .     49025111390000:   Unique Well ID
 DICO. A2D TECHNOLOGIES, INC.:   Digitizing Company
 DAPD.                 12:   Feet Above Permanent Datum
 BSD1.               3950:   Depth drilled with bit1
 MCSS.               CALC:   Source Rmc.
~OTHER INFORMATION
~A    DEPT     CNC       RHOB       CORR       TEND         GRR      CALR        SPR       TENR       RILD       RILM       RFOC         DT       TENS   
# ...
 1196.0000  -999.2500  -999.2500  -999.2500  -999.2500    96.8350    10.6760   -76.2020   -66.1030     8.1260     7.7410     8.6110  -999.2500  -999.2500
 1196.5000  -999.2500  -999.2500  -999.2500  -999.2500    96.2000    10.6620   -76.1150   -66.1030     8.2010     7.6870     8.0870  -999.2500  -999.2500
 1197.0000  -999.2500  -999.2500  -999.2500  -999.2500    93.8260    10.6360   -76.0280   -66.1030     8.2760     7.7220     7.8250  -999.2500  -999.2500
 1197.5000  -999.2500  -999.2500  -999.2500  -999.2500    91.7730    10.6100   -75.9420   -66.1030     8.3430     7.7790     7.9830  -999.2500  -999.2500
 1198.0000  -999.2500  -999.2500  -999.2500  -999.2500    92.0580    10.6440   -75.9330   -66.1030     8.3030     7.8350     8.1140  -999.2500  -999.2500
 1198.5000  -999.2500  -999.2500  -999.2500  -999.2500    94.7090    10.6840   -75.9330   -66.1030     8.2580     7.8910     8.0960  -999.2500  -999.2500
 1199.0000  -999.2500  -999.2500  -999.2500  -999.2500    97.3010    10.6840   -75.9330   -66.1030     8.1960     7.9850     8.0730  -999.2500  -999.2500
 1199.5000  -999.2500  -999.2500  -999.2500  -999.2500    99.5860    10.6520   -75.9330   -66.1030     8.3440     8.1110     8.0450  -999.2500  -999.2500
 1200.0000  -999.2500  -999.2500  -999.2500  -999.2500    98.5240    10.6220   -76.0980   -66.1030     8.6030     8.2370     8.2300  -999.2500  -999.2500
 1200.5000  -999.2500  -999.2500  -999.2500  -999.2500    94.6560    10.5980   -76.4280   -66.1030     8.8620     8.3630     8.4980  -999.2500  -999.2500
 1201.0000  -999.2500  -999.2500  -999.2500  -999.2500    90.8270    10.5790   -76.7610   -66.1030     9.1430     8.4890     8.7660  -999.2500  -999.2500
 1201.5000  -999.2500  -999.2500  -999.2500  -999.2500    89.0260    10.5600   -77.0950   -66.1030     9.2750     8.5790     9.0490  -999.2500  -999.2500
 1202.0000  -999.2500  -999.2500  -999.2500  -999.2500    92.6540    10.5410   -77.0320   -66.1030     9.4180     8.6110     9.4840  -999.2500  -999.2500
 1202.5000  -999.2500  -999.2500  -999.2500  -999.2500    94.0520    10.5300   -76.9400   -66.1030     9.5710     8.6430     9.4140  -999.2500  -999.2500
 1203.0000  -999.2500  -999.2500  -999.2500  -999.2500    91.5260    10.5360   -76.8490   -66.1030     9.4930     8.6750     9.2830  -999.2500  -999.2500
 1203.5000  -999.2500  -999.2500  -999.2500  -999.2500    88.7320    10.5410   -76.7590   -66.1030     9.4110     8.7070     9.1520  -999.2500  -999.2500
 1204.0000  -999.2500  -999.2500  -999.2500  -999.2500    85.9430    10.5470   -76.5930   -66.1030     9.3280     8.7340     9.0220  -999.2500  -999.2500
 1204.5000  -999.2500  -999.2500  -999.2500  -999.2500    83.1650    10.5550   -76.3680   -66.1030     9.2450     8.7120     8.8910  -999.2500  -999.2500
 1205.0000  -999.2500  -999.2500  -999.2500  -999.2500    81.4410    10.5650   -76.1430   -66.1030     9.1450     8.6900     8.7600  -999.2500  -999.2500
 1205.5000  -999.2500  -999.2500  -999.2500  -999.2500    80.7320    10.5740   -75.9180   -66.1030     9.0400     8.6680     8.6540  -999.2500  -999.2500
 1206.0000  -999.2500  -999.2500  -999.2500  -999.2500    84.4660    10.5840   -75.7320   -66.1030     8.9770     8.6460     8.8790  -999.2500  -999.2500
 1206.5000  -999.2500  -999.2500  -999.2500  -999.2500    89.5440    10.5970   -75.7360   -66.1030     9.1730     8.6230     9.1430  -999.2500  -999.2500
 1207.0000  -999.2500  -999.2500  -999.2500  -999.2500    87.9780    10.6130   -75.7370   -66.1030     9.3120     8.6010     8.6960  -999.2500  -999.2500
 1207.5000  -999.2500  -999.2500  -999.2500  -999.2500    86.2760    10.6290   -75.7370   -66.1030     9.2270     8.5750     8.2670  -999.2500  -999.2500
 1208.0000  -999.2500  -999.2500  -999.2500  -999.2500    87.9160    10.6460   -75.7370   -66.1030     9.2480     8.5810     8.5930  -999.2500  -999.2500
 1208.5000  -999.2500  -999.2500  -999.2500  -999.2500    90.5540    10.6620   -75.7360   -66.1030     9.2620     8.5880     8.9770  -999.2500  -999.2500
 1209.0000  -999.2500  -999.2500  -999.2500  -999.2500    90.5410    10.6780   -75.7720   -66.1030     9.2770     8.5960     8.7860  -999.2500  -999.2500
 1209.5000  -999.2500  -999.2500  -999.2500  -999.2500    88.5270    10.6940   -75.8260   -66.1030     9.2920     8.6030     8.6020  -999.2500  -999.2500
 1210.0000  -999.2500  -999.2500  -999.2500  -999.2500    88.2690    10.7100   -75.8800   -66.1030     9.3120     8.6110     8.5480  -999.2500  -999.2500
 1210.5000  -999.2500  -999.2500  -999.2500  -999.2500    90.3300    10.7260   -75.9470   -66.1030     9.2800     8.6180     8.5170  -999.2500  -999.2500
 1211.0000  -999.2500  -999.2500  -999.2500  -999.2500    91.7520    10.7420   -76.2560   -66.1030     9.2310     8.6250     8.4860  -999.2500  -999.2500
 1211.5000  -999.2500  -999.2500  -999.2500  -999.2500    88.0870    10.7680   -76.5630   -66.1030     9.1830     8.6330     8.4540  -999.2500  -999.2500
 1212.0000  -999.2500  -999.2500  -999.2500  -999.2500    85.0530    10.7950   -76.7520   -66.1030     9.1350     8.6400     8.4230  -999.2500  -999.2500
 1212.5000  -999.2500  -999.2500  -999.2500  -999.2500    86.7050    10.8220   -76.8170   -66.1030     9.0870     8.6470     8.3340  -999.2500  -999.2500
 1213.0000  -999.2500  -999.2500  -999.2500  -999.2500    90.1580    10.8490   -76.8840   -65.9150     9.0390     8.6530     8.1910  -999.2500  -999.2500
 1213.5000  -999.2500  -999.2500  -999.2500  -999.2500    90.9110    10.8510   -76.9150   -65.5410     8.9900     8.6420     8.2390  -999.2500  -999.2500
 1214.0000  -999.2500  -999.2500  -999.2500  -999.2500    90.3480    10.8270   -76.9160   -65.1670     8.9770     8.6320     8.3320  -999.2500  -999.2500
 1214.5000  -999.2500  -999.2500  -999.2500  -999.2500    88.5280    10.8050   -76.9160   -64.7930     8.9770     8.6210     8.4260  -999.2500  -999.2500
 1215.0000  -999.2500  -999.2500  -999.2500  -999.2500    86.6840    10.8000   -76.9180   -64.4190     8.9770     8.6110     8.5190  -999.2500  -999.2500
 1215.5000  -999.2500  -999.2500  -999.2500  -999.2500    85.8710    10.7600   -76.7930   -64.0460     8.9770     8.6010     8.6120  -999.2500  -999.2500
 1216.0000  -999.2500  -999.2500  -999.2500  -999.2500    85.8650    10.7200   -76.6300   -63.6720     8.9770     8.5900     8.8420  -999.2500  -999.2500
 1216.5000  -999.2500  -999.2500  -999.2500  -999.2500    85.8070    10.6820   -76.5050   -63.2980     8.9770     8.5800     9.0590  -999.2500  -999.2500
 1217.0000  -999.2500  -999.2500  -999.2500  -999.2500    83.6550    10.6660   -76.4590   -62.9240     8.9590     8.5200     9.1430  -999.2500  -999.2500
 1217.5000  -999.2500  -999.2500  -999.2500  -999.2500    82.7980    10.6490   -76.4110   -62.5500     8.8520     8.4240     9.0540  -999.2500  -999.2500
 1218.0000  -999.2500  -999.2500  -999.2500  -999.2500    85.4080    10.6320   -76.3640   -62.1760     8.7450     8.3280     8.9390  -999.2500  -999.2500
 1218.5000  -999.2500  -999.2500  -999.2500  -999.2500    88.2120    10.6150   -76.3150   -61.8020     8.6390     8.2320     8.8250  -999.2500  -999.2500
 1219.0000  -999.2500  -999.2500  -999.2500  -999.2500    90.6160    10.5980   -76.2570   -61.4280     8.5750     8.1170     8.7340  -999.2500  -999.2500
 1219.5000  -999.2500  -999.2500  -999.2500  -999.2500    89.8500    10.5910   -76.1980   -61.0550     8.6150     8.1400     8.8670  -999.2500  -999.2500
 1220.0000  -999.2500  -999.2500  -999.2500  -999.2500    88.2750    10.6010   -76.1350   -60.6810     8.6480     8.1690     8.9770  -999.2500  -999.2500
 1220.5000  -999.2500  -999.2500  -999.2500  -999.2500    86.6750    10.6100   -76.2650   -60.3070     8.6820     8.1980     8.9610  -999.2500  -999.2500
 1221.0000  -999.2500  -999.2500  -999.2500  -999.2500    84.6730    10.6200   -76.4310   -59.9330     8.7150     8.2270     8.9450  -999.2500  -999.2500
 1221.5000  -999.2500  -999.2500  -999.2500  -999.2500    80.8930    10.6300   -76.6580   -59.5590     8.7340     8.2560     8.9290  -999.2500  -999.2500
