~VERSION INFORMATION
 VERS.                2.0:   CWLS LOG ASCII STANDARD - VERSION 2.0
 WRAP.                 NO:   ONE LINE PER DEPTH STEP
~WELL INFORMATION
#MNEM.UNIT      DATA TYPE    INFORMATION
#----------   ------------   ------------------------------
 STRT.F            0.5000:   START DEPTH
 STOP.F         4149.0000:   STOP DEPTH
 STEP.F            0.5000:   STEP LENGTH
 NULL.          -999.2500:   NO VALUE
 COMP. LAWRENCE ALLISON & ASSOSCIATES:   COMPANY
 WELL. LAWRENCE "X" #34-3:   WELL
 FLD .             NPR #3:   FIELD
 LOC .       S3 T38N R78W:   LOCATION
 CNTY.            NATRONA:   COUNTY
 STAT.            WYOMING:   STATE
 CTRY. UNITED STATES OF AMERICA:   COUNTRY
 SRVC.      DRESSER ATLAS:   SERVICE COMPANY
 DATE.        19-NOV-1983:   LOGDATE
 API .     49025109500000:   API NUMBER
~CURVE INFORMATION
#MNEM.UNIT       API CODE    CURVE DESCRIPTION
#----------   ------------   ------------------------------
 DEPT.F                  :   
 CALD.IN     45 280 60 00:   CALIPER FROM DENSITY LOG
 TEND.LBS    45 635 01 00:   TENSION FORM DENSITY LOG
 DEN .G/C3   45 350 01 00:   BULK DENSITY
 CNC .DEC    42 890 01 00:   NEUTRON POROSITY LIMESTONE
 CORR.G/C3   45 356 01 00:   DENSITY CORRECTION
 TENR.LBS    06 635 01 00:   TENSION FROM RESISTIVITY
 GRR .GAPI   07 310 01 00:   GAMMA RAY FROM RESISTIVITY
 RFOC.OHMM   07 220 04 00:   RESISTIVITY FOCUSED LOG RES.
 RILD.OHMM   07 120 46 00:   DEEP INDUCTION RESISTIVITY
 RILM.OHMM   07 120 44 00:   INDUCTION LOG MEDIUM RESISTIVITY
 SPR .MV     07 010 01 00:   SPONTANEOUS POTENTIAL
 TENS.LBS    60 635 01 00:   TENSION FROM SONIC
 DT  .US/F   60 520 00 00:   DELTA TIME
~PARAMETER INFORMATION
#MNEM.UNIT          VALUE    DESCRIPTION
#----------   ------------   ------------------------------
 EKB .F         5187.0000:   Kelly bushing
 EGL .F         5174.0000:   Ground level
 TD  .F         4140.0000:   Total depth
 CLNT.            A2DTECH:   Client Code
 SL  . 1621' FWL & 1958' FNL:   Surface Location
 PD  .                 GL:   Permanent Datum
 EPD .F              5174:   Elevation Permanent Datum
 LMF .                 KB:   Log Measured From
 DMF .                 KB:   Drilling Measured From
 DAPD.F                13:   Feet Above Permanent Datum
 DATE.        19-NOV-1983:   Date Logged [DD-MMM-YYYY]
 DD  .F              4136:   Depth driller
 DL  .F              4140:   Depth logger
 BLI .F              4138:   Bottom log interval
 TLI .F                 0:   Top log interval
 CS1 .IN            8.625:   Casing size
 CBD1.      8.625" @ 615':   Casing driller 1
 CBL1.F               615:   Casing logger 1
 BS1 .IN            7.875:   Bit size
 BSD1.F              4136:   Depth drilled with bit1
 DFT .            GEL-KCL:   Type fluid in hole
 DFD .                  9:   Density
 DFV .                 45:   Viscosity
 DFPH.                8.5:   pH
 DFL .                 12:   Fluid loss
 MSS .           FLOWLINE:   Source of sample
 RMS .OHMM          0.768:   Rm
 MST .F                74:   Rm Meas. temp.
 RMF .OHMM          0.576:   Rmf
 MFST.F                74:   Rmf Meas. temp.
 MFSS.               CALC:   Source Rmf.
 RMC .OHMM           0.96:   Rmc
 MCST.F                74:   Rmc Meas. temp.
 MCSS.               CALC:   Source Rmc.
 RMB .OHMM          0.418:   Rm. at BHT
 BHT .F               136:   BHT.
 TCS .HRS               4:   Time Circ. stopped
 MRT .F               136:   Maximum recorded temp.
 LUN .               6307:   Logging unit number
 LUL .               GLTE:   Logging unit location
 ENGI.           FAHLSING:   Recorded By
 WITN.           JENNINGS:   Witnessed by
 ORIG.      2.5" 5" PRINT:   Origin of data
 UWI .     49025109500000:   Unique Well ID
 DICO. A2D TECHNOLOGIES, INC.:   Digitizing Company
~OTHER INFORMATION
~A    DEPT    CALD       TEND        DEN        CNC       CORR       TENR         GRR      RFOC       RILD       RILM        SPR       TENS         DT   
# ...
 4108.5000     7.9684     0.0000     2.6508     0.1589     0.0727   -37.2480    98.2360    12.0290     9.0145     9.3885   -80.1372   -17.7735    60.7830
 4109.0000     7.9679     0.0000     2.6493     0.1584     0.0788   -28.1237    98.2409    10.3880     9.2008     9.2456   -79.9990   -18.4744    62.8655
 4109.5000     7.9675     0.0000     2.6522     0.1549     0.0899   -27.0057    98.2457     9.8260     8.9989     8.9787   -79.8650   -19.0509    65.9534
 4110.0000     7.9671     0.0000     2.6552     0.1502     0.0958   -25.8889    98.2506     9.9559     8.2809     8.4621   -79.6833   -19.6274    68.1906
 4110.5000     7.9666     0.0000     2.6507     0.1506     0.0729   -24.7291    98.2554    10.2326     7.2056     7.8858   -79.5858   -20.2034    68.2636
 4111.0000     7.9662     0.0000     2.6447     0.1565     0.0610   -23.3747    98.2603    10.6681     6.7533     7.4438   -79.6042   -12.8235    68.1790
 4111.5000     7.9657     0.0000     2.6386     0.1720     0.0550   -22.2579    98.2651    11.1222     6.3746     6.3621   -79.6189    -5.5870    68.1732
 4112.0000     7.9653     0.0000     2.6266     0.1798     0.0533   -29.1474    98.2700    10.4933     5.9321     5.5153   -79.3952    -6.3079    68.0901
 4112.5000     7.9648     0.0000     2.6072     0.1828     0.0521   -27.7511    98.2748     8.8953     5.3657     5.0965   -79.3435    -6.8838    68.0844
 4113.0000     7.9644     0.0000     2.6026     0.1846     0.0522   -26.6332    98.2797     7.5860     4.6508     4.7095   -79.3619    -7.4603    68.0012
 4113.5000     7.9639     0.0000     2.6041     0.1900     0.0569   -33.2443    98.2845     6.7048     4.3589     4.3829   -79.3766    -0.0799    67.8408
 4114.0000     7.9635     0.0000     2.6131     0.1990     0.0659   -31.8480    98.2894     6.2481     4.1999     4.1371   -79.3913    -0.8003    67.8350
 4114.5000     7.9630     0.0000     2.6130     0.2068     0.0734   -30.7301    98.2942     6.0224     4.1400     4.0742   -78.7963    -1.3673    67.8292
 4115.0000     7.9626     0.0000     2.6115     0.2097     0.0823   -29.6133    98.2991     5.8048     4.1363     4.0705   -78.8110     5.8594    67.8234
 4115.5000     7.9620     0.0000     2.6130     0.2090     0.0809   -28.4953    98.3039     5.5553     4.1321     4.0668   -79.1311     5.2736    67.7403
 4116.0000     7.9616     0.0000     2.6145     0.2065     0.0691   -27.3785    98.3088     5.3929     4.2176     4.1221   -79.1490     4.6874    67.7345
 4116.5000     7.9612     0.0000     2.6174     0.2040     0.0615   -26.2606    98.3136     5.3869     4.3251     4.2359   -79.1637     3.9864    67.8075
 4117.0000     7.9308     0.0000     2.6174     0.2018     0.0586   -25.1155    98.3185     5.4972     4.5526     4.3848   -79.1768     3.4099    67.8003
 4117.5000     7.9303     0.0000     2.6144     0.2003     0.0616   -23.7475    98.3233     5.6533     4.8837     4.6039   -78.8845     2.8334    67.8733
 4118.0000     7.9299     0.0000     2.6084     0.1970     0.0617   -22.6295    98.3282     5.9309     5.1661     4.8813   -78.5364     2.2575    67.8661
 4118.5000     7.9295     0.0000     2.6054     0.1885     0.0647   -21.5127    98.3330     6.2276     5.4730     5.3327   -78.3061     1.6810    64.6630
 4119.0000     7.9290     0.0000     2.6023     0.1773     0.0678   -20.3948    98.3379     6.6331     5.8584     5.6791   -78.0183     1.1045    40.0000
 4119.5000     7.9286     0.0000     2.6023     0.1726     0.0708   -19.2780    98.3428     7.1156     6.1084     5.7563   -77.7058     0.5285  -999.2500
 4120.0000     7.9281    14.9254     2.6232     0.1798     0.0719   -25.8891    98.3476     7.5251     6.1918     5.7497   -77.4374     7.9084  -999.2500
 4120.5000     7.9277    14.9254     2.6337     0.1888     0.0739   -20.2865    98.3524     7.4101     5.8850     5.6635   -77.1472    15.1449  -999.2500
 4121.0000     7.9272    14.9254     2.6412     0.1888     0.0758   -15.6469    98.3573     6.8921     5.5156     5.2965   -77.1656    14.4240  -999.2500
 4121.5000     7.9268    14.9254     2.6441     0.1894     0.0817   -14.5290    98.3622     6.7868     4.9889     4.8350   -77.1803    13.8481  -999.2500
 4122.0000     7.9263    14.9254     2.6375     0.1912     0.0890   -13.4122    98.3670     6.8796     4.6427     4.4206   -77.1951    13.2716  -999.2500
 4122.5000     7.9259    14.9254     2.6191     0.1942     0.0823   -12.2954    98.3718     6.9676     4.3077     3.9565   -77.2104    12.6951  -999.2500
 4123.0000     7.9254    14.9254     2.5985     0.1911     0.0735   -18.9337    98.3767     7.0598     3.7976     3.6821   -77.3806    12.1094  -999.2500
 4123.5000     7.9250    14.9254     2.5916     0.1751     0.0712   -17.7739    98.3816     5.9404     3.5340     3.4757   -77.5457    11.5232  -999.2500
 4124.0000     7.9246    31.1558     2.5962     0.1622     0.0767   -16.3912    98.3864     4.6890     3.3836     3.3515   -77.5624    10.8223  -999.2500
 4124.5000     7.9241    21.7231     2.5976  -999.2500     0.0999   -15.2743    98.3913     4.0900     3.2166     3.1862   -77.4247     2.4333  -999.2500
 4125.0000     7.8937    13.0653     2.5961  -999.2500     0.1312   -14.1575    98.3961     3.8864     3.0579     3.0505   -77.2866     9.6699  -999.2500
 4125.5000     7.8932    13.0653     2.5960  -999.2500     0.1219   -21.0471    98.4010     3.9660     2.9696     2.9618   -77.3018     9.0933  -999.2500
 4126.0000     7.9227    13.0653     2.5996  -999.2500     0.1126   -19.6508    98.4058     4.2583     2.9252     2.9179   -77.3201     8.5168  -999.2500
 4126.5000     7.9222    13.0653     2.6113  -999.2500     0.1044    -3.0769    98.4107     4.6282     2.9019     2.8941   -77.1824     7.9403  -999.2500
 4127.0000     7.9218    13.0653     2.6199  -999.2500     0.1078    22.0343    98.4155     4.8598     2.9201     2.8710   -77.0410    30.8019  -999.2500
 4127.5000     7.9214    13.0653     2.6178  -999.2500     0.1168    53.5321    98.4204     4.4879     2.9378     2.8684   -76.7545    61.4754  -999.2500
 4128.0000     7.8910    13.0653     2.6163  -999.2500     0.1196    93.2899    98.4252     4.2645     2.9568     2.8657   -76.7692    99.9614  -999.2500
 4128.5000     7.8906    13.0653     2.6138  -999.2500     0.1073   109.8626    98.4301  -999.2500     2.9753     2.9047   -76.7839   138.4480  -999.2500
 4129.0000     7.9201    13.0653     2.6159  -999.2500     0.0924   126.4365    98.4349  -999.2500     2.9721     2.9221   -76.7988   176.9534  -999.2500
 4129.5000     7.9196    13.0653     2.6188  -999.2500     0.0747   127.5533    98.4398  -999.2500     2.9485     2.9356   -76.8170   199.7949  -999.2500
 4130.0000     7.8862    13.0653     2.6173  -999.2500     0.0629   136.3993    98.4446  -999.2500     2.9044     2.9494   -76.5268   207.0315  -999.2500
 4130.5000     7.8289    13.0653     2.6038  -999.2500     0.0420   137.5579  -999.2500  -999.2500     2.8806     2.9345  -999.2500   230.6201  -999.2500
 4131.0000     7.7985    13.0653     2.5988  -999.2500     0.0211   138.9124  -999.2500  -999.2500     2.8584     2.9318  -999.2500   230.6201  -999.2500
 4131.5000     7.7605    13.0653     2.5972  -999.2500     0.0151   140.0303  -999.2500  -999.2500     2.8963     2.9500  -999.2500   230.6201  -999.2500
 4132.0000     7.7285    13.4274     2.5953  -999.2500     0.0271   133.4191  -999.2500  -999.2500     2.8938     2.9683  -999.2500   230.6201  -999.2500
 4132.5000     7.7073    17.7384     2.5893  -999.2500     0.0901   142.2651  -999.2500  -999.2500     2.8913     2.9653  -999.2500   230.6201  -999.2500
 4133.0000     7.6946    22.0495     2.5644  -999.2500     0.0907   143.3819  -999.2500  -999.2500     2.9094     2.9622  -999.2500   230.6201  -999.2500
 4133.5000     7.6765    26.3606     2.5262  -999.2500     0.0812   144.5134  -999.2500  -999.2500     2.9069     2.9807  -999.2500   232.0465  -999.2500
 4134.0000     7.6760    30.6716     2.4665  -999.2500     0.0693   145.8961  -999.2500  -999.2500     2.9044     2.9567  -999.2500   238.3721  -999.2500
