~VERSION INFORMATION
 VERS.                2.0:   CWLS LOG ASCII STANDARD - VERSION 2.0
 WRAP.                 NO:   ONE LINE PER DEPTH STEP
~WELL INFORMATION
#MNEM.UNIT      DATA TYPE    INFORMATION
#----------   ------------   ------------------------------
 STRT.F            2.0000:   START DEPTH
 STOP.F         3008.0000:   STOP DEPTH
 STEP.F            0.5000:   STEP LENGTH
 NULL.          -999.2500:   NO VALUE
 COMP.       FLUOR DANIEL:   COMPANY
 WELL.   FLUOR "X" #25-23:   WELL
 FLD .          N.P.R. #3:   FIELD
 LOC .      S23 T38N R78W:   LOCATION
 CNTY.            NATRONA:   COUNTY
 STAT.            WYOMING:   STATE
 CTRY. UNITED STATES OF AMERICA:   COUNTRY
 SRVC.      WESTERN ATLAS:   SERVICE COMPANY
 DATE.        21-APR-1995:   LOGDATE
 API .     49025227090000:   API NUMBER
~CURVE INFORMATION
#MNEM.UNIT       API CODE    CURVE DESCRIPTION
#----------   ------------   ------------------------------
 DEPT.F                  :   
 GRR .GAPI   07 310 01 00:   GAMMA RAY FROM RESISTIVITY
 TENR.LBS    07 635 01 00:   TENSION FROM RESISTIVITY
 RILD.OHMM   07 120 46 00:   RESISTIVITY INDUCTION LOG DEEP
 RILM.OHMM   07 120 44 00:   RESISTIVITY INDUCTION LOG MEDIUM
~PARAMETER INFORMATION
#MNEM.UNIT          VALUE    DESCRIPTION
#----------   ------------   ------------------------------
 EKB .F         5285.0000:   Kelly bushing
 EGL .F         5275.0000:   Ground level
 EDF .F         5284.0000:   Drilling floor
 TD  .F         3000.0000:   Total depth
 CLNT.            A2DTECH:   Client Code
 SL  . 2343' FSL & 1264' FWL:   Surface Location
 PD  .                 GL:   Permanent Datum
 EPD .F              5275:   Elevation Permanent Datum
 DMF .                 KB:   Drilling Measured From
 DAPD.                 10:   Feet Above Permanent Datum
 DATE.        21-APR-1995:   Date Logged [DD-MMM-YYYY]
 DD  .F              3000:   Depth driller
 DL  .F              3000:   Depth logger
 BLI .F              2999:   Bottom log interval
 TLI .F                 0:   Top log interval
 CS1 .IN            9.625:   Casing size
 CBD1.       9.625" @ 53':   Casing driller 1
 CBL1.F                53:   Casing logger 1
 BS1 .IN             6.25:   Bit size
 BSD1.F              3000:   Depth drilled with bit1
 DFT .                OIL:   Type fluid in hole
 MRT .F               114:   Maximum recorded temp.
 LUN .            HL 6530:   Logging unit number
 LUL .             CASPER:   Logging unit location
 ENGI.        VERN RAUTIO:   Recorded By
 WITN.        GARY STRONG:   Witnessed by
 ORIG.         2.5" PRINT:   Origin of data
 UWI .     49025227090000:   Unique Well ID
 DICO. A2D TECHNOLOGIES,INC.:   Digitizing Company
 LMF .                 KB:   Log Measured From
~OTHER INFORMATION
~A    DEPT      GRR      TENR       RILD       RILM   
# ...
 1389.0000   117.6805   -21.1765     8.1205     8.2295
 1389.5000   116.9862   -20.8824     7.8900     7.8997
 1390.0000   110.5288   -20.5423     7.7705     7.5832
 1390.5000   112.2814   -20.2666     7.5909     7.3786
 1391.0000   119.9512   -19.9908     7.3856     7.2577
 1391.5000   124.6623   -19.7059     7.3826     7.1775
 1392.0000   124.5602   -19.4118     7.2809     7.2146
 1392.5000   122.0514   -19.1177     7.1806     7.2225
 1393.0000   118.0434   -18.8235     7.1783     7.1713
 1393.5000   114.2920   -18.4742     7.1749     6.9778
 1394.0000   113.8935   -18.1985     6.9819     6.9760
 1394.5000   115.4675   -17.9228     6.9795     6.7878
 1395.0000   118.5761   -17.6471     6.9771     6.7861
 1395.5000   120.9204   -17.3530     6.9748     6.6840
 1396.0000   122.6731   -17.0588     6.8305     6.6011
 1396.5000   123.2426   -16.7647     6.7834     6.5993
 1397.0000   123.1795   -16.4706     6.7812     6.5621
 1397.5000   121.8146   -16.1132     6.5978     6.4195
 1398.0000   120.8047   -15.5656     6.5070     6.4174
 1398.5000   121.5899   -30.0735     6.4149     6.3295
 1399.0000   122.8087   -29.8529     6.2437     6.2427
 1399.5000   123.6923   -29.6324     6.2221     6.2411
 1400.0000   121.3004   -29.4118     6.1280     6.1555
 1400.5000   121.1557   -43.8971     6.0351     6.0711
 1401.0000   125.4255   -43.6362     5.9064     6.0694
 1401.5000   127.7839   -28.7240     6.0678     5.9859
 1402.0000   127.1400   -13.8118     6.0661     5.9038
 1402.5000   127.2781   -13.6029     6.0645     5.9023
 1403.0000   129.8603   -13.3824     6.0629     5.9008
 1403.5000   130.7087   -13.1618     6.0294     5.8929
 1404.0000   128.6154   -12.9412     5.8976     5.7400
 1404.5000   131.8710   -12.6771     5.8164     5.7385
 1405.0000   133.6377   -12.4708     5.7367     5.7369
 1405.5000   133.0376   -12.2644     5.6580     5.7353
 1406.0000   129.4788   -12.0581     5.6566     5.7335
 1406.5000   121.7781   -11.8382     5.5790     5.7320
 1407.0000   121.9295   -11.6177     5.6537     5.7306
 1407.5000   127.7908   -11.3971     5.7293     5.7291
 1408.0000   128.2616   -11.1764     5.7276     5.7276
 1408.5000   125.8846   -10.9234     5.7260     5.7260
 1409.0000   124.9862   -10.7171     5.7245     5.7443
 1409.5000   125.8669   -10.5108     5.8010     5.8012
 1410.0000   126.4497   -10.2941     5.7212     5.7994
 1410.5000   126.4400   -10.0735     5.7197     5.7198
 1411.0000   125.2481    -9.8530     5.6413     5.7180
 1411.5000   125.2397    -9.6324     5.5639     5.6397
 1412.0000   128.9074    -9.3760     5.4138     5.5624
 1412.5000   129.9565    -9.1697     5.4123     5.4123
 1413.0000   127.4373    -8.9634     5.4369     5.4108
 1413.5000   123.1854    -8.7500     5.5579     5.4411
 1414.0000   123.7239    -8.5294     5.6418     5.6568
 1414.5000   125.7765    -8.3088     5.8639     5.9329
 1415.0000   126.3597    -8.0882     5.9423     6.0674
 1415.5000   126.3513    -7.8286     6.0219     6.1873
 1416.0000   125.7511    -7.6223     6.1856     6.3555
 1416.5000   123.3247    -7.4160     6.5350     6.5281
 1417.0000   118.3417    -7.2059     6.8138     6.7056
 1417.5000   113.3574    -6.9853     7.1044     6.9006
 1418.0000   111.5162    -6.7647     7.3466     7.0919
 1418.5000   115.2250    -6.5441     7.4670     7.2677
 1419.0000   117.4497    -6.2812     7.4646     7.4654
 1419.5000   117.6233    -6.0749     7.4627     7.4630
 1420.0000   118.5788    -5.8686     7.4608     7.4606
 1420.5000   119.1627    -5.6618     7.4588     7.4587
 1421.0000   119.1536    -5.4412     7.4569     7.4567
 1421.5000   117.7566    -5.2206     7.4439     7.4548
 1422.0000   112.0355    -5.0000     7.2537     7.3500
 1422.5000   110.4142    -4.7794     7.2517     7.2517
 1423.0000   109.0592    -4.5275     7.2498     7.2033
 1423.5000   111.8139   -19.0441     7.2478     7.0541
 1424.0000   116.4653   -18.8208     7.2455     7.0092
 1424.5000   116.1317   -18.6029     7.2436     6.9030
 1425.0000   116.7149   -18.3824     7.2418     6.8597
 1425.5000   117.8899   -18.1618     7.1425     6.8579
 1426.0000   116.6980   -17.9412     7.0446     6.8562
 1426.5000   116.0976    -2.9802     7.0426     6.8544
 1427.0000   116.3665    -2.7738     7.0407     6.8526
 1427.5000   119.3445    -2.5675     7.0388     6.8507
 1428.0000   120.8063    -2.3529     7.0369     6.8489
 1428.5000   119.3844    -5.3406     7.0350     6.9407
 1429.0000   116.4950   -16.6544     7.0328     6.9877
 1429.5000   110.1258   -16.3971     7.1271     7.0312
 1430.0000   109.5256   -30.8445     7.2222     7.0291
 1430.5000   111.8841   -15.9323     7.2203     7.0273
 1431.0000   115.4259   -30.4412     7.2184     7.0254
 1431.5000   114.8257   -29.5068     7.1194     7.0236
 1432.0000   116.8996   -15.2941     7.0217     6.9272
 1432.5000   118.5207   -15.0735     7.0198     6.9254
 1433.0000   118.9424   -21.6645     7.0179     6.9235
 1433.5000   118.0571   -29.3382     7.0156     6.9216
 1434.0000   113.5959   -29.0908     7.0138     6.9194
 1434.5000   111.8123   -28.8845     6.9177     6.9176
 1435.0000   111.8038   -28.6765     6.8228     6.9158
 1435.5000   115.3457   -28.4559     6.8211     7.0083
 1436.0000   115.3372   -28.2353     6.8192     6.9122
 1436.5000   113.5533   -28.0147     6.8174     6.8174
 1437.0000   114.4731   -27.7941     6.7868     6.7742
 1437.5000   117.6787   -27.5435     6.6844     6.6316
 1438.0000   121.6843   -27.3371     6.6298     6.5019
 1438.5000   122.3935   -27.1308     6.6277     6.4509
 1439.0000   122.3829   -26.9118     6.4489     6.4488
 1439.5000   120.5993   -22.8459     6.4472     6.4472
 1440.0000   115.2654   -11.7647     6.4456     6.3588
 1440.5000   114.6653     3.1618     6.4439     6.2716
 1441.0000   115.8439     3.4157     6.4421     6.3555
 1441.5000   117.9175     3.6220     6.5499     6.4405
 1442.0000   120.5571     3.8283     6.6157     6.4386
 1442.5000   121.5040   -10.6712     6.7450     6.5603
 1443.0000   124.2248   -10.4412     6.7934     6.6119
 1443.5000   128.2638   -24.9645     6.7913     6.7912
 1444.0000   132.3534   -24.7059     6.9760     6.7895
 1444.5000   131.7532   -24.4487     6.9742     6.9741
 1445.0000   125.2359   -24.2423     6.9724     6.9724
 1445.5000   122.2689   -24.0360     7.0656     6.9705
 1446.0000   124.6273   -23.8235     7.0803     7.0638
 1446.5000   123.8827   -23.6030     7.1583     7.1583
 1447.0000   122.2426   -23.3824     7.1561     7.1561
 1447.5000   122.2337   -23.1618     7.1542     7.1542
 1448.0000   121.9723   -22.9013     7.1519     7.1522
 1448.5000   119.5032   -22.6950     7.1500     7.1500
 1449.0000   113.3298   -22.4886     7.1482     7.1482
 1449.5000   110.9545   -22.2794     7.1463     7.0502
 1450.0000   113.3129   -22.0588     7.1445     7.0484
 1450.5000   125.1388   -21.8383     6.9517     6.9517
 1451.0000   128.7023   -21.6176     6.9498     6.9498
 1451.5000   129.2639   -21.3539     6.9479     6.9479
 1452.0000   127.4793   -21.1476     6.9460     6.9460
 1452.5000   126.0850   -20.9413     6.9931     6.9441
 1453.0000   125.6864   -20.7350     7.1325     7.1326
 1453.5000   125.9999   -20.5147     7.1307     7.1307
 1454.0000   126.2604   -16.2779     7.1289     7.1289
 1454.5000   126.2504    -5.3677     7.3227     7.2242
 1455.0000   126.2420     2.9427     7.3208     7.3209
 1455.5000   126.2335     9.8116     7.3188     7.3188
 1456.0000   125.0414    10.0179     7.3168     7.3168
 1456.5000   124.4408    -4.4853     7.3149     7.3149
 1457.0000   125.3274    -4.2647     7.3129     7.3129
 1457.5000   127.3832    -7.5978     7.3109     7.3105
 1458.0000   127.1005   -18.5686     7.3086     7.1133
 1458.5000   123.9272   -18.3088     7.3067     6.9214
 1459.0000   121.4364   -18.0528     7.3048     6.9197
 1459.5000   122.6114   -17.8465     7.1078     6.7330
 1460.0000   124.3781   -17.6402     7.0933     6.6287
 1460.5000   124.9615   -17.4265     6.8827     6.5495
 1461.0000   124.3194    -2.5000     6.7028     6.5477
 1461.5000   124.4535     2.8400     6.4800     6.5060
