~VERSION INFORMATION
 VERS.                2.0:   CWLS LOG ASCII STANDARD - VERSION 2.0
 WRAP.                 NO:   ONE LINE PER DEPTH STEP
~WELL INFORMATION
#MNEM.UNIT      DATA TYPE    INFORMATION
#----------   ------------   ------------------------------
 STRT.F         3500.0000:   START DEPTH
 STOP.F         6855.0000:   STOP DEPTH
 STEP.F            0.5000:   STEP LENGTH
 NULL.          -999.2500:   NO VALUE
 COMP.          U.S. NAVY:   COMPANY
 WELL.  US NAVY "G" #1-10:   WELL
 FLD . TEAPOT NAVAL RESERVE:   FIELD
 LOC .      S10 T38N R78W:   LOCATION
 CNTY.            NATRONA:   COUNTY
 STAT.            WYOMING:   STATE
 CTRY. UNITED STATES OF AMERICA:   COUNTRY
 SRVC.         LANE WELLS:   SERVICE COMPANY
 DATE.        23-MAR-1952:   LOGDATE
 API .     49025063380000:   API NUMBER
~CURVE INFORMATION
#MNEM.UNIT       API CODE    CURVE DESCRIPTION
#----------   ------------   ------------------------------
 DEPT.F                  :   
 GRN .GAPI   35 310 01 00:   GAMMA RAY
 NEUT.NAPI   35 330 01 00:   NEUTRON
~PARAMETER INFORMATION
#MNEM.UNIT          VALUE    DESCRIPTION
#----------   ------------   ------------------------------
 EKB .F         5195.0000:   Kelly bushing
 EGL .F         5184.0000:   Ground level
 EDF .F         5195.0000:   Drilling floor
 EPD .F            0.0000:   Permanent datum
 TD  .F         6861.0000:   Total depth
 CLNT.            A2DTECH:   Client Code
 PD  .                 GL:   Permanent Datum
 DATE.        23-MAR-1952:   Date Logged [DD-MMM-YYYY]
 DD  .F              6861:   Depth driller
 DL  .F              6861:   Depth logger
 BLI .F              6855:   Bottom log interval
 TLI .F              3500:   Top log interval
 BSD1.F              6861:   Depth drilled with bit1
 DFT .                MUD:   Type fluid in hole
 ENGI.            GAMBERG:   Recorded By
 WITN.           GRIBBENS:   Witnessed by
 ORIG.         2.5" PRINT:   Origin of data
 UWI .     49025063380000:   Unique Well ID
 DICO. A2D TECHNOLOGIES, INC.:   Digitizing Company
~OTHER INFORMATION
~A  DEPT       GRN        NEUT  
# ...
 4107.5000    64.6206   424.8776
 4108.0000    64.9937   410.0747
 4108.5000    65.9341   412.5557
 4109.0000    66.3462   417.5059
 4109.5000    63.6899   415.0486
 4110.0000    61.5728   460.0220
 4110.5000    61.4719   507.3756
 4111.0000    60.2549   533.0240
 4111.5000    58.5481   558.6935
 4112.0000    58.7973   583.0723
 4112.5000    59.5356   585.7037
 4113.0000    59.7848   553.4094
 4113.5000    59.8180   526.2608
 4114.0000    60.6233   499.1122
 4114.5000    61.8216   471.9636
 4115.0000    62.9093   439.8767
 4115.5000    63.8259   407.3694
 4116.0000    64.8281   392.3967
 4116.5000    65.6880   388.0605
 4117.0000    65.4482   390.5432
 4117.5000    65.2078   389.6909
 4118.0000    66.1911   369.4297
 4118.5000    68.3963   352.3011
 4119.0000    69.8680   348.6173
 4119.5000    71.6112   338.7551
 4120.0000    72.5672   323.9522
 4120.5000    72.8686   306.6801
 4121.0000    73.6961   291.8772
 4121.5000    75.4766   279.5434
 4122.0000    78.2668   269.4791
 4122.5000    80.1835   262.2833
 4123.0000    80.6660   270.6572
 4123.5000    80.4254   283.3940
 4124.0000    80.1858   293.6635
 4124.5000    80.1911   299.3704
 4125.0000    80.1958   300.6173
 4125.5000    80.4450   291.6078
 4126.0000    79.7820   296.9403
 4126.5000    73.3112   306.8288
 4127.0000    70.2671   314.2481
 4127.5000    67.7873   319.1982
 4128.0000    64.8004   324.1484
 4128.5000    59.9444   336.8668
 4129.0000    56.2312   357.9277
 4129.5000    54.0791   390.2621
 4130.0000    53.3503   423.3029
 4130.5000    54.0885   462.6217
 4131.0000    55.0712   496.9115
 4131.5000    56.0540   525.4316
 4132.0000    57.2881   549.6609
 4132.5000    58.0419   557.3547
 4133.0000    58.2690   534.1498
 4133.5000    58.0287   529.2234
 4134.0000    58.0342   516.8896
 4134.5000    58.2369   440.3583
 4135.0000    59.2586   375.5781
 4135.5000    60.4170   347.9407
 4136.0000    60.9886   346.5668
 4136.5000    61.2378   358.9243
 4137.0000    61.2917   327.5421
 4137.5000    59.7803   292.4839
 4138.0000    58.5625   260.2875
 4138.5000    58.0782   221.7905
 4139.0000    58.1104   181.2120
 4139.5000    58.9138   144.1868
 4140.0000    60.2438   112.1000
 4140.5000    61.3606    75.0748
 4141.0000    61.6290    47.9262
 4141.5000    61.8968    30.5138
 4142.0000    60.4791    35.7402
 4142.5000    58.3627    94.4867
 4143.0000    59.1009   149.4953
 4143.5000    60.0836   213.4997
 4144.0000    61.0663   273.0319
 4144.5000    60.5820   332.8211
 4145.0000    59.5716   385.4549
 4145.5000    58.0832   440.6317
 4146.0000    56.7785   480.1498
 4146.5000    55.4663   517.1987
 4147.0000    55.7164   578.9390
 4147.5000    55.6132   625.8645
 4148.0000    54.8555   658.3659
 4148.5000    53.7760   688.6390
 4149.0000    54.2697   711.1891
 4149.5000    55.2524   722.8422
 4150.0000    57.4576   727.9819
 4150.5000    58.6848   717.1613
 4151.0000    58.4450   685.4703
 4151.5000    58.7281   635.3697
 4152.0000    60.0666   539.5577
 4152.5000    62.3458   448.2115
 4153.0000    63.8952   371.6802
 4153.5000    66.5151   302.5563
 4154.0000    68.8365   268.0003
 4154.5000    69.8578   255.6665
 4155.0000    69.2430   270.7392
 4155.5000    68.0252   272.9753
 4156.0000    67.7293   276.0815
 4156.5000    68.2791   284.5093
 4157.0000    68.5283   298.2457
 4157.5000    67.0601   317.2988
 4158.0000    65.0083   337.8256
 4158.5000    63.0421   357.0021
 4159.0000    62.6791   366.8906
 4159.5000    64.2212   369.3716
 4160.0000    65.9657   403.9514
 4160.5000    65.8833   411.3707
 4161.0000    64.4913   408.7137
 4161.5000    62.9495   388.2112
 4162.0000    62.2201   371.9002
 4162.5000    62.7144   378.0839
 4163.0000    63.4526   381.8025
 4163.5000    63.9463   381.8148
 4164.0000    63.7001   387.8501
 4164.5000    63.1709   403.2470
 4165.0000    62.0262   411.4837
 4165.5000    59.8619   399.1499
 4166.0000    58.3427   384.3470
 4166.5000    57.8631   376.9514
 4167.0000    58.1110   372.0247
 4167.5000    60.1849   382.0338
 4168.0000    63.2575   394.7324
 4168.5000    64.2402   402.5327
 4169.0000    65.2229   406.6420
 4169.5000    65.9611   405.8564
 4170.0000    67.1883   398.2726
 4170.5000    69.4264   394.3333
 4171.0000    70.9565   391.8765
 4171.5000    72.4356   386.9528
 4172.0000    73.2127   364.7425
 4172.5000    74.0578   340.0630
 4173.0000    72.5205   327.7292
 4173.5000    70.7566   332.6794
 4174.0000    69.1843   347.5762
 4174.5000    69.4335   360.3058
 4175.0000    69.9272   370.5745
 4175.5000    68.7094   380.2430
 4176.0000    66.7582   387.8496
 4176.5000    64.5624   393.9716
 4177.0000    62.3033   399.4321
 4177.5000    60.3115   403.2709
 4178.0000    59.2819   406.8664
 4178.5000    58.3965   387.1252
 4179.0000    57.6489   367.3840
 4179.5000    57.9684   347.6428
 4180.0000    59.7557   327.9016
 4180.5000    63.1354   310.5545
 4181.0000    64.3626   295.3964
 4181.5000    67.0568   282.6841
 4182.0000    67.5878   269.3761
 4182.5000    66.3327   254.7922
 4183.0000    65.8484   255.8445
 4183.5000    66.3626   263.7901
 4184.0000    67.1582   280.4153
 4184.5000    68.4821   295.9158
 4185.0000    70.2566   293.4586
 4185.5000    72.1277   281.1248
 4186.0000    74.2807   266.3219
 4186.5000    75.9324   251.5189
 4187.0000    76.1573   241.6543
 4187.5000    75.4286   254.8337
 4188.0000    75.1883   275.3604
 4188.5000    75.4380   289.1871
 4189.0000    76.4207   295.0981
 4189.5000    77.1753   308.8076
 4190.0000    78.4607   334.8944
 4190.5000    80.5201   372.1051
 4191.0000    82.0636   402.2492
 4191.5000    81.4158   419.5450
 4192.0000    80.3609   417.0878
 4192.5000    81.2205   402.2849
 4193.0000    81.8386   409.7041
 4193.5000    81.3553   409.7160
 4194.0000    81.1149   389.5754
 4194.5000    81.3648   387.5176
 4195.0000    81.6140   389.9986
 4195.5000    80.6407   372.1324
 4196.0000    79.1784   340.9525
 4196.5000    79.4863   301.6902
 4197.0000    80.5551   282.3490
 4197.5000    82.3284   274.0124
 4198.0000    83.1092   303.6561
 4198.5000    82.2758   343.1742
 4199.0000    81.7726   365.4083
 4199.5000    81.1697   375.2968
 4200.0000    80.6860   360.4938
 4200.5000    80.4486   347.7798
 4201.0000    83.1472   337.5435
 4201.5000    84.6223   329.7693
 4202.0000    85.6480   322.7499
 4202.5000    86.6847   318.5780
 4203.0000    87.4073   324.6654
 4203.5000    88.2702   332.2778
 4204.0000    89.3075   340.8418
 4204.5000    90.5432   348.2611
 4205.0000    89.8178   358.1495
 4205.5000    89.0925   368.0380
 4206.0000    89.1006   372.9881
 4206.5000    89.1189   380.4074
 4207.0000    90.3398   380.9670
 4207.5000    90.6461   370.6193
 4208.0000    92.2139   363.3624
 4208.5000    94.0330   360.9168
 4209.0000    94.6591   353.5329
 4209.5000    95.2741   336.2724
 4210.0000    96.0158   311.1182
 4210.5000    96.7574   291.2073
 4211.0000    93.0981   283.9108
 4211.5000    90.3642   276.2762
 4212.0000    87.9754   263.9957
 4212.5000    84.4430   253.6025
 4213.0000    82.0287   267.3128
 4213.5000    80.5592   282.1511
 4214.0000    81.0900   296.9894
 4214.5000    83.3791   309.3586
 4215.0000    83.6318   311.8513
 4215.5000    83.6399   298.0302
 4216.0000    83.6480   277.9316
 4216.5000    84.7680   266.6043
 4217.0000    87.7537   266.1653
 4217.5000    89.5742   276.6064
 4218.0000    91.4890   294.7200
 4218.5000    93.5854   309.5583
 4219.0000    94.9465   326.8658
 4219.5000    97.1779   354.0498
 4220.0000    98.4844   382.0458
 4220.5000    99.3719   405.1445
 4221.0000    98.0721   421.4580
 4221.5000    96.4836   425.7531
 4222.0000    95.9755   418.6335
 4222.5000    95.9855   373.4588
 4223.0000    96.2382   267.8062
 4223.5000    96.9798   238.2001
 4224.0000    97.4769   198.7175
 4224.5000    98.2344   124.6669
 4225.0000    98.7977    74.0918
 4225.5000    99.2139    49.2731
 4226.0000    99.1311    40.7867
 4226.5000    98.7421   104.5712
 4227.0000    98.7506   192.2613
 4227.5000    99.2495   243.3381
 4228.0000    99.0131   245.8307
 4228.5000    98.2877   233.5086
