~VERSION INFORMATION
 VERS.                2.0:   CWLS LOG ASCII STANDARD - VERSION 2.0
 WRAP.                 NO:   ONE LINE PER DEPTH STEP
~WELL INFORMATION
#MNEM.UNIT      DATA TYPE    INFORMATION
#----------   ------------   ------------------------------
 STRT.F          634.0000:   START DEPTH
 STOP.F         3464.0000:   STOP DEPTH
 STEP.F            0.5000:   STEP LENGTH
 NULL.          -999.2500:   NO VALUE
 COMP. LAWRENCE-ALLISON & ASSOCIATES W:   COMPANY
 WELL. LAWRENCE "TX" #44-27:   WELL
 FLD .   NAVAL RESERVE #3:   FIELD
 LOC .      S27 T39N R78W:   LOCATION
 CNTY.            NATRONA:   COUNTY
 STAT.            WYOMING:   STATE
 CTRY. UNITED STATES OF AMERICA:   COUNTRY
 SRVC.       SCHLUMBERGER:   SERVICE COMPANY
 DATE.        13-MAR-1982:   LOGDATE
 API .     49025108870000:   API NUMBER
~CURVE INFORMATION
#MNEM.UNIT       API CODE    CURVE DESCRIPTION
#----------   ------------   ------------------------------
 DEPT.F                  :   
 TENR.LBS    07 635 01 00:   TENSION FROM RESISTIVITY
 ILD .OHMM   07 120 46 00:   DEEP INDUCTION RESISTIVITY
 ILM .OHMM   07 120 44 00:   INDUCTION LOG MEDIUM RESISTIVITY
 SFLU.OHMM   07 220 01 00:   SPHERICALLY FOCUSED LOG UNAVERAGED RESISTIVITY
 SPR .MV     07 010 01 00:   SPONTANEOUS POTENTIAL
 TENN.LBS    42 635 01 00:   TENSION FROM COMPENSATE NEUTRON
 CALD.IN     45 280 60 00:   CALIPER FROM DENSITY LOG
 GRD .GAPI   45 310 01 00:   GAMMA RAY FROM DENSITY LOG
 RHOB.G/C3   45 350 01 00:   BULK DENSITY
 DRHO.G/C3   45 356 01 00:   DENSITY CORRECTION
 NPHI.DEC    42 890 03 00:   NEUTRON POROSITY SANDSTONE
~PARAMETER INFORMATION
#MNEM.UNIT          VALUE    DESCRIPTION
#----------   ------------   ------------------------------
 EKB .F         5049.0000:   Kelly bushing
 EGL .F         5039.0000:   Ground level
 EDF .F            0.0000:   Drilling floor
 EPD .F            0.0000:   Permanent datum
 TD  .F         3440.0000:   Total depth
 DATE.        13-MAR-1982:   Date logged
 CLNT.            A2DTECH:   Client Code
 PD  .                 GL:   Permanent Datum
 DD  .F              3440:   Depth driller
 DL  .F              3439:   Depth logger
 BLI .F              3433:   Bottom log interval
 CS1 .IN            9.625:   Casing size
 CBD1.      9.625" @ 650':   Casing driller 1
 CBL1.F               647:   Casing logger 1
 BS1 .IN            7.875:   Bit size
 DFT .                GEL:   Type fluid in hole
 DFD .                9.3:   Density
 DFV .                 48:   Viscosity
 DFPH.                 10:   pH
 DFL .                  8:   Fluid loss
 MSS .                PIT:   Source of sample
 RMS .OHMM           1.82:   Rm
 MST .F                67:   Rm Meas. temp.
 RMF .OHMM           1.32:   Rmf
 MFST.F                67:   Rmf Meas. temp.
 MFSS.               MEAS:   Source Rmf.
 RMB .OHMM           1.09:   Rm. at BHT
 BHT .F               112:   BHT.
 TCS .HRS            1300:   Time Circ. stopped
 MRT .F               112:   Maximum recorded temp.
 LUN .               8039:   Logging unit number
 LUL .               CSPR:   Logging unit location
 ENGI.   WAGNER/CONOSENTI:   Recorded By
 WITN.           JENNINGS:   Witnessed by
 ORIG.           5" PRINT:   Origin of data
 UWI .     49025108870000:   Unique Well ID
 DICO. A2D TECHNOLOGIES, INC.:   Digitizing Company
 DAPD.                 10:   Feet Above Permanent Datum
 BSD1.F              3440:   Depth drilled with bit1
 TLI .F               647:   Top log interval
 TLAB.HRS            1800:   Time logger at bottom
~OTHER INFORMATION
~A   DEPT     TENR        ILD        ILM       SFLU        SPR       TENN       CALD         GRD      RHOB       DRHO       NPHI   
# ...
 3043.5000  1454.5160     4.1710     3.9680     5.0280   -24.8870  1879.4630     9.7580   126.5230     2.4880     0.0220     0.3290
 3044.0000  1455.4890     4.1380     3.9360     4.9760   -24.5320  1877.3890     9.7660   130.1280     2.4760     0.0190     0.3320
 3044.5000  1456.4620     4.1050     3.9040     4.9050   -24.1760  1875.3149     9.7890   133.5510     2.4670     0.0160     0.3340
 3045.0000  1457.4351     4.0720     3.8720     4.8340   -23.8190  1873.2410     9.8130   134.6110     2.4750     0.0230     0.3400
 3045.5000  1458.4070     4.0390     3.8400     4.7610   -23.4630  1871.1670     9.8350   133.5660     2.4830     0.0330     0.3490
 3046.0000  1459.3800     3.9490     3.8090     4.7000   -23.1060  1869.0930     9.8780   132.8380     2.4840     0.0350     0.3570
 3046.5000  1460.3530     3.9430     3.7770     4.6390   -22.7500  1867.0179     9.9070   136.6390     2.4840     0.0360     0.3580
 3047.0000  1461.3260     3.9360     3.7450     4.5790   -22.3910  1864.9440     9.9360   140.4310     2.4870     0.0430     0.3380
 3047.5000  1462.2990     3.9290     3.7130     4.5180   -22.0410  1862.8700     9.9650   143.0590     2.4900     0.0500     0.3240
 3048.0000  1463.2720     3.9220     3.6690     4.4570   -22.3620  1860.7960     9.9860   141.4280     2.4910     0.0580     0.3260
 3048.5000  1464.2440     3.9120     3.7020     4.4500   -22.7720  1858.7220     9.9860   137.8320     2.4870     0.0610     0.3280
 3049.0000  1465.2170     3.9300     3.7290     4.6330   -23.1840  1856.6479     9.9890   134.3130     2.4840     0.0520     0.3280
 3049.5000  1466.1899     3.9550     3.7680     4.7750   -23.5940  1855.3230     9.9960   130.7930     2.4810     0.0450     0.3280
 3050.0000  1467.0660     3.9810     3.8080     4.9230   -24.0050  1855.9070    10.0020   127.3270     2.4960     0.0440     0.3280
 3050.5000  1467.0660     4.0060     3.8470     4.9050   -24.3860  1856.4910    10.0090   125.0240     2.5110     0.0510     0.3280
 3051.0000  1467.0660     4.0320     3.8860     4.8780   -24.7380  1857.0750    10.0160   128.8230     2.5110     0.0500     0.3260
 3051.5000  1467.0660     4.0590     3.9250     5.0430   -25.0900  1857.6591    10.0220   130.8940     2.5070     0.0490     0.3190
 3052.0000  1467.0660     4.1380     3.9640     5.2700   -25.4410  1858.2419    10.0290   129.9630     2.5060     0.0420     0.3100
 3052.5000  1467.0660     4.2240     4.0030     5.4980   -25.7880  1858.8260    10.0350   126.7950     2.5090     0.0330     0.2990
 3053.0000  1467.0660     4.3090     4.0420     5.5990   -25.7450  1859.4100    10.0420   124.7670     2.5070     0.0270     0.2950
 3053.5000  1467.0660     4.3950     4.1090     5.5990   -24.9710  1859.9940    10.0510   124.2540     2.5020     0.0220     0.2970
 3054.0000  1467.0660     4.4800     4.1970     5.5990   -24.2130  1860.5780    10.0810   124.1010     2.5010     0.0250     0.2990
 3054.5000  1467.0660     4.5400     4.2860     5.5990   -23.4580  1861.1610    10.1110   121.1730     2.5060     0.0340     0.3010
 3055.0000  1467.0660     4.5600     4.3750     5.6510   -22.9220  1861.7450    10.1410   117.7170     2.5070     0.0400     0.3030
 3055.5000  1467.0660     4.5810     4.4630     5.8410   -22.7180  1862.3290    10.1710   114.9240     2.5030     0.0400     0.3040
 3056.0000  1467.0660     4.6010     4.5740     6.0310   -22.5130  1862.9130    10.2000   116.8100     2.5000     0.0540     0.2990
 3056.5000  1467.0660     4.6160     4.6160     6.2200   -22.4020  1863.4969    10.2300   118.7700     2.5440     0.0820     0.2900
 3057.0000  1467.0660     4.6160     4.5100     6.2520   -22.4460  1864.0811    10.2500   120.7370     2.5490     0.1100     0.2800
 3057.5000  1467.0660     4.5640     4.4080     6.0820   -22.4900  1864.6639    10.2650   122.7080     2.5390     0.1310     0.2740
 3058.0000  1467.0660     4.4830     4.3050     5.6510   -22.5350  1865.2480    10.2810   124.5150     2.5190     0.1050     0.2780
 3058.5000  1467.0660     4.4020     4.2020     5.1430   -22.5790  1865.8320    10.2960   124.5480     2.4990     0.0710     0.2810
 3059.0000  1467.0660     4.3210     4.0990     4.7020   -22.6860  1866.4160    10.3110   124.6110     2.4880     0.0460     0.2870
 3059.5000  1467.0660     4.2400     3.9850     4.7020   -22.8520  1867.0000    10.3260   126.0370     2.5000     0.0490     0.2940
 3060.0000  1467.0660     4.1580     4.0070     5.0110   -23.0190  1867.5830    10.3410   127.4430     2.5090     0.0540     0.2990
 3060.5000  1467.0660     4.1340     4.0380     5.6360   -23.1850  1868.1670    10.3560   126.2910     2.5220     0.0580     0.2990
 3061.0000  1467.0660     4.1340     4.0690     6.3100   -23.3520  1868.7510    10.3710   122.8240     2.5160     0.0480     0.2880
 3061.5000  1467.0660     4.1340     4.0960     6.1600   -23.5190  1869.3350    10.3860   119.5180     2.5060     0.0360     0.2640
 3062.0000  1467.0660     4.2090     4.1370     5.9520   -23.6850  1869.9189    10.4010   116.2410     2.4970     0.0280     0.2530
 3062.5000  1467.0660     4.3100     4.2140     5.7440   -23.8520  1870.5020    10.4160   113.6520     2.4980     0.0300     0.2580
 3063.0000  1467.0660     4.4110     4.2910     5.5940   -24.0190  1871.0861    10.4310   116.1610     2.5010     0.0340     0.2670
 3063.5000  1467.0660     4.5130     4.3670     5.4920   -24.1860  1871.6700    10.4460   118.6130     2.5020     0.0320     0.2750
 3064.0000  1467.0660     4.6160     4.4440     5.3480   -24.3510  1872.2540    10.4610   119.3570     2.4980     0.0220     0.2760
 3064.5000  1467.0660     4.6520     4.5810     5.4480   -24.5150  1872.8380    10.4760   118.8230     2.4920     0.0130     0.2710
 3065.0000  1467.0660     4.7120     4.6150     5.7070   -24.4610  1873.4220    10.4910   117.7540     2.4930     0.0140     0.2630
 3065.5000  1467.0660     4.7730     4.6490     5.8630   -24.1350  1874.0050    10.5060   119.4170     2.5020     0.0180     0.2550
 3066.0000  1467.0660     4.8330     4.6830     5.7860   -23.8110  1874.5890    10.5210   120.5260     2.5070     0.0160     0.2530
 3066.5000  1467.0660     4.8930     4.7260     5.6910   -23.4870  1874.7130    10.5360   121.6160     2.5090     0.0040     0.2510
 3067.0000  1467.0660     4.9540     4.7820     5.5990   -23.1600  1873.7440    10.5510   122.6210     2.5030     0.0010     0.2450
 3067.5000  1467.0660     5.0140     4.8380     5.5990   -23.0020  1872.7750    10.5660   122.1220     2.4970     0.0010     0.2420
 3068.0000  1467.0660     5.0750     4.8930     5.8420   -22.8480  1871.8060    10.5810   119.3450     2.5010     0.0030     0.2440
 3068.5000  1467.0660     5.1550     4.9230     6.0740   -22.6230  1870.8370    10.5960   116.6310     2.5080     0.0120     0.2470
 3069.0000  1467.0660     5.1290     4.9010     6.1950   -22.7930  1869.8680    10.6110   113.9180     2.5110     0.0220     0.2460
 3069.5000  1466.7050     5.0740     4.8840     6.1950   -22.9640  1868.8990    10.6260   112.4560     2.5040     0.0170     0.2430
 3070.0000  1466.1780     5.0150     4.8170     6.0320   -23.1320  1867.9301    10.6410   115.2540     2.5020     0.0120     0.2410
 3070.5000  1465.6500     4.7760     4.6940     5.7970   -23.2990  1866.9611    10.6520   119.2610     2.5020     0.0120     0.2450
 3071.0000  1465.1219     4.4910     4.4350     5.5620   -23.4080  1865.9919    10.6600   120.6280     2.5020     0.0210     0.2510
 3071.5000  1464.5940     4.1820     4.1200     5.2270   -23.5820  1865.0240    10.6670   121.9060     2.5030     0.0330     0.2580
 3072.0000  1464.0670     3.7510     3.8060     4.8070   -23.7630  1864.0551    10.6750   124.2130     2.5000     0.0450     0.2650
 3072.5000  1463.5389     3.3190     3.4910     4.4850   -23.9440  1863.0861    10.6820   131.9870     2.4970     0.0490     0.2730
 3073.0000  1463.0110     2.8870     3.1770     3.8830   -23.9570  1862.1169    10.6890   147.0280     2.4900     0.0520     0.2810
 3073.5000  1462.4830     2.7070     2.9020     3.2820   -23.8490  1861.1479    10.6880   153.1010     2.4620     0.0550     0.3020
