~VERSION INFORMATION
 VERS.                2.0:   CWLS LOG ASCII STANDARD - VERSION 2.0
 WRAP.                 NO:   ONE LINE PER DEPTH STEP
~WELL INFORMATION
#MNEM.UNIT      DATA TYPE    INFORMATION
#----------   ------------   ------------------------------
 STRT.F            0.0000:   START DEPTH
 STOP.F         3110.5000:   STOP DEPTH
 STEP.F            0.5000:   STEP LENGTH
 NULL.          -999.2500:   NO VALUE
 COMP. LAWRENCE  ALLISON AND ASSOCIATES:   COMPANY
 WELL. LAWRENCE NPR 3 "X" #72-15:   WELL
 FLD .                NPR:   FIELD
 LOC .      S15 T38N R78W:   LOCATION
 CNTY.            NATRONA:   COUNTY
 STAT.            WYOMING:   STATE
 CTRY. UNITED STATES OF AMERICA:   COUNTRY
 SRVC.           WIRELINE:   SERVICE COMPANY
 DATE.        16-JAN-1988:   LOGDATE
 API .     49025111930000:   API NUMBER
~CURVE INFORMATION
#MNEM.UNIT       API CODE    CURVE DESCRIPTION
#----------   ------------   ------------------------------
 DEPT.F                  :   
 TENR.LBS    07 635 01 00:   TENSION FROM RESISTIVITY
 GRR .GAPI   07 310 01 00:   GAMMA RAY FROM RESISTIVITY
 SPR .MV     07 010 01 00:   SPONTANEOUS POTENTIAL
 RFOC.OHMM   07 220 04 00:   RESISTIVITY FOCUSED LOG RES.
 RILD.OHMM   07 120 46 00:   DEEP INDUCTION RESISTIVITY
 RILM.OHMM   07 120 44 00:   INDUCTION LOG MEDIUM RESISTIVITY
 TEND.LBS    45 635 01 00:   TENSION FROM DENSITY LOG
 RHOB.G/C3   45 350 01 00:   BULK DENSITY
 CORR.G/C3   45 356 01 00:   DENSITY CORRECTION
 CNC .DEC    42 890 03 00:   NEUTRON PORISITY SANDSTONE
 CALR.IN     07 280 01 00:   CALIPER FROM RESISTIVITY
~PARAMETER INFORMATION
#MNEM.UNIT          VALUE    DESCRIPTION
#----------   ------------   ------------------------------
 EKB .F         5240.0000:   Kelly bushing
 EGL .F         5229.0000:   Ground level
 EDF .F            0.0000:   Drilling floor
 TD  .F         3090.0000:   Total depth
 DATE.        16-JAN-1988:   Date logged
 CLNT.            A2DTECH:   Client Code
 SL  . 814' FNL & 1208' FEL:   Surface Location
 PD  .                 GL:   Permanent Datum
 DD  .F              3085:   Depth driller
 DL  .F              3090:   Depth logger
 BLI .F              3089:   Bottom log interval
 CS1 .IN            8.625:   Casing size
 CBD1.      8.625" @ 610':   Casing driller 1
 CBL1.F               613:   Casing logger 1
 BS1 .IN            7.875:   Bit size
 DFT .            KCL/GEL:   Type fluid in hole
 DFD .                8.8:   Density
 DFV .                 40:   Viscosity
 DFPH.                8.5:   pH
 DFL .                 10:   Fluid loss
 MSS .           FLOWLINE:   Source of sample
 RMS .OHMM           .543:   Rm
 MST .F                65:   Rm Meas. temp.
 RMF .OHMM           .349:   Rmf
 MFST.F                65:   Rmf Meas. temp.
 RMC .OHMM           .557:   Rmc
 MCST.F                65:   Rmc Meas. temp.
 MFSS.               CALC:   Source Rmf.
 RMB .OHMM           .258:   Rm. at BHT
 BHT .F               114:   BHT.
 TCS .HRS               5:   Time Circ. stopped
 MRT .F               114:   Maximum recorded temp.
 LUN .            HL-6321:   Logging unit number
 LUL .           GILLETTE:   Logging unit location
 ENGI.               CAIN:   Recorded By
 WITN.             STRONG:   Witnessed by
 ORIG.           5" PRINT:   Origin of data
 UWI .     49025111930000:   Unique Well ID
 DICO. A2D TECHNOLOGIES, INC.:   Digitizing Company
 DAPD.F                11:   Feet Above Permanent Datum
 BSD1.F              3085:   Depth drilled with bit1
 MCSS.               CALC:   Source Rmc.
 EPD .F              5229:   Elevation Permanent Datum
 LMF .                 KB:   Log Measured From
 DMF .                 KB:   Drilling Measured From
~OTHER INFORMATION
~A    DEPT    TENR         GRR       SPR       RFOC       RILD       RILM       TEND       RHOB       CORR        CNC       CALR   
# ...
 1921.5000   -52.5950   121.2260   -71.3070     9.6540     8.0570     7.7040  -999.2500  -999.2500  -999.2500  -999.2500     8.7210
 1922.0000   -53.2590   121.7750   -71.8000     9.5580     8.0340     7.6920  -999.2500  -999.2500  -999.2500  -999.2500     8.7210
 1922.5000   -53.9220   122.0620   -71.9340     9.3440     8.0120     7.6810  -999.2500  -999.2500  -999.2500  -999.2500     8.7210
 1923.0000   -54.5860   121.9040   -72.0510     9.1300     7.9890     7.6700  -999.2500  -999.2500  -999.2500  -999.2500     8.7210
 1923.5000   -46.3460   121.7620   -72.1700     8.9150     7.9670     7.6580  -999.2500  -999.2500  -999.2500  -999.2500     8.7210
 1924.0000   -34.7850   120.3220   -72.2900     8.8040     7.9420     7.6470  -999.2500  -999.2500  -999.2500  -999.2500     8.7210
 1924.5000   -41.2150   117.5570   -72.4140     9.0620     7.9150     7.6360  -999.2500  -999.2500  -999.2500  -999.2500     8.7210
 1925.0000   -47.1500   112.7510   -72.6750     9.1350     7.8880     7.6240  -999.2500  -999.2500  -999.2500  -999.2500     8.7210
 1925.5000   -53.0850   107.8990   -72.9430     9.0090     7.8600     7.6130  -999.2500  -999.2500  -999.2500  -999.2500     8.7210
 1926.0000   -44.9200   106.6460   -73.2020     8.9130     7.8330     7.5970  -999.2500  -999.2500  -999.2500  -999.2500     8.7210
 1926.5000   -13.3880   108.9850   -73.2850     8.8850     7.8130     7.6410  -999.2500  -999.2500  -999.2500  -999.2500     8.7210
 1927.0000    -7.1040   112.3750   -73.3610     9.0480     7.9170     7.7250  -999.2500  -999.2500  -999.2500  -999.2500     8.7210
 1927.5000   -11.5560   115.6830   -73.4380     9.3050     8.0130     7.8090  -999.2500  -999.2500  -999.2500  -999.2500     8.7210
 1928.0000   -16.0070   116.8260   -73.5150     9.2580     8.1090     7.8930  -999.2500  -999.2500  -999.2500  -999.2500     8.7210
 1928.5000   -20.4590   115.0380   -73.5900     9.1720     8.2050     7.9770  -999.2500  -999.2500  -999.2500  -999.2500     8.7210
 1929.0000   -24.9100   112.7970   -73.7380     9.1350     8.3010     8.0620  -999.2500  -999.2500  -999.2500  -999.2500     8.7210
 1929.5000   -29.3620   111.6330   -73.9510     9.3610     8.3970     8.1460  -999.2500  -999.2500  -999.2500  -999.2500     8.7210
 1930.0000   -33.8130   114.5540   -74.1650     9.7490     8.4930     8.2300  -999.2500  -999.2500  -999.2500  -999.2500     8.7210
 1930.5000   -36.0990   117.2980   -74.3790     9.7630     8.5890     8.3150  -999.2500  -999.2500  -999.2500  -999.2500     8.7210
 1931.0000   -37.7810   118.6290   -74.5940     9.7760     8.6850     8.3990  -999.2500  -999.2500  -999.2500  -999.2500     8.7210
 1931.5000   -39.4630   117.9790   -74.7960     9.7900     8.7810     8.4830  -999.2500  -999.2500  -999.2500  -999.2500     8.7210
 1932.0000   -41.1440   115.8250   -74.8020     9.8040     8.8770     8.5670  -999.2500  -999.2500  -999.2500  -999.2500     8.7210
 1932.5000   -42.8260   113.0350   -74.8010     9.8180     8.9730     8.6520  -999.2500  -999.2500  -999.2500  -999.2500     8.7210
 1933.0000   -44.5080   114.2930   -74.8010     9.8310     9.0690     8.7360  -999.2500  -999.2500  -999.2500  -999.2500     8.7210
 1933.5000   -46.1900   116.6070   -74.7970    10.0670     9.1650     8.8200  -999.2500  -999.2500  -999.2500  -999.2500     8.7210
 1934.0000   -47.8710   115.8200   -74.9120    10.3490     9.2320     8.9040  -999.2500  -999.2500  -999.2500  -999.2500     8.7210
 1934.5000   -49.5530   114.5200   -75.0450    10.6300     9.2610     8.9680  -999.2500  -999.2500  -999.2500  -999.2500     8.7210
 1935.0000   -51.2350   114.3320   -75.1910    10.8830     9.3050     8.9680  -999.2500  -999.2500  -999.2500  -999.2500     8.7210
 1935.5000   -52.9160   115.6860   -74.8480    10.8830     9.3000     8.9680  -999.2500  -999.2500  -999.2500  -999.2500     8.7210
 1936.0000   -54.5980   115.6390   -74.4360    10.6390     9.2910     8.9680  -999.2500  -999.2500  -999.2500  -999.2500     8.7220
 1936.5000   -54.4330   113.0390   -74.0180    10.2750     9.2810     8.9680  -999.2500  -999.2500  -999.2500  -999.2500     8.7220
 1937.0000   -54.0090   109.5080   -73.6010     9.9100     9.2710     8.9680  -999.2500  -999.2500  -999.2500  -999.2500     8.7220
 1937.5000   -53.5850   106.2580   -73.2120     9.5660     9.2620     8.9680  -999.2500  -999.2500  -999.2500  -999.2500     8.7220
 1938.0000   -53.1610   107.4680   -73.2660     9.5660     9.2520     8.9680  -999.2500  -999.2500  -999.2500  -999.2500     8.7220
 1938.5000   -52.7370   113.5860   -73.3400     9.7480     9.2430     8.9680  -999.2500  -999.2500  -999.2500  -999.2500     8.7220
 1939.0000   -52.3130   114.7570   -73.4000     9.8880     9.2330     8.9680  -999.2500  -999.2500  -999.2500  -999.2500     8.7220
 1939.5000   -51.8890   113.1320   -73.2670    10.0270     9.2170     8.9680  -999.2500  -999.2500  -999.2500  -999.2500     8.7230
 1940.0000   -51.4650   110.9670   -73.1330    10.1670     9.3360     8.9680  -999.2500  -999.2500  -999.2500  -999.2500     8.7230
 1940.5000   -51.0410   110.5590   -73.0000    10.2590     9.4290     8.9650  -999.2500  -999.2500  -999.2500  -999.2500     8.7230
 1941.0000   -50.6170   112.2690   -72.8660    10.4210     9.5210     9.0740  -999.2500  -999.2500  -999.2500  -999.2500     8.7230
 1941.5000   -50.1930   114.0350   -72.7320    10.5830     9.6540     9.1540  -999.2500  -999.2500  -999.2500  -999.2500     8.7230
 1942.0000   -49.7700   114.4550   -72.6200    10.6850     9.6250     9.2190  -999.2500  -999.2500  -999.2500  -999.2500     8.7230
 1942.5000   -49.3460   114.3700   -72.8210    10.5060     9.5470     9.0970  -999.2500  -999.2500  -999.2500  -999.2500     8.7240
 1943.0000   -48.9220   114.2540   -73.0040    10.3530     9.4690     8.9930  -999.2500  -999.2500  -999.2500  -999.2500     8.7240
 1943.5000   -48.4980   114.1690   -72.9740    10.2000     9.3900     8.8890  -999.2500  -999.2500  -999.2500  -999.2500     8.7240
 1944.0000   -48.0740   117.0390   -72.9390    10.0470     9.3120     8.7850  -999.2500  -999.2500  -999.2500  -999.2500     8.7240
 1944.5000   -47.6500   120.3470   -72.9060    10.0170     9.2340     8.6800  -999.2500  -999.2500  -999.2500  -999.2500     8.7240
 1945.0000   -47.2260   121.8770   -72.8720    10.1040     9.1910     8.5760  -999.2500  -999.2500  -999.2500  -999.2500     8.7240
 1945.5000   -46.8020   119.8780   -72.8390    10.1950     9.1230     8.4720  -999.2500  -999.2500  -999.2500  -999.2500     8.7240
 1946.0000   -46.3780   117.1860   -72.8110    10.0840     9.0560     8.3680  -999.2500  -999.2500  -999.2500  -999.2500     8.7250
 1946.5000   -45.9540   114.4210   -72.8440     9.8950     8.9880     8.3300  -999.2500  -999.2500  -999.2500  -999.2500     8.7250
 1947.0000   -45.5300   116.4420   -72.8780     9.7060     8.9210     8.3300  -999.2500  -999.2500  -999.2500  -999.2500     8.7250
 1947.5000   -45.1060   118.7050   -72.9110     9.4780     8.8530     8.3300  -999.2500  -999.2500  -999.2500  -999.2500     8.7250
 1948.0000   -44.9820   119.8040   -72.9450     9.6810     8.7860     8.3300  -999.2500  -999.2500  -999.2500  -999.2500     8.7250
 1948.5000   -45.6860   120.5370   -72.9790     9.9310     8.7230     8.3300  -999.2500  -999.2500  -999.2500  -999.2500     8.7250
 1949.0000   -46.3890   119.5380   -73.0020    10.2030     8.8120     8.3300  -999.2500  -999.2500  -999.2500  -999.2500     8.7260
 1949.5000   -47.0930   116.8180   -72.8650    10.1280     8.8940     8.3710  -999.2500  -999.2500  -999.2500  -999.2500     8.7260
 1950.0000   -47.7970   115.6310   -72.7310     9.9750     8.9760     8.4310  -999.2500  -999.2500  -999.2500  -999.2500     8.7260
 1950.5000   -48.5000   114.6560   -72.5990     9.8220     9.0510     8.4920  -999.2500  -999.2500  -999.2500  -999.2500     8.7260
 1951.0000   -49.2040   116.5310   -72.4670     9.7440     9.0410     8.5520  -999.2500  -999.2500  -999.2500  -999.2500     8.7260
 1951.5000   -49.9080   116.5660   -72.3340    10.0040     9.0300     8.6430  -999.2500  -999.2500  -999.2500  -999.2500     8.7260
