~VERSION INFORMATION
 VERS.                2.0:   CWLS LOG ASCII STANDARD - VERSION 2.0
 WRAP.                 NO:   ONE LINE PER DEPTH STEP
~WELL INFORMATION
#MNEM.UNIT      DATA TYPE    INFORMATION
#----------   ------------   ------------------------------
 STRT.F            0.0000:   START DEPTH
 STOP.F         1071.5000:   STOP DEPTH
 STEP.F            0.5000:   STEP LENGTH
 NULL.          -999.2500:   NO VALUE
 COMP.       FLUOR DANIEL:   COMPANY
 WELL.     FLUOR X #82-22:   WELL
 FLD .                NPR:   FIELD
 LOC .      S22 T38N R78W:   LOCATION
 CNTY.            NATRONA:   COUNTY
 STAT.            WYOMING:   STATE
 CTRY. UNITED STATES OF AMERICA:   COUNTRY
 SRVC.      WESTERN ATLAS:   SERVICE COMPANY
 DATE.        19-SEP-1994:   LOGDATE
 API .     49025226520000:   API NUMBER
~CURVE INFORMATION
#MNEM.UNIT       API CODE    CURVE DESCRIPTION
#----------   ------------   ------------------------------
 DEPT.F                  :   
 GRR .GAPI   07 310 01 00:   GAMMA RAY FROM RESISTIVITY
 TENR.LBS    07 635 01 00:   TENSION
 ILD .OHMM   07 120 46 00:   INDUCTION LOG DEEP RESISTIVITY
 ILM .OHMM   07 120 44 00:   INDUCTION LOG MEDIUM RESISTIVITY
~PARAMETER INFORMATION
#MNEM.UNIT          VALUE    DESCRIPTION
#----------   ------------   ------------------------------
 EKB .F         5288.0000:   Kelly bushing
 EGL .F         5278.0000:   Ground level
 EDF .F         5287.0000:   Drilling floor
 EPD .F         5278.0000:   Permanent datum
 TD  .F         1062.0000:   Total depth
 DATE.        19-SEP-1994:   Date logged
 CLNT.            A2DTECH:   Client Code
 SL  . 937' FNL & 347' FEL:   Surface Location
 PD  .                 GL:   Permanent Datum
 LMF .                 KB:   Log Measured From
 DMF .                 KB:   Drilling Measured From
 DAPD.F                10:   Feet Above Permanent Datum
 DD  .F              1060:   Depth driller
 DL  .F              1062:   Depth logger
 BLI .F              1054:   Bottom log interval
 CS1 .IN            9.625:   Casing size
 CBD1.       9.625" @ 77':   Casing driller 1
 CBL1.F                78:   Casing logger 1
 BS1 .IN             8.75:   Bit size
 BSD1.F              1060:   Depth drilled with bit1
 DFT .                AIR:   Type fluid in hole
 LUN .            HL 6530:   Logging unit number
 LUL .             CASPER:   Logging unit location
 ENGI.      PAT RASMUSSEN:   Recorded By
 WITN.        GARY STRONG:   Witnessed by
 ORIG.           5" PRINT:   Origin of data
 UWI .     49025226520000:   Unique Well ID
 DICO. A2D TECHNOLOGIES, INC.:   Digitizing Company
~OTHER INFORMATION
~A    DEPT      GRR      TENR        ILD        ILM   
# ...
   73.0000    75.5430  -999.2500  -999.2500  -999.2500
   73.5000    77.0970  -999.2500  -999.2500  -999.2500
   74.0000    77.5240  -999.2500  -999.2500  -999.2500
   74.5000    77.3010  -999.2500  -999.2500  -999.2500
   75.0000    76.2530  -999.2500  -999.2500  -999.2500
   75.5000    75.3770  -999.2500  -999.2500  -999.2500
   76.0000    75.9680  -999.2500  -999.2500  -999.2500
   76.5000    77.3340  -999.2500  -999.2500  -999.2500
   77.0000    77.6570  -999.2500  -999.2500  -999.2500
   77.5000    78.1750   -58.5760  9798.7539  -999.2500
   78.0000    79.3630   -63.2380  9708.3779  -999.2500
   78.5000    89.1050   -60.5210  9708.3779  -999.2500
   79.0000   102.4260   -56.8060  9855.1240  -999.2500
   79.5000   114.0560   -53.2330  9708.3779  -999.2500
   80.0000   114.1130   -49.6600     2.2840  -999.2500
   80.5000   112.8320   -46.0870     2.1740     2.0370
   81.0000   113.3890   -43.7630     1.9630     1.9270
   81.5000   115.1610   -43.7630     1.9090     1.9630
   82.0000   114.1590   -43.7630     3.3660     3.1490
   82.5000   113.1900   -43.7630     4.8370     3.7460
   83.0000   114.1530   -36.3850     6.1940     4.8110
   83.5000   113.9850   -27.7500     5.7490     5.8750
   84.0000   110.9670   -19.1150     5.1040     6.8070
   84.5000   109.2300   -10.4800     4.6910     6.8880
   85.0000   112.8380    -4.9580     4.7060     6.9930
   85.5000   116.5320   -12.3600     4.7190     7.1140
   86.0000   117.5710   -19.7610     4.7330     7.2510
   86.5000   115.4670   -27.1630     4.9930     7.0130
   87.0000   114.2540   -34.5650     5.9110     6.7370
   87.5000   119.5310   -41.9660     6.8290     6.5330
   88.0000   122.9850   -49.3680     7.1180     6.3910
   88.5000   122.3540   -56.7690     6.2520     6.2480
   89.0000   121.4160   -63.8830     6.0820     6.1840
   89.5000   120.7820   -56.4590     5.9130     6.1690
   90.0000   119.2430   -49.3130     5.8590     6.1530
   90.5000   115.4660   -42.1670     5.8870     6.1370
   91.0000   113.8340   -35.0200     5.9140     6.0480
   91.5000   112.7500   -27.8740     5.8790     5.9530
   92.0000   112.3330   -24.5220     5.8180     5.8590
   92.5000   111.5840   -26.6810     5.7570     5.7650
   93.0000   110.4680   -28.8400     5.6960     5.7210
   93.5000   110.2240   -30.9980     5.6350     5.6840
   94.0000   113.1250   -33.1570     5.5940     5.6460
   94.5000   117.8400   -31.8130     5.7140     5.7900
   95.0000   119.8390   -29.2850     5.8200     5.9620
   95.5000   120.9990   -26.7580     5.9370     6.2100
   96.0000   119.8730   -24.2310     6.1040     6.4580
   96.5000   117.4360   -21.7030     6.4180     6.7060
   97.0000   115.4880   -19.1760     6.7320     6.9540
   97.5000   115.5760   -16.6490     7.0470     7.2020
   98.0000   117.0800   -14.1210     7.2740     7.4550
   98.5000   118.5870   -16.4120     7.4330     7.4690
   99.0000   120.1050   -20.0110     7.5950     7.4870
   99.5000   120.0760   -23.6110     7.4580     7.5050
  100.0000   117.3870   -27.2100     7.3480     7.5250
  100.5000   113.9100   -30.8090     7.2250     7.3280
  101.0000   114.2800   -34.4090     7.0060     7.1090
  101.5000   116.1590   -38.0080     6.7880     6.8910
  102.0000   119.3140   -41.6070     6.5910     6.6710
  102.5000   122.6220   -39.4210     6.4900     6.5630
  103.0000   123.8640   -28.5980     6.3900     6.4550
  103.5000   122.1500   -17.7750     6.2890     6.3470
  104.0000   118.1820    -6.9520     6.1880     6.3010
  104.5000   113.4000    -9.9050     6.1290     6.2880
  105.0000   111.0100   -19.2520     6.1130     6.2750
  105.5000   112.4780   -25.8670     6.0970     6.2620
  106.0000   116.2170   -30.0640     6.0810     6.2490
  106.5000   118.2310   -34.2610     6.0650     6.2350
  107.0000   119.0660   -38.4570     6.0490     6.2220
  107.5000   121.1970   -42.6540     6.0330     6.2090
  108.0000   124.0740   -46.8500     6.0240     6.1940
  108.5000   126.5440   -51.0470     6.1260     6.2810
  109.0000   128.7920   -55.2440     6.1960     6.3830
  109.5000   129.2610   -59.4400     6.2670     6.4850
  110.0000   125.6760   -63.8830     6.3370     6.5870
  110.5000   119.9950   -55.8180     6.4080     6.6890
  111.0000   115.2570   -47.2500     6.4780     6.7580
  111.5000   116.4440   -38.6820     6.5480     6.8010
  112.0000   117.5880   -31.3100     6.6640     6.8440
  112.5000   118.2580   -25.5980     6.8070     6.8870
  113.0000   118.0220   -25.9730     6.9500     6.9310
  113.5000   116.7740   -29.5180     7.0520     6.9830
  114.0000   116.1760   -33.0640     6.9110     6.9070
  114.5000   116.1800   -36.6090     6.7950     6.7940
  115.0000   115.2530   -40.1550     6.6220     6.6800
  115.5000   114.0460   -43.7630     6.4380     6.5350
  116.0000   113.3110   -36.1870     6.2540     6.3360
  116.5000   116.7850   -28.4760     6.0700     6.1370
  117.0000   117.9050   -20.7650     5.8860     5.9380
  117.5000   116.4120   -13.5810     5.7020     5.7380
  118.0000   114.9420   -22.7360     5.5180     5.4400
  118.5000   115.3780   -31.3040     5.3900     5.4630
  119.0000   116.5630   -39.8730     5.3900     5.5090
  119.5000   117.6990   -48.4410     5.3900     5.5540
  120.0000   116.1980   -52.7610     5.3900     5.6000
  120.5000   114.6110   -49.9050     5.4630     5.6450
  121.0000   115.3760   -47.0490     5.5860     5.6900
  121.5000   117.5130   -44.1930     5.7520     5.7520
  122.0000   116.1830   -41.3370     5.7190     5.7220
  122.5000   113.2670   -38.4810     5.6700     5.6760
  123.0000   114.3750   -35.6250     5.6210     5.6310
  123.5000   117.2120   -32.7690     5.5710     5.5860
  124.0000   115.4840   -29.9130     5.5220     5.5400
  124.5000   114.1470   -27.0570     5.4770     5.4950
  125.0000   115.2370   -24.2010     5.4380     5.4400
  125.5000   118.0850   -24.9760     5.4000     5.4480
  126.0000   120.1140   -26.6340     5.3610     5.4570
  126.5000   116.6250   -28.2920     5.3230     5.4660
  127.0000   113.6900   -29.9510     5.2840     5.4760
  127.5000   117.4110   -31.6090     5.2430     5.4850
  128.0000   121.0370   -33.2670     5.1940     5.4910
  128.5000   119.0450   -34.9260     5.1420     5.2620
  129.0000   116.3040   -36.5840     5.0890     5.0900
  129.5000   113.4990   -38.2420     5.0360     5.0330
  130.0000   109.8200   -39.9010     5.0050     5.0050
  130.5000   106.8200   -41.5590     5.0770     5.1310
  131.0000   108.5880   -43.2170     5.1280     5.2200
  131.5000   112.7090   -41.2980     5.1790     5.3100
  132.0000   116.7740   -37.6260     5.2300     5.3990
  132.5000   116.2390   -33.9540     5.2810     5.4880
  133.0000   113.3580   -30.2820     5.3320     5.5780
  133.5000   112.1760   -26.6100     5.3830     5.6670
  134.0000   113.8740   -22.9380     5.4340     5.7560
  134.5000   116.8660   -19.2660     5.4850     5.8450
  135.0000   118.6160   -15.5940     5.5360     5.9140
  135.5000   117.4310   -19.3910     5.5870     5.8890
  136.0000   115.7010   -32.2430     5.5940     5.8700
  136.5000   114.1810   -43.0960     5.5940     5.8500
  137.0000   115.0140   -36.6700     5.5940     5.8300
  137.5000   115.8250   -28.1690     5.5770     5.8100
  138.0000   115.1080   -17.8870     5.5540     5.7910
  138.5000   111.1300   -11.5900     5.5320     5.7700
  139.0000   107.3640    -8.1620     5.5090     5.7520
  139.5000   107.7010    -4.7350     5.4910     5.8400
  140.0000   111.0000    -9.5570     5.6510     5.9270
  140.5000   115.6910   -18.9040     5.7810     6.0140
  141.0000   118.8610   -28.2510     5.9110     6.1570
  141.5000   118.0120   -37.5980     6.0350     6.3070
  142.0000   115.3520   -40.8450     6.1250     6.4570
  142.5000   111.9940   -32.2770     6.2150     6.6710
  143.0000   110.5160   -23.6420     6.3040     6.6370
  143.5000   110.7690   -26.3260     6.3940     6.5780
  144.0000   113.9270   -29.0320     6.4280     6.5200
  144.5000   117.6470   -31.7380     6.3290     6.3820
  145.0000   120.2860   -34.4440     6.1080     6.1470
  145.5000   117.5300   -37.1490     5.8870     5.9120
