~VERSION INFORMATION
 VERS.                2.0:   CWLS LOG ASCII STANDARD - VERSION 2.0
 WRAP.                 NO:   ONE LINE PER DEPTH STEP
~WELL INFORMATION
#MNEM.UNIT      DATA TYPE    INFORMATION
#----------   ------------   ------------------------------
 STRT.F           12.0000:   START DEPTH
 STOP.F          900.0000:   STOP DEPTH
 STEP.F            0.5000:   STEP LENGTH
 NULL.          -999.2500:   NO VALUE
 COMP. FLUOR DANIEL - NPSOR:   COMPANY
 WELL. FLUOR NPR "X" #82-34:   WELL
 FLD .              NPR 3:   FIELD
 LOC .      S34 T39N R78W:   LOCATION
 CNTY.            NATRONA:   COUNTY
 STAT.            WYOMING:   STATE
 CTRY. UNITED STATES OF AMERICA:   COUNTRY
 SRVC.      WESTERN ATLAS:   SERVICE COMPANY
 DATE.        06-SEP-1994:   LOGDATE
 API .     49025226350000:   API NUMBER
~CURVE INFORMATION
#MNEM.UNIT       API CODE    CURVE DESCRIPTION
#----------   ------------   ------------------------------
 DEPT.F                  :   
 RILD.OHMM   07 120 46 00:   INDUCTION LOG DEEP RESISTIVITY
 TENR.LBS    07 635 01 00:   TENSION
 RILM.OHMM   07 120 44 00:   INDUCTION LOG MEDIUM RESISTIVITY
 GRR .GAPI   07 310 01 00:   GAMMA RAY FROM RESISTIVITY
~PARAMETER INFORMATION
#MNEM.UNIT          VALUE    DESCRIPTION
#----------   ------------   ------------------------------
 EKB .F         5084.0000:   Kelly bushing
 EGL .F         5074.0000:   Ground level
 EDF .F         5083.0000:   Drilling floor
 EPD .F            0.0000:   Permanent datum
 TD  .F          918.0000:   Total depth
 DATE.        06-SEP-1994:   Date logged
 CLNT.            A2DTECH:   Client Code
 SL  . 990' FNL & 330' FEL:   Surface Location
 PD  .                 GL:   Permanent Datum
 DAPD.F                10:   Feet Above Permanent Datum
 DD  .F               918:   Depth driller
 DL  .F               807:   Depth logger
 BLI .F               889:   Bottom log interval
 CS1 .IN            9.625:   Casing size
 CBD1.       9.625" @ 54':   Casing driller 1
 CBL1.F                54:   Casing logger 1
 BS1 .IN             8.75:   Bit size
 BSD1.F               918:   Depth drilled with bit1
 DFT .                AIR:   Type fluid in hole
 LUN .            HL-6321:   Logging unit number
 LUL .       ROCK SPRINGS:   Logging unit location
 ENGI.           VERCIMAK:   Recorded By
 WITN.          G. STRONG:   Witnessed by
 ORIG.           5" PRINT:   Origin of data
 UWI .     49025226350000:   Unique Well ID
 DICO. A2D TECHNOLOGIES, INC.:   Digitizing Company
~OTHER INFORMATION
~A   DEPT     RILD       TENR       RILM         GRR  
# ...
  377.0000     6.4690   -72.2360     6.4120   130.7900
  377.5000     6.5000   -72.0920     6.4170   130.4080
  378.0000     6.5480   -71.9490     6.4230   128.4210
  378.5000     6.5360   -71.8050     6.4290   125.4940
  379.0000     6.4690   -71.6610     6.4370   122.6410
  379.5000     6.4020   -71.5170     6.4250   121.3440
  380.0000     6.3350   -71.3740     6.3800   122.4560
  380.5000     6.2680   -71.2300     6.3360   125.3380
  381.0000     6.2010   -71.0860     6.2910   128.2010
  381.5000     6.1340   -70.9430     6.2470   129.2150
  382.0000     6.0680   -70.7990     6.2020   128.3440
  382.5000     6.0010   -70.6550     6.1580   127.1330
  383.0000     5.9340   -70.5120     6.1130   124.9440
  383.5000     5.8670   -70.3680     6.0690   122.3740
  384.0000     5.8000   -70.2240     6.0240   123.1650
  384.5000     5.7330   -70.0800     5.9800   125.2090
  385.0000     5.6820   -69.9370     5.9350   127.1840
  385.5000     5.6820   -69.7930     5.8910   128.8610
  386.0000     5.6820   -69.6490     5.8460   130.9010
  386.5000     5.6680   -69.5060     5.8020   129.6630
  387.0000     5.6530   -69.3620     5.7570   123.1680
  387.5000     5.6370   -69.2180     5.6820   119.8080
  388.0000     5.6210   -69.0740     5.7250   124.6840
  388.5000     5.6050   -68.9310     5.8620   128.9400
  389.0000     5.5820   -68.7870     5.9990   132.2990
  389.5000     5.6560   -68.6430     6.1370   131.7850
  390.0000     5.7940   -68.5000     6.2740   125.8130
  390.5000     5.9320   -68.3560     6.4110   121.2200
  391.0000     6.0700   -68.2120     6.5490   123.7950
  391.5000     6.2080   -68.0680     6.6860   125.5940
  392.0000     6.3460   -67.9250     6.8230   125.7350
  392.5000     6.4840   -67.7810     7.0390   117.8840
  393.0000     6.6720   -67.6370     6.9880   109.0050
  393.5000     6.6040   -67.4940     6.8680    99.7590
  394.0000     6.4970   -67.3500     6.7480    94.9330
  394.5000     6.3900   -67.2060     6.6280   105.1460
  395.0000     6.2830   -67.0630     6.5080   114.8900
  395.5000     6.1770   -66.9190     6.3880   121.8940
  396.0000     6.0700   -66.7750     6.2670   120.6290
  396.5000     5.9630   -66.6310     6.1470   120.4610
  397.0000     5.8560   -66.4880     6.0270   122.2650
  397.5000     5.7850   -66.3440     5.8890   124.0680
  398.0000     5.7850   -66.2000     5.8890   125.8380
  398.5000     5.7850   -66.0570     5.8890   127.6040
  399.0000     5.7850   -65.9130     5.8890   126.9780
  399.5000     5.7850   -65.7690     5.8890   126.2760
  400.0000     5.7850   -65.6250     5.9420   127.0960
  400.5000     5.8430   -65.4820     6.1360   127.7290
  401.0000     5.9840   -65.3380     6.3120   129.1660
  401.5000     6.1260   -65.1940     6.4870   129.0060
  402.0000     6.2670   -65.0510     6.6630   124.6490
  402.5000     6.4090   -64.9070     6.8390   118.4140
  403.0000     6.5500   -64.7630     7.0150   117.6760
  403.5000     6.6720   -64.6190     7.1660   121.5780
  404.0000     6.6720   -64.4760     7.1260   125.9290
  404.5000     6.6230   -64.3320     7.0130   127.7360
  405.0000     6.5360   -64.1880     6.9000   125.5710
  405.5000     6.4490   -64.0450     6.7880   123.9240
  406.0000     6.3620   -63.9010     6.6750   122.0220
  406.5000     6.2750   -63.7570     6.5620   122.2890
  407.0000     6.1880   -63.6140     6.4490   123.7850
  407.5000     6.1000   -63.4700     6.3250   123.6430
  408.0000     6.0130   -63.3260     6.1030   123.4870
  408.5000     5.9260   -63.1820     6.0010   123.3060
  409.0000     5.8390   -63.0390     5.9100   123.1240
  409.5000     5.7850   -62.8950     5.8890   123.9850
  410.0000     5.8230   -62.7510     5.9300   127.4570
  410.5000     5.8870   -62.6080     6.0000   126.1300
  411.0000     5.9520   -62.4640     6.0700   124.1840
  411.5000     6.0170   -62.3200     6.1390   122.0080
  412.0000     6.0810   -62.1760     6.2090   121.6750
  412.5000     6.1460   -62.0330     6.2790   124.9200
  413.0000     6.2110   -61.8890     6.3490   128.2260
  413.5000     6.2750   -61.7450     6.4190   127.7570
  414.0000     6.3400   -61.6020     6.4890   127.1020
  414.5000     6.4050   -61.4580     6.5590   127.7870
  415.0000     6.4700   -61.3140     6.6290   128.6710
  415.5000     6.5340   -61.1700     6.6980   129.6560
  416.0000     6.5990   -61.0270     6.7680   129.9250
  416.5000     6.6720   -60.8830     6.8380   129.3730
  417.0000     6.6570   -60.7390     6.9080   128.8210
  417.5000     6.6240   -60.5960     6.9780   128.8590
  418.0000     6.5910   -60.4520     7.0390   130.2080
  418.5000     6.5580   -60.3080     6.9490   130.1320
  419.0000     6.5250   -60.1650     6.8690   127.4900
  419.5000     6.4920   -60.0210     6.7880   124.9960
  420.0000     6.4590   -59.8770     6.7070   123.1920
  420.5000     6.4260   -59.7330     6.6270   124.0230
  421.0000     6.3930   -59.5900     6.5460   127.1860
  421.5000     6.3600   -59.4460     6.4650   130.5970
  422.0000     6.3270   -59.3020     6.4130   131.1430
  422.5000     6.2940   -59.1590     6.3740   129.9610
  423.0000     6.2610   -59.0150     6.3360   128.9530
  423.5000     6.2280   -58.8710     6.2980   128.0350
  424.0000     6.1950   -58.7270     6.2590   125.9610
  424.5000     6.1620   -58.5840     6.2160   123.8560
  425.0000     6.1290   -58.4400     6.2220   121.7940
  425.5000     6.1060   -58.2960     6.2340   125.4720
  426.0000     6.1170   -58.1530     6.2460   129.5620
  426.5000     6.1290   -58.0090     6.2580   129.7640
  427.0000     6.1410   -57.8650     6.2700   128.3070
  427.5000     6.1530   -57.7210     6.2820   129.7230
  428.0000     6.1640   -57.5780     6.2940   131.6410
  428.5000     6.1760   -57.4340     6.3060   131.2020
  429.0000     6.1880   -57.2900     6.3180   130.6380
  429.5000     6.2000   -57.1470     6.3300   130.0100
  430.0000     6.2110   -57.0030     6.3420   129.2890
  430.5000     6.2230   -56.8590     6.3540   126.8540
  431.0000     6.2350   -56.7160     6.3660   123.6890
  431.5000     6.2470   -56.5720     6.3780   120.5090
  432.0000     6.2590   -56.4280     6.3900   118.7120
  432.5000     6.2700   -56.2840     6.4020   119.9220
  433.0000     6.2820   -56.1410     6.4150   121.2040
  433.5000     6.2950   -55.9970     6.4270   122.5170
  434.0000     6.3060   -55.8530     6.4390   126.6280
  434.5000     6.3160   -55.7100     6.5790   130.2070
  435.0000     6.3670   -55.5660     6.7250   134.1910
  435.5000     6.4740   -55.4220     6.8700   135.4100
  436.0000     6.5820   -55.2780     7.0150   134.7110
  436.5000     6.6890   -55.1350     7.1610   134.2390
  437.0000     6.7970   -54.9910     7.2950   134.1370
  437.5000     6.9150   -54.8470     7.3090   136.1720
  438.0000     6.9360   -54.7040     7.3220   137.7800
  438.5000     6.9760   -54.5600     7.3350   137.4290
  439.0000     7.0160   -54.4160     7.3480   137.0670
  439.5000     7.0570   -54.2720     7.3610   136.6420
  440.0000     7.0970   -54.1290     7.3740   136.3670
  440.5000     7.1380   -53.9850     7.3870   137.3210
  441.0000     7.1780   -53.8410     7.3990   138.5400
  441.5000     7.2180   -53.6980     7.4120   139.9360
  442.0000     7.2590   -53.5540     7.4270   139.2310
  442.5000     7.2950   -53.4100     7.4970   137.4500
  443.0000     7.4430   -53.2670     7.6390   135.5190
  443.5000     7.5780   -53.1230     7.7810   136.7790
  444.0000     7.7120   -52.9790     7.9240   139.2310
  444.5000     7.8470   -52.8350     8.0660   140.1050
  445.0000     7.9820   -52.6920     8.2080   137.3440
  445.5000     8.1160   -52.5480     8.3510   134.3720
  446.0000     8.2510   -52.4040     8.4930   130.4890
  446.5000     8.3860   -52.2610     8.6350   129.2100
  447.0000     8.5200   -52.1170     8.7780   129.2880
  447.5000     8.7210   -51.9730     8.8600   129.2100
  448.0000     8.7050   -51.8290     8.8000   127.1380
  448.5000     8.6730   -51.6860     8.7400   124.7000
  449.0000     8.6420   -51.5420     8.6800   122.4000
  449.5000     8.6100   -51.3980     8.6200   120.1980
