~VERSION INFORMATION
 VERS.                2.0:   CWLS LOG ASCII STANDARD - VERSION 2.0
 WRAP.                 NO:   ONE LINE PER DEPTH STEP
~WELL INFORMATION
#MNEM.UNIT      DATA TYPE    INFORMATION
#----------   ------------   ------------------------------
 STRT.F          500.0000:   START DEPTH
 STOP.F         2517.0000:   STOP DEPTH
 STEP.F            0.5000:   STEP LENGTH
 NULL.          -999.2500:   NO VALUE
 COMP.    FENIX & SCISSON:   COMPANY
 WELL. FENIX & SCISSON SHX #46-33:   WELL
 FLD .  TEAPOT DOME NPR-3:   FIELD
 LOC .      S33 T39N R78W:   LOCATION
 CNTY.            NATRONA:   COUNTY
 STAT.            WYOMING:   STATE
 CTRY. UNITED STATES OF AMERICA:   COUNTRY
 SRVC.           BIRDWELL:   SERVICE COMPANY
 DATE.        04-APR-1979:   LOGDATE
 API .     49025107670000:   API NUMBER
~CURVE INFORMATION
#MNEM.UNIT       API CODE    CURVE DESCRIPTION
#----------   ------------   ------------------------------
 DEPT.F                  :   
 GRD .GAPI   45 310 01 00:   GAMMA RAY FROM DENSITY LOG
 CALD.IN     45 280 60 00:   CALIPER FROM DENSITY LOG
 CORR.G/C3   45 356 01 00:   DENSITY CORRECTION
 RHOB.G/C3   45 350 01 00:   BULK DENSITY
~PARAMETER INFORMATION
#MNEM.UNIT          VALUE    DESCRIPTION
#----------   ------------   ------------------------------
 EKB .F         5217.0000:   Kelly bushing
 EGL .F         5207.0000:   Ground level
 EDF .F            0.0000:   Drilling floor
 TD  .F         2630.0000:   Total depth
 CLNT.            A2DTECH:   Client Code
 SL  . 1955' FSL & 1970' FWL:   Surface Location
 PD  .                 GL:   Permanent Datum
 EPD .F              5207:   Elevation Permanent Datum
 LMF .                 KB:   Log Measured From
 DMF .                 KB:   Drilling Measured From
 DAPD.                 10:   Feet Above Permanent Datum
 DATE.        04-APR-1979:   Date Logged [DD-MMM-YYYY]
 DD  .F              2630:   Depth driller
 DL  .F              2517:   Depth logger
 BLI .F              2517:   Bottom log interval
 TLI .F               504:   Top log interval
 CS1 .              9.625:   Casing size
 CBD1.      9.625" @ 300':   Casing driller 1
 CBL1.IN              306:   Casing logger 1
 BS1 .IN            7.875:   Bit size
 BSD1.F              2630:   Depth drilled with bit1
 DFT .                OIL:   Type fluid in hole
 LUL .             CASPER:   Logging unit location
 ENGI.            ROLLINS:   Recorded By
 ORIG.           5" PRINT:   Origin of data
 UWI .     49025107670000:   Unique Well ID
 DICO. A2D TECHNOLOGIES ,INC.:   Digitizing Company
 WITN.              AMUND:   Witnessed by
~OTHER INFORMATION
~A   DEPT      GRD       CALD       CORR       RHOB   
# ...
 1668.0000    28.2682     9.8433     0.4974     2.6415
 1668.5000    25.7554     9.7995     0.4626     2.6621
 1669.0000    22.6483     9.7406     0.3850     2.5600
 1669.5000    22.3482     9.7117     0.3227     2.5056
 1670.0000    22.8234     9.6975     0.3534     2.4474
 1670.5000    22.2423     9.6836     0.4104     2.3514
 1671.0000    20.3219     9.7148     0.4912     2.3106
 1671.5000    19.8914     9.7757  -999.2500     2.3031
 1672.0000    20.8240     9.8816  -999.2500     2.3358
 1672.5000    22.2856    10.0024  -999.2500     2.4025
 1673.0000    27.4704    10.0034  -999.2500     2.4375
 1673.5000    31.0918    10.0194  -999.2500     2.4391
 1674.0000    31.3989    10.1253  -999.2500     2.4506
 1674.5000    27.7007    10.0664  -999.2500     2.5544
 1675.0000    21.3246    10.0373     0.4649     2.5999
 1675.5000    20.0006    10.0233     0.4392     2.5743
 1676.0000    19.8619     9.9348     0.4363     2.5593
 1676.5000    20.3242     9.5167     0.4945     2.5897
 1677.0000    23.0121     9.4426     0.4992     2.6095
 1677.5000    27.1858     9.5038     0.4994     2.6187
 1678.0000    28.8335     9.6545     0.4127     2.6116
 1678.5000    29.7383     9.4909     0.3367     2.5341
 1679.0000    29.8968     9.3123     0.3231     2.5021
 1679.5000    29.4676     9.3283     0.3675     2.5101
 1680.0000    27.9949     9.4940     0.4134     2.5738
 1680.5000    27.8563     9.7675     0.4166     2.5891
 1681.0000    27.4271    10.0680     0.3598     2.5816
 1681.5000    26.4002    10.2307     0.3326     2.5515
 1682.0000    25.6705    10.1549     0.3042     2.5054
 1682.5000    25.9809    10.1779     0.3551     2.4851
 1683.0000    26.2913    10.2939     0.4222     2.4897
 1683.5000    25.7102    10.3548     0.4422     2.5216
 1684.0000    26.0208    10.3708     0.4484     2.5611
 1684.5000    26.3310    10.5366     0.4166     2.5809
 1685.0000    24.2050    10.6571     0.4046     2.5818
 1685.5000    23.0886     9.9698     0.3880     2.5796
 1686.0000    24.7396    10.2852     0.3745     2.5774
 1686.5000    27.2788    10.1814     0.3609     2.5821
 1687.0000    28.4808     9.9280     0.3383     2.6110
 1687.5000    27.8997     9.7494     0.3186     2.6164
 1688.0000    27.0214     9.6454     0.3051     2.6150
 1688.5000    29.1149     9.7365     0.3373     2.6128
 1689.0000    32.0999     9.7675     0.3878     2.6177
 1689.5000    32.4070     9.1847     0.4276     2.6229
 1690.0000    32.2716     9.0657     0.4598     2.5870
 1690.5000    31.3967     9.4862     0.4904     2.5694
 1691.0000    27.2494     9.7866  -999.2500     2.5733
 1691.5000    25.1824     9.9523  -999.2500     2.5674
 1692.0000    25.0438    10.1030  -999.2500     2.5319
 1692.5000    26.2490    10.1364  -999.2500     2.5100
 1693.0000    22.5476    10.0602  -999.2500     2.5018
 1693.5000    20.3320    10.0313  -999.2500     2.5254
 1694.0000    20.7910    10.0473  -999.2500     2.5861
 1694.5000    22.1415    10.0633  -999.2500     2.6528
 1695.0000    21.5604    10.0793  -999.2500     2.7453
 1695.5000    18.6019    10.1408  -999.2500     2.7681
 1696.0000    15.1935    10.2331  -999.2500     2.7500
 1696.5000    14.7651    10.3549     0.4347     2.6987
 1697.0000    16.9701    10.4428     0.3282     2.6269
 1697.5000    21.5780    10.4588     0.2354     2.5384
 1698.0000    24.1210    10.3852     0.1639     2.3939
 1698.5000    25.0706    10.3713     0.1564     2.2101
 1699.0000    23.7499    10.3873     0.2131     2.2216
 1699.5000    25.1004    10.4333     0.2529     2.3103
 1700.0000    28.2340    10.1798     0.3140     2.3543
 1700.5000    25.7212    10.0461     0.3721     2.3605
 1701.0000    24.8396    10.0472     0.3937     2.3805
 1701.5000    25.4505    10.0781     0.4060     2.3725
 1702.0000    25.9062    10.2738     0.4032     2.3518
 1702.5000    24.4369    10.6797     0.3957     2.3344
 1703.0000    20.6151    10.7106     0.3883     2.3141
 1703.5000    18.2553     9.5144     0.3839     2.2740
 1704.0000    17.8271     9.4986     0.4024     2.2451
 1704.5000    17.3989     9.6066     0.4803     2.2378
 1705.0000    18.0108    10.8353     0.4957     2.2766
 1705.5000    20.7030    11.3155     0.5000     2.3607
 1706.0000    22.3550    10.2160     0.4715     2.4509
 1706.5000    23.5613    10.3152     0.3709     2.4487
 1707.0000    23.4303    10.1817     0.3623     2.4412
 1707.5000    23.4479     9.7337     0.3802     2.4405
 1708.0000    23.9113     9.6451     0.4770     2.4649
 1708.5000    22.8887     9.7660     0.4970     2.5383
 1709.0000    23.0581     9.8268     0.4987     2.6242
 1709.5000    24.7639     9.5738     0.4974     2.7074
 1710.0000    27.4589     9.5899     0.4961     2.7226
 1710.5000    29.6455     9.4863     0.4002     2.6841
 1711.0000    27.8844     9.4572     0.3348     2.6282
 1711.5000    29.6851     9.5785     0.3137     2.6011
 1712.0000    32.5258     9.7743     0.3382     2.6034
 1712.5000    33.1334     9.7305     0.3612     2.6103
 1713.0000    27.5090     9.4603     0.3462     2.6006
 1713.5000    23.6633     9.3716     0.3418     2.5833
 1714.0000    23.9780     9.2254     0.3451     2.5802
 1714.5000    25.1843     9.1963     0.3560     2.5812
 1715.0000    25.7919     9.3026     0.3454     2.5554
 1715.5000    25.2195     9.2885     0.3884     2.5586
 1716.0000    25.6828     9.4996     0.4323     2.5729
 1716.5000    30.4739     9.5603     0.4558     2.5755
 1717.0000    31.0672     9.3522     0.4697     2.5711
 1717.5000    34.5023     9.3232     0.4759     2.6091
 1718.0000    34.6685     9.4743     0.4350     2.6402
 1718.5000    31.1824     9.5201     0.3330     2.6123
 1719.0000    28.3496     9.3719     0.3255     2.6215
 1719.5000    25.8103     9.2982     0.3562     2.6329
 1720.0000    25.3777     9.2395     0.3671     2.6360
 1720.5000    27.1828     9.4503     0.3810     2.6187
 1721.0000    27.4931     9.3576     0.3964     2.6446
 1721.5000    26.3264     9.2733     0.4088     2.6575
 1722.0000    26.0424     9.2894     0.4196     2.6629
 1722.5000    27.4017     9.3655     0.4274     2.6721
 1723.0000    27.8650     9.3816     0.3804     2.6556
 1723.5000    26.6939     9.3675     0.3440     2.6314
 1724.0000    21.9567     9.3391     0.3411     2.6346
 1724.5000    20.9297     9.3851     0.3535     2.6748
 1725.0000    20.2088     9.4013     0.3011     2.6567
 1725.5000    21.2665     9.3426     0.2883     2.6507
 1726.0000    24.1072     9.2537     0.2824     2.6653
 1726.5000    31.1120     9.2551     0.3085     2.6668
 1727.0000    33.5307     9.3162     0.3239     2.6529
 1727.5000    30.8566     9.3174     0.3363     2.6496
 1728.0000    27.1699     9.3794     0.3395     2.6588
 1728.5000    25.6810     9.3757     0.2940     2.6211
 1729.0000    25.2572     9.3209     0.2789     2.5969
 1729.5000    24.9732     9.4122     0.3081     2.5895
 1730.0000    24.6980     9.4430     0.3281     2.5843
 1730.5000    23.3783     9.3693     0.3435     2.5601
 1731.0000    19.2354     9.4157     0.3528     2.5716
 1731.5000    18.5057     9.5067     0.3469     2.5899
 1732.0000    21.0536     9.4181     0.3135     2.6089
 1732.5000    25.0831     9.3291     0.2862     2.6294
 1733.0000    26.4380     9.4504     0.2665     2.6129
 1733.5000    25.7082     9.4216     0.2739     2.6054
 1734.0000    27.3647     9.3779     0.3213     2.6055
 1734.5000    27.5707     9.3192     0.3831     2.6154
 1735.0000    26.3596     9.4551     0.4153     2.6488
 1735.5000    27.1238     9.5171     0.4277     2.6610
 1736.0000    28.3386     9.5642     0.4065     2.6485
 1736.5000    26.4196     9.5487     0.3869     2.6079
 1737.0000    23.0169     9.4751     0.3855     2.5879
 1737.5000    22.7373     9.3715     0.4086     2.5537
 1738.0000    22.7549     9.4774     0.4560     2.5366
 1738.5000    23.3668     9.5085     0.4958     2.5625
 1739.0000    25.1675     9.5097     0.4975     2.5747
 1739.5000    25.7794     9.5109     0.4992     2.5930
 1740.0000    27.4315     9.4971     0.4979     2.6846
 1740.5000    28.0390     9.4983     0.4981     2.7650
