~VERSION INFORMATION
 VERS.                2.0:   CWLS LOG ASCII STANDARD - VERSION 2.0
 WRAP.                 NO:   ONE LINE PER DEPTH STEP
~WELL INFORMATION
#MNEM.UNIT      DATA TYPE    INFORMATION
#----------   ------------   ------------------------------
 STRT.F          290.0000:   START DEPTH
 STOP.F         2884.0000:   STOP DEPTH
 STEP.F            0.5000:   STEP LENGTH
 NULL.          -999.2500:   NO VALUE
 COMP.   FENNIX & SCISSON:   COMPANY
 WELL. FENIX & SCISSON AX #22-28:   WELL
 FLD .             NPR #3:   FIELD
 LOC .      S28 T39N R78W:   LOCATION
 CNTY.            NATRONA:   COUNTY
 STAT.            WYOMING:   STATE
 CTRY. UNITED STATES OF AMERICA:   COUNTRY
 SRVC.              WELEX:   SERVICE COMPANY
 DATE.        29-DEC-1979:   LOGDATE
 API .     49025107930000:   API NUMBER
~CURVE INFORMATION
#MNEM.UNIT       API CODE    CURVE DESCRIPTION
#----------   ------------   ------------------------------
 DEPT.F                  :   
 GRD .GAPI   45 310 01 00:   GAMMA RAY FROM DENSITY LOG
 CALD.IN     45 280 60 00:   CALIPER FROM DENSITY LOG
 CORR.G/C3   45 356 01 00:   DENSITY CORRECTION
 RHOB.G/C3   45 350 01 00:   BULK DENSITY
 NPHI.DEC    42 890 03 00:   NEUTRON POROSITY SANDSTONE
 SPR .MV     07 010 01 00:   SPONTANEOUS POTENTIAL
 TENR.LBS    07 635 01 00:   TENSION FROM RESISTIVITY
 ILD .OHMM   07 120 46 00:   DEEP INDUCTION RESISTIVITY
 ILM .OHMM   07 120 44 00:   INDUCTION LOG MEDIUM RESISTIVITY
 SGRD.OHMM   07 220 08 00:   LATEROLOG-8 RES.
~PARAMETER INFORMATION
#MNEM.UNIT          VALUE    DESCRIPTION
#----------   ------------   ------------------------------
 EKB .F         4988.0000:   Kelly bushing
 EGL .F         4978.0000:   Ground level
 EPD .F         4978.0000:   Permanent datum
 TD  .F         2872.0000:   Total depth
 CLNT.            A2DTECH:   Client Code
 SL  . 803' FNL & 938' FWL:   Surface Location
 DATE.        29-DEC-1979:   Date Logged [DD-MMM-YYYY]
 DD  .F              2868:   Depth driller
 DL  .F              2872:   Depth logger
 BLI .F              2870:   Bottom log interval
 TLI .F               300:   Top log interval
 CS1 .              8.625:   Casing size
 CBD1.      8.625" @ 318':   Casing driller 1
 CBL1.IN              318:   Casing logger 1
 BS1 .IN            7.875:   Bit size
 BSD1.F              2868:   Depth drilled with bit1
 DFT .          GEL-BENEX:   Type fluid in hole
 DFD .                8.8:   Density
 TCS .HRS              10:   Time Circ. stopped
 MRT .F               109:   Maximum recorded temp.
 ENGI.               REIN:   Recorded By
 WITN.          MR. AMEND:   Witnessed by
 ORIG.      2.5" 5" PRINT:   Origin of data
 UWI .     49025107930000:   Unique Well ID
 DICO. A2D TECHNOLOGIES, INC.:   Digitizing Company
 PD  .                 GL:   Permanent Datum
 LMF .                 KB:   Log Measured From
 DMF .                 KB:   Drilling Measured From
~OTHER INFORMATION
~A   DEPT       GRD        CALD     CORR         RHOB       NPHI      SPR       TENR        ILD        ILM       SGRD   
# ...
  457.5000   102.3315     8.9570     0.0203     2.5413     0.2623   -72.1052  1084.0773    10.6688     9.6502    10.0822
  458.0000   100.5812     8.9278     0.0283     2.5474     0.2595   -72.1008  1083.9285    10.6702     9.7855    10.2253
  458.5000    99.4188     8.8513     0.0315     2.5506     0.2647   -72.0963  1083.7797    10.8189    10.1821    10.5134
  459.0000    99.1412     8.8079     0.0348     2.5560     0.2662   -72.0918  1083.6309    10.9697    10.3239    10.8096
  459.5000   100.0656     8.7787     0.0256     2.5523     0.2674   -71.7897  1083.4821    10.9713    10.6118    10.9630
  460.0000   102.1720     8.7495    -0.0025     2.5313     0.2705   -71.7853  1083.3333    11.0535    10.9078    11.1187
  460.5000   103.9813     8.7203    -0.0131     2.5103     0.2707   -71.7808  1083.1844    11.1257    11.0596    11.2765
  461.0000   105.1962     8.7222    -0.0129     2.5074     0.2629   -71.7763  1083.0356    11.3644    11.2135    11.4366
  461.5000   103.4394     8.7390    -0.0112     2.5113     0.2573   -71.7719  1082.8868    11.5959    11.3696    11.4413
  462.0000   101.3849     8.7712    -0.0111     2.5016     0.2541   -71.7674  1082.7380    11.7575    11.3712    11.4460
  462.5000   100.2229     8.8803    -0.0109     2.4972     0.2535   -71.4653  1082.5892    12.0105    11.3727    11.4507
  463.0000    99.9519     9.0968    -0.0170     2.4896     0.2571   -71.4608  1082.4403    12.2544    11.5310    11.4554
  463.5000    99.9792     9.3748    -0.0262     2.4874     0.2592   -71.4564  1082.2915    12.4252    11.5326    11.3043
  464.0000   100.3081     9.2995    -0.0276     2.4951     0.2549   -71.4519  1082.1427    12.4269    11.5341    11.3089
  464.5000   101.8202     9.1923    -0.0165     2.5058     0.2480   -71.4474  1081.9939    12.6001    11.5357    11.3136
  465.0000   103.0351     9.1311    -0.0101     2.5066     0.2454   -71.4430  1081.8451    12.8728    11.5373    11.4742
  465.5000   103.3585     9.0433    -0.0100     2.4985     0.2494   -71.4385  1081.6963    13.0525    11.3819    11.6371
  466.0000   102.7838     8.9834    -0.0192     2.4933     0.2484   -71.7322  1081.5475    13.1344    10.2031    11.9649
  466.5000   101.9185     8.9081    -0.0303     2.4852     0.2472   -71.7272  1081.3987    13.1362     9.7940    12.1348
  467.0000   101.0598     8.8481    -0.0376     2.4793     0.2496   -71.7227  1081.2499    13.2390     9.6622    12.3070
  467.5000    99.6001     8.7969    -0.0312     2.4854     0.2499   -72.0164  1081.1011    13.3212     9.7966    12.4817
  468.0000    98.7348     8.7396    -0.0092     2.4976     0.2489   -72.3095  1080.9523    13.3230     9.7980    12.4869
  468.5000    96.6808     8.6823     0.0113     2.5090     0.2473   -72.6027  1080.8140    13.4281     9.7993    12.1547
  469.0000    95.8155     8.6200     0.0052     2.5137     0.2454   -72.8953  1081.5865    13.6155     9.8007    11.9944
  469.5000    96.1389     8.5297     0.0053     2.5184     0.2438   -72.8908  1082.3082    13.8057     9.6687    11.6754
  470.0000    94.0914     8.5315     0.0055     2.5251     0.2446   -72.5888  1083.0299    13.8898     9.4090    11.3648
  470.5000    89.9572     8.5487    -0.0053     2.5027     0.2484   -72.5843  1083.7516    13.8917     9.2824    12.1747
  471.0000    87.0051     8.5351    -0.0176     2.4915     0.2619   -72.5798  1084.4731    13.8936     9.2836    15.5819
  471.5000    94.1701     8.5215    -0.0175     2.4954     0.2650   -72.5754  1085.1948    13.8955     9.4128    19.6715
  472.0000    99.2483     8.5238    -0.0017     2.5046     0.2668   -72.5709  1085.9165    13.8974     9.8087    12.8756
  472.5000   103.7322     8.5256     0.0140     2.5129     0.2680   -72.5664  1086.6382    13.8993     9.8100    11.8654
  473.0000   106.1358     8.5428     0.0282     2.5153     0.2682   -72.2643  1087.3599    13.7921     9.9466    11.3928
  473.5000   105.2705     8.5907     0.0157     2.5109     0.2697   -72.2599  1088.0814    13.4994    10.2240    11.0898
  474.0000   102.0278     8.6232     0.0333     2.5201     0.2700   -72.2554  1088.8031    13.1632    10.5091    11.4022
  474.5000   102.0540     8.6557     0.0272     2.5232     0.2678   -71.9533  1089.5248    13.1650    10.9510    11.5641
  475.0000   102.9718     8.7036     0.0226     2.5162     0.2699   -71.9488  1090.2465    13.1668    11.1034    11.5688
  475.5000   102.0833     8.7208     0.0446     2.5242     0.2723   -71.6468  1090.9680    13.1686    11.4131    11.7330
  476.0000   100.9440     8.7533     0.0339     2.5303     0.2726   -71.6423  1091.6897    13.1704    11.1025    11.5783
  476.5000   103.0570     8.7705     0.0262     2.5252     0.2701   -71.6378  1092.4114    13.1723    10.2268    11.5831
  477.0000   102.4889     8.7724     0.0186     2.5207     0.2725   -71.6334  1093.1331    13.1741     9.8221    11.5878
  477.5000    98.0574     8.7745     0.0031     2.5147     0.2715   -71.3313  1093.8547    13.0698    10.5289    11.4350
  478.0000    95.4091     8.7763    -0.0061     2.5060     0.2671   -71.0292  1094.5763    12.9983    10.9675    11.2842
  478.5000    95.7325     8.7781    -0.0059     2.5031     0.2620   -70.7271  1095.2980    12.8231    11.2745    11.1354
  479.0000    98.4333     8.7799    -0.0089     2.5002     0.2596   -70.7226  1096.0197    12.7208    11.2687    11.1400
  479.5000   101.7284     8.7659    -0.0119     2.4958     0.2623   -70.8968  1096.7413    12.6520    11.1080    11.1446
  480.0000   105.6180     8.7831    -0.0148     2.4884     0.2647   -71.0119  1097.4629    12.4819    10.7990    11.1491
  480.5000    98.8091     8.7696    -0.0166     2.4848     0.2673   -71.1260  1098.1846    12.4836    10.3846    11.1537
  481.0000    96.1607     8.7718    -0.0254     2.4894     0.2684   -71.4186  1098.9062    12.4853    10.8334    11.3120
  481.5000    93.7740     8.7890    -0.0237     2.4941     0.2696   -71.5946  1099.6279    12.3170    10.9721    11.3167
  482.0000    93.5386     8.7908    -0.0111     2.5024     0.2621   -71.7064  1100.3496    12.3187    10.9736    11.4773
  482.5000    98.0290     8.8080     0.0047     2.5116     0.2611   -71.8833  1101.0712    12.3204    10.9751    11.4821
  483.0000    96.8665     8.8124     0.0205     2.5252     0.2635   -71.9940  1101.7928    12.3221    10.9766    11.4868
  483.5000    96.5890     8.8427     0.0237     2.5344     0.2622   -72.1720  1102.5145    12.1557    10.9611    11.4915
  484.0000    98.9992     8.8906     0.0083     2.5405     0.2609   -72.0516  1103.2362    12.1577    10.6657    11.4962
  484.5000   101.4029     8.9232     0.0006     2.5270     0.2589   -71.7500  1103.9579    12.1594    10.3960    11.1904
  485.0000   103.2121     8.9096     0.0008     2.5265     0.2565   -70.9673  1104.6794    12.1610    10.7255    10.8927
  485.5000   102.0496     8.8807     0.0025     2.5288     0.2605   -71.5589  1105.4880    12.1627    10.9840    10.4589
  486.0000    99.9956     8.8057     0.0027     2.5207     0.2636   -71.6666  1104.2769    12.1644    10.9636    10.3209
  486.5000    98.2388     8.7614    -0.0051     2.5148     0.2594   -72.1452  1102.8999    12.1660    10.3376    10.3252
  487.0000    96.7791     8.7632    -0.0190     2.5142     0.2631   -72.2519  1101.5228    12.1677    10.2617    10.6161
  487.5000    96.2110     8.7497    -0.0315     2.4955     0.2618   -72.4339  1100.1459    12.1693    10.4285    11.0655
  488.0000    97.4502     8.7515    -0.0435     2.4716     0.2599   -72.4286  1098.7689    12.1710    10.7204    11.2226
  488.5000    98.6895     8.7533    -0.0387     2.4845     0.2645   -72.4241  1097.3918    12.1727    10.8436    11.5388
  489.0000   100.1595     8.7705    -0.0245     2.4936     0.2657   -72.4196  1096.0149    12.1743    10.9945    11.7026
  489.5000    99.8820     8.7727    -0.0181     2.4885     0.2619   -72.4152  1094.6378    12.1760    10.9961    11.7074
  490.0000    99.6111     8.7745    -0.0382     2.4758     0.2603   -72.4107  1093.2609    12.1777    10.9976    11.7122
  490.5000   100.2382     8.7763    -0.0537     2.4548     0.2612   -72.4063  1091.8839    12.1794    10.9991    11.7170
