~VERSION INFORMATION
 VERS.                2.0:   CWLS LOG ASCII STANDARD - VERSION 2.0
 WRAP.                 NO:   ONE LINE PER DEPTH STEP
~WELL INFORMATION
#MNEM.UNIT      DATA TYPE    INFORMATION
#----------   ------------   ------------------------------
 STRT.F          514.0000:   START DEPTH
 STOP.F         4154.0000:   STOP DEPTH
 STEP.F            0.5000:   STEP LENGTH
 NULL.          -999.2500:   NO VALUE
 COMP.    FENIX & SCISSON:   COMPANY
 WELL.  FENIX "MX" #86-10:   WELL
 FLD .        TEAPOT DOME:   FIELD
 LOC .      S10 T38N R78W:   LOCATION
 CNTY.            NATRONA:   COUNTY
 STAT.            WYOMING:   STATE
 CTRY. UNITED STATES OF AMERICA:   COUNTRY
 SRVC.       SCHLUMBERGER:   SERVICE COMPANY
 DATE.        30-SEP-1978:   LOGDATE
 API .     49025107290000:   API NUMBER
~CURVE INFORMATION
#MNEM.UNIT       API CODE    CURVE DESCRIPTION
#----------   ------------   ------------------------------
 DEPT.F                  :   
 SPR .MV     07 010 01 00:   SPONTANEOUS POTENTIAL
 TENR.LBS    07 635 01 00:   TENSION FROM RESISTIVITY
 SFL .OHMM   07 220 01 00:   SHALLOW FOCUSED LOG RESISTIVITY
 ILM .OHMM   07 120 44 00:   INDUCTION LOG MEDIUM RESISTIVITY
 ILD .OHMM   07 120 46 00:   INDUCTION LOG DEEP RESISTIVITY
 CALD.IN     45 280 60 00:   CALIPER FROM DENSITY LOG
 GRD .GAPI   45 310 01 00:   GAMMA RAY FROM DENSITY LOG
 TEND.LBS    45 635 01 00:   TENSION FROM DENSITY LOG
 CORR.G/C3   45 356 01 00:   DENSITY CORRECTION
 RHOB.G/C3   45 350 01 00:   BULK DENSITY
 NPHI.DEC    42 890 03 00:   NEUTRON POROSITY SANDSTONE
~PARAMETER INFORMATION
#MNEM.UNIT          VALUE    DESCRIPTION
#----------   ------------   ------------------------------
 EKB .F         5233.0000:   Kelly bushing
 EGL .F         5222.0000:   Ground level
 EDF .F            0.0000:   Drilling floor
 TD  .F         4150.0000:   Total depth
 DATE.        30-SEP-1978:   Date logged
 CLNT.            A2DTECH:   Client Code
 SL  . 1450' FSL & 600' FEL:   Surface Location
 PD  .                 GL:   Permanent Datum
 LMF .                 KB:   Log Measured From
 DMF .                 KB:   Drilling Measured From
 DAPD.F                11:   Feet Above Permanent Datum
 DD  .F              4150:   Depth driller
 DL  .F              4141:   Depth logger
 BLI .F              4135:   Bottom log interval
 TLI .F               520:   Top log interval
 CS1 .IN            9.625:   Casing size
 CBD1.      9.625" @ 529':   Casing driller 1
 CBL1.F               529:   Casing logger 1
 BS1 .IN             8.75:   Bit size
 BSD1.F              4150:   Depth drilled with bit1
 DFT .                FGM:   Type fluid in hole
 DFD .                9.5:   Density
 DFV .                 36:   Viscosity
 DFPH.                 11:   pH
 DFL .                 60:   Fluid loss
 MSS .           MUD TANK:   Source of sample
 RMS .OHMM            .57:   Rm
 MST .F                68:   Rm Meas. temp.
 RMF .OHMM           .449:   Rmf
 MFST.F                68:   Rmf Meas. temp.
 MFSS.               MEAS:   Source Rmf.
 RMB .OHMM            .27:   Rm. at BHT
 BHT .F               142:   BHT.
 TCS .HRS            1500:   Time Circ. stopped
 TLAB.HRS            0700:   Time logger at bottom
 MRT .F               142:   Maximum recorded temp.
 LUN .               8043:   Logging unit number
 LUL .               CSPR:   Logging unit location
 ENGI.             LARSON:   Recorded By
 WITN.           DINSMORE:   Witnessed by
 ORIG.           5" PRINT:   Origin of data
 UWI .     49025107290000:   Unique Well ID
 DICO. A2D TECHNOLOGIES, INC.:   Digitizing Company
 EPD .               5222:   Elevation Permanent Datum
~OTHER INFORMATION
~A   DEPT      SPR       TENR        SFL        ILM        ILD       CALD         GRD      TEND       CORR       RHOB         NPHI 
# ...
 3869.0000   -42.0330  1236.6320    46.2580    23.9390    19.8570    10.7700    66.4750  1530.7040     0.0260     2.5150     0.1430
 3869.5000   -42.0320  1236.2090    52.6460    25.7040    21.3470    10.8720    66.6640  1527.0389     0.0320     2.5080     0.1460
 3870.0000   -42.0320  1235.7850    48.2070    27.4680    22.8370    10.4560    66.4310  1523.3730     0.0320     2.4930     0.1710
 3870.5000   -42.0320  1235.3621    41.6380    28.5920    24.0360    10.0560    66.3340  1519.7080     0.0190     2.4580     0.1900
 3871.0000   -42.0330  1234.9380    35.0700    27.0770    24.0360     9.7350    70.8540  1516.0420     0.0040     2.4480     0.1810
 3871.5000   -42.0280  1234.5150    31.8320    25.5630    24.0360     9.7330    77.3430  1512.3770     0.0040     2.4580     0.1850
 3872.0000   -42.0360  1234.0909    30.2890    24.0490    22.9490     9.7280    84.3630  1508.7120     0.0040     2.4900     0.1940
 3872.5000   -42.0470  1233.6670    28.7450    22.5350    21.7370     9.7290    86.1300  1505.0460     0.0170     2.5220     0.2140
 3873.0000   -42.2620  1233.2440    27.2020    21.4840    20.5250     9.7290    83.1920  1501.3810     0.0360     2.5360     0.2250
 3873.5000   -42.4470  1232.8199    25.8710    20.7440    19.3120     9.7280    83.8640  1497.7159     0.0550     2.5370     0.2230
 3874.0000   -42.6290  1232.3970    24.4230    20.0050    18.5200     9.7300    87.9430  1494.0240     0.0740     2.5380     0.2190
 3874.5000   -42.8110  1231.9730    22.9880    19.2660    17.9240     9.7260    93.1390  1526.7729     0.0930     2.5810     0.2140
 3875.0000   -42.6110  1231.5490    23.4410    18.5270    17.3270     9.7610    95.6720  1559.7610     0.1160     2.6110     0.2090
 3875.5000   -42.3980  1231.1260    24.4820    17.7280    16.6410     9.8260    96.1390  1592.7490     0.0990     2.6010     0.2040
 3876.0000   -42.1710  1230.7020    23.6530    16.8910    16.3380     9.8870    96.8010  1601.3550     0.0710     2.5760     0.2020
 3876.5000   -41.9510  1230.2791    22.6780    16.5680    16.2380     9.9480    98.6890  1568.3669     0.0420     2.5860     0.2000
 3877.0000   -41.7210  1229.8550    21.7030    16.4640    16.0950    10.0090    99.4690  1535.3781     0.0530     2.6120     0.2040
 3877.5000   -41.6270  1229.4320    20.7280    16.3590    15.9520    10.0700    99.9150  1502.3900     0.0640     2.6350     0.2110
 3878.0000   -41.6400  1229.0081    20.1270    16.2550    15.8090    10.1360    99.1270  1494.0240     0.0740     2.6340     0.2200
 3878.5000   -41.7730  1228.5840    20.6300    16.1500    15.6660    10.1690    96.8700  1494.0240     0.0920     2.6230     0.2180
 3879.0000   -41.8910  1228.1610    21.1320    16.0410    15.5230    10.1370    94.7180  1494.0240     0.1410     2.5920     0.2090
 3879.5000   -42.0220  1227.7371    21.6350    15.6460    14.9460    10.1080    93.6510  1494.0240     0.1630     2.5510     0.2040
 3880.0000   -41.9500  1227.3140    21.9260    14.9560    14.0440    10.1360    97.5250  1494.0240     0.1750     2.4850     0.2050
 3880.5000   -41.8720  1226.8900    19.9880    14.2650    13.1410    10.2940    99.8440  1494.0240     0.1510     2.4360     0.2060
 3881.0000   -41.7860  1226.4670    18.1220    13.5740    12.2380    10.4510   100.9630  1494.0240     0.1200     2.4470     0.2090
 3881.5000   -41.7040  1226.0430    16.2570    12.8650    11.3120    10.6140   102.3520  1494.0240     0.0960     2.4760     0.2170
 3882.0000   -41.6210  1225.6190    14.3910    11.7730    10.3780    10.7490   104.5740  1494.0240     0.0730     2.5480     0.2300
 3882.5000   -41.5360  1225.1960    12.7910    10.6510     9.4190    10.8500   107.3260  1494.0240     0.0540     2.5870     0.2430
 3883.0000   -41.4560  1224.7720    11.5300     9.5290     8.4600    10.9560   110.0290  1494.0240     0.0590     2.5990     0.2570
 3883.5000   -41.3720  1224.3490    10.2690     8.4070     7.5010    11.0610   112.4760  1494.0240     0.0620     2.6060     0.2680
 3884.0000   -41.2790  1223.9250     9.0080     7.2760     6.5420    11.1430   116.3840  1494.0240     0.0620     2.5990     0.2790
 3884.5000   -41.3150  1223.5010     7.5490     6.0540     5.9740    11.2250   121.3630  1494.0240     0.0530     2.5780     0.2950
 3885.0000   -41.5880  1223.0780     7.0440     5.7070     5.6570    11.3060   126.0590  1494.0240     0.0400     2.5570     0.3200
 3885.5000   -41.8500  1222.6541     6.4460     5.3380     5.3400    11.3870   129.5780  1494.0240     0.0280     2.5440     0.3310
 3886.0000   -41.9540  1222.2310     5.9440     5.0650     5.0240    11.4630   129.2320  1494.0240     0.0150     2.5400     0.3430
 3886.5000   -41.6710  1221.8070     5.6690     4.7930     4.7070    11.5100   128.2040  1494.0240     0.0090     2.5350     0.3400
 3887.0000   -41.3830  1221.3840     5.4330     4.5210     4.3900    11.5530   125.5310  1494.0240     0.0080     2.5310     0.3370
 3887.5000   -41.1180  1220.9600     5.1960     4.2490     4.0730    11.5960   122.8770  1494.0240     0.0270     2.5350     0.3460
 3888.0000   -40.8700  1220.5360     4.9350     3.9770     3.7570    11.6410   119.8240  1494.0240     0.0520     2.4970     0.3550
 3888.5000   -41.2750  1220.1130     4.6240     3.7540     3.4040    11.6820   115.1390  1494.0240     0.0800     2.4280     0.3890
 3889.0000   -41.6790  1219.6890     4.3130     3.5780     3.1480    11.7260   114.6470  1494.0240     0.0660     2.3970     0.4250
 3889.5000   -42.0970  1219.2660     4.0020     3.4280     3.0670    11.7900   117.2450  1494.0240     0.0430     2.3850     0.4500
 3890.0000   -42.4070  1218.8420     3.6900     3.2790     2.9860    11.9450   121.3800  1494.0240     0.0570     2.4500     0.4480
 3890.5000   -42.1420  1218.4180     3.4590     3.1290     2.9050    12.0070   124.2120  1494.0240     0.0940     2.5520     0.4410
 3891.0000   -41.9350  1217.9950     3.3780     2.9800     2.8230    12.0390   123.0300  1494.0240     0.1640     2.5970     0.4510
 3891.5000   -41.6960  1217.5710     3.3010     2.8300     2.7460    12.0740   120.9660  1494.0240     0.2390     2.6280     0.4690
 3892.0000   -41.6280  1217.1479     3.1880     2.6810     2.5950    12.1110   118.6140  1494.0240     0.2420     2.4700     0.4670
 3892.5000   -41.6350  1216.7240     3.0810     2.5520     2.4510    12.4090   116.1870  1494.0240     0.2110     2.3080     0.4630
 3893.0000   -41.6380  1216.3010     2.9740     2.4730     2.3770    12.8020   112.8610  1494.0240     0.1680     2.1440     0.4730
 3893.5000   -41.7190  1215.8770     2.8490     2.4030     2.3270    13.2300   109.6200  1494.0240     0.1200     2.0690     0.4880
 3894.0000   -41.8000  1215.4530     2.7930     2.3340     2.2760    13.5630   108.6950  1494.0240     0.1310     2.2740     0.5120
 3894.5000   -41.8850  1215.0300     2.7460     2.2850     2.2260    13.3730   110.0080  1494.0240     0.1670     2.2680     0.5090
 3895.0000   -41.9680  1214.6060     2.6180     2.2440     2.2030    13.1490   112.3860  1494.0240     0.1570     2.2460     0.5030
 3895.5000   -42.0510  1214.1830     2.4070     2.3280     2.1630    13.3630   114.3040  1494.0240     0.1340     2.1270     0.4960
 3896.0000   -42.1370  1213.7590     2.4370     2.4440     2.3940    13.2520   115.8180  1494.0240     0.1010     2.0780     0.5120
 3896.5000   -42.2160  1213.3350     2.7180     2.6770     2.6240    12.7590   113.5900  1494.0240     0.0590     2.0870     0.5220
 3897.0000   -42.3000  1212.9120     2.9990     3.0410     2.8540    12.2470   107.5680  1494.0240     0.0120     2.1450     0.4880
 3897.5000   -42.3970  1212.9139     3.8020     3.4050     3.0840    11.9950    99.3370  1494.0240     0.0060     2.2720     0.4050
 3898.0000   -42.3230  1213.2560     5.0230     3.7700     3.3150    11.9850    94.8130  1494.0240     0.0020     2.4780     0.3170
 3898.5000   -42.0270  1213.5990     6.3980     4.0400     3.5450    11.9560    98.2880  1494.0240     0.0400     2.5820     0.2740
 3899.0000   -41.7430  1213.9410     6.1670     4.0520     3.7750    11.9200   105.0510  1494.0240     0.0500     2.5820     0.2780
