~VERSION INFORMATION
 VERS.                2.0:   CWLS LOG ASCII STANDARD - VERSION 2.0
 WRAP.                 NO:   ONE LINE PER DEPTH STEP
~WELL INFORMATION
#MNEM.UNIT      DATA TYPE    INFORMATION
#----------   ------------   ------------------------------
 STRT.F          206.0000:   START DEPTH
 STOP.F         3218.0000:   STOP DEPTH
 STEP.F            0.5000:   STEP LENGTH
 NULL.          -999.2500:   NO VALUE
 COMP.    FENIX & SCISSON:   COMPANY
 WELL.     FENIX AX #16-2:   WELL
 FLD .              NPR 3:   FIELD
 LOC .       S2 T38N R78W:   LOCATION
 CNTY.            NATRONA:   COUNTY
 STAT.            WYOMING:   STATE
 CTRY. UNITED STATES OF AMERICA:   COUNTRY
 SRVC.       SCHLUMBERGER:   SERVICE COMPANY
 DATE.        10-OCT-1977:   LOGDATE
 API .     49025105780000:   API NUMBER
~CURVE INFORMATION
#MNEM.UNIT       API CODE    CURVE DESCRIPTION
#----------   ------------   ------------------------------
 DEPT.F                  :   
 GRD .GAPI   45 310 01 00:   GAMMA RAY FROM DENSITY LOG
 CALD.IN     45 280 60 00:   CALIPER FROM DENSITY LOG
 RHOB.G/C3   45 350 01 00:   BULK DENSITY
 CORR.G/C3   45 356 01 00:   DENSITY CORRECTION
 SPR .MV     07 010 01 00:   SPONTANEOUS POTENTIAL FROM RES.
 RILD.OHMM   07 120 46 00:   DEEP INDUCTION RESISTIVITY
 RILM.OHMM   07 120 44 00:   INDUCTION LOG MEDIUM RESISTIVITY
 RLL8.OHMM   07 220 08 00:   LATEROLOG-8 RES.
~PARAMETER INFORMATION
#MNEM.UNIT          VALUE    DESCRIPTION
#----------   ------------   ------------------------------
 EKB .F         5123.0000:   Kelly bushing
 EGL .F         5113.0000:   Ground level
 EDF .F            0.0000:   Drilling floor
 TD  .F         3220.0000:   Total depth
 CLNT.            A2DTECH:   Client Code
 SL  . 1772' FSL & 576' FWL:   Surface Location
 PD  .                 GL:   Permanent Datum
 EPD .F              5113:   Elevation Permanent Datum
 LMF .                 KB:   Log Measured From
 DMF .                 KB:   Drilling Measured From
 DAPD.F                10:   Feet Above Permanent Datum
 DATE.        10-OCT-1977:   Date Logged [DD-MMM-YYYY]
 DD  .F              3220:   Depth driller
 DL  .F              3218:   Depth logger
 BLI .F              3212:   Bottom log interval
 TLI .F               223:   Top log interval
 CS1 .IN            8.625:   Casing size
 CBD1.      8.625" @ 222':   Casing driller 1
 CBL1.F               223:   Casing logger 1
 BS1 .IN            7.875:   Bit size
 BSD1.F              3220:   Depth drilled with bit1
 DFT .                KCL:   Type fluid in hole
 DFD .                8.6:   Density
 DFV .                 32:   Viscosity
 DFPH.                 11:   pH
 MSS .            MUD PIT:   Source of sample
 RMS .OHMM           0.29:   Rm
 MST .F                82:   Rm Meas. temp.
 RMF .OHMM          0.228:   Rmf
 MFST.F                81:   Rmf Meas. temp.
 MFSS.               MEAS:   Source Rmf.
 RMB .OHMM           0.21:   Rm. at BHT
 BHT .F               122:   BHT.
 TCS .HRS            0600:   Time Circ. stopped
 MRT .F               122:   Maximum recorded temp.
 LUN .               5642:   Logging unit number
 ENGI. CHALUPSKY PETERSON:   Recorded By
 WITN.     WES PETTINGILL:   Witnessed by
 ORIG.           5" PRINT:   Origin of data
 UWI .     49025105780000:   Unique Well ID
 DICO. A2D TECHNOLOGIES, INC.:   Digitizing Company
 TLAB.HRS            1000:   Time logger at bottom
 LUL .               CSPR:   Logging unit location
~OTHER INFORMATION
~A   DEPT       GRD      CALD       RHOB       CORR        SPR       RILD       RILM       RLL8   
# ...
 2960.0000   135.7763     9.5227     2.5289     0.0120   -54.9500     4.9125     4.8633     5.8919
 2960.5000   136.9895     9.5396     2.5327     0.0135   -54.2238     5.0243     4.9750     5.8977
 2961.0000   136.5486     9.5565     2.5222     0.0105   -53.1159     5.1020     5.1258     6.2061
 2961.5000   135.0550     9.5584     2.5237     0.0090   -51.9872     5.1810     5.2062     6.5773
 2962.0000   134.6115     9.5604     2.5282     0.0075   -50.8552     5.2611     5.2879     6.8295
 2962.5000   134.6243     9.5627     2.5244     0.0045   -49.7255     5.3425     5.3709     6.5429
 2963.0000   134.6346     9.5646     2.5222     0.0015   -48.5981     5.4641     5.4552     6.4105
 2963.5000   134.6472     9.5665     2.5169    -0.0015   -48.0180     5.5486     5.5408     6.3712
 2964.0000   134.6574     9.5834     2.5056    -0.0031   -48.1722     5.6345     5.6278     6.4233
 2964.5000   133.9157     9.5853     2.4936    -0.0037   -48.4954     5.6809     5.6799     6.4917
 2965.0000   132.8733     9.5872     2.4996    -0.0029   -48.8162     5.7278     5.7700     6.7673
 2965.5000   130.3271     9.5891     2.5109    -0.0014   -49.2533     5.7339     5.8134     6.9206
 2966.0000   128.6832     9.5910     2.5070    -0.0014   -49.6917     5.6990     5.8205     7.0253
 2966.5000   129.8964     9.5933     2.5049    -0.0014   -50.1507     5.6242     5.6252     6.7873
 2967.0000   134.2346     9.5952     2.5094    -0.0029   -51.2255     5.4319     5.3195     6.4628
 2967.5000   144.0546     9.5816     2.5124    -0.0067   -52.3522     5.2048     4.9237     6.1538
 2968.0000   148.7265     9.5840     2.5079    -0.0089   -53.9295     4.8135     4.2735     5.8178
 2968.5000   149.9397     9.5859     2.4951    -0.0074   -56.4459     4.4096     3.4287     5.3074
 2969.0000   155.0627     9.5878     2.4836    -0.0036   -58.9770     3.5837     3.0188     4.6719
 2969.5000   164.3961     9.5946     2.4700    -0.0005   -60.8376     3.1057     2.6961     3.8291
 2970.0000   179.5943     9.6069     2.4564     0.0017   -60.2784     2.6958     2.4252     3.1835
 2970.5000   186.8226     9.6088     2.4410     0.0063   -58.6939     2.4417     2.3760     2.7626
 2971.0000   189.0884     9.6107     2.4237     0.0131   -57.7184     2.2596     2.4488     2.3633
 2971.5000   182.1839     9.6126     2.4350     0.0184   -55.6577     2.1977     2.5962     2.2027
 2972.0000   169.8016     9.6145     2.4440     0.0078   -51.5308     2.6688     2.8730     2.7914
 2972.5000   148.5200     9.6314     2.4711    -0.0057   -49.0838     3.3104     3.4148     5.3442
 2973.0000   138.4550     9.6183     2.5081    -0.0042   -47.2603     3.9338     3.8885     6.3570
 2973.5000   129.8938     9.6203     2.5263    -0.0034   -46.9010     4.4467     4.3963     6.4547
 2974.0000   130.6559     9.6226     2.5417     0.0026   -46.8995     4.8154     4.8651     6.4611
 2974.5000   131.8746     9.6245     2.5485     0.0117   -47.2224     5.1407     5.1578     6.4675
 2975.0000   132.6568     9.6264     2.5424     0.0101   -47.5604     5.2954     5.3907     6.5202
 2975.5000   132.0424     9.6283     2.5379     0.0072   -48.5816     5.3390     5.3591     6.5266
 2976.0000   131.8997     9.6147     2.5327     0.0049   -49.2539     5.1571     5.1777     6.4404
 2976.5000   132.3635     9.6170     2.5274     0.0027   -50.1770     5.0518     5.0382     6.3554
 2977.0000   134.0279     9.6189     2.5252     0.0019   -51.0515     5.0948     5.0446     6.1825
 2977.5000   138.0982     9.6209     2.5252     0.0020   -51.7844     5.2107     5.1238     5.9291
 2978.0000   140.9656     9.6232     2.5252     0.0020   -52.3669     5.2537     5.2415     5.7268
 2978.5000   140.2590     9.6251     2.5177     0.0035   -53.1997     5.3349     5.2858     5.4530
 2979.0000   134.5223     9.6270     2.5229     0.0050   -53.7972     5.2648     5.3688     5.2294
 2979.5000   135.4348     9.6289     2.5252     0.0065   -54.3462     5.1957     5.2992     5.2749
 2980.0000   138.0014     9.6308     2.5229     0.0081   -54.1293     5.0895     5.2307     5.5639
 2980.5000   140.4176     9.6327     2.5244     0.0096   -54.1164     5.0238     5.1265     6.0948
 2981.0000   140.2774     9.6346     2.5402     0.0111   -53.5855     4.9578     5.0602     6.3225
 2981.5000   139.6857     9.6365     2.5379     0.0126   -52.7903     4.8580     4.9943     6.2390
 2982.0000   141.3504     9.6384     2.5410     0.0149   -51.7971     4.7261     4.8937     5.9833
 2982.5000   147.2510     9.6104     2.5379     0.0164   -50.3551     4.5004     4.7272     5.6164
 2983.0000   154.7551     9.6273     2.5229     0.0157   -49.5895     4.1350     4.4318     5.0510
 2983.5000   160.9078     9.6293     2.5172     0.0097   -49.0312     3.6912     4.0415     4.2295
 2984.0000   174.1405     9.6316     2.5041     0.0067   -48.7808     3.3415     3.6818     3.4418
 2984.5000   188.6228     9.6335     2.4973     0.0059   -48.2176     3.1603     3.3372     3.0953
 2985.0000   191.7909     9.6199     2.4808     0.0090   -48.2838     3.0760     3.1911     2.9473
 2985.5000   191.1996     9.6068     2.4929     0.0128   -48.8074     3.0794     3.1714     3.2141
 2986.0000   188.0519     9.5936     2.5154     0.0165   -49.4755     3.1342     3.2685     3.9293
 2986.5000   179.7914     9.5510     2.5327     0.0143   -50.2084     3.2809     3.4652     4.5046
 2987.0000   156.6437     9.5378     2.5379     0.0083   -50.9452     3.7743     3.8622     5.1315
 2987.5000   149.7375     9.5398     2.5402     0.0038   -51.6943     4.1166     4.3666     5.7606
 2988.0000   137.4169     9.5421     2.5424     0.0023   -52.4503     4.4579     4.6626     6.0610
 2988.5000   133.9684     9.5440     2.5440     0.0046   -53.1423     4.8971     4.9432     6.2374
 2989.0000   134.1293     9.5459     2.5463     0.0061   -53.8056     5.1537     5.2407     6.2883
 2989.5000   134.5928     9.5478     2.5522     0.0084   -54.2320     5.3852     5.4383     6.3850
 2990.0000   134.9038     9.5345     2.5357     0.0061   -54.7555     5.5078     5.6031     6.4832
 2990.5000   134.1621     9.5211     2.5259     0.0031   -54.5364     5.6331     5.7318     6.5830
 2991.0000   132.6685     9.4934     2.5177    -0.0022   -54.2610     5.7203     5.8635     6.6842
 2991.5000   130.7238     9.4503     2.5237     0.0024   -53.7556     5.8504     5.8716     6.6908
 2992.0000   126.8243     9.4222     2.5342     0.0077   -52.9478     5.9835     5.9213     6.7937
 2992.5000   126.3833     9.4394     2.5289     0.0054   -51.8102     6.0761     5.9714     6.8491
 2993.0000   127.4487     9.3962     2.5206    -0.0007   -50.2265     6.2144     6.0219     6.9050
 2993.5000   128.9627     9.3826     2.5162    -0.0028   -49.5403     6.2210     5.9866     7.0112
 2994.0000   129.5718     9.3850     2.5462     0.0115   -48.8074     6.1833     5.9516     7.0181
 2994.5000   127.7800     9.4020     2.5500     0.0191   -48.7801     6.1004     5.8747     6.9750
 2995.0000   126.2865     9.4039     2.5462     0.0191   -48.8002     5.9790     5.7556     6.8829
 2995.5000   126.2708     9.4362     2.5394     0.0183   -48.7909     5.8584     5.6425     6.8406
 2996.0000   127.3595     9.4381     2.5297     0.0161   -48.6957     5.7403     5.6077     6.6546
 2996.5000   136.1599     9.4100     2.5207     0.0100   -49.4215     5.7039     5.6570     6.2037
 2997.0000   138.2095     9.4119     2.5049     0.0026   -50.1461     5.6706     5.7048     5.6593
 2997.5000   138.3701     9.3983     2.5135     0.0048   -50.7802     5.7176     5.7943     5.4649
 2998.0000   134.9216     9.4007     2.5244     0.0094   -51.4118     5.8477     5.9700     5.6301
 2998.5000   129.6687     9.4026     2.5252     0.0056   -52.0447     6.0237     6.1509     6.1398
 2999.0000   125.6187     9.4045     2.5259    -0.0004   -52.6814     6.1607     6.2922     6.6956
 2999.5000   122.6214     9.4068     2.5274    -0.0049   -53.3509     6.2561     6.3434     7.3018
 3000.0000   119.1729     9.4087     2.5315     0.0004   -53.8254     6.1739     6.1311     8.0005
