~VERSION INFORMATION
 VERS.                2.0:   CWLS LOG ASCII STANDARD - VERSION 2.0
 WRAP.                 NO:   ONE LINE PER DEPTH STEP
~WELL INFORMATION
#MNEM.UNIT      DATA TYPE    INFORMATION
#----------   ------------   ------------------------------
 STRT.F            0.0000:   START DEPTH
 STOP.F         4022.0000:   STOP DEPTH
 STEP.F            0.5000:   STEP LENGTH
 NULL.          -999.2500:   NO VALUE
 COMP. LAWRENCE - ALLISON:   COMPANY
 WELL. LAWRENCE NPR 3 "MX" #58-10:   WELL
 FLD .                MPR:   FIELD
 LOC .      S10 T38N R78W:   LOCATION
 CNTY.            NATRONA:   COUNTY
 STAT.            WYOMING:   STATE
 CTRY. UNITED STATES OF AMERICA:   COUNTRY
 SRVC.      DRESSER ATLAS:   SERVICE COMPANY
 DATE.        12-FEB-1984:   LOGDATE
 API .     49025109610000:   API NUMBER
~CURVE INFORMATION
#MNEM.UNIT       API CODE    CURVE DESCRIPTION
#----------   ------------   ------------------------------
 DEPT.F                  :   
 GRR .GAPI   07 310 01 00:   GAMMA RAY FROM RESISTIVITY
 SPR .MV     07 010 01 00:   SPONTANEOUS POTENTIAL
 TENR.LBS    07 635 01 00:   TENSION FROM RESISTIVITY
 ILD .OHMM   07 120 46 00:   DEEP INDUCTION RESISTIVITY
 ILM .OHMM   07 120 44 00:   INDUCTION LOG MEDIUM RESISTIVITY
 SFL .OHMM   07 220 01 00:   SHALLOW FOCUSED LOG RESISTIVITY
 DT  .US/F   60 520 00 00:   DELTA TIME
 TENS.LBS    60 635 01 00:   TENSION FROM SONIC LOG
 CNC .DEC    42 890 03 00:   NEUTRON PORISITY SANDSTONE
 CALD.IN     45 280 60 00:   CALIPER FROM DENSITY LOG
 RHOB.G/C3   45 350 01 00:   BULK DENSITY
 CORR.G/C3   45 356 01 00:   DENSITY CORRECTION
 TEND.LBS    45 635 01 00:   TENSION FROM DENSITY LOG
~PARAMETER INFORMATION
#MNEM.UNIT          VALUE    DESCRIPTION
#----------   ------------   ------------------------------
 EKB .F         5218.0000:   Kelly bushing
 EGL .F         5208.0000:   Ground level
 EDF .F         5217.0000:   Drilling floor
 TD  .F         4014.0000:   Total depth
 DATE.        12-FEB-1984:   Date logged
 CLNT.            A2DTECH:   Client Code
 SL  . 500' FSL & 2150' FEL:   Surface Location
 PD  .                 GL:   Permanent Datum
 EPD .F              5208:   Elevation Permanent Datum
 LMF .                 KB:   Log Measured From
 DMF .                 KB:   Drilling Measured From
 DD  .F              4014:   Depth driller
 DL  .F              4011:   Depth logger
 BLI .F              4009:   Bottom log interval
 CS1 .IN            8.625:   Casing size
 CBD1.      8.625" @ 526':   Casing driller 1
 CBL1.F               525:   Casing logger 1
 BS1 .IN            7.875:   Bit size
 DFT .            GEL/KCL:   Type fluid in hole
 DFD .                8.9:   Density
 DFV .                 48:   Viscosity
 DFPH.                  8:   pH
 DFL .                1.3:   Fluid loss
 MSS .           MUD/TANK:   Source of sample
 RMS .OHMM           .556:   Rm
 MST .F                61:   Rm Meas. temp.
 RMF .OHMM           .423:   Rmf
 MFST.F                61:   Rmf Meas. temp.
 RMC .OHMM           .662:   Rmc
 MCST.F                61:   Rmc Meas. temp.
 MFSS.           MUD/TANK:   Source Rmf.
 RMB .OHMM            .80:   Rm. at BHT
 BHT .F               119:   BHT.
 TCS .HRS               5:   Time Circ. stopped
 MRT .F               119:   Maximum recorded temp.
 LUN .               6302:   Logging unit number
 ENGI.              GETTY:   Recorded By
 ORIG.           5" PRINT:   Origin of data
 UWI .     49025109610000:   Unique Well ID
 DICO. A2D TECHNOLOGIES, INC.:   Digitizing Company
 TLI .F                 0:   Top log interval
~OTHER INFORMATION
~A    DEPT      GRR       SPR       TENR        ILD        ILM        SFL         DT       TENS        CNC       CALD       RHOB       CORR       TEND   
# ...
 3978.0000    44.3900    -9.7960   211.4310    13.0090    12.1890    14.4970    75.1110   173.5750     0.1320     8.4630     2.3880     0.0080    62.4400
 3978.5000    30.4840    -9.7780   210.1740    14.0220    13.3630    15.3620    75.1110   177.8000     0.1290     8.4680     2.4070     0.0050    60.6020
 3979.0000    29.3470    -9.7820   208.9180    15.9410    14.5370    15.6050    73.1560   182.5960     0.1260     8.4720     2.4290     0.0060    58.7630
 3979.5000    28.3870    -9.7790   207.6620    17.9130    16.4920    15.8480    70.6840   185.0320     0.1220     8.4760     2.4620     0.0070    56.9240
 3980.0000    30.8960    -9.9460   206.4060    20.6180    19.0410    16.0910    67.9070   187.8490     0.1190     8.4800     2.4920     0.0050    55.0850
 3980.5000    32.8210   -10.4360   205.1500    24.5110    21.5900    18.2030    65.3160   190.6660     0.1140     8.4650     2.5220    -0.0040    58.6340
 3981.0000    32.6930   -10.9670   203.8930    30.1780    27.0040    26.9960    62.7240   193.4830     0.1090     8.4500     2.5510     0.0040    68.5640
 3981.5000    30.9740   -11.4940   205.9290    34.6990    33.1800    37.2130    58.8130   196.3000     0.0930     8.4340     2.5680     0.0110    78.4950
 3982.0000    29.2700   -11.6740   208.8010    35.9970    34.6990    58.9220    56.8550   199.1170     0.0780     8.4200     2.5740     0.0220    88.4250
 3982.5000    27.6010   -11.9060   211.6720    34.1750    32.4180    80.0250    55.7950   201.9340     0.0620     8.4200     2.5610     0.0080    98.3550
 3983.0000    27.5390   -12.4720   214.5440    31.7740    27.8360    80.0250    56.3620   204.7510     0.0550     8.4200     2.5480    -0.0110   105.8700
 3983.5000    29.4690   -12.9920   217.4150    27.6740    22.9110    60.6300    57.5430   207.5680     0.0540     8.4090     2.5370    -0.0140   110.2840
 3984.0000    32.7470   -13.2900   220.2860    23.2250    18.4260    35.9040    60.1600   210.3850     0.0570     8.3860     2.5270     0.0080   114.6970
 3984.5000    36.9920   -13.0660   223.1580    18.3660    14.9060    21.2900    62.6360   213.2010     0.0640     8.3640     2.5270     0.0380   119.1100
 3985.0000    43.8260   -12.8570   232.1540    13.7250    11.8830    15.3240    65.4070   216.0180     0.0750     8.3610     2.5280     0.0620   123.5240
 3985.5000    53.6500   -12.6480   230.0880    11.5010    10.2950    12.7200    67.6730   218.8350     0.0880     8.4340     2.5320     0.0700   127.9370
 3986.0000    64.7300   -12.5040   226.0680     9.9770     9.2680    10.8830    69.8790   221.6520     0.1110     8.5940     2.5390     0.0640   132.3510
 3986.5000    74.6150   -12.4170   222.0480     8.7360     8.5170    10.4070    70.7590   222.8370     0.1250     8.6380     2.5460     0.0570   136.7640
 3987.0000    74.3130   -12.3310   218.0280     8.1120     7.8560    10.2260    71.6610   222.8370     0.1380     8.6470     2.5540     0.0510   141.1780
 3987.5000    73.7530   -12.2450   213.6090     7.7670     7.4150    10.0440    72.5620   222.8370     0.1510     8.6570     2.5540     0.0440   143.8190
 3988.0000    74.6860   -12.1530   215.8720     7.8390     7.2170     9.5580    73.2530   222.8370     0.1620     8.6670     2.5540     0.0220   142.2670
 3988.5000    75.9900   -11.9010   218.3850     8.1700     7.7240     9.0790    73.7020   222.8370     0.1750     8.6770     2.5540    -0.0010   140.7150
 3989.0000    75.8410   -11.6330   220.8970     8.6750     8.2080     9.0790    73.5010   222.8370     0.1820     8.6840     2.5540    -0.0150   139.1640
 3989.5000    74.5530   -11.3730   223.5790     9.4930     8.9840     9.9480    72.0730   222.8370     0.1800     8.6900     2.5540    -0.0220   137.6120
 3990.0000    73.2690   -11.4490   235.2940    10.5890    10.0210    11.4340    70.0430   222.8370     0.1760     8.6950     2.5540    -0.0300   136.0610
 3990.5000    71.9080   -11.5430   242.3630    11.7420    11.1120    13.1830    67.1910   236.0160     0.1710     8.6840     2.5550    -0.0430   134.5090
 3991.0000    69.9230   -11.5630   239.0130    15.1050    13.5630    16.5820    64.3390   248.6920     0.1640     8.6070     2.5700    -0.0210   138.0420
 3991.5000    66.9420   -11.5520   235.6630    18.6510    16.8320    22.0900    61.6140   263.0780     0.1490     8.5300     2.6120     0.0010   145.3430
 3992.0000    66.2390   -11.1960   236.8220    21.8900    20.7320    33.1610    59.2470   263.0780     0.1290     8.4960     2.6590     0.0040   152.6450
 3992.5000    67.9400   -10.7380   245.6890    23.4800    22.7440    46.5320    56.6000   263.0780     0.1020     8.4880     2.6910    -0.0420   159.9470
 3993.0000    70.4180   -10.3480   254.5570    24.0320    22.0860    59.6490    56.8010   273.0050     0.0860     8.4800     2.6680    -0.0020   167.2480
 3993.5000    74.1170   -10.2690   263.4600    23.7070    20.3710    44.9470    57.4040   284.2720     0.0790     8.4730     2.6320     0.0610   174.5500
 3994.0000    77.7760   -10.1910   257.5710    22.7970    18.1430    29.3340    59.2230   295.5400     0.0720     8.4650     2.5950     0.0980   181.8520
 3994.5000    78.6980   -10.1360   251.6600    19.9220    15.9060    19.1110    61.2520   303.3200     0.0670     8.4580     2.5580     0.0730   185.6510
 3995.0000    78.0960   -10.0870   245.7480    16.6380    13.9370    15.1840    62.6820   303.3200     0.0680     8.4510     2.5570     0.0490   188.2640
 3995.5000    76.6810   -10.0370   248.3360    13.2980    12.1350    14.7720    63.5510   303.3200     0.0690     8.4450     2.5610     0.0290   190.8770
 3996.0000    75.2650    -9.9880   256.0660    11.0650    10.4810    14.5730    64.4200   303.3200     0.0710     8.4380     2.5640     0.0400   193.6690
 3996.5000    73.9010    -9.8800   263.4600     9.2970     9.0210    13.9330    65.4550   303.3200     0.0820     8.4310     2.5600     0.0570   202.4290
 3997.0000  -999.2500    -9.7640   261.2750     7.9940     7.5610    11.8580    66.2580   303.3200     0.0940     8.4240     2.5480     0.0720   214.4140
 3997.5000  -999.2500    -9.6470   259.1810     7.0600     6.5070     9.3580    71.5090   303.3200     0.1080     8.3980     2.5370     0.0620   226.3980
 3998.0000  -999.2500    -9.5600   257.0870     6.4490     5.9340     7.8950    74.9870   303.3200     0.1220     8.3670     2.5260     0.0490   238.3830
 3998.5000  -999.2500    -9.5040   254.9930     5.8930     5.5700     7.1660    77.6230   303.3200     0.1360     8.4130     2.5230     0.0560   250.3680
 3999.0000  -999.2500    -9.4520   255.9810     5.4790     5.3420     6.9680    79.7380   303.3200     0.1490     8.3100     2.5270     0.0720   263.4600
 3999.5000  -999.2500    -9.3830   264.8260     5.1660     5.1140     7.0300    80.2180   303.3200     0.1630     8.2110     2.5360     0.0880   259.5550
 4000.0000  -999.2500    -8.1690   273.6710     5.1000     4.8870     7.1130    80.5430   303.3200     0.1810     8.1620     2.5570     0.0770   253.4900
 4000.5000  -999.2500    -7.2450   283.4000     5.0340     4.7880     7.1950    80.3670   303.3200     0.1840     8.1990     2.5780     0.0450   262.6840
 4001.0000  -999.2500    -7.4530   286.8510     4.9670     4.7440     7.2780    79.9270   306.0640     0.1880     8.2720     2.5830     0.0330   272.8760
 4001.5000  -999.2500    -7.6350   290.6860     4.9080     4.7010     7.3610    79.4870   310.6370     0.1920     8.3460     2.5750     0.0350   283.4000
 4002.0000  -999.2500    -7.8180   287.3880     4.8770     4.6570     7.4190    79.1350   315.2090     0.1970     8.4160     2.5640     0.0560   287.9860
 4002.5000  -999.2500    -7.9990   267.4480     4.8490     4.6380     7.1560    79.3360   319.7820     0.1700     8.4200     2.5520     0.0570   292.7260
 4003.0000  -999.2500    -8.0300   255.9820     4.8180     4.6290     6.8930    79.7130   323.4410     0.0690     8.2020     2.5370     0.0450   297.4660
 4003.5000  -999.2500    -8.0550   263.4600     4.8430     4.6210     6.9120    80.0910   339.5370     0.0000     7.7500     2.5220     0.0340   302.2060
