~VERSION INFORMATION
 VERS.                2.0:   CWLS LOG ASCII STANDARD - VERSION 2.0
 WRAP.                 NO:   ONE LINE PER DEPTH STEP
~WELL INFORMATION
#MNEM.UNIT      DATA TYPE    INFORMATION
#----------   ------------   ------------------------------
 STRT.F            0.5000:   START DEPTH
 STOP.F         4256.0000:   STOP DEPTH
 STEP.F            0.5000:   STEP LENGTH
 NULL.          -999.2500:   NO VALUE
 COMP. LAWRENCE-ALLISON & ASSOC:   COMPANY
 WELL. LAWRENCE "X" #64-15:   WELL
 FLD .        N.P.R. NO.3:   FIELD
 LOC .      S15 T38N R78W:   LOCATION
 CNTY.            NATRONA:   COUNTY
 STAT.            WYOMING:   STATE
 CTRY. UNITED STATES OF AMERICA:   COUNTRY
 SRVC.      DRESSER ATLAS:   SERVICE COMPANY
 DATE.        13-SEP-1984:   LOGDATE
 API .     49025111610000:   API NUMBER
~CURVE INFORMATION
#MNEM.UNIT       API CODE    CURVE DESCRIPTION
#----------   ------------   ------------------------------
 DEPT.F                  :   
 TENR.LBS    07 635 01 00:   TENSION FROM RESISTIVITY
 GRR .GAPI   07 310 01 00:   GAMMA RAY FROM RESISTIVITY
 RFOC.OHMM   07 220 04 00:   RESISTIVITY FOCUSED LOG RES.
 RILD.OHMM   07 120 46 00:   DEEP INDUCTION RESISTIVITY
 RILM.OHMM   07 120 44 00:   INDUCTION LOG MEDIUM RESISTIVITY
 SPR .MV     07 010 01 00:   SPONTANEOUS POTENTIAL
 DT  .US/F   60 520 00 00:   DELTA TIME
 TENS.LBS    60 635 01 00:   TENSION FROM SONIC
 CALD.IN     45 280 60 00:   CALIPER FROM DENSITY LOG
 TEND.LBS    45 635 01 00:   TENSION FORM DENSITY LOG
 CORR.G/C3   45 356 01 00:   DENSITY CORRECTION
 DEN .G/C3   45 350 01 00:   BULK DENSITY
 CNC .DEC    42 890 03 00:   NEUTRON POROSITY SANDSTONE
~PARAMETER INFORMATION
#MNEM.UNIT          VALUE    DESCRIPTION
#----------   ------------   ------------------------------
 EKB .F         5294.0000:   Kelly bushing
 EGL .F         5282.0000:   Ground level
 TD  .F         4256.0000:   Total depth
 CLNT.            A2DTECH:   Client Code
 SL  . 2299' FNL & 1785' FEL:   Surface Location
 PD  .                 GL:   Permanent Datum
 EPD .F              5282:   Elevation Permanent Datum
 LMF .                 KB:   Log Measured From
 DMF .                 KB:   Drilling Measured From
 DAPD.F                12:   Feet Above Permanent Datum
 DATE.        13-SEP-1984:   Date Logged [DD-MMM-YYYY]
 DD  .F              4256:   Depth driller
 DL  .F              4248:   Depth logger
 BLI .F              4246:   Bottom log interval
 TLI .F                 0:   Top log interval
 CS1 .IN            8.625:   Casing size
 CBD1.      8.625" @ 817':   Casing driller 1
 CBL1.F               814:   Casing logger 1
 BS1 .IN            7.875:   Bit size
 BSD1.F              4256:   Depth drilled with bit1
 DFT .            KCL-GEL:   Type fluid in hole
 DFD .                  9:   Density
 DFV .                 40:   Viscosity
 DFPH.                8.6:   pH
 DFL .               11.8:   Fluid loss
 MSS .            MUDTANK:   Source of sample
 RMS .OHMM           0.38:   Rm
 MST .F                74:   Rm Meas. temp.
 RMF .OHMM           0.31:   Rmf
 MFST.F                72:   Rmf Meas. temp.
 MFSS.               MEAS:   Source Rmf.
 RMC .OHMM           0.48:   Rmc
 MCST.F                74:   Rmc Meas. temp.
 MCSS.               CALC:   Source Rmc.
 RMB .OHMM           0.22:   Rm. at BHT
 BHT .F               134:   BHT.
 TCS .HRS               4:   Time Circ. stopped
 MRT .F               134:   Maximum recorded temp.
 LUN .            HL-6274:   Logging unit number
 LUL .           GILLETTE:   Logging unit location
 ENGI.             RAUTIO:   Recorded By
 WITN.            JOHNSON:   Witnessed by
 ORIG.        2" 5" PRINT:   Origin of data
 UWI .     49025111610000:   Unique Well ID
 DICO. A2D TECHNOLOGIES, INC.:   Digitizing Company
~OTHER INFORMATION
~A    DEPT    TENR         GRR      RFOC       RILD       RILM        SPR         DT       TENS       CALD       TEND       CORR        DEN        CNC   
# ...
 2392.5000   -58.5966   110.4961     9.1067     7.6619     7.7093   -33.7462    92.4821   -38.8864     8.8075   -47.9511     0.1002     2.5316     0.2994
 2393.0000   -58.3811   107.9942     9.1098     7.6075     7.5499   -33.7387    92.3366   -39.0550     8.7825   -35.8566     0.1033     2.5415     0.3084
 2393.5000   -58.1657   104.8083     9.2393     7.4492     7.4954   -33.5811    91.9652   -39.2236     8.7571   -35.8566     0.1063     2.5392     0.2972
 2394.0000   -57.9502   102.7149     9.3707     7.3453     7.3421   -33.5995    91.4432   -39.3923     8.7507   -25.8964     0.1034     2.5362     0.2633
 2394.5000   -57.7348   101.2229     9.3085     7.1928     7.1903   -33.7167    91.4484   -39.5609     8.7569   -25.8964     0.1004     2.5348     0.2573
 2395.0000   -57.5193    99.7309     8.9883     6.9949     7.0906   -34.1580    91.7547   -39.7295     8.7633   -25.8964     0.0974     2.5303     0.2579
 2395.5000   -57.3039   101.8479     8.1508     6.8497     6.9441   -34.6011    92.8893   -39.8981     8.7697   -25.8964     0.0945     2.5250     0.2705
 2396.0000   -57.0884   103.3635     7.5690     6.7075     6.7535   -34.7458    94.6544   -40.0667     8.7760   -33.3665     0.0900     2.5243     0.2796
 2396.5000   -56.8730   103.3752     7.4149     6.5682     6.6599   -34.7366    95.5364   -40.2354     8.7823   -25.8964     0.0825     2.5228     0.2844
 2397.0000   -56.6575   103.6878     7.5208     6.4307     6.5222   -33.9785    95.6156   -40.4040     8.7887   -15.9363     0.0828     2.5198     0.2862
 2397.5000   -56.4421   105.5041     7.8965     6.2549     6.3432   -33.3706    95.2455   -40.5726     8.7950    -5.9761     0.0916     2.5153     0.2838
 2398.0000   -56.2266   107.3203     8.4066     6.1248     6.1264   -33.0630    94.5729   -40.7412     8.8014    -0.9960     0.1068     2.5169     0.2802
 2398.5000   -56.0112   108.5353     8.8879     5.9562     6.0416   -33.0556    94.3508   -40.9098     8.8077   -15.9363     0.1279     2.5184     0.2808
 2399.0000   -55.7957   110.4479     8.4111     5.7523     5.9938   -33.3694    95.0349   -41.0785     8.8140   -25.8964     0.1204     2.5154     0.2814
 2399.5000   -55.5803   113.0729     7.6891     5.5171     5.6749   -33.6416    95.9437   -41.2471     8.8204   -50.8088     0.1009     2.5109     0.2700
 2400.0000   -55.3648   112.4326     7.0779     5.2550     5.4430   -33.4823    96.9277   -41.4157     8.8267   -50.7038     0.0964     2.5078     0.2607
 2400.5000   -55.1494   111.8485     6.8388     5.1819     5.4050   -33.4277    97.1587   -41.5843     8.8331   -36.2095     0.0899     2.5082     0.2855
 2401.0000   -56.2158   116.0968     6.7532     5.2894     5.4802   -33.1733    96.7886   -41.7530     8.8394   -25.7017     0.0844     2.5133     0.3138
 2401.5000   -60.1733   117.9035     6.4546     5.4368     5.5565   -33.3191    96.3420   -41.9216     8.8456   -25.8964     0.0814     2.5171     0.3069
 2402.0000   -64.1393   113.6966     6.0760     5.5884     5.7125   -34.0666    95.8200   -42.0902     8.8496   -39.5276     0.0784     2.5216     0.2928
 2402.5000   -68.1053   112.4965     6.4732     5.7439     5.8729   -34.3625    95.2980   -42.2588     8.8730   -45.8167     0.0801     2.5246     0.2907
 2403.0000   -72.0684   112.1979     7.2829     5.7830     5.8725   -34.3571    95.0006   -42.4274     8.9038   -45.8167     0.0875     2.5201     0.2979
 2403.5000   -76.0240   113.4046     7.7523     5.8624     5.9144   -34.2025    95.3835   -42.5961     8.9262   -45.8167     0.0936     2.5141     0.2988
 2404.0000   -79.8032   114.6105     8.0823     5.9020     6.0370   -33.8979    95.9158   -42.7647     8.8944   -45.8167     0.0966     2.5104     0.2981
 2404.5000   -83.9579   114.5717     7.9722     5.9828     6.1635   -33.4312    96.2252   -42.9333     8.8630   -45.8167     0.0997     2.5096     0.2879
 2405.0000   -55.0000   113.4133     7.7019     6.0653     6.2492   -33.2874    96.6992   -43.1019     8.8501   -45.8167     0.0937     2.5051     0.2741
 2405.5000   -55.0000   112.8148     7.4925     6.2341     6.3362   -33.4343    96.9867   -43.2705     8.8498   -45.8167     0.0846     2.4878     0.2675
 2406.0000   -55.0000   112.5169     7.4418     6.3197     6.3740   -33.5801    96.9918   -43.4392     8.8516   -52.8884     0.0802     2.4810     0.2741
 2406.5000   -55.0000   114.9266     7.5614     6.4066     6.4570   -33.7258    96.8463   -43.6078     8.8773   -45.8167     0.0998     2.4871     0.3002
 2407.0000   -55.0000   116.4332     7.9227     6.4052     6.5456   -33.8716    96.5502   -43.7764     8.9327   -45.8167     0.1074     2.4916     0.3049
 2407.5000   -55.0000   116.4362     8.3174     6.4485     6.6358   -34.0174    95.8960   -43.9450     8.9351   -55.7769     0.1029     2.4879     0.2855
 2408.0000   -55.0000   114.3181     8.8535     6.5368     6.6807   -34.0119    95.5962   -44.1137     8.8447   -58.3665     0.0773     2.4751     0.2735
 2408.5000   -55.0000   112.7870     8.5533     6.5812     6.7258   -33.8574    95.3718   -44.2823     8.8510   -65.7371     0.0698     2.4751     0.2687
 2409.0000   -55.0000   112.2344     8.0934     6.6713     6.8185   -33.7027    95.3736   -44.4509     8.8501   -75.6972     0.0780     2.4827     0.2675
 2409.5000   -55.0000   112.2380     7.9056     6.7163     6.8171   -33.5473    95.4504   -44.6195     8.8563   -65.7371     0.0879     2.4880     0.2825
 2410.0000   -55.0000   111.9402     7.8201     6.7149     6.7685   -33.5429    95.4519   -44.7881     8.8516   -62.1265     0.0819     2.4795     0.2981
 2410.5000   -55.0000   111.3416     8.0993     6.7136     6.6274   -33.8388    95.3780   -44.9568     8.8551   -55.7769     0.0774     2.4775     0.2993
 2411.0000   -55.0000   111.0430     8.6282     6.5282     6.6261   -33.9857    95.3032   -45.1254     8.8588   -55.7769     0.0760     2.4782     0.2879
 2411.5000   -55.0000   111.0467     8.8621     6.4825     6.6712   -34.1304    95.0798   -45.2940     8.8623   -55.7769     0.0880     2.4873     0.2877
 2412.0000   -55.0000   110.7367     8.5617     6.5715     6.8102   -34.1260    95.1569   -45.4628     8.8659   -48.6340     0.1034     2.5009     0.2966
 2412.5000   -55.0000   109.8495     7.7716     6.7544     6.9036   -33.9715    95.5349   -45.6316     8.8695   -55.7769     0.1017     2.5086     0.2962
 2413.0000   -75.0000   114.3644     7.5081     6.8948     6.9991   -33.6668    95.9129   -45.8003     8.8730   -55.7769     0.0972     2.5023     0.2971
 2413.5000   -55.0000   111.3598     7.6139     6.9895     7.0461   -33.6613    95.9143   -45.8167     8.8766   -55.7769     0.0972     2.4934     0.2992
 2414.0000   -35.0000   107.1522     8.3901     7.1352     7.1942   -33.5068    95.7648   -45.8167     8.8802   -55.7769     0.1017     2.4950     0.2986
 2414.5000   -35.0000   104.7491     8.8081     7.2835     7.2993   -33.3523    95.3901   -45.8167     8.8837   -55.7769     0.1063     2.5025     0.2974
 2415.0000   -55.0000   107.4588     8.8705     7.4345     7.4438   -33.1978    95.0151   -45.8167     8.8873   -55.7769     0.1139     2.5094     0.2944
 2415.5000   -55.0000   112.2737     8.9957     7.5367     7.5989   -32.8931    94.5648   -45.8167     8.8909   -45.8167     0.1244     2.5132     0.2836
 2416.0000   -54.7316   113.4797     9.1858     7.6933     7.7568   -33.0390    94.1027   -45.8167     8.8944   -42.7718     0.1215     2.5147     0.2788
 2416.5000   -54.3026   113.7841     9.5107     7.7452     7.8641   -33.4849    93.9653   -45.8167     8.8980   -35.8566     0.0823     2.5019     0.2848
 2417.0000   -53.8735   115.5915     9.7791     7.7971     7.9724   -33.9310    94.1177   -45.8167     8.9016   -45.8167     0.0583     2.4906     0.2908
 2417.5000   -53.4444   114.3914     9.9169     7.7955     7.9704   -34.3760    94.4204   -45.8167     8.9052   -45.8167     0.0643     2.4936     0.2926
 2418.0000   -53.0154   114.0928    10.0565     7.6986     7.9137   -34.6730    94.7231   -45.8167     8.9087   -45.8167     0.0839     2.4967     0.2863
