~VERSION INFORMATION
 VERS.                2.0:   CWLS LOG ASCII STANDARD - VERSION 2.0
 WRAP.                 NO:   ONE LINE PER DEPTH STEP
~WELL INFORMATION
#MNEM.UNIT      DATA TYPE    INFORMATION
#----------   ------------   ------------------------------
 STRT.F          500.0000:   START DEPTH
 STOP.F         4646.0000:   STOP DEPTH
 STEP.F            0.5000:   STEP LENGTH
 NULL.          -999.2500:   NO VALUE
 COMP.    FENIX & SCISSON:   COMPANY
 WELL. LAWRENCE NPR 3 "X" #34-10:   WELL
 FLD .                NPR:   FIELD
 LOC .      S10 T38N R78W:   LOCATION
 CNTY.            NATRONA:   COUNTY
 STAT.            WYOMING:   STATE
 CTRY. UNITED STATES OF AMERICA:   COUNTRY
 SRVC.              WELEX:   SERVICE COMPANY
 DATE.        12-OCT-1979:   LOGDATE
 API .     49025109290000:   API NUMBER
~CURVE INFORMATION
#MNEM.UNIT       API CODE    CURVE DESCRIPTION
#----------   ------------   ------------------------------
 DEPT.F                  :   
 SPR .MV     07 010 01 00:   SPONTANEOUS POTENTIAL
 SGRD.OHMM   07 220 05 00:   SHALLOW GUARD LOG RESISTIVITY
 ILD .OHMM   07 120 46 00:   DEEP INDUCTION RESISTIVITY
 ILM .OHMM   07 120 44 00:   INDUCTION LOG MEDIUM RESISTIVITY
 TEND.LBS    45 635 01 00:   TENSION FROM DENSITY LOG
 CORR.G/C3   45 356 01 00:   DENSITY CORRECTION
 RHOB.G/C3   45 350 01 00:   BULK DENSITY
 NPHI.DEC    42 890 03 00:   NEUTRON POROSITY SANDSTONE
 GRD .GAPI   45 310 01 00:   GAMMA RAY FROM DENSITY LOG
 CALD.IN     45 280 60 00:   CALIPER FROM DENSITY LOG
~PARAMETER INFORMATION
#MNEM.UNIT          VALUE    DESCRIPTION
#----------   ------------   ------------------------------
 EKB .F         5234.0000:   Kelly bushing
 EGL .F         5224.0000:   Ground level
 EDF .F            0.0000:   Drilling floor
 TD  .F         4650.0000:   Total depth
 DATE.        12-OCT-1979:   Date logged
 CLNT.            A2DTECH:   Client Code
 SL  . 2055' FNL & 1509' FWL:   Surface Location
 PD  .                 GL:   Permanent Datum
 DD  .F              4650:   Depth driller
 DL  .F              4646:   Depth logger
 BLI .F              4644:   Bottom log interval
 CS1 .IN              500:   Casing size
 CBD1.      8.625" @ 500':   Casing driller 1
 CBL1.F               502:   Casing logger 1
 BS1 .IN            7.875:   Bit size
 DFT .           CHEM/GEL:   Type fluid in hole
 DFD .                8.8:   Density
 DFV .                 62:   Viscosity
 DFPH.               11.2:   pH
 DFL .                4.5:   Fluid loss
 MSS .            MUD/PIT:   Source of sample
 RMS .OHMM           1.18:   Rm
 MST .F                60:   Rm Meas. temp.
 RMF .OHMM            .94:   Rmf
 MFST.F                60:   Rmf Meas. temp.
 RMC .OHMM           1.41:   Rmc
 MCST.F                60:   Rmc Meas. temp.
 MFSS.               MEAS:   Source Rmf.
 RMB .OHMM            .81:   Rm. at BHT
 BHT .F                87:   BHT.
 TCS .HRS               2:   Time Circ. stopped
 MRT .F                87:   Maximum recorded temp.
 LUN .               1892:   Logging unit number
 LUL .             CASPER:   Logging unit location
 ENGI.               REIN:   Recorded By
 WITN.           DINSMORE:   Witnessed by
 ORIG.           5" PRINT:   Origin of data
 UWI .     49025109290000:   Unique Well ID
 DICO. A2D TECHNOLOGIES, INC.:   Digitizing Company
 DAPD.                 10:   Feet Above Permanent Datum
 BSD1.F              4650:   Depth drilled with bit1
 MCSS.               MEAS:   Source Rmc.
 EPD .F              5224:   Elevation Permanent Datum
 LMF .                 KB:   Log Measured From
 DMF .                 KB:   Drilling Measured From
 TLI .F               500:   Top log interval
~OTHER INFORMATION
~A   DEPT      SPR         SGRD      ILD         ILM      TEND         CORR       RHOB       NPHI       GRD        CALD 
# ...
 3247.0000   -27.4790     5.2040     3.6350     4.2610  2179.9399     0.2430     2.3550     0.1770   109.6420     8.8390
 3247.5000   -27.6830     5.6210     3.7680     4.4350  2201.0010     0.2350     2.3410     0.1830   111.2070     8.8960
 3248.0000   -27.8870     6.0780     3.9950     4.6170  2212.2119     0.2240     2.3270     0.2000   112.7730     8.9040
 3248.5000   -28.0910     6.8010     4.2350     4.9360  2212.2119     0.2140     2.3160     0.1870   114.3420     8.9040
 3249.0000   -28.2470     7.2450     4.4750     5.2520  2198.9319     0.2040     2.3350     0.1640   115.0150     8.9040
 3249.5000   -28.2440     7.8090     4.7150     5.5670  2181.3811     0.1940     2.3670     0.1420   113.7170     8.9040
 3250.0000   -28.2440     7.5640     4.9550     5.8820  2173.0400     0.1830     2.4220     0.1220   109.2010     8.9040
 3250.5000   -28.2440     7.1880     5.1950     6.0610  2174.8660     0.1850     2.4950     0.0820   104.8500     8.9040
 3251.0000   -28.2440     7.0130     5.3920     6.1150  2176.6909     0.1870     2.5140     0.0690   100.4990     8.8950
 3251.5000   -28.2440     6.8290     5.5750     6.1690  2178.5171     0.1870     2.5330     0.0650    96.1620     8.8230
 3252.0000   -28.2440     6.5550     5.6930     6.2220  2180.3430     0.1780     2.5390     0.0630    91.7740     8.7510
 3252.5000   -28.2440     6.5550     5.7990     6.2870  2182.1689     0.1680     2.5420     0.0600    91.0810     8.6770
 3253.0000   -28.1570     6.7150     5.9040     6.3760  2183.9939     0.1580     2.5420     0.0560    92.7830     8.6510
 3253.5000   -27.9970     7.0070     6.0100     6.5430  2185.8201     0.1580     2.5510     0.0510    94.5320     8.6180
 3254.0000   -27.8360     7.5170     6.1050     6.7250  2187.6460     0.1670     2.5600     0.0480    96.2900     8.5860
 3254.5000   -27.6760     8.0720     6.1690     6.9070  2189.4709     0.1750     2.5670     0.0500    98.0450     8.5530
 3255.0000   -27.5160     8.4070     6.2340     6.9920  2191.2971     0.1840     2.5640     0.0540    99.3200     8.5200
 3255.5000   -27.3550     7.3050     6.2980     6.7260  2189.8259     0.1850     2.5580     0.0600    96.6740     8.4870
 3256.0000   -27.1930     6.2390     6.3620     6.4500  2185.1851     0.1750     2.5480     0.0650    93.9730     8.4820
 3256.5000   -27.0530     5.9990     6.4270     6.1740  2180.5439     0.1820     2.5380     0.0720    91.2800     8.4800
 3257.0000   -27.1660     5.8940     6.4940     5.8980  2175.9031     0.1730     2.5270     0.0790    88.5260     8.4770
 3257.5000   -27.2810     5.5330     6.1050     5.6220  2174.3169     0.1750     2.5160     0.0840    87.9280     8.4740
 3258.0000   -27.3950     5.0900     5.6930     5.3460  2185.2571     0.1760     2.5060     0.0900    91.5830     8.4710
 3258.5000   -27.5080     4.6460     5.2810     5.0700  2196.1960     0.1790     2.4950     0.0940    96.0450     8.4690
 3259.0000   -27.6220     4.1720     4.8700     4.7950  2207.1360     0.1840     2.4850     0.1010    99.2350     8.4660
 3259.5000   -27.7360     4.0310     4.4580     4.5190  2218.0750     0.1900     2.4750     0.1070   101.7490     8.4570
 3260.0000   -27.8490     3.9110     4.1630     4.2430  2229.0149     0.2080     2.4650     0.1070   104.2440     8.4460
 3260.5000   -27.9630     3.9740     3.9010     3.9840  2232.2319     0.2240     2.4610     0.1090   107.0530     8.4780
 3261.0000   -28.0770     4.0360     3.6670     3.9840  2229.5439     0.2410     2.4580     0.1140   110.5010     8.5230
 3261.5000   -28.1910     4.0980     3.5150     3.9840  2226.6270     0.2390     2.4390     0.1300   113.9470     8.5690
 3262.0000   -28.2150     4.1720     3.4440     3.9340  2223.7090     0.2230     2.4090     0.1490   117.3910     8.6160
 3262.5000   -28.1640     4.0970     3.3720     3.8820  2220.7920     0.2060     2.3800     0.1670   120.8250     8.6610
 3263.0000   -28.1120     4.0040     3.3010     3.8300  2217.8750     0.1900     2.3630     0.1680   124.3080     8.7080
 3263.5000   -28.0610     3.9110     3.2300     3.7430  2214.9580     0.1740     2.3530     0.1700   124.5500     8.7240
 3264.0000   -27.9180     3.8190     3.1580     3.6240  2212.0410     0.1670     2.3590     0.1670   123.0760     8.7250
 3264.5000   -27.7400     3.7260     3.0870     3.5670  2209.1230     0.1730     2.3680     0.1620   122.7080     8.7250
 3265.0000   -27.5620     3.6330     3.0160     3.4810  2206.2061     0.1780     2.3780     0.1560   126.1330     8.7250
 3265.5000   -27.3830     3.5340     2.9490     3.3970  2203.2891     0.1890     2.3870     0.1510   129.4180     8.7250
 3266.0000   -27.2040     3.5340     2.8840     3.3140  2200.3721     0.2030     2.3970     0.1470   132.7920     8.7250
 3266.5000   -27.0240     3.5190     2.8190     3.2300  2197.4551     0.2100     2.4040     0.1420   134.1020     8.7270
 3267.0000   -26.8530     3.5000     2.7540     3.1470  2194.5371     0.2160     2.4040     0.1480   135.1630     8.7330
 3267.5000   -26.9120     3.4810     2.6890     3.0630  2192.1919     0.2130     2.3850     0.1570   137.6340     8.7380
 3268.0000   -26.9810     3.4620     2.6240     2.9800  2192.1919     0.1970     2.3660     0.1670   138.5810     8.7430
 3268.5000   -27.0490     3.4430     2.5590     2.8960  2192.1919     0.1840     2.3480     0.1770   137.1640     8.7480
 3269.0000   -27.1170     3.4240     2.4980     2.7810  2192.1919     0.1770     2.3290     0.1860   136.2200     8.7540
 3269.5000   -27.1840     3.4060     2.4370     2.8000  2192.1919     0.1700     2.3100     0.1950   139.6450     8.7590
 3270.0000   -27.2520     3.4060     2.3750     2.8330  2192.1919     0.1680     2.2920     0.2040   142.9170     8.7640
 3270.5000   -27.3200     3.4060     2.3140     2.7800  2192.1919     0.1660     2.2710     0.2190   141.3500     8.7470
 3271.0000   -27.3870     3.4060     2.2520     2.6870  2192.1919     0.1610     2.2460     0.2340   139.7710     8.7280
 3271.5000   -27.4550     3.4500     2.1910     2.5830  2192.1919     0.1560     2.2270     0.2460   139.5660     8.7090
 3272.0000   -27.5230     3.4920     2.1290     2.6070  2192.1919     0.1550     2.2170     0.2550   142.2900     8.6890
 3272.5000   -27.5900     3.5350     2.0900     2.4900  2192.1919     0.1570     2.2230     0.2560   145.4160     8.6700
 3273.0000   -27.6580     3.5770     2.0900     2.5360  2192.1919     0.1690     2.2430     0.2460   148.5390     8.6510
 3273.5000   -27.7260     3.6190     2.0900     2.4450  2192.1919     0.1820     2.2500     0.2370   151.6580     8.6310
 3274.0000   -27.7930     3.7200     2.1210     2.3990  2192.1919     0.1950     2.2350     0.2370   154.7740     8.6260
 3274.5000   -27.7940     3.8170     2.1850     2.3990  2192.1919     0.2060     2.2160     0.2480   157.8980     8.6510
 3275.0000   -27.5430     3.9000     2.2490     2.5840  2192.1919     0.2010     2.1910     0.2630   160.2040     8.6770
 3275.5000   -27.3000     4.8670     2.4750     2.9090  2192.1919     0.1980     2.1680     0.2770   161.6050     8.7030
 3276.0000   -27.0580     7.0250     2.7010     3.3200  2192.1919     0.2060     2.1550     0.2880   156.0000     8.7280
 3276.5000   -26.8160     8.6430     2.9270     3.7300  2192.1919     0.2150     2.1410     0.2990   148.4630     8.7530
 3277.0000   -26.5730     8.1320     3.1530     4.0210  2192.1919     0.2170     2.1260     0.2990   140.8960     8.7790
 3277.5000   -26.3310     6.9550     3.3790     4.0210  2192.1919     0.2060     2.1190     0.2990   133.3360     8.8050
 3278.0000   -26.0860     6.0890     3.6050     4.0210  2192.1919     0.1950     2.1640     0.3000   125.7850     8.8520
 3278.5000   -25.8600     6.0890     3.8130     4.0700  2192.1919     0.2000     2.2340     0.2970   118.1730     8.9010
 3279.0000   -26.0200     6.1450     3.8870     4.1720  2192.1919     0.2280     2.3230     0.2280   114.5310     8.9360
 3279.5000   -26.1960     5.9190     3.9610     4.1340  2192.1919     0.2560     2.3620     0.1700   112.8470     8.7490
 3280.0000   -26.3710     5.6560     4.0340     4.2900  2192.1919     0.2720     2.3470     0.1750   112.8490     8.5640
