~VERSION INFORMATION
 VERS.                2.0:   CWLS LOG ASCII STANDARD - VERSION 2.0
 WRAP.                 NO:   ONE LINE PER DEPTH STEP
~WELL INFORMATION
#MNEM.UNIT      DATA TYPE    INFORMATION
#----------   ------------   ------------------------------
 STRT.F          176.0000:   START DEPTH
 STOP.F         3400.0000:   STOP DEPTH
 STEP.F            0.5000:   STEP LENGTH
 NULL.          -999.2500:   NO VALUE
 COMP.    PENIX & SCISSON:   COMPANY
 WELL. FENIX NPR 3 "AX" #64-4:   WELL
 FLD .                NPR:   FIELD
 LOC .       S4 T38N R78W:   LOCATION
 CNTY.            NATRONA:   COUNTY
 STAT.            WYOMING:   STATE
 CTRY. UNITED STATES OF AMERICA:   COUNTRY
 SRVC.       SCHLUMBERGER:   SERVICE COMPANY
 DATE.        25-JAN-1981:   LOGDATE
 API .     49025108640000:   API NUMBER
~CURVE INFORMATION
#MNEM.UNIT       API CODE    CURVE DESCRIPTION
#----------   ------------   ------------------------------
 DEPT.F                  :   
 SPR .MV     07 010 01 00:   SPONTANEOUS POTENTIAL
 RFOC.OHMM   07 220 01 00:   RESISTIVITY FOCUSED LOG RES.
 ILD .OHMM   07 120 46 00:   DEEP INDUCTION RESISTIVITY
 TENR.LBS    07 635 01 00:   TENSION
 ILM .OHMM   07 120 44 00:   INDUCTION LOG MEDIUM RESISTIVITY
 GRD .GAPI   45 310 01 00:   GAMMA RAY FROM DENSITY LOG
 CALD.IN     45 280 60 00:   CALIPER FROM DENSITY LOG
 RHOB.G/C3   45 350 01 00:   BULK DENSITY
 TEND.LBS    45 635 01 00:   TENSION FROM DENSITY LOG
 CORR.G/C3   45 356 01 00:   DENSITY CORRECTION
~PARAMETER INFORMATION
#MNEM.UNIT          VALUE    DESCRIPTION
#----------   ------------   ------------------------------
 EKB .F         5257.0000:   Kelly bushing
 EGL .F         5247.0000:   Ground level
 EDF .F            0.0000:   Drilling floor
 TD  .F         3388.0000:   Total depth
 DATE.        25-JAN-1981:   Date logged
 CLNT.            A2DTECH:   Client Code
 SL  . 2289' FNL & 1495' FEL:   Surface Location
 PD  .                 GL:   Permanent Datum
 EPD .F              5247:   Elevation Permanent Datum
 LMF .                 KB:   Log Measured From
 DMF .                 KB:   Drilling Measured From
 DAPD.F                10:   Feet Above Permanent Datum
 DD  .F              3388:   Depth driller
 DL  .F              3386:   Depth logger
 BLI .F              3380:   Bottom log interval
 TLI .F               192:   Top log interval
 CS1 .IN            8.625:   Casing size
 CBD1.      8.625" @ 191':   Casing driller 1
 CBL1.F               192:   Casing logger 1
 BS1 .IN            7.875:   Bit size
 BSD1.F              3388:   Depth drilled with bit1
 DFT .                FGM:   Type fluid in hole
 DFD .                8.7:   Density
 DFV .                 32:   Viscosity
 DFPH.                9.5:   pH
 DFL .                 18:   Fluid loss
 MSS .           FLOWLINE:   Source of sample
 RMS .OHMM           1.60:   Rm
 MST .F                60:   Rm Meas. temp.
 RMF .OHMM           1.33:   Rmf
 MFST.F                60:   Rmf Meas. temp.
 MFSS.               MEAS:   Source Rmf.
 RMB .OHMM            .83:   Rm. at BHT
 BHT .F               115:   BHT.
 TCS .HRS            1700:   Time Circ. stopped
 TLAB.HRS            2200:   Time logger at bottom
 MRT .F               115:   Maximum recorded temp.
 LUN .               8039:   Logging unit number
 LUL .               CSPR:   Logging unit location
 ENGI.           C. PFARR:   Recorded By
 WITN.           L. FIVAS:   Witnessed by
 ORIG.           5" PRINT:   Origin of data
 UWI .     49025108640000:   Unique Well ID
 DICO. A2D TECHNOLOGIES, INC.:   Digitizing Company
~OTHER INFORMATION
~A   DEPT      SPR       RFOC        ILD       TENR        ILM         GRD      CALD         RHOB      TEND      CORR   
# ...
 3157.5000   -12.8500     7.6670     7.3080  1177.6450     7.6370   111.6760     9.1940     2.5470  1382.1860     0.0210
 3158.0000   -13.0570     8.6260     7.7830  1177.6450     8.1850   113.4210     9.1940     2.5490  1389.2430     0.0130
 3158.5000   -13.2630    10.8730     8.6700  1177.6450     9.3840   106.4160     9.1940     2.5490  1396.3010     0.0050
 3159.0000   -13.4830    17.7940    10.0320  1177.6450    10.7710    95.4420     9.1940     2.5590  1403.3580     0.0090
 3159.5000   -13.5920    22.6340    11.3930  1177.6450    12.1570    84.3730     9.1940     2.5790  1410.4150     0.0150
 3160.0000   -13.5800    25.3520    12.7540  1177.6450    13.7100    78.5400     9.1940     2.5980  1414.3430     0.0210
 3160.5000   -13.5830    22.5860    13.4600  1177.6450    13.7610    80.3800     9.1940     2.6110  1410.0601     0.0250
 3161.0000   -13.5830    19.8200    13.5730  1177.6450    13.8680    82.7680     9.1940     2.6040  1405.9430     0.0210
 3161.5000   -13.5820    18.1050    13.7100  1177.6450    13.9650    82.7770     9.1940     2.5980  1401.8260     0.0180
 3162.0000   -13.5830    17.4190    13.5640  1177.6450    13.7310    81.5210     9.1940     2.5910  1397.7090     0.0160
 3162.5000   -13.5830    17.7430    13.3540  1177.6450    13.5170    80.7640     9.1940     2.6040  1393.5920     0.0180
 3163.0000   -13.5830    17.5040    13.1430  1177.6450    13.3020    82.5900     9.1940     2.6020  1389.4750     0.0140
 3163.5000   -13.5830    16.7130    12.9330  1177.6450    13.0880    84.8930     9.1940     2.6010  1385.3590     0.0100
 3164.0000   -13.5830    16.3760    12.7230  1177.6450    12.8740    87.4050     9.1940     2.5930  1381.2419     0.0060
 3164.5000   -13.5830    16.2250    12.5130  1177.6450    12.6600    86.0720     9.1940     2.5790  1377.1250     0.0010
 3165.0000   -13.5830    15.6740    12.3020  1177.6450    12.4460    84.0670     9.1940     2.5650  1375.1790     0.0000
 3165.5000   -13.5830    14.4890    12.0920  1177.6450    12.2310    83.0540     9.1940     2.5520  1377.0430     0.0000
 3166.0000   -13.5830    14.5560    11.8820  1177.6450    12.0170    82.9060     9.1940     2.5550  1378.9070     0.0000
 3166.5000   -13.5830    14.7630    11.6710  1177.6450    11.8310    82.7480     9.1940     2.5660  1380.7710     0.0040
 3167.0000   -13.5830    14.9690    11.4160  1177.6450    11.5170    83.6290     9.1940     2.5780  1382.6350     0.0110
 3167.5000   -13.5830    15.3120    11.1430  1177.6450    11.2400    87.5440     9.1970     2.5860  1384.5000     0.0200
 3168.0000   -13.5830    15.0750    10.8710  1177.6450    10.9620    93.7240     9.2020     2.5780  1386.3640     0.0220
 3168.5000   -13.5830    14.3820    10.5980  1177.6450    10.6850    98.8640     9.2070     2.5600  1388.2280     0.0130
 3169.0000   -13.5830    13.6890    10.3260  1177.6450    10.4070   101.4240     9.2120     2.5400  1390.0920     0.0080
 3169.5000   -13.5830    12.9960    10.0530  1177.6450    10.1290   102.8070     9.2170     2.5380  1391.9570     0.0120
 3170.0000   -13.5830    12.2750     9.6610  1177.6450     9.8410   102.4700     9.2220     2.5410  1393.8210     0.0120
 3170.5000   -13.5830    12.3850     9.7520  1177.6450     9.9530   101.1140     9.2270     2.5380  1395.6851     0.0070
 3171.0000   -13.5830    12.5030     9.9140  1177.6450    10.0710    99.9300     9.2310     2.5280  1397.5490     0.0010
 3171.5000   -13.5830    13.0790    10.0760  1177.6450    10.1880    99.0930     9.2360     2.5320  1399.4139    -0.0030
 3172.0000   -13.5830    13.2140    10.2380  1177.6450    10.3050    98.8770     9.2410     2.5430  1401.2780     0.0090
 3172.5000   -13.5830    13.2140    10.4000  1177.6450    10.4220   100.1880     9.2460     2.5700  1403.1420     0.0200
 3173.0000   -13.5830    13.2140    10.5620  1177.6450    10.5390   101.4910     9.2510     2.5950  1405.0060     0.0320
 3173.5000   -13.5830    13.2140    10.7240  1177.6450    10.6570   102.7790     9.2560     2.6080  1406.8710     0.0430
 3174.0000   -13.5830    13.5410    10.8860  1177.6450    10.7740   103.2100     9.2610     2.6100  1408.7350     0.0390
 3174.5000   -13.5830    14.3580    11.0480  1177.6450    10.8910    98.7030     9.2660     2.6030  1410.5990     0.0350
 3175.0000   -13.5830    15.4510    11.2100  1177.6450    11.0080    93.8710     9.2710     2.5990  1412.4630     0.0300
 3175.5000   -13.5830    16.1820    11.4030  1177.6450    11.1260    93.4840     9.2740     2.5970  1414.3430     0.0300
 3176.0000   -13.5830    15.7180    11.6280  1177.6450    11.3730    94.7110     9.2720     2.5950  1413.8110     0.0290
 3176.5000   -13.5830    14.2240    11.9060  1177.6450    11.8100    95.9110     9.2710     2.5940  1413.2760     0.0270
 3177.0000   -13.5830    14.5810    12.1850  1177.6450    12.2470    94.1970     9.2700     2.5910  1412.7400     0.0190
 3177.5000   -13.5830    15.5970    12.4640  1177.6450    12.6840    89.0150     9.2690     2.5920  1412.2050     0.0110
 3178.0000   -13.5830    18.7550    12.7360  1177.6450    13.3400    82.9410     9.2680     2.5960  1411.6689    -0.0030
 3178.5000   -13.5830    22.1320    11.9000  1177.6450    13.1500    76.6260     9.2670     2.6070  1411.1340     0.0050
 3179.0000   -13.5810    21.9140    11.0840  1177.6450    11.7880    79.1680     9.2660     2.6200  1410.5980     0.0280
 3179.5000   -13.5980    19.6870    10.2680  1177.6450    10.4260    84.5790     9.2650     2.6150  1410.0630     0.0380
 3180.0000   -13.6280    16.4650     9.4850  1177.6450     9.2570    89.7650     9.2640     2.6010  1409.5270     0.0390
 3180.5000   -13.6550    13.2430     8.5430  1177.6450     8.3340   110.1620     9.2630     2.5620  1408.9910     0.0320
 3181.0000   -13.6820    10.0220     7.6370  1177.6450     7.4110   127.3420     9.2620     2.5530  1408.4561     0.0250
 3181.5000   -13.7100     6.3250     6.7310  1177.6450     5.9850   139.1760     9.2610     2.5410  1407.9200     0.0190
 3182.0000   -13.7370     6.5810     5.8750  1177.6450     6.0420   140.8960     9.2600     2.5320  1407.3850     0.0120
 3182.5000   -13.7650     7.4400     6.0080  1177.6450     6.1700   128.2740     9.2590     2.5290  1406.8490     0.0050
 3183.0000   -13.7920     8.5900     6.1330  1177.6450     6.2980   121.5860     9.2590     2.5440  1406.3140     0.0050
 3183.5000   -13.8200     8.9750     6.2580  1177.6450     6.4420   119.1820     9.2580     2.5590  1405.7780     0.0150
 3184.0000   -13.8470     8.6270     6.3250  1177.6450     6.4330   117.5290     9.2570     2.5590  1405.2430     0.0170
 3184.5000   -13.8750     8.1400     6.3040  1177.6450     6.4130   119.3600     9.2560     2.5560  1404.7070     0.0190
 3185.0000   -13.9020     7.4230     6.2850  1177.6450     6.3940   123.2910     9.2550     2.5550  1404.1710     0.0210
 3185.5000   -13.9300     7.1390     6.2660  1177.6450     6.3740   127.0990     9.2540     2.5560  1403.6360     0.0220
 3186.0000   -13.9570     7.0640     6.2470  1177.6450     6.3550   129.3720     9.2530     2.5560  1403.1000     0.0230
 3186.5000   -13.9760     7.3480     6.2270  1177.6450     6.3360   129.8910     9.2520     2.5580  1402.5649     0.0230
 3187.0000   -13.9570     7.8760     6.2080  1177.6450     6.3160   128.0850     9.2510     2.5630  1402.0291     0.0250
 3187.5000   -13.9370     8.4920     6.1890  1177.6450     6.2970   125.9620     9.2500     2.5670  1401.4940     0.0280
 3188.0000   -13.9150     8.4920     6.1700  1177.6450     6.2770   123.1100     9.2490     2.5660  1400.9580     0.0280
 3188.5000   -13.8950     7.9550     6.1510  1177.6450     6.2580   124.9420     9.2480     2.5570  1400.4230     0.0260
 3189.0000   -13.8740     7.4680     6.1320  1177.6450     6.2390   129.6020     9.2470     2.5490  1399.8870     0.0240
 3189.5000   -13.8520     7.2100     6.1130  1177.6450     6.2200   134.1720     9.2460     2.5490  1399.3521     0.0220
 3190.0000   -13.8310     7.0640     6.0960  1177.6450     6.1630   136.7790     9.2450     2.5500  1398.8160     0.0200
 3190.5000   -13.8100     7.1380     5.9960  1177.6450     6.0720   135.2940     9.2440     2.5510  1398.2800     0.0180
