~VERSION INFORMATION
 VERS.                2.0:   CWLS LOG ASCII STANDARD - VERSION 2.0
 WRAP.                 NO:   ONE LINE PER DEPTH STEP
~WELL INFORMATION
#MNEM.UNIT      DATA TYPE    INFORMATION
#----------   ------------   ------------------------------
 STRT.F          176.5000:   START DEPTH
 STOP.F         3010.0000:   STOP DEPTH
 STEP.F            0.5000:   STEP LENGTH
 NULL.          -999.2500:   NO VALUE
 COMP.    FENIX & SCISSON:   COMPANY
 WELL.   FENIX "A" #36-28:   WELL
 FLD .              NPR 3:   FIELD
 LOC .      S28 T39N R78W:   LOCATION
 CNTY.            NATRONA:   COUNTY
 STAT.            WYOMING:   STATE
 CTRY. UNITED STATES OF AMERICA:   COUNTRY
 SRVC.       SCHLUMBERGER:   SERVICE COMPANY
 DATE.        19-AUG-1977:   LOGDATE
 API .     49025104150000:   API NUMBER
~CURVE INFORMATION
#MNEM.UNIT       API CODE    CURVE DESCRIPTION
#----------   ------------   ------------------------------
 DEPT.F                  :   
 SPR .MV     07 010 01 00:   SPONTANEOUS POTENTIAL
 ILM .OHMM   07 120 44 00:   INDUCTION LOG MEDIUM RESISTIVITY
 ILD .OHMM   07 120 46 00:   INDUCTION LOG DEEP RESISTIVITY
 LL8 .OHMM   07 220 08 00:   LATEROLOG-8 RESISTIVITY
 GRD .GAPI   45 310 01 00:   GAMMA RAY FROM DENSITY LOG
 CALD.IN     45 280 60 00:   CALIPER FROM DENSITY LOG
 RHOB.G/C3   45 350 01 00:   BULK DENSITY
 DCOR.G/C3   45 356 01 00:   DENSITY CORRECTION
~PARAMETER INFORMATION
#MNEM.UNIT          VALUE    DESCRIPTION
#----------   ------------   ------------------------------
 EKB .F         5107.0000:   Kelly bushing
 EGL .F         5097.0000:   Ground level
 EDF .F            0.0000:   Drilling floor
 TD  .F         3012.0000:   Total depth
 DATE.        19-AUG-1977:   Date logged
 CLNT.            A2DTECH:   Client Code
 SL  . 1650' FSL & 1650' FWL:   Surface Location
 PD  .                 GL:   Permanent Datum
 EPD .F              5097:   Elevation Permanent Datum
 LMF .                 KB:   Log Measured From
 DMF .                 KB:   Drilling Measured From
 DAPD.F                10:   Feet Above Permanent Datum
 DD  .F              3010:   Depth driller
 DL  .F              3011:   Depth logger
 BLI .F              3005:   Bottom log interval
 TLI .F               215:   Top log interval
 CS1 .IN            8.625:   Casing size
 CBD1.      8.625" @ 205':   Casing driller 1
 CBL1.F               215:   Casing logger 1
 BS1 .IN            7.875:   Bit size
 BSD1.F              3010:   Depth drilled with bit1
 DFT .                FGM:   Type fluid in hole
 DFD .                8.8:   Density
 DFV .                 33:   Viscosity
 DFPH.               10.5:   pH
 DFL .               10.6:   Fluid loss
 MSS .            MUD PIT:   Source of sample
 RMS .OHMM            .19:   Rm
 MST .F                76:   Rm Meas. temp.
 RMF .OHMM            .17:   Rmf
 MFST.F                78:   Rmf Meas. temp.
 MFSS.               MEAS:   Source Rmf.
 RMB .OHMM            .13:   Rm. at BHT
 BHT .F               112:   BHT.
 TCS .HRS            0700:   Time Circ. stopped
 TLAB.HRS            1400:   Time logger at bottom
 MRT .F               112:   Maximum recorded temp.
 LUN .               5642:   Logging unit number
 ENGI.          CHALUPSKY:   Recorded By
 WITN.     WES PETTINGILL:   Witnessed by
 ORIG.           5" PRINT:   Origin of data
 UWI .     49025104150000:   Unique Well ID
 DICO. A2D TECHNOLOGIES, INC.:   Digitizing Company
 LUL .               CSPR:   Logging unit location
~OTHER INFORMATION
~A   DEPT      SPR        ILM        ILD        LL8        GRD       CALD       RHOB       DCOR   
# ...
 1675.0000   -44.0020     8.2760     8.7440    10.1240   136.9700     8.3820     2.4760     0.0210
 1675.5000   -43.8750     8.2420     8.7970    10.3060   134.1160     8.3820     2.4970     0.0300
 1676.0000   -43.7440     8.2050     8.8380    10.4060   131.2590     8.3820     2.5220     0.0420
 1676.5000   -43.6150     8.1670     8.8780    10.3430   128.8960     8.3820     2.5140     0.0310
 1677.0000   -43.5230     8.1260     8.9190    10.1070   130.0910     8.3820     2.5000     0.0350
 1677.5000   -43.5900     8.1620     8.9600     9.4600   133.6550     8.3820     2.4910     0.0330
 1678.0000   -43.6550     8.2020     8.9870     8.5070   137.4910     8.3820     2.5190     0.0750
 1678.5000   -43.6960     8.2420     8.2620     8.6120   139.1990     8.3820     2.5270     0.0680
 1679.0000   -43.2990     8.2720     7.7130     8.9050   139.7610     8.3820     2.5210     0.0600
 1679.5000   -42.9220     8.0130     7.1640     8.8890   141.3650     8.3820     2.4990     0.0690
 1680.0000   -42.8010     7.7170     6.5830     8.8570   142.0570     8.3820     2.4740     0.0280
 1680.5000   -42.6910     7.3200     5.9940     8.8240   139.0350     8.3820     2.4500     0.0160
 1681.0000   -42.5810     6.4430     5.3680     9.1320   136.6010     8.3780     2.4410     0.0110
 1681.5000   -42.4410     5.3900     4.7430     9.4090   135.3600     8.3720     2.4540     0.0260
 1682.0000   -42.1990     3.8700     4.1170     7.4190   135.5470     8.3660     2.4440     0.0170
 1682.5000   -41.7120     4.0180     3.4910     4.5880   137.2700     8.3640     2.4130     0.0300
 1683.0000   -41.2360     4.2410     2.9670     2.3820   138.9940     8.3660     2.3810     0.0280
 1683.5000   -40.7590     4.1640     3.4320     3.2530   140.3030     8.3680     2.3500     0.0420
 1684.0000   -40.2610     4.9580     3.8310     6.3650   138.0120     8.3700     2.3170     0.1480
 1684.5000   -40.4590     5.6340     4.2310     8.6250   135.4670     8.3730     2.2720     0.1040
 1685.0000   -40.8860     5.5820     5.3120     9.6710   132.8400     8.3750     2.3000     0.0230
 1685.5000   -41.3240     5.9100     6.5890     9.3030   132.1110     8.3770     2.4260     0.0430
 1686.0000   -41.4870     6.4740     7.8660     8.9870   132.9480     8.3790     2.5120     0.0580
 1686.5000   -41.4100     7.0370     9.1540     9.1030   134.8070     8.3820     2.5070     0.0440
 1687.0000   -41.3440     7.6010     9.2380     9.2210   136.9380     8.3850     2.5160     0.0560
 1687.5000   -41.7770     8.0780     8.9770     9.3380   135.9200     8.3950     2.5340     0.0730
 1688.0000   -42.2510     8.2070     8.5850     9.4800   134.1050     8.4050     2.4990     0.0630
 1688.5000   -42.7210     8.3360     8.6770     9.6560   132.5630     8.4150     2.5220     0.0500
 1689.0000   -43.1490     8.4650     8.7910     9.8320   133.4980     8.4190     2.5370     0.0590
 1689.5000   -42.4990     8.5950     8.9050    10.0090   135.7550     8.4110     2.5230     0.0490
 1690.0000   -41.6960     8.7240     9.0190    10.1850   137.7370     8.4020     2.5080     0.0610
 1690.5000   -41.4790     8.8240     9.1540    10.2600   138.2000     8.3790     2.4970     0.0690
 1691.0000   -41.4060     8.7580     9.0820    10.3130   136.7220     8.3540     2.5190     0.0490
 1691.5000   -41.3180     8.7030     8.9950    10.3650   135.4810     8.3280     2.5360     0.0660
 1692.0000   -40.7380     8.6480     8.9080    10.4060   138.4630     8.3420     2.5150     0.0500
 1692.5000   -40.1380     8.5850     8.8240    10.4980   140.5960     8.3650     2.4830     0.0280
 1693.0000   -39.5510     8.6320     8.8880    10.5860   135.4220     8.3890     2.4900     0.0420
 1693.5000   -39.1080     8.6880     8.9490    10.6750   131.3980     8.4130     2.5050     0.0610
 1694.0000   -39.1370     8.7440     9.0100    10.7940   131.1820     8.4370     2.4830     0.0340
 1694.5000   -39.4950     8.8010     9.0710    10.6680   134.2090     8.4370     2.4960     0.0400
 1695.0000   -40.1370     8.8570     9.1320    10.4750   136.5580     8.4320     2.5170     0.0490
 1695.5000   -40.7740     8.9130     9.1930    10.2170   138.9260     8.4260     2.4940     0.0380
 1696.0000   -41.0040     8.9870     9.2380    10.4610   141.1230     8.4210     2.4710     0.0290
 1696.5000   -40.7190     8.9430     9.1660    10.8280   140.7750     8.4160     2.4830     0.0360
 1697.0000   -40.4260     8.8760     9.1100    11.0950   140.4750     8.4100     2.5020     0.0470
 1697.5000   -40.3440     8.8090     9.0540    10.6770   142.2950     8.4050     2.4780     0.0410
 1698.0000   -40.3400     8.7430     8.9970    10.3490   144.0950     8.4020     2.5030     0.0320
 1698.5000   -40.3390     8.6760     8.9410    10.2880   144.6440     8.4090     2.5370     0.0590
 1699.0000   -40.1690     8.6090     8.8850    10.2540   140.5960     8.4170     2.5530     0.0810
 1699.5000   -39.8170     8.5420     8.8280    10.2200   142.1420     8.4240     2.5400     0.0960
 1700.0000   -39.4660     8.4760     8.7440    10.1670   143.6620     8.4310     2.5210     0.0750
 1700.5000   -39.1480     8.4290     8.8180    10.0950   141.5210     8.4370     2.4990     0.0540
 1701.0000   -39.0890     8.5850     8.9640    10.0410   140.6700     8.4290     2.5100     0.0410
 1701.5000   -39.0350     8.7050     9.1110    10.1360   141.7960     8.3840     2.5280     0.0450
 1702.0000   -38.9790     8.8250     9.2660    10.2760   142.8370     8.3770     2.5010     0.0530
 1702.5000   -38.9240     8.9440     9.5820    10.7270   143.0690     8.3720     2.5040     0.0390
 1703.0000   -38.8670     9.0700     9.5290    11.1790   141.1600     8.3670     2.5090     0.0450
 1703.5000   -38.8100     8.9230     9.4320    11.8290   142.1310     8.3610     2.5110     0.0400
 1704.0000   -38.7650     8.7670     9.2650    11.3850   144.0000     8.3560     2.4920     0.0330
 1704.5000   -39.0810     8.6120     9.0760    10.5920   142.9920     8.3510     2.4730     0.0270
 1705.0000   -39.4150     8.4560     8.8860     9.8760   141.2710     8.3450     2.4620     0.0190
 1705.5000   -39.7480     8.3010     8.6970     9.5820   141.9910     8.3430     2.4880     0.0320
 1706.0000   -40.1610     8.1450     8.5080     9.5820   141.6450     8.3430     2.4810     0.0400
 1706.5000   -40.6890     7.9890     8.3180     9.5820   139.6830     8.3430     2.4700     0.0110
 1707.0000   -41.2180     7.8340     8.1290     9.5820   140.8410     8.3430     2.4580     0.0200
 1707.5000   -41.7690     7.6780     7.9400     9.3470   144.4290     8.3430     2.4520     0.0110
 1708.0000   -41.9000     7.5230     7.8170     8.9120   148.1100     8.3430     2.4780     0.0290
 1708.5000   -41.3440     7.3670     7.7090     8.2590   151.2050     8.3430     2.4710     0.0260
 1709.0000   -40.7850     7.2580     7.6000     8.5800   152.2060     8.3430     2.4520     0.0230
 1709.5000   -40.2290     7.2090     7.4920     9.1730   149.6190     8.3430     2.4610     0.0360
 1710.0000   -40.0360     7.1590     7.3470     9.7670   151.4700     8.3430     2.4790     0.0470
 1710.5000   -40.2110     7.0830     7.3850     9.1670   151.1260     8.3430     2.4890     0.0410
 1711.0000   -40.3860     7.1610     7.4850     8.1210   150.3760     8.3410     2.4710     0.0360
 1711.5000   -40.5400     7.3250     7.6350     7.2800   151.8960     8.3400     2.4580     0.0400
 1712.0000   -40.5400     7.4890     7.7840     8.6320   153.4770     8.3380     2.4410     0.0500
 1712.5000   -40.4720     7.6530     7.9340     9.5820   154.7960     8.3360     2.4160     0.0300
 1713.0000   -40.0140     7.8180     8.0830    10.3110   150.7140     8.3340     2.4360     0.0260
 1713.5000   -39.5690     7.9820     8.2760    10.1690   144.7240     8.3320     2.4680     0.0400
 1714.0000   -39.7870     8.1360     8.4860    10.0140   140.8820     8.3310     2.4570     0.0460
 1714.5000   -40.0410     8.2210     8.6040     9.9150   137.1260     8.3290     2.4420     0.0270
 1715.0000   -40.2930     8.2760     8.6390     9.8670   133.8320     8.3270     2.4390     0.0100
