~VERSION INFORMATION
 VERS.                2.0:   CWLS LOG ASCII STANDARD - VERSION 2.0
 WRAP.                 NO:   ONE LINE PER DEPTH STEP
~WELL INFORMATION
#MNEM.UNIT      DATA TYPE    INFORMATION
#----------   ------------   ------------------------------
 STRT.F          742.0000:   START DEPTH
 STOP.F         3406.0000:   STOP DEPTH
 STEP.F            0.5000:   STEP LENGTH
 NULL.          -999.2500:   NO VALUE
 COMP. FENIX & SCISSON - US NAVY:   COMPANY
 WELL.   FENIX "AX" #85-4:   WELL
 FLD .      NPR - WILDCAT:   FIELD
 LOC .       S4 T38N R78W:   LOCATION
 CNTY.            NATRONA:   COUNTY
 STAT.            WYOMING:   STATE
 CTRY. UNITED STATES OF AMERICA:   COUNTRY
 SRVC.              WELEX:   SERVICE COMPANY
 DATE.        03-MAY-1977:   LOGDATE
 API .     49025103520000:   API NUMBER
~CURVE INFORMATION
#MNEM.UNIT       API CODE    CURVE DESCRIPTION
#----------   ------------   ------------------------------
 DEPT.F                  :   
 SNP .DEC    41 890 00 00:   SIDEWALL NEUTRON POROSITY
 GR  .GAPI   30 310 01 00:   GAMMA RAY
 SPR .MV     07 010 01 00:   SPONTANEOUS POTENTIAL
 RXO .OHMM   11 220 01 00:   FLUSHED ZONE RESISTIVITY
 GURD.OHMM   07 220 05 00:   GUARD LOG RESISTIVITY
 CALD.IN     45 280 60 00:   CALIPER FROM DENSITY LOG
 RHOB.G/C3   45 350 01 00:   BULK DENSITY
 GRD .GAPI   45 310 01 00:   GAMMA RAY FROM DENSITY LOG
 CORR.G/C3   45 356 01 00:   DENSITY CORRECTION
~PARAMETER INFORMATION
#MNEM.UNIT          VALUE    DESCRIPTION
#----------   ------------   ------------------------------
 EKB .F         5254.0000:   Kelly bushing
 EGL .F         5240.0000:   Ground level
 EDF .F            0.0000:   Drilling floor
 TD  .F         3467.0000:   Total depth
 DATE.        03-MAY-1977:   Date logged
 CLNT.            A2DTECH:   Client Code
 SL  . 2200' FSL & 100' FEL:   Surface Location
 PD  .                 GL:   Permanent Datum
 EPD .F              5240:   Elevation Permanent Datum
 LMF .                 KB:   Log Measured From
 DMF .                 KB:   Drilling Measured From
 DAPD.F                14:   Feet Above Permanent Datum
 DD  .F              3647:   Depth driller
 DL  .F              3404:   Depth logger
 BLI .F              3402:   Bottom log interval
 TLI .F               720:   Top log interval
 CS1 .IN            8.625:   Casing size
 CBD1.      8.625" @ 720':   Casing driller 1
 CBL1.F               760:   Casing logger 1
 BS1 .IN            7.875:   Bit size
 BSD1.F              3467:   Depth drilled with bit1
 DFT .            KCL/MUD:   Type fluid in hole
 DFD .                9.1:   Density
 DFV .                 36:   Viscosity
 DFPH.                  8:   pH
 DFL .                  5:   Fluid loss
 MSS .           FLOWLINE:   Source of sample
 RMS .OHMM            .30:   Rm
 MST .F                66:   Rm Meas. temp.
 RMF .OHMM            .21:   Rmf
 MFST.F                66:   Rmf Meas. temp.
 RMC .OHMM            .49:   Rmc
 MCST.F                66:   Rmc Meas. temp.
 MFSS.               FANN:   Source Rmf.
 MCSS.                KIT:   Source Rmc.
 RMB .OHMM            .18:   Rm. at BHT
 BHT .F               107:   BHT.
 TCS .HRS             2.5:   Time Circ. stopped
 MRT .F               107:   Maximum recorded temp.
 LUN .               8611:   Logging unit number
 LUL .             CASPER:   Logging unit location
 ENGI.            C. DOAK:   Recorded By
 WITN.      B. HARRINGTON:   Witnessed by
 ORIG.     2.5", 5" PRINT:   Origin of data
 UWI .     49025103520000:   Unique Well ID
 DICO. A2D TECHNOLOGIES, INC.:   Digitizing Company
~OTHER INFORMATION
~A   DEPT        SNP       GR        SPR        RXO       GURD         CALD       RHOB       GRD       CORR  
# ...
 1800.5000     0.1540   124.0430   -38.4760     8.0640     6.9730     8.3820     2.5910    96.1200     0.0170
 1801.0000     0.1560   120.7050   -38.4770     7.7760     6.9730     8.3820     2.5930    96.8040     0.0160
 1801.5000     0.1550   120.7890   -38.4770     8.2120     6.9080     8.3820     2.5920    97.4850     0.0150
 1802.0000     0.1540   119.1750   -38.4770     8.5160     6.8270     8.3820     2.5900    98.2580     0.0140
 1802.5000     0.1530   119.2680   -38.4770     8.1360     6.7450     8.3820     2.5890    98.3850     0.0130
 1803.0000     0.1520   118.8310   -38.4770     7.2310     6.6640     8.3820     2.5870    97.5620     0.0130
 1803.5000     0.1550   116.0200   -38.4770     7.3640     6.5820     8.3820     2.5850    96.8450     0.0120
 1804.0000     0.1570   114.3630   -38.4770     8.0640     6.4850     8.3820     2.5780    96.0860     0.0100
 1804.5000     0.1590   115.7440   -38.4770     7.5640     6.4850     8.3820     2.5730    95.3310     0.0080
 1805.0000     0.1590   117.7860   -38.4770     7.2310     6.4850     8.3820     2.5710    94.6190     0.0060
 1805.5000     0.1640   119.6350   -38.4770     7.1210     6.2780     8.3800     2.5760    93.7580     0.0080
 1806.0000     0.1680   121.1970   -38.4770     6.9730     6.1410     8.4000     2.5830    94.1260     0.0130
 1806.5000     0.1720   121.7850   -38.4770     7.0380     6.2180     8.4390     2.5890    95.5760     0.0180
 1807.0000     0.1720   121.1110   -38.4770     7.2310     6.4110     8.4780     2.5950    96.8260     0.0230
 1807.5000     0.1690   119.9400   -38.4770     7.2310     6.6030     8.5010     2.5990    98.1240     0.0280
 1808.0000     0.1700   117.7130   -38.4770     7.2310     6.3270     8.4790     2.6030    98.2170     0.0330
 1808.5000     0.1690   115.1410   -38.4770     7.1080     6.0500     8.4580     2.6060    97.7720     0.0380
 1809.0000     0.1650   111.7520   -38.4770     6.8000     5.6070     8.4340     2.6090    97.0810     0.0410
 1809.5000     0.1660   109.5740   -38.4770     6.3680     5.7100     8.4200     2.6080    96.4470     0.0410
 1810.0000     0.1680   108.9010   -38.4770     6.9840     6.5130     8.4200     2.6040    95.7840     0.0410
 1810.5000     0.1660   109.1100   -38.4770     8.0100     7.6360     8.4170     2.6000    95.1320     0.0370
 1811.0000     0.1630   110.6930   -38.4770     8.8310     7.4990     8.4150     2.5930    94.5030     0.0330
 1811.5000     0.1630   110.9780   -38.4770     7.4990     7.0510     8.4130     2.5810    93.7580     0.0300
 1812.0000     0.1660   108.3570   -38.4770     7.7760     6.6030     8.4100     2.5800    94.0030     0.0260
 1812.5000     0.1650   107.5050   -38.4770     7.9190     6.6030     8.4080     2.5960    95.2510     0.0220
 1813.0000     0.1610   109.9880   -38.4770     7.2980     6.9200     8.4060     2.5930    96.3780     0.0180
 1813.5000     0.1590   113.7200   -38.4770     7.5390     7.3640     8.4040     2.5870    97.4690     0.0160
 1814.0000     0.1620   116.6990   -38.4770     8.0640     6.9240     8.4010     2.5810    98.7400     0.0120
 1814.5000     0.1640   114.7340   -38.4770     8.2120     6.4850     8.3990     2.5750    98.2160     0.0150
 1815.0000     0.1660   113.1800   -38.4770     8.2120     6.9510     8.3970     2.5760    96.6680     0.0180
 1815.5000     0.1660   112.7980   -38.4770     7.8420     7.2310     8.3950     2.5810    95.3050     0.0210
 1816.0000     0.1620   114.5080   -38.4770     7.3790     6.9200     8.3920     2.5870    94.0940     0.0240
 1816.5000     0.1600   116.3850   -38.4730     7.1010     6.4850     8.3900     2.5920    92.3370     0.0270
 1817.0000     0.1630   117.3460   -38.4650     7.2310     6.6710     8.3880     2.6050    92.2650     0.0300
 1817.5000     0.1650   115.6710   -38.4570     7.7310     6.9820     8.3860     2.6090    94.3000     0.0330
 1818.0000     0.1630   112.9170   -38.4490     8.0640     7.2310     8.3840     2.6140    96.1190     0.0360
 1818.5000     0.1600   112.0570   -38.4410     7.8540     7.3640     8.3750     2.6180    98.0620     0.0390
 1819.0000     0.1580   112.8900   -38.4330     7.6790     7.1720     8.3470     2.6190    99.0370     0.0410
 1819.5000     0.1560   115.8880   -38.4240     7.5040     6.8520     8.3170     2.6130    97.8180     0.0410
 1820.0000     0.1620   116.7320   -38.4160     7.3640     6.6640     8.3020     2.6210    96.7910     0.0400
 1820.5000     0.1570   115.5700   -38.4080     7.3640     6.6030     8.3060     2.6180    95.6660     0.0360
 1821.0000     0.1540   115.1520   -38.4000     7.3640     6.6030     8.3130     2.6120    94.5870     0.0330
 1821.5000     0.1510   116.0550   -38.3920     7.4810     6.7830     8.3210     2.6120    93.4880     0.0320
 1822.0000     0.1510   117.1910   -38.3840     7.7720     7.0070     8.3300     2.6190    92.3560     0.0280
 1822.5000     0.1540   117.6640   -38.3760     8.2120     7.2310     8.3380     2.6240    91.9080     0.0290
 1823.0000     0.1540   118.0410   -38.3680     8.0680     7.2310     8.3430     2.6160    93.4080     0.0290
 1823.5000     0.1520   118.7170   -38.3590     7.8280     7.2080     8.3420     2.6070    94.8610     0.0260
 1824.0000     0.1520   119.5600   -38.3510     7.6360     7.1490     8.3450     2.5980    96.4170     0.0220
 1824.5000     0.1570   115.5960   -38.3430     7.7080     7.0910     8.3520     2.5890    97.8760     0.0150
 1825.0000     0.1610   111.5300   -38.3350     7.8880     7.0320     8.3590     2.5830    99.3500     0.0110
 1825.5000     0.1590   108.2260   -38.3270     8.0680     6.9730     8.3660     2.5790    99.0930     0.0090
 1826.0000     0.1550   109.0420   -38.3190     8.2120     6.9730     8.3730     2.5720    98.5190     0.0110
 1826.5000     0.1550   111.0570   -38.3110     8.2120     6.8220     8.3800     2.5660    97.9500     0.0120
 1827.0000     0.1570   107.7230   -38.3020     7.5300     6.6330     8.3870     2.5590    97.3870     0.0130
 1827.5000     0.1590   105.9950   -38.2940     6.8480     6.4430     8.3940     2.5580    96.8440     0.0140
 1828.0000     0.1600   108.1050   -38.2860     7.7760     6.3680     8.4010     2.5630    96.3250     0.0150
 1828.5000     0.1550   107.4860   -38.2780     7.5690     6.3680     8.4090     2.5690    96.8450     0.0170
 1829.0000     0.1560   102.7550   -38.2700     7.4000     6.5020     8.4150     2.5730    97.4100     0.0180
 1829.5000     0.1580    99.8440   -38.2620     7.2310     6.7240     8.4200     2.5740    98.0150     0.0190
 1830.0000     0.1600    98.6560   -38.2540     7.6720     6.8830     8.4080     2.5760    98.6030     0.0200
 1830.5000     0.1610    99.9170   -38.2450     8.4060     7.0410     8.3980     2.5770    99.1670     0.0210
 1831.0000     0.1630   102.9830   -38.2370     8.9930     7.2310     8.3860     2.5790    99.8020     0.0200
 1831.5000     0.1650   105.6840   -38.2290     8.3480     7.1970     8.3820     2.5820    99.3910     0.0190
 1832.0000     0.1610   106.4620   -38.2210     7.9190     7.1540     8.3820     2.5860    98.5690     0.0180
 1832.5000     0.1540   109.4500   -38.2130     8.0640     7.1110     8.3880     2.5890    97.7360     0.0170
 1833.0000     0.1480   112.2240   -38.2050     8.2510     7.0680     8.3950     2.5830    96.9660     0.0170
 1833.5000     0.1490   112.6080   -38.1970     8.3620     7.0250     8.4020     2.5840    96.3660     0.0150
 1834.0000     0.1520   113.4260   -38.1880     7.9090     6.9730     8.4090     2.5940    97.3950     0.0190
 1834.5000     0.1500   112.0350   -38.1800     7.6360     7.1010     8.4150     2.6040    98.3380     0.0230
 1835.0000     0.1450   112.0900   -38.1720     7.6360     7.4390     8.4220     2.6140    99.3300     0.0280
 1835.5000     0.1390   113.2760   -38.1640     8.6530     7.7760     8.4290     2.6210   100.1570     0.0320
 1836.0000     0.1340   115.2300   -38.1560     9.6700     7.4990     8.4360     2.6190    99.3520     0.0360
 1836.5000     0.1310   117.2180   -38.1480     9.5560     7.7370     8.4420     2.6160    98.1450     0.0360
