~VERSION INFORMATION
 VERS.                2.0:   CWLS LOG ASCII STANDARD - VERSION 2.0
 WRAP.                 NO:   ONE LINE PER DEPTH STEP
~WELL INFORMATION
#MNEM.UNIT      DATA TYPE    INFORMATION
#----------   ------------   ------------------------------
 STRT.F          198.0000:   START DEPTH
 STOP.F         3140.0000:   STOP DEPTH
 STEP.F            0.5000:   STEP LENGTH
 NULL.          -999.2500:   NO VALUE
 COMP.    FENIX & SCISSON:   COMPANY
 WELL. FENIX NPR 3 "AX" #43-34:   WELL
 FLD .                NPR:   FIELD
 LOC .      S34 T39N R78W:   LOCATION
 CNTY.            NATRONA:   COUNTY
 STAT.            WYOMING:   STATE
 CTRY. UNITED STATES OF AMERICA:   COUNTRY
 SRVC.              WELEX:   SERVICE COMPANY
 DATE.        02-JUL-1977:   LOGDATE
 API .     49025103890000:   API NUMBER
~CURVE INFORMATION
#MNEM.UNIT       API CODE    CURVE DESCRIPTION
#----------   ------------   ------------------------------
 DEPT.F                  :   
 CALD.IN     45 280 60 00:   CALIPER FROM DENSITY LOG
 GRD .GAPI   45 310 01 00:   GAMMA RAY FROM DENSITY LOG
 RHOB.G/C3   45 350 01 00:   BULK DENSITY
 CORR.G/C3   45 356 01 00:   DENSITY CORRECTION
 SPR .MV     07 010 01 00:   SPONTANEOUS POTENTIAL
 SFLU.OHMM   07 220 01 00:   SPHERICALLY FOCUSED LOG UNAVERAGED RESISTIVITY
 ILD .OHMM   07 120 46 00:   DEEP INDUCTION RESISTIVITY
 ILM .OHMM   07 120 44 00:   INDUCTION LOG MEDIUM RESISTIVITY
~PARAMETER INFORMATION
#MNEM.UNIT          VALUE    DESCRIPTION
#----------   ------------   ------------------------------
 EKB .F         5118.0000:   Kelly bushing
 EGL .F         5108.0000:   Ground level
 TD  .F         3145.0000:   Total depth
 DATE.        02-JUL-1977:   Date logged
 CLNT.            A2DTECH:   Client Code
 SL  . 1650' FNL & 2310' FWL:   Surface Location
 PD  .                 GL:   Permanent Datum
 EPD .F              5108:   Elevation Permanent Datum
 LMF .                 KB:   Log Measured From
 DMF .                 KB:   Drilling Measured From
 DAPD.F                10:   Feet Above Permanent Datum
 DD  .F              3145:   Depth driller
 DL  .F              3143:   Depth logger
 BLI .F              3141:   Bottom log interval
 TLI .F               200:   Top log interval
 CS1 .IN            8.625:   Casing size
 CBD1.      8.625" @ 203':   Casing driller 1
 CBL1.F               224:   Casing logger 1
 BS1 .IN            7.875:   Bit size
 BSD1.F              3145:   Depth drilled with bit1
 DFT .            KCL/MUD:   Type fluid in hole
 DFD .                  9:   Density
 DFV .                 34:   Viscosity
 DFPH.                7.5:   pH
 DFL .                9.2:   Fluid loss
 MSS .           FLOWLINE:   Source of sample
 RMS .OHMM            .18:   Rm
 MST .F                75:   Rm Meas. temp.
 RMF .OHMM            .16:   Rmf
 MFST.F                75:   Rmf Meas. temp.
 RMC .OHMM            .30:   Rmc
 MCST.F                75:   Rmc Meas. temp.
 MFSS.               FANN:   Source Rmf.
 MCSS.                KIT:   Source Rmc.
 RMB .OHMM            .11:   Rm. at BHT
 BHT .F               118:   BHT.
 TCS .HRS            3.75:   Time Circ. stopped
 MRT .F               118:   Maximum recorded temp.
 LUN .               8766:   Logging unit number
 LUL .             CASPER:   Logging unit location
 ENGI.          T. JOYNER:   Recorded By
 WITN.     W. PETTNG/GILL:   Witnessed by
 ORIG.           5" PRINT:   Origin of data
 UWI .     49025103890000:   Unique Well ID
 DICO. A2D TECHNOLOGIES, INC.:   Digitizing Company
~OTHER INFORMATION
~A   DEPT     CALD         GRD        RHOB     CORR        SPR       SFLU        ILD        ILM   
# ...
 2911.5000     8.1455   162.1876     2.5043     0.0474   -52.2549     5.3222     3.0259     3.7714
 2912.0000     8.1487   157.8417     2.5153     0.0474   -51.4527     7.2583     3.0821     3.8916
 2912.5000     8.1520   156.2636     2.5352     0.0395   -53.0408     7.1269     3.2568     4.2112
 2913.0000     8.1552   155.8737     2.5710     0.0396   -53.0361     7.1273     3.3787     4.2893
 2913.5000     8.1584   155.8792     2.5789     0.0515   -53.0291     7.3939     3.7723     4.5325
 2914.0000     8.1616   156.6744     2.5780     0.0476   -53.4233     7.8121     4.0601     4.7023
 2914.5000     8.1649   158.6625     2.5770     0.0476   -53.4163     7.5317     4.4506     4.7025
 2915.0000     8.1681   160.2496     2.5810     0.0437   -53.4117     7.3954     4.5213     4.7027
 2915.5000     8.1713   163.8102     2.5830     0.0397   -53.4047     7.2618     4.7903     4.7031
 2916.0000     8.1745   164.9997     2.5790     0.0397   -53.4000     6.7491     4.7905     4.7033
 2916.5000     8.1778   165.0042     2.5751     0.0358   -52.9941     6.5068     4.8796     4.7038
 2917.0000     8.1810   162.6442     2.5711     0.0358   -52.9895     6.5072     4.8800     4.7040
 2917.5000     8.1842   163.0441     2.5651     0.0358   -53.3814     6.5077     4.8802     4.7043
 2918.0000     8.1874   164.2359     2.5632     0.0240   -53.3768     6.3899     4.8805     4.7045
 2918.5000     8.1906   168.5899     2.5612     0.0280   -52.9708     6.5086     4.7049     4.7050
 2919.0000     8.1939   166.6196     2.5612     0.0280   -52.9661     7.0039     4.7052     4.7052
 2919.5000     8.1971   164.2514     2.5632     0.0280   -52.9591     7.1340     4.4533     4.7056
 2920.0000     8.2003   164.2548     2.5692     0.0281   -51.3584     7.0049     4.2149     4.7057
 2920.5000     8.2035   166.6364     2.5632     0.0360   -52.1494     6.5104     4.0632     4.6205
 2921.0000     8.2068   169.0146     2.5613     0.0361   -52.1447     6.6314     3.9895     4.3731
 2921.5000     8.2100   169.0203     2.5593     0.0401   -51.7385     5.4210     3.7759     4.2157
 2922.0000     8.2132   169.0259     2.5593     0.0401   -50.9357     5.0383     3.6399     4.0639
 2922.5000     8.2164   169.0315     2.5554     0.0401   -51.3277     4.6826     3.5739     3.9903
 2923.0000     8.2197   166.6644     2.5415     0.0362   -50.5247     4.1953     3.5089     3.9178
 2923.5000     8.2241   163.1110     2.5385     0.0322   -50.1184     4.8580     3.2015     3.5744
 2924.0000     8.2241   162.3256     2.5325     0.0283   -50.1137     5.4229     3.1433     3.6574
 2924.5000     8.2045   159.9584     2.5296     0.0243   -50.1065     7.1391     3.0863     3.7422
 2925.0000     8.1851   155.6149     2.5296     0.0204   -50.1018     5.7301     3.0303     3.8474
 2925.5000     8.1853   155.6204     2.5385     0.0164   -50.0946     5.1338     3.1438     3.9916
 2926.0000     8.1855   154.4395     2.5475     0.0165   -50.0875     6.7585     3.3221     4.1412
 2926.5000     8.1858   152.8630     2.5495     0.0245   -50.0827     7.0114     3.5104     4.2964
 2927.0000     8.1464   151.2866     2.5505     0.0245   -50.0756     7.1415     3.7096     4.6243
 2927.5000     8.1466   150.8965     2.5535     0.0245   -50.0708     7.1421     3.8485     4.8865
 2928.0000     8.1469   149.7155     2.5585     0.0246   -50.0637     7.2746     4.0668     4.9774
 2928.5000     8.1469   152.8849     2.5595     0.0325   -50.0589     7.4098     4.2192     5.2598
 2929.0000     8.1471   155.6578     2.5595     0.0326   -50.0518     7.5473     4.5412     5.3574
 2929.5000     8.1474   155.6644     2.5565     0.0286   -50.0470     7.4109     4.6255     5.5585
 2930.0000     8.1476   155.6688     2.5526     0.0286   -50.0398     7.4113     4.8882     5.6448
 2930.5000     8.1478   155.6743     2.5526     0.0287   -50.0351     7.5491     4.9790     5.9833
 2931.0000     8.1481   157.2618     2.5526     0.0287   -50.0279     7.8314     5.1657     5.8745
 2931.5000     8.1483   157.6629     2.5467     0.0248   -50.0232     7.9770     5.3593     6.2080
 2932.0000     8.1485   160.4371     2.5397     0.0208   -50.0160     7.9775     5.4591     6.2082
 2932.5000     8.1488   160.4426     2.5328     0.0169   -50.0113     8.1258     5.4594     6.2087
 2933.0000     8.1490   159.6571     2.5268     0.0169   -50.4035     7.9786     5.3604     6.2091
 2933.5000     8.1492   160.8492     2.5298     0.0209   -50.3988     7.5523     5.2631     6.0964
 2934.0000     8.1494   160.4593     2.5299     0.0209   -50.3917     7.4156     5.0736     5.8769
 2934.5000     8.1497   161.6514     2.5299     0.0210   -50.3869     7.2815     5.0739     5.7702
 2935.0000     8.1499   164.8214     2.5259     0.0210   -50.3798     7.2819     5.0743     5.7707
 2935.5000     8.1501   167.2002     2.5279     0.0210   -50.3750     7.2825     5.1686     5.7710
 2936.0000     8.1504   170.7658     2.5269     0.0210   -49.9683     7.5550     5.3625     5.8785
 2936.5000     8.1506   170.3759     2.5230     0.0211   -49.5640     8.1306     5.4622     5.9878
 2937.0000     8.1508   172.7550     2.5220     0.0211   -49.1573     8.2815     5.5640     6.0994
 2937.5000     8.1510   176.3230     2.5230     0.0172   -49.1525     8.2822     5.5643     6.0997
 2938.0000     8.1512   177.1176     2.5270     0.0172   -49.1453     8.1322     5.5647     6.1002
 2938.5000     8.1515   179.1035     2.5290     0.0172   -48.7409     8.2837     5.2667     6.1005
 2939.0000     8.1517   179.8958     2.5260     0.0172   -48.7336     7.0237     4.9960     5.9899
 2939.5000     8.1519   181.4850     2.5221     0.0173   -49.1285     6.8965     4.7393     5.7741
 2940.0000     8.1521   185.0510     2.5141     0.0173   -48.7216     6.7716     4.4647     5.3653
 2940.5000     8.1523   188.6171     2.5062     0.0253   -47.9174     6.5283     3.6479     4.8946
 2941.0000     8.1526   190.9953     2.5072     0.0253   -47.9102     6.4102     3.7845     4.3839
 2941.5000     8.1528   192.9792     2.5022     0.0333   -47.9053     6.0677     3.2673     3.7865
 2942.0000     8.1530   194.9631     2.4963     0.0333   -47.8981     5.2399     3.0358     3.6485
 2942.5000     8.1532   195.7602     2.4873     0.0413   -47.4935     4.6089     2.8208     3.4528
 2943.0000     8.1534   196.9541     2.4774     0.0453   -47.4862     4.0539     2.7696     3.0925
 2943.5000     8.1536   196.9588     2.4605     0.0493   -47.4814     3.6989     2.5266     2.8211
 2944.0000     8.1538   193.4053     2.4407     0.0454   -47.4741     2.4710     2.4355     2.8213
 2944.5000     8.1540   191.0363     2.4367     0.0414   -47.4692     2.4262     2.4357     2.8214
 2945.0000     8.1543   181.1527     2.4367     0.0375   -47.8618     3.9088     2.4358     3.2090
 2945.5000     8.1545   172.8514     2.4407     0.0335   -47.8570     4.3637     2.4359     3.5834
 2946.0000     8.1547   163.3619     2.4606     0.0296   -48.6494     7.0742     2.6705     3.7867
 2946.5000     8.1549   148.7289     2.4944     0.0257   -47.8448     8.0461     2.6706     4.4682
 2947.0000     8.1551   144.3834     2.5561     0.0257   -47.8376     8.4473     3.0375     4.8095
 2947.5000     8.1554   145.1811     2.5621     0.0337   -49.0277     8.4478     3.4548     4.9898
 2948.0000     8.1556   146.3713     2.5491     0.0337   -48.6253     8.1442     4.0767     4.9901
 2948.5000     8.1558   148.3550     2.5482     0.0298   -49.0204     7.9967     4.3879     5.0829
 2949.0000     8.1560   150.3376     2.5472     0.0298   -49.0132     7.6175     4.8998     5.2738
 2949.5000     8.1562   151.9257     2.5472     0.0338   -49.0084     7.0777     5.0837     5.2740
 2950.0000     8.1565   154.7019     2.5462     0.0338   -49.0012     6.9493     5.0840     5.2745
 2950.5000     8.1567   159.4554     2.5462     0.0338   -48.9943     6.9499     5.0845     5.2749
 2951.0000     8.1569   162.6263     2.5453     0.0378   -49.4073     6.8251     4.6393     5.2764
 2951.5000     8.1571   165.0059     2.5423     0.0419   -49.4121     6.5797     4.4724     5.2772
