~VERSION INFORMATION
 VERS.                2.0:   CWLS LOG ASCII STANDARD - VERSION 2.0
 WRAP.                 NO:   ONE LINE PER DEPTH STEP
~WELL INFORMATION
#MNEM.UNIT      DATA TYPE    INFORMATION
#----------   ------------   ------------------------------
 STRT.F          207.0000:   START DEPTH
 STOP.F         3130.0000:   STOP DEPTH
 STEP.F            0.5000:   STEP LENGTH
 NULL.          -999.2500:   NO VALUE
 COMP. FENIX & SCISSON U.S. NAVY:   COMPANY
 WELL.    FENIX "A" #61-3:   WELL
 FLD .             NPR #3:   FIELD
 LOC .       S3 T38N R78W:   LOCATION
 CNTY.            NATRONA:   COUNTY
 STAT.            WYOMING:   STATE
 CTRY. UNITED STATES OF AMERICA:   COUNTRY
 SRVC.              WELEX:   SERVICE COMPANY
 DATE.        13-MAY-1977:   LOGDATE
 API .     49025103630000:   API NUMBER
~CURVE INFORMATION
#MNEM.UNIT       API CODE    CURVE DESCRIPTION
#----------   ------------   ------------------------------
 DEPT.F                  :   
 SPR .MV     07 010 01 00:   SPONTANEOUS POTENTIAL
 SFLU.OHMM   07 220 01 00:   SPHERICALLY FOCUSED LOG UNAVERAGED RESISTIVITY
 ILD .OHMM   07 120 46 00:   INDUCTION LOG DEEP RESISTIVITY
 ILM .OHMM   07 120 44 00:   INDUCTION LOG MEDIUM RESISTIVITY
 CALD.IN     45 280 60 00:   CALIPER FROM DENSITY LOG
 GRD .GAPI   45 310 01 00:   GAMMA RAY FROM DENSITY LOG
 RHOB.G/C3   45 350 01 00:   BULK DENSITY
 CORR.G/C3   45 356 01 00:   DENSITY CORRECTION
~PARAMETER INFORMATION
#MNEM.UNIT          VALUE    DESCRIPTION
#----------   ------------   ------------------------------
 EKB .F         5109.0000:   Kelly bushing
 EGL .F         5099.0000:   Ground level
 EDF .F            0.0000:   Drilling floor
 TD  .F         3130.0000:   Total depth
 DATE.        13-MAY-1977:   Date logged
 CLNT.            A2DTECH:   Client Code
 SL  . 330' FNL & 1650' FEL:   Surface Location
 PD  .                 GL:   Permanent Datum
 EPD .F              5099:   Elevation Permanent Datum
 LMF .                 KB:   Log Measured From
 DMF .                 KB:   Drilling Measured From
 DAPD.F                10:   Feet Above Permanent Datum
 DD  .F              3126:   Depth driller
 DL  .F              3129:   Depth logger
 BLI .F              3127:   Bottom log interval
 TLI .F               210:   Top log interval
 CS1 .IN            8.625:   Casing size
 CBD1.      8.625" @ 200':   Casing driller 1
 CBL1.F               216:   Casing logger 1
 BS1 .IN            7.875:   Bit size
 BSD1.F              3126:   Depth drilled with bit1
 DFT .            KCL MUD:   Type fluid in hole
 DFD .                9.1:   Density
 DFV .                 32:   Viscosity
 DFPH.                  8:   pH
 DFL .                8.4:   Fluid loss
 MSS .           FLOWLINE:   Source of sample
 RMS .OHMM            .29:   Rm
 MST .F                68:   Rm Meas. temp.
 RMF .OHMM            .28:   Rmf
 MFST.F                68:   Rmf Meas. temp.
 RMC .OHMM            .43:   Rmc
 MCST.F                68:   Rmc Meas. temp.
 MFSS.           FANN KIT:   Source Rmf.
 MCSS.           FANN KIT:   Source Rmc.
 RMB .OHMM            .16:   Rm. at BHT
 BHT .F               123:   BHT.
 TCS .HRS             2.5:   Time Circ. stopped
 MRT .F               123:   Maximum recorded temp.
 LUN .               9685:   Logging unit number
 LUL .           BRIGHTON:   Logging unit location
 ENGI.          T. JOYNER:   Recorded By
 WITN.      B. HARRINGTON:   Witnessed by
 ORIG.           5" PRINT:   Origin of data
 UWI .     49025103630000:   Unique Well ID
 DICO. A2D TECHNOLOGIES, INC.:   Digitizing Company
~OTHER INFORMATION
~A   DEPT      SPR       SFLU        ILD        ILM       CALD        GRD       RHOB       CORR   
# ...
 2313.0000   -38.2789    10.8203     6.8293     6.8921     8.6592   117.7060     2.4194     0.0720
 2313.5000   -38.2849    10.8193     6.5805     6.8905     8.6594   116.9159     2.4114     0.0620
 2314.0000   -38.2909    11.0171     6.7625     6.8888     8.6793   120.0842     2.3974     0.0556
 2314.5000   -38.2970    12.0765     6.7619     7.0804     8.6795   121.2732     2.3974     0.0479
 2315.0000   -38.3027    12.8771     6.8234     7.6197     8.6796   124.4412     2.4074     0.0479
 2315.5000   -38.3087    13.1132     6.8849     8.9071     8.6797   128.4007     2.4114     0.0459
 2316.0000   -38.3123    13.1099     6.9473     8.9062     8.6403   131.5285     2.3916     0.0295
 2316.5000   -38.3183    12.8676     7.0095     8.5822     8.6800   132.7572     2.3806     0.0135
 2317.0000   -38.9255    12.2858     7.0075     8.5015     8.6802   132.3627     2.3886    -0.0021
 2317.5000   -39.3306    12.0587     7.0058     8.8997     8.6803   131.5725     2.4006    -0.0041
 2318.0000   -39.5362    11.9458     7.0045     9.8462     8.6607   131.1782     2.4206    -0.0145
 2318.5000   -39.5422    12.2779     7.0025    10.8911     8.6806   131.1795     2.4515    -0.0145
 2319.0000   -39.5482    13.0911     7.0012    10.4958     8.6610   132.3681     2.4494    -0.0065
 2319.5000   -39.5543    13.7050     6.9988     9.7484     8.6413   133.5567     2.4474    -0.0025
 2320.0000   -39.1611    13.4496     6.9975     9.1379     8.6613   135.4966     2.4535    -0.0025
 2320.5000   -39.5663    13.5740     6.9955     8.7247     8.6614   132.7678     2.4587    -0.0025
 2321.0000   -39.5723    12.2615     6.9942     8.5635     8.6813   131.5820     2.4640    -0.0025
 2321.5000   -39.5783    12.0349     6.9922     8.5615     8.6617   130.3963     2.4692    -0.0005
 2322.0000   -39.5843    12.7163     6.9908     8.5594     8.6816   128.8148     2.4745     0.0035
 2322.5000   -39.5903    13.3112     6.9888     8.3243     8.6818   128.8162     2.4798     0.0019
 2323.0000   -39.9955    13.1860     6.9882     8.4769     8.6819   128.0263     2.4875    -0.0001
 2323.5000   -39.8019    12.3603     6.9855     8.4749     8.6821   127.2364     2.4891    -0.0021
 2324.0000   -40.2071    11.5862     6.9199     8.2421     8.6822   126.4465     2.4895    -0.0021
 2324.5000   -40.0135    11.1642     6.9189     8.1646     8.6823   127.2392     2.4835    -0.0041
 2325.0000   -40.0195    11.3694     6.8532     8.2381     8.7023   126.4494     2.4775    -0.0061
 2325.5000   -40.0255    11.0571     6.7895     8.0119     8.6826   127.6378     2.4775    -0.0061
 2326.0000   -40.4307    11.0538     6.7872     7.9366     8.7223   127.2436     2.4815    -0.0061
 2326.5000   -40.0375    11.1538     6.7238     7.7186     8.7225   126.4537     2.4915    -0.0061
 2327.0000   -40.4427    11.5698     6.6603     7.8601     8.7226   124.8330     2.4975    -0.0021
 2327.5000   -40.4487    12.1110     6.6593     7.8586     8.7426   123.6474     2.5095    -0.0021
 2328.0000   -40.4547    12.4469     6.5965     7.7131     8.7427   122.0665     2.5135     0.0035
 2328.5000   -40.6603    12.1050     6.5348     7.2302     8.7428   120.4856     2.5135     0.0035
 2329.0000   -40.6651    10.7365     6.4135     6.9673     8.7430   118.1536     2.5135     0.0035
 2329.5000   -40.6711    10.1579     6.3539     6.8386     8.7431   115.3862     2.5135     0.0035
 2330.0000   -40.8767     9.7884     6.2942     6.7123     8.7433   116.1790     2.5135     0.0055
 2330.5000   -40.8827    10.0599     6.1774     6.6492     8.7434   114.2028     2.5155     0.0055
 2331.0000   -41.0883     9.9654     6.1196     6.6477     8.7436   113.0178     2.5155     0.0055
 2331.5000   -41.0943     9.7813     6.0066     6.7075     8.7437   111.4373     2.5155    -0.0021
 2332.0000   -41.1003    10.2393     5.8954     6.5233     8.7439   110.6480     2.5115    -0.0041
 2332.5000   -41.1063     9.8669     5.7868     6.2861     8.7440   110.6498     2.5015    -0.0061
 2333.0000   -40.7155     9.2492     5.6792     6.0021     8.7441   111.0471     2.5035    -0.0021
 2333.5000   -40.9175     8.5121     5.5749     5.8373     8.7443   110.6533     2.5035    -0.0041
 2334.0000   -41.1219     7.6910     5.3230     5.6251     8.7642   108.6779     2.5015    -0.0041
 2334.5000   -41.1291     6.9494     5.1769     5.5723     8.7446   106.7021     2.4935    -0.0041
 2335.0000   -41.3359     7.4095     5.1282     5.5199     8.7645   105.1220     2.4915    -0.0061
 2335.5000   -41.3419     8.5825     5.1271     5.8318     8.7844   104.2925     2.4895    -0.0061
 2336.0000   -41.3479    10.4081     5.2211     6.3338     8.7845   103.5038     2.4935    -0.0061
 2336.5000   -41.1543    10.6009     5.2681     6.4499     8.7847   102.7148     2.4995    -0.0041
 2337.0000   -41.1603    10.4046     5.3646     6.5684     8.7651   102.7167     2.5035    -0.0021
 2337.5000   -41.1663     9.9349     5.4630     6.4468     8.7652   103.1141     2.5075    -0.0021
 2338.0000   -40.7732     9.6616     5.5631     6.4453     8.7653   104.3024     2.5095     0.0059
 2338.5000   -40.7792     9.5708     5.7174     6.5033     8.8248   105.0951     2.5115     0.0059
 2339.0000   -41.1844     9.5685     5.8222     6.5618     8.7854    99.9964     2.5115     0.0059
 2339.5000   -41.1904    10.0164     5.9290     6.9319     8.7658    98.3766     2.5095     0.0059
 2340.0000   -40.7972    10.7787     5.8733     7.1910     8.7461    97.9832     2.5075     0.0059
 2340.5000   -41.2024    12.4835     6.0362     7.6667     8.7661    97.9852     2.5025     0.0059
 2341.0000   -41.2084    12.3674     6.1471     7.7361     8.7662    97.9872     2.5005     0.0059
 2341.5000   -41.2144    12.0278     6.3173     7.7342     8.7466    98.3846     2.4935    -0.0001
 2342.0000   -40.8212    11.4843     6.3748     7.5219     8.7665    99.5728     2.4875    -0.0001
 2342.5000   -40.8272    10.7656     6.4916     7.3155     8.7666   100.0102     2.4835    -0.0001
 2343.0000   -41.2324    10.3741     6.5500     7.3813     8.7668   100.8029     2.4805    -0.0021
 2343.5000   -41.0388    10.3716     6.6087     7.5863     8.7669   101.9910     2.4785    -0.0021
 2344.0000   -40.2465    11.0586     6.6679     7.7964     8.7671   101.9929     2.4815    -0.0021
 2344.5000   -40.6517    12.3460     6.6669     7.8665     8.7474   101.9948     2.4839    -0.0021
 2345.0000   -41.0568    13.2861     6.7263     7.9373     8.7476   102.7874     2.4855     0.0059
 2345.5000   -41.0628    13.5287     6.7253     7.9358     8.7477   105.5567     2.4875     0.0059
 2346.0000   -40.8693    13.2789     6.7231     7.9335     8.7281   105.9539     2.4895     0.0059
 2346.5000   -41.4740    11.8884     6.7218     7.9327     8.7283   106.7464     2.4835    -0.0001
 2347.0000   -41.2804    11.2480     6.7199     7.7852     8.7284   108.3294     2.4775    -0.0001
 2347.5000   -41.2865    11.5592     6.6568     7.7121     8.7483   111.8890     2.4695    -0.0001
 2348.0000   -41.2925    12.3248     6.5943     7.3637     8.7287   114.6574     2.4615    -0.0001
 2348.5000   -41.0989    11.3419     6.4729     6.9667     8.7288   118.2167     2.4615     0.0059
 2349.0000   -41.3045     9.2631     6.1237     6.8381     8.7290   119.0088     2.4675    -0.0041
 2349.5000   -41.5101     8.6040     6.0668     6.8365     8.7489   120.9868     2.4755     0.0039
 2350.0000   -41.1169     9.7838     5.8460     6.8349     8.7293   122.1741     2.4795     0.0039
 2350.5000   -41.5221    10.8226     5.7379     6.8964     8.7126   124.0263     2.4795     0.0068
 2351.0000   -41.5281    11.1232     5.6845     6.7691     8.7495   124.9531     2.4775     0.0100
 2351.5000   -41.3345    11.1205     5.6306     6.5231     8.7498   125.7501     2.4775     0.0140
 2352.0000   -41.3405     9.9557     5.5783     6.1150     8.7698   128.1283     2.4775     0.0200
 2352.5000   -41.3453     8.5916     5.5254     5.8928     8.7700   130.5066     2.4775     0.0200
 2353.0000   -41.1529     8.0541     5.4738     5.7841     8.7901   133.2804     2.4815     0.0200
