~VERSION INFORMATION
 VERS.                2.0:   CWLS LOG ASCII STANDARD - VERSION 2.0
 WRAP.                 NO:   ONE LINE PER DEPTH STEP
~WELL INFORMATION
#MNEM.UNIT      DATA TYPE    INFORMATION
#----------   ------------   ------------------------------
 STRT.F           42.0000:   START DEPTH
 STOP.F         2778.0000:   STOP DEPTH
 STEP.F            0.5000:   STEP LENGTH
 NULL.          -999.2500:   NO VALUE
 COMP.    FENIX & SCISSON:   COMPANY
 WELL. FENIX & SCISSON SHX #56-23:   WELL
 FLD .        TEAPOT DOME:   FIELD
 LOC .      S23 T38N R78W:   LOCATION
 CNTY.            NATRONA:   COUNTY
 STAT.            WYOMING:   STATE
 CTRY. UNITED STATES OF AMERICA:   COUNTRY
 SRVC.           BIRDWELL:   SERVICE COMPANY
 DATE.        29-AUG-1979:   LOGDATE
 API .     49025107920000:   API NUMBER
~CURVE INFORMATION
#MNEM.UNIT       API CODE    CURVE DESCRIPTION
#----------   ------------   ------------------------------
 DEPT.F                  :   
 GRD .GAPI   45 310 01 00:   GAMMA RAY FROM DENSITY LOG
 CALD.IN     45 280 60 00:   CALIPER FROM DENSITY LOG
 RHOB.G/C3   45 350 01 00:   BULK DENSITY
 CORR.G/C3   45 356 01 00:   DENSITY CORRECTION
 ILD .OHMM   07 120 46 00:   DEEP INDUCTION RESISTIVITY
 SFL .OHMM   07 220 01 00:   SHALLOW FOCUSED LOG RESISTIVITY
 SPR .MV     07 010 01 00:   SPONTANEOUS POTENTIAL
~PARAMETER INFORMATION
#MNEM.UNIT          VALUE    DESCRIPTION
#----------   ------------   ------------------------------
 EKB .F         5361.0000:   Kelly bushing
 EGL .F         5351.0000:   Ground level
 EDF .F         5360.0000:   Drilling floor
 TD  .F         1465.0000:   Total depth
 DATE.        29-AUG-1979:   Date logged
 CLNT.            A2DTECH:   Client Code
 PD  .                 GL:   Permanent Datum
 EPD .F              5351:   Elevation Permanent Datum
 LMF .                 KB:   Log Measured From
 DMF .                 KB:   Drilling Measured From
 DAPD.F                 9:   Feet Above Permanent Datum
 DD  .F              1465:   Depth driller
 DL  .F              1462:   Depth logger
 BLI .F              1457:   Bottom log interval
 TLI .F                40:   Top log interval
 CBD1.F                40:   Casing driller 1
 CBL1.F                40:   Casing logger 1
 BS1 .IN            12.25:   Bit size
 BSD1.F              1465:   Depth drilled with bit1
 DFT .            GEL/MUD:   Type fluid in hole
 DFD .                9.5:   Density
 DFV .                 40:   Viscosity
 DFPH.                9.0:   pH
 DFL .                 40:   Fluid loss
 MSS .            MUD PIT:   Source of sample
 RMS .OHMM            2.6:   Rm
 MST .F                68:   Rm Meas. temp.
 RMF .OHMM            1.8:   Rmf
 MFST.F                78:   Rmf Meas. temp.
 RMC .OHMM            2.8:   Rmc
 MCST.F                76:   Rmc Meas. temp.
 MFSS.               MEAS:   Source Rmf.
 MCSS.               MEAS:   Source Rmc.
 RMB .OHMM           1.96:   Rm. at BHT
 BHT .F                90:   BHT.
 TCS .HRS               5:   Time Circ. stopped
 MRT .F                90:   Maximum recorded temp.
 LUN .               2959:   Logging unit number
 LUL .             CASPER:   Logging unit location
 ENGI.         B. ROLLINS:   Recorded By
 WITN.              AMEND:   Witnessed by
 ORIG.           5" PRINT:   Origin of data
 UWI .     49025107920000:   Unique Well ID
 DICO. A2D TECHNOLOGIES, INC.:   Digitizing Company
~OTHER INFORMATION
~A   DEPT       GRD      CALD       RHOB         CORR      ILD        SFL         SPR  
# ...
  224.0000    81.8590    12.8790     2.4190     0.2180     6.0870     4.8440   -56.2080
  224.5000    82.0930    12.8480     2.4250     0.2180     6.1760     4.8650   -56.6880
  225.0000    84.4780    12.8490     2.4230     0.2170     6.2650     4.8860   -57.2180
  225.5000    87.4240    12.8540     2.4200     0.2160     6.3550     4.9060   -57.4130
  226.0000    86.4530    12.8600     2.4200     0.2150     6.4280     4.9270   -57.3520
  226.5000    83.8480    12.8640     2.4200     0.2140     6.3940     4.9400   -56.8140
  227.0000    82.4560    12.8700     2.4200     0.2130     6.3510     4.9200   -56.2270
  227.5000    82.8630    12.8740     2.4130     0.2130     6.3090     4.8990   -56.3560
  228.0000    85.3490    12.8790     2.4050     0.2120     6.2660     4.8790   -56.6770
  228.5000    88.3560    12.8840     2.3980     0.2110     6.2230     4.8460   -56.9580
  229.0000    86.8090    12.8900     2.3980     0.2100     6.1800     4.8490   -57.3120
  229.5000    80.7440    12.8950     2.4050     0.2090     6.1370     4.9240   -57.0690
  230.0000    77.2250    12.9000     2.4140     0.2090     6.0950     4.9880   -56.3440
  230.5000    79.7360    12.9050     2.4220     0.2090     6.0520     5.0330   -55.8280
  231.0000    81.9410    12.9100     2.4310     0.2100     6.0090     4.9730   -56.0480
  231.5000    81.3440    12.9150     2.4310     0.2120     5.9620     4.9080   -56.3860
  232.0000    82.0640    12.9200     2.4250     0.2130     5.9620     4.8480   -56.7190
  232.5000    82.8540    12.9240     2.4180     0.2130     5.9620     4.8480   -56.9430
  233.0000    85.1360    12.9270     2.4150     0.2120     5.9620     5.0330   -56.4290
  233.5000    87.4070    12.9300     2.4160     0.2110     6.0750     5.1630   -55.9280
  234.0000    84.8650    12.9330     2.4160     0.2090     6.3100     5.2920   -56.0630
  234.5000    82.4490    12.9360     2.4150     0.2080     6.5830     5.4220   -56.9330
  235.0000    77.9840    12.9390     2.4070     0.2090     6.8550     5.5510   -57.8190
  235.5000    71.8920    12.9410     2.4030     0.2110     7.1280     5.6800   -58.2270
  236.0000    69.6350    12.9440     2.4070     0.2140     7.4000     5.8090   -58.1670
  236.5000    74.1000    12.9470     2.4110     0.2170     7.6200     5.9620   -57.7450
  237.0000    77.4580    12.9500     2.4070     0.2200     7.6490     5.9620   -57.2540
  237.5000    78.7680    12.9530     2.4030     0.2230     7.6790     5.9620   -56.7410
  238.0000    79.7650    12.9550     2.4000     0.2220     7.7090     5.9620   -56.2590
  238.5000    80.1190    12.9580     2.4210     0.2210     7.7580     5.9620   -55.8080
  239.0000    79.7310    12.9610     2.4170     0.2200     7.6720     5.9620   -55.9420
  239.5000    79.3250    12.9640     2.4100     0.2190     7.4470     5.8510   -56.1760
  240.0000    79.0840    12.9680     2.4020     0.2180     7.2220     5.6570   -56.3990
  240.5000    78.3510    12.9730     2.3970     0.2190     6.9970     5.4910   -56.6150
  241.0000    77.0460    12.9780     2.4000     0.2200     6.7710     5.3260   -56.8410
  241.5000    76.5680    12.9830     2.4090     0.2210     6.5460     5.1600   -57.0540
  242.0000    77.0180    12.9870     2.4170     0.2200     6.3210     4.9940   -57.2900
  242.5000    78.2150    12.9920     2.4190     0.2180     6.0960     4.8290   -57.4160
  243.0000    79.3250    12.9970     2.4110     0.2170     5.8510     4.6630   -57.2810
  243.5000    79.1230    13.0020     2.4050     0.2150     5.7420     4.5820   -56.8640
  244.0000    76.1920    13.0070     2.3970     0.2130     5.7420     4.5820   -56.4220
  244.5000    73.9740    13.0110     2.3910     0.2110     5.7420     4.5820   -56.1660
  245.0000    75.1330    13.0160     2.3910     0.2100     5.8160     4.6830   -56.3510
  245.5000    77.0150    13.0210     2.3970     0.2080     5.8840     4.7320   -56.6070
  246.0000    78.9860    13.0260     2.3950     0.2060     5.9520     4.7810   -56.8720
  246.5000    78.9350    13.0310     2.3910     0.2060     6.0200     4.8310   -57.0100
  247.0000    79.5530    13.0350     2.3930     0.2060     6.0890     4.8800   -56.9910
  247.5000    78.1860    13.0400     2.3950     0.2060     6.1570     4.9290   -56.8440
  248.0000    75.6160    13.0450     2.3960     0.2070     6.2250     4.9790   -56.6510
  248.5000    73.3080    13.0500     2.3970     0.2100     6.2930     5.0280   -56.4590
  249.0000    76.0470    13.0540     2.4030     0.2140     6.3610     5.0780   -56.2710
  249.5000    76.6590    13.0590     2.4090     0.2160     6.4300     5.1270   -56.0790
  250.0000    77.5470    13.0640     2.4110     0.2140     6.4980     5.1760   -55.8910
  250.5000    77.7670    13.0690     2.4070     0.2110     6.5660     5.2260   -55.6980
  251.0000    76.7750    13.0740     2.4040     0.2090     6.6340     5.2750   -55.5090
  251.5000    73.6500    13.0780     2.4080     0.2120     6.7020     5.3260   -55.3240
  252.0000    70.3990    13.0830     2.4150     0.2160     6.7710     5.3260   -55.1010
  252.5000    66.9070    13.0880     2.4400     0.2180     6.8390     5.3260   -55.1430
  253.0000    66.2520    13.0930     2.4500     0.2160     6.9070     5.3260   -55.6100
  253.5000    68.6070    13.0970     2.4360     0.2140     6.9750     5.3260   -56.0620
  254.0000    72.2680    13.1020     2.4240     0.2110     7.0430     5.4140   -56.4880
  254.5000    77.8350    13.1070     2.4100     0.2130     7.1950     5.5760   -56.9620
  255.0000    80.7200    13.1120     2.4130     0.2170     7.1850     5.7390   -56.7320
  255.5000    81.3390    13.1170     2.4210     0.2200     7.1640     5.8510   -56.4780
  256.0000    80.5460    13.1210     2.4260     0.2210     7.1430     5.8510   -56.2770
  256.5000    78.4910    13.1300     2.4240     0.2190     7.1220     5.8510   -57.2610
  257.0000    76.5900    13.1430     2.4220     0.2180     7.1010     5.8510   -58.2100
  257.5000    73.9810    13.1550     2.4200     0.2160     7.0810     5.8510   -59.0440
  258.0000    69.1960    13.1670     2.4230     0.2160     7.0610     5.8510   -58.4570
  258.5000    65.5150    13.1790     2.4370     0.2160     7.1270     5.9620   -57.1400
  259.0000    65.0390    13.1910     2.4310     0.2150     7.2250     6.0440   -55.8860
  259.5000    68.8650    13.2030     2.4160     0.2150     7.3220     6.1390   -55.8110
  260.0000    73.8440    13.2140     2.4020     0.2140     7.4200     6.2350   -55.7860
  260.5000    76.7210    13.2260     2.3950     0.2140     7.5180     6.3080   -55.8130
  261.0000    77.9520    13.2380     2.3950     0.2130     7.6130     6.3080   -55.7960
  261.5000    79.4760    13.2500     2.3980     0.2130     7.7580     6.2870   -55.8050
  262.0000    80.3310    13.2620     2.4070     0.2120     7.7580     6.1940   -55.8120
  262.5000    79.4690    13.2740     2.4160     0.2120     7.5700     6.1000   -56.0060
  263.0000    77.9860    13.2860     2.4260     0.2110     7.3830     6.0060   -56.2320
  263.5000    76.6350    13.2980     2.4280     0.2110     7.1960     5.9130   -56.4700
  264.0000    77.3630    13.3100     2.4260     0.2110     7.0100     5.8190   -56.6720
  264.5000    79.9530    13.3210     2.4250     0.2100     6.9300     5.7250   -56.9580
  265.0000    82.8240    13.3190     2.4230     0.2100     6.9200     5.6320   -56.6690
  265.5000    86.6600    13.3180     2.4210     0.2090     6.8930     5.5380   -56.0790
  266.0000    85.8390    13.3160     2.4160     0.2090     6.8670     5.4440   -55.4790
  266.5000    83.4420    13.3140     2.4090     0.2080     6.8400     5.3510   -54.8070
  267.0000    81.3500    13.3120     2.4020     0.2110     6.8130     5.2260   -54.9670
  267.5000    79.2940    13.3100     2.3980     0.2130     6.8010     5.2090   -55.9250
  268.0000    77.1440    13.3080     2.3970     0.2140     6.5630     5.1750   -56.6100
  268.5000    77.3600    13.3070     2.3980     0.2160     6.2100     5.1420   -57.3470
  269.0000    77.8650    13.3050     2.3990     0.2180     5.9620     5.1080   -57.3800
