~VERSION INFORMATION
 VERS.                2.0:   CWLS LOG ASCII STANDARD - VERSION 2.0
 WRAP.                 NO:   ONE LINE PER DEPTH STEP
~WELL INFORMATION
#MNEM.UNIT      DATA TYPE    INFORMATION
#----------   ------------   ------------------------------
 STRT.F          484.0000:   START DEPTH
 STOP.F         4096.0000:   STOP DEPTH
 STEP.F            0.5000:   STEP LENGTH
 NULL.          -999.2500:   NO VALUE
 COMP.    FENIX & SCISSON:   COMPANY
 WELL. FENIX NPR "JX" #58-28:   WELL
 FLD .                NPR:   FIELD
 LOC .      S28 T39N R78W:   LOCATION
 CNTY.            NATRONA:   COUNTY
 STAT.            WYOMING:   STATE
 CTRY. UNITED STATES OF AMERICA:   COUNTRY
 SRVC.              WELEX:   SERVICE COMPANY
 DATE.        02-MAY-1978:   LOGDATE
 API .     49025107810000:   API NUMBER
~CURVE INFORMATION
#MNEM.UNIT       API CODE    CURVE DESCRIPTION
#----------   ------------   ------------------------------
 DEPT.F                  :   
 NPHI.DEC    42 890 03 00:   NEUTRON POROSITY SANDSTONE
 RHOB.G/C3   45 350 01 00:   BULK DENSITY
 CORR.G/C3   45 356 01 00:   DENSITY CORRECTION
 CALD.IN     45 280 60 00:   CALIPER FROM DENSITY LOG
 GRD .GAPI   45 310 01 00:   GAMMA RAY FROM DENSITY LOG
 SPR .MV     07 010 01 00:   SPONTANEOUS POTENTIAL
 ILD .OHMM   07 120 46 00:   DEEP INDUCTION RESISTIVITY
 SGRD.OHMM   07 220 05 00:   SHALLOW SHORT GUARD RESISTIVITY
 ILM .OHMM   07 120 44 00:   INDUCTION LOG MEDIUM RESISTIVITY
~PARAMETER INFORMATION
#MNEM.UNIT          VALUE    DESCRIPTION
#----------   ------------   ------------------------------
 EKB .F         5115.0000:   Kelly bushing
 EGL .F         5101.0000:   Ground level
 EDF .F            0.0000:   Drilling floor
 EPD .F         5101.0000:   Permanent datum
 TD  .F         4100.0000:   Total depth
 DATE.        02-MAY-1978:   Date logged
 CLNT.            A2DTECH:   Client Code
 SL  . 525' FSL & 2406' FEL:   Surface Location
 PD  .                 GL:   Permanent Datum
 DAPD.F                14:   Feet Above Permanent Datum
 DD  .F              4100:   Depth driller
 DL  .F              4098:   Depth logger
 BLI .F              4096:   Bottom log interval
 CS1 .IN            8.625:   Casing size
 CBD1.      8.625" @ 501':   Casing driller 1
 CBL1.F               500:   Casing logger 1
 BS1 .IN            7.875:   Bit size
 BSD1.F              4100:   Depth drilled with bit1
 DFT .            CHM GEL:   Type fluid in hole
 DFD .                9.4:   Density
 DFV .                 48:   Viscosity
 DFPH.                9.3:   pH
 DFL .                8.5:   Fluid loss
 MSS .           FLOWLINE:   Source of sample
 RMS .OHMM           1.24:   Rm
 MST .F                70:   Rm Meas. temp.
 RMF .OHMM            .57:   Rmf
 MFST.F                70:   Rmf Meas. temp.
 RMC .OHMM           1.48:   Rmc
 MCST.F                70:   Rmc Meas. temp.
 MFSS.               MEAS:   Source Rmf.
 MCSS.               MEAS:   Source Rmc.
 RMB .OHMM            .87:   Rm. at BHT
 BHT .F               123:   BHT.
 TCS .HRS               4:   Time Circ. stopped
 MRT .F               123:   Maximum recorded temp.
 LUN .               1892:   Logging unit number
 LUL .             CASPER:   Logging unit location
 ENGI.               REIN:   Recorded By
 WITN.           DINSMORE:   Witnessed by
 ORIG.         2.5" PRINT:   Origin of data
 UWI .     49025107810000:   Unique Well ID
 DICO. A2D TECHNOLOGIES, INC.:   Digitizing Company
 TLI .                500:   Top log interval
~OTHER INFORMATION
~A   DEPT       NPHI     RHOB       CORR       CALD         GRD       SPR        ILD       SGRD        ILM   
# ...
 3805.5000     0.3050     2.5460     0.1200     9.0760    94.9040   -13.3610     7.1830    10.2950     7.5930
 3806.0000     0.3110     2.5440     0.1190     9.1200    94.6970   -13.4580     6.8490     8.9200     7.2400
 3806.5000     0.3180     2.5490     0.1170     9.1650    98.2150   -13.5460     6.6480     7.5460     7.0070
 3807.0000     0.3240     2.5570     0.1150     9.2090   101.2160   -13.2940     6.3230     6.9300     6.6140
 3807.5000     0.3300     2.5660     0.1130     9.2530   104.1640   -13.0430     5.9990     6.4970     6.2200
 3808.0000     0.3370     2.5720     0.1150     9.2970   106.3240   -12.7760     5.6740     6.0640     5.8270
 3808.5000     0.3400     2.5760     0.1200     9.3410   108.4540   -12.5070     5.3490     5.6310     5.4340
 3809.0000     0.3430     2.5800     0.1250     9.3860   109.1500   -12.2180     5.0250     5.1980     5.0410
 3809.5000     0.3470     2.5840     0.1400     9.4300   106.7590   -11.8890     4.7000     4.7650     4.6470
 3810.0000     0.3500     2.5780     0.1510     9.4740   108.8750   -11.5530     4.3760     4.3490     4.2690
 3810.5000     0.3510     2.5670     0.1530     9.5190   111.7340   -11.2140     4.0510     4.3490     4.2270
 3811.0000     0.3520     2.5570     0.1560     9.5610   114.4870   -10.8780     3.7260     4.3490     4.1910
 3811.5000     0.3530     2.5470     0.1590     9.6070   117.2850   -10.5400     3.4020     4.1150     3.9970
 3812.0000     0.3540     2.5420     0.1650     9.6150   116.2170   -10.2030     3.0770     3.9030     3.8210
 3812.5000     0.3550     2.5400     0.1740     9.6240   115.0130    -9.8670     2.9060     3.6900     3.6450
 3813.0000     0.3560     2.5380     0.1820     9.6310   112.9260    -9.5260     2.7800     3.4780     3.4690
 3813.5000     0.3570     2.5280     0.1910     9.6370   108.9070    -9.1940     2.6540     3.2650     3.2930
 3814.0000     0.3580     2.5190     0.1990     9.6460   105.0920    -8.8570     2.5280     3.0530     3.1170
 3814.5000     0.3580     2.5110     0.2080     9.6520   101.0010    -8.4940     2.4020     2.9280     2.9420
 3815.0000     0.3580     2.5050     0.2130     9.6930   102.6710    -8.2790     2.2760     2.8860     2.8840
 3815.5000     0.3590     2.5010     0.2110     9.7300   104.8730    -8.3020     2.0750     2.8440     2.8510
 3816.0000     0.3570     2.4920     0.2080     9.7690   105.9270    -8.2990     2.0780     2.8010     2.8180
 3816.5000     0.3530     2.4600     0.2060     9.8070   103.9810    -8.2960     2.0840     2.7590     2.7850
 3817.0000     0.3490     2.4140     0.2030     9.8460    99.4720    -8.2990     2.0900     2.7170     2.7520
 3817.5000     0.3440     2.3560     0.1960     9.8840    93.6530    -8.2990     2.0950     2.6750     2.7190
 3818.0000     0.3380     2.3650     0.1850     9.9220    94.0100    -8.2970     2.1010     2.6390     2.6860
 3818.5000     0.3320     2.3860     0.1750     9.9290    97.2140    -8.2960     2.1070     2.9820     2.6530
 3819.0000     0.3250     2.4330     0.1650     9.9250    95.8650    -8.3480     2.1140     3.2810     2.6390
 3819.5000     0.3190     2.4690     0.1540     9.9210    92.6690    -8.5670     2.2390     3.5800     2.9520
 3820.0000     0.3130     2.5010     0.1440     9.9180    91.3420    -8.7840     2.3910     5.9560     3.3320
 3820.5000     0.3150     2.5320     0.1330     9.9140    88.9940    -9.0050     2.5440     5.6820     3.9650
 3821.0000     0.3180     2.5640     0.1260     9.9100    83.3750    -9.2250     2.6960     5.1320     3.9310
 3821.5000     0.3210     2.5840     0.1380     9.9060    80.6210    -9.4500     2.8480     4.5810     3.8310
 3822.0000     0.3240     2.5640     0.1370     9.9030    85.7190    -9.6590     3.0000     4.0300     3.7310
 3822.5000     0.3260     2.5550     0.1290     9.8990    95.6680    -9.9020     3.2350     3.7850     3.6150
 3823.0000     0.3250     2.5530     0.1230     9.8950   100.6680    -9.8820     3.2000     3.9340     3.6990
 3823.5000     0.3220     2.5610     0.1180     9.8910    97.9160    -9.8470     3.1170     4.2930     3.8000
 3824.0000     0.3200     2.5690     0.1320     9.8850    90.8280    -9.7990     3.1170     5.0420     3.9650
 3824.5000     0.3250     2.5770     0.1440     9.8790    80.7040    -9.7590     2.9950     4.2880     3.8090
 3825.0000     0.3310     2.5800     0.1570     9.8720    76.1580    -9.7170     2.8870     3.6220     3.3720
 3825.5000     0.3360     2.5500     0.1600     9.8660    77.3390    -9.6740     2.7790     3.1520     2.9490
 3826.0000     0.3360     2.5230     0.1580     9.8590    82.7590    -9.6340     2.6710     2.9900     2.9860
 3826.5000     0.3320     2.5200     0.1550     9.8530    90.5690    -9.5870     2.5630     2.8950     3.0040
 3827.0000     0.3280     2.5140     0.1530     9.8460    91.3400    -9.5510     2.4540     2.9410     3.0040
 3827.5000     0.3240     2.5100     0.1410     9.8400    91.8660    -9.5300     2.3460     3.1760     3.0230
 3828.0000     0.3200     2.5090     0.1310     9.8330    93.0080    -9.7510     2.2380     3.1300     3.0540
 3828.5000     0.3160     2.5080     0.1240     9.8270    94.3960    -9.9420     2.1800     3.0090     3.0100
 3829.0000     0.3120     2.5090     0.1230     9.8200    97.8830   -10.1480     2.3010     2.8950     2.7900
 3829.5000     0.3090     2.5160     0.1210     9.8140    96.4090   -10.3490     2.4220     2.9420     2.8840
 3830.0000     0.3050     2.5220     0.1200     9.8000    94.9360   -10.5490     2.5440     3.0040     3.2190
 3830.5000     0.3020     2.5380     0.1210     9.7770    95.0520   -10.7510     2.6650     4.4740     3.5540
 3831.0000     0.3010     2.5540     0.1210     9.7550    95.0750   -10.9510     2.7860     6.0250     3.8890
 3831.5000     0.3040     2.5710     0.1340     9.7330    94.3340   -11.1550     2.9080     5.9560     4.3490
 3832.0000     0.3070     2.5930     0.1480     9.7100    94.4620   -11.3540     3.0290     5.2550     4.1950
 3832.5000     0.3090     2.5820     0.1450     9.6880    99.5600   -11.5330     3.2350     4.5650     3.9490
 3833.0000     0.3100     2.5550     0.1420     9.6570   104.4580   -11.5390     3.2200     3.5480     3.6820
 3833.5000     0.3120     2.5280     0.1370     9.6280   109.5760   -11.5400     3.1710     4.2690     3.6820
 3834.0000     0.3130     2.5220     0.1420     9.5980   112.3930   -11.5360     3.1220     4.2450     4.1140
 3834.5000     0.3140     2.5200     0.1480     9.5680   113.7090   -11.5470     3.0730     4.0980     3.9590
 3835.0000     0.3160     2.5190     0.1540     9.5390   112.9120   -11.3870     3.0230     3.6360     3.6950
 3835.5000     0.3140     2.5020     0.1540     9.5090   112.1920   -10.9700     2.9740     3.2950     3.2950
 3836.0000     0.3090     2.4700     0.1440     9.4790   111.6110   -10.5650     2.9490     3.2950     3.4830
 3836.5000     0.3040     2.4240     0.1340     9.4490   112.8830   -10.3380     3.2240     4.1420     3.8690
 3837.0000     0.3000     2.4090     0.1250     9.4200   113.5190   -11.0910     3.4750     5.1370     4.1910
 3837.5000     0.2960     2.4660     0.1140     9.3900   109.8080   -11.8850     3.7250     8.6940     4.9000
 3838.0000     0.2910     2.5300     0.1110     9.3580   100.6730   -12.7630     3.9750    12.2510     5.5110
 3838.5000     0.2870     2.5850     0.1200     9.3180    91.7250   -13.0850     4.2250    11.6500     5.9210
 3839.0000     0.2940     2.5870     0.1290     9.2790    81.0140   -12.7570     4.4750    10.3120     6.0860
 3839.5000     0.3000     2.5770     0.1370     9.2390    85.0730   -12.4960     4.5970     8.9740     6.2520
 3840.0000     0.3070     2.5550     0.1420     9.1990    93.4870   -12.2300     4.5970     7.6860     5.9780
 3840.5000     0.3150     2.5340     0.1350     9.1600   101.8430   -11.9520     4.4730     6.4160     5.5460
 3841.0000     0.3230     2.5130     0.1440     9.1200   105.8350   -11.6800     4.2570     5.1460     5.1150
 3841.5000     0.3210     2.4920     0.1500     9.0800   107.1720   -11.4090     4.0400     4.1350     4.6830
