~VERSION INFORMATION
 VERS.                2.0:   CWLS LOG ASCII STANDARD - VERSION 2.0
 WRAP.                 NO:   ONE LINE PER DEPTH STEP
~WELL INFORMATION
#MNEM.UNIT      DATA TYPE    INFORMATION
#----------   ------------   ------------------------------
 STRT.F            0.0000:   START DEPTH
 STOP.F          678.0000:   STOP DEPTH
 STEP.F            0.5000:   STEP LENGTH
 NULL.          -999.2500:   NO VALUE
 COMP.       FLUOR DANIEL:   COMPANY
 WELL. FLUOR DANIEL "X" #23-2:   WELL
 FLD .          N.P.R. #3:   FIELD
 LOC .       S2 T38N R78W:   LOCATION
 CNTY.            NATRONA:   COUNTY
 STAT.            WYOMING:   STATE
 CTRY. UNITED STATES OF AMERICA:   COUNTRY
 SRVC.      WESTERN ATLAS:   SERVICE COMPANY
 DATE.        12-AUG-1994:   LOGDATE
 API .     49025226420000:   API NUMBER
~CURVE INFORMATION
#MNEM.UNIT       API CODE    CURVE DESCRIPTION
#----------   ------------   ------------------------------
 DEPT.F                  :   
 GR  .GAPI   07 310 01 00:   GAMMA RAY
 ILD .OHMM   07 120 46 00:   DEEP INDUCTION RESISTIVITY
 ILM .OHMM   07 120 44 00:   INDUCTION LOG MEDIUM RESISTIVITY
 TENR.LBS    07 635 01 00:   TENSION FROM RESISTIVITY
~PARAMETER INFORMATION
#MNEM.UNIT          VALUE    DESCRIPTION
#----------   ------------   ------------------------------
 EKB .F         5110.0000:   Kelly bushing
 EGL .F         5100.0000:   Ground level
 EDF .F         5109.0000:   Drilling floor
 EPD .F         5100.0000:   Permanent datum
 TD  .F          677.0000:   Total depth
 CLNT.            A2DTECH:   Client Code
 SL  . 1896' FNL & 744' FWL:   Surface Location
 PD  .                 GL:   Permanent Datum
 DAPD.F                10:   Feet Above Permanent Datum
 DATE.        12-AUG-1994:   Date Logged [DD-MMM-YYYY]
 DD  .F               670:   Depth driller
 DL  .F               677:   Depth logger
 BLI .F               664:   Bottom log interval
 TLI .F                 0:   Top log interval
 CS1 .              9.625:   Casing size
 CBD1.       9.625" @ 72':   Casing driller 1
 CBL1.IN               79:   Casing logger 1
 BS1 .IN             8.75:   Bit size
 BSD1.F               670:   Depth drilled with bit1
 DFT .                AIR:   Type fluid in hole
 LUN .            HL 6530:   Logging unit number
 LUL .             CASPER:   Logging unit location
 ENGI.      PAT RASMUSSEN:   Recorded By
 WITN.        GARY STRONG:   Witnessed by
 ORIG.         2.5" PRINT:   Origin of data
 UWI .     49025226420000:   Unique Well ID
 DICO. A2D TECHNOLOGIES, INC.:   Digitizing Company
~OTHER INFORMATION
~A    DEPT       GR       ILD        ILM       TENR   
# ...
  292.0000   131.5637     9.4394     9.5546   -35.4651
  292.5000   128.6195     9.5655     9.8115   -35.2471
  293.0000   126.8482     9.6932    10.0754   -35.0291
  293.5000   129.7691     9.9558    10.3463   -34.8110
  294.0000   132.1034    10.2254    10.4835   -34.5930
  294.5000   132.3108    10.5025    10.7654   -34.3750
  295.0000   127.9744    10.7870    10.9080   -34.1135
  295.5000   124.4436    11.0792    11.0527   -33.8962
  296.0000   122.0859    11.2271    11.1992   -33.6789
  296.5000   120.3146    11.3770    11.3477   -33.4616
  297.0000   117.9569    11.6852    11.4980   -33.2443
  297.5000   117.3587    11.6829    11.4957   -33.0270
  298.0000   116.7604    11.6805    11.4934   -32.8097
  298.5000   117.9217    11.6782    11.3385   -32.5924
  299.0000   119.6696    11.6758    11.1857   -32.3751
  299.5000   120.8309    11.5173    10.8884   -32.1578
  300.0000   120.2327    11.3610    10.5991   -31.9977
  300.5000   119.6344    11.0976    11.0965   -31.8427
  301.0000   119.6227    10.8342    10.9467   -31.6629
  301.5000   119.0245    10.6170    10.7997   -31.5180
  302.0000   119.0147    10.6155    10.5158   -31.3731
  302.5000   121.2809    10.6141    10.3753   -31.2283
  303.0000   127.6753    10.6127    10.3746   -31.0834
  303.5000   129.8006    10.6112    10.3739   -30.9385
  304.0000   130.7460    10.6098    10.3732   -30.7937
  304.5000   129.4606    10.5526    10.3725   -45.2035
  305.0000   124.5160    10.4651    10.3719   -45.0388
  305.5000   121.6911    10.4637    10.3712   -44.8940
  306.0000   121.5796    10.4623    10.3705   -44.7491
  306.5000   122.9970    10.4609    10.3698   -44.6042
  307.0000   125.8452    10.3196    10.3367   -29.9245
  307.5000   126.4222    10.3182    10.2753   -29.7796
  308.0000   119.1790    10.1788    10.2408   -29.6347
  308.5000   114.6570    10.1774    10.1046   -29.4899
  309.0000   113.6226    10.1144     9.9702   -29.3450
  309.5000   116.2402    10.0386     9.8376   -29.2001
  310.0000   118.9052     9.9746     9.8376   -29.0553
  310.5000   120.1114     9.9017     9.7068   -28.9104
  311.0000   121.5365     9.7052     9.5777   -28.7655
  311.5000   125.6478     9.6360     9.4504   -43.1686
  312.0000   127.1320     9.6347     9.3247   -43.0107
  312.5000   123.9003     9.6334     9.3247   -42.8658
  313.0000   120.6606     9.6321     9.3247   -42.7210
  313.5000   120.0762     9.6308     9.3247   -42.5761
  314.0000   120.0704     9.6295     9.3247   -56.9767
  314.5000   119.7557     9.4994     9.3247   -56.8213
  315.0000   118.5729     9.4981     9.3164   -56.6764
  315.5000   117.9764     9.4969     9.2007   -71.0664
  316.0000   116.7937     9.4261     9.2007   -70.9215
  316.5000   115.9355     9.3673     9.0654   -70.7767
  317.0000   117.1731     9.1715     8.9433   -70.6318
  317.5000   118.0156     8.9941     8.8385   -70.4869
  318.0000   118.2639     8.9239     8.8385   -70.3421
  318.5000   118.2581     8.8714     8.8197   -70.1972
  319.0000   118.5963     8.7515     8.7009   -70.0523
  319.5000   118.8329     8.7503     8.4906   -69.9075
  320.0000   119.4135     8.6319     8.4906   -69.7626
  320.5000   119.4065     8.6307     8.4906   -69.6177
  321.0000   118.8141     8.6296     8.4906   -69.4729
  321.5000   118.2218     8.6284     8.4906   -69.3280
  322.0000   117.6294     8.6273     8.4906   -54.6483
  322.5000   117.6236     8.6261     8.4906   -54.5034
  323.0000   118.7907     8.5096     8.4590   -39.8237
  323.5000   120.5444     8.5084     8.3777   -39.6788
  324.0000   122.2981     8.2813     8.2663   -39.5339
  324.5000   124.0518     8.0601     8.0137   -24.8542
  325.0000   123.4594     7.9513     7.9409   -24.7093
  325.5000   122.2806     7.9502     7.7992   -24.5639
  326.0000   120.5152     7.8428     7.6283   -24.4186
  326.5000   119.9228     7.7369     7.5268   -24.2732
  327.0000   119.9170     7.7358     7.5268   -24.1278
  327.5000   119.9111     7.7348     7.4868   -23.9826
  328.0000   119.1007     7.6303     7.4267   -23.8372
  328.5000   118.7284     7.6293     7.4267   -23.6918
  329.0000   121.7477     7.6283     7.4267   -23.5465
  329.5000   126.4455     7.5252     7.4721   -23.4011
  330.0000   129.9708     7.5242     7.5268   -23.2558
  330.5000   132.0838     7.5232     7.5268   -23.1105
  331.0000   133.6031     7.6242     7.5268   -22.9651
  331.5000   133.9414     7.6231     7.5268   -22.8197
  332.0000   133.9355     7.6221     7.6283   -22.6744
  332.5000   134.4380     7.8291     7.6283   -22.5291
  333.0000   136.2698     7.9343     7.7880   -22.3838
  333.5000   137.1125     8.0408     7.8944   -22.2384
  334.0000   137.7518     8.0396     7.9409   -22.0930
  334.5000   135.7128     8.2579     8.0479   -36.4917
  335.0000   132.8055     8.3689     8.1563   -36.3372
  335.5000   127.8137     8.4811     8.2663   -36.1919
  336.0000   121.9005     8.4799     8.2663   -36.0465
  336.5000   121.2490     8.4788     8.2663   -35.9012
  337.0000   125.6501     8.4777     8.2663   -35.7558
  337.5000   130.6452     8.4765     8.2663   -35.6104
  338.0000   132.7001     8.4754     8.2663   -35.4651
  338.5000   136.2673     8.3609     8.1563   -35.3198
  339.0000   141.5016     8.3598     8.0479   -35.1744
  339.5000   142.6138     8.3587     8.0479   -35.0291
  340.0000   136.6570     8.2458     8.0479   -34.8837
  340.5000   131.4426     8.2447     8.0479   -34.7383
  341.0000   128.8173     8.2435     8.0479   -34.5930
  341.5000   129.5192     8.2424     8.0479   -34.4477
  342.0000   133.6308     8.3531     8.0479   -34.3023
  342.5000   136.4907     8.3519     8.0479   -34.1570
  343.0000   138.2484     8.3508     8.0479   -34.0116
  343.5000   137.8123     8.3497     8.0479   -33.8662
  344.0000   134.7643     8.3486     8.0293   -19.1861
  344.5000   130.0504     8.3475     7.9409   -19.0407
  345.0000   128.5032     8.3463     7.9409   -33.4495
  345.5000   130.8434     8.2336     7.9409   -33.2849
  346.0000   134.3566     8.2325     7.9409   -33.1395
  346.5000   136.6968     8.2314     7.9409   -47.5498
  347.0000   138.4505     8.1202     7.9409   -47.3837
  347.5000   137.8582     8.1191     7.9409   -61.7950
  348.0000   133.1602     8.0094     7.9409   -61.6279
  348.5000   130.2218     8.0084     7.9409   -61.4826
  349.0000   129.0430     7.9000     7.9085   -61.3372
  349.5000   129.6246     7.7933     7.8353   -61.1919
  350.0000   127.2718     7.5852     7.6968   -61.0465
  350.5000   121.9873     7.5842     7.5931   -65.8429
  351.0000   122.5680     7.3817     7.5268   -75.3158
  351.5000   126.6677     7.2820     7.3534   -60.6105
  352.0000   130.7674     7.1836     7.0977   -60.4651
  352.5000   133.6941     6.8983     6.7811   -60.3197
  353.0000   133.1018     6.6243     6.4253   -60.1745
  353.5000   132.5094     6.1921     6.1226   -60.0291
  354.0000   132.5036     6.0791     5.9643   -57.5960
  354.5000   130.7034     6.0221     5.9369   -51.0751
  355.0000   128.3579     5.9836     6.0149   -44.6910
  355.5000   128.8261     5.9826     6.1002   -44.8764
  356.0000   130.3138     6.1444     6.3415   -45.0581
  356.5000   130.6397     6.3106     6.4299   -45.2399
  357.0000   130.3922     6.4813     6.6859   -59.9564
  357.5000   128.3946     6.6565     6.7775   -60.1381
  358.0000   127.0883     6.8366     6.9568   -60.3198
  358.5000   125.4682     6.9280     7.0466   -60.5014
  359.0000   122.3237     7.0205     7.0442   -46.1475
  359.5000   119.8039     7.0191     7.1368   -46.3300
  360.0000   120.1961     7.0179     7.1344   -46.5116
  360.5000   121.3578     7.0167     7.1320   -32.1588
  361.0000   122.5197     7.0155     7.1296   -32.3409
  361.5000   123.0930     7.0144     7.0324   -32.5229
  362.0000   124.8431     7.0132     7.0301   -32.7050
  362.5000   127.0710     6.9185     7.0277   -47.4220
  363.0000   130.8481     6.9173     6.9319   -47.6040
  363.5000   132.3024     6.8239     6.8374   -47.7861
  364.0000   132.8832     6.7318     6.6546   -47.9682
  364.5000   132.2868     6.6409     6.5639   -48.1502
