~VERSION INFORMATION
 VERS.                2.0:   CWLS LOG ASCII STANDARD - VERSION 2.0
 WRAP.                 NO:   ONE LINE PER DEPTH STEP
~WELL INFORMATION
#MNEM.UNIT      DATA TYPE    INFORMATION
#----------   ------------   ------------------------------
 STRT.F          210.5000:   START DEPTH
 STOP.F         3234.0000:   STOP DEPTH
 STEP.F            0.5000:   STEP LENGTH
 NULL.          -999.2500:   NO VALUE
 COMP.    FENIX & SCISSON:   COMPANY
 WELL.   FENIX "A" #21-10:   WELL
 FLD .              NPR-3:   FIELD
 LOC .      S10 T38N R78W:   LOCATION
 CNTY.            NATRONA:   COUNTY
 STAT.            WYOMING:   STATE
 CTRY. UNITED STATES OF AMERICA:   COUNTRY
 SRVC.      DRESSER ATLAS:   SERVICE COMPANY
 DATE.        31-AUG-1977:   LOGDATE
 API .     49025104260000:   API NUMBER
~CURVE INFORMATION
#MNEM.UNIT       API CODE    CURVE DESCRIPTION
#----------   ------------   ------------------------------
 DEPT.F                  :   
 GRD .GAPI   45 310 01 00:   GAMMA RAY FROM DENSITY LOG
 CALD.IN     45 280 60 00:   CALIPER FROM DENSITY LOG
 RHOB.G/C3   45 350 01 00:   BULK DENSITY
 CORR.G/C3   45 356 01 00:   DENSITY CORRECTION
 SPR .MV     11 010 01 00:   SPONTANEOUS POTENTIAL
 LLS .OHMM   11 220 09 00:   LATEROLOG SHALLOW
 LLD .OHMM   11 220 10 00:   LATEROLOG DEEP
 TEND.LBS    45 635 01 00:   TENSION FROM DENSITY LOG
 TENR.LBS    07 635 01 00:   TENSION
~PARAMETER INFORMATION
#MNEM.UNIT          VALUE    DESCRIPTION
#----------   ------------   ------------------------------
 EKB .F         5258.0000:   Kelly bushing
 EGL .F         5248.0000:   Ground level
 EDF .F            0.0000:   Drilling floor
 TD  .F         3222.0000:   Total depth
 DATE.        31-AUG-1977:   Date logged
 CLNT.            A2DTECH:   Client Code
 SL  . 330' FNL & 990' FWL:   Surface Location
 PD  .                 GL:   Permanent Datum
 EPD .F              5248:   Elevation Permanent Datum
 LMF .                 KB:   Log Measured From
 DMF .                 KB:   Drilling Measured From
 DAPD.F                10:   Feet Above Permanent Datum
 DD  .F              3222:   Depth driller
 DL  .F              3219:   Depth logger
 BLI .F              3218:   Bottom log interval
 TLI .F               221:   Top log interval
 CS1 .IN             8.75:   Casing size
 CBD1.       8.75" @ 219':   Casing driller 1
 CBL1.F               221:   Casing logger 1
 BS1 .IN            7.875:   Bit size
 BSD1.F              3222:   Depth drilled with bit1
 DFT .                KCL:   Type fluid in hole
 DFD .                9.1:   Density
 DFV .                 36:   Viscosity
 DFPH.                 11:   pH
 DFL .                  8:   Fluid loss
 MSS .           FLOWLINE:   Source of sample
 RMS .OHMM           0.14:   Rm
 MST .F                72:   Rm Meas. temp.
 RMF .OHMM           0.08:   Rmf
 MFST.F                72:   Rmf Meas. temp.
 RMC .OHMM           0.20:   Rmc
 MCST.F                72:   Rmc Meas. temp.
 MFSS.               CALC:   Source Rmf.
 MCSS.               CALC:   Source Rmc.
 RMB .OHMM           0.08:   Rm. at BHT
 BHT .F               125:   BHT.
 TCS .HRS               3:   Time Circ. stopped
 MRT .F               125:   Maximum recorded temp.
 LUN .               6080:   Logging unit number
 LUL .              WLSTN:   Logging unit location
 ENGI.               RALL:   Recorded By
 WITN.         PETTINGILL:   Witnessed by
 ORIG.           5" PRINT:   Origin of data
 UWI .     49025104260000:   Unique Well ID
 DICO. A2D TECHNOLOGIES, INC.:   Digitizing Company
~OTHER INFORMATION
~A   DEPT      GRD       CALD       RHOB       CORR        SPR        LLS        LLD       TEND        TENR  
# ...
 1999.0000   117.5170     9.2030     2.3660     0.0070   -76.8980     6.3670     6.9770   333.4250   535.8350
 1999.5000   115.7630     9.2020     2.3550     0.0030   -76.3720     6.2140     6.3750   338.6630   535.9550
 2000.0000   114.0140     9.2000     2.3440    -0.0020   -75.8520     5.2820     5.7130   343.9010   536.0750
 2000.5000   112.2370     9.1990     2.3310    -0.0070   -76.5440     4.3500     4.6810   349.1400   536.1950
 2001.0000   110.7630     9.1980     2.3110    -0.0130   -77.5370     3.5180     3.9260   354.3780   536.3150
 2001.5000   109.8970     9.2000     2.3030    -0.0180   -78.5440     3.8900     4.1710   359.6160   536.4350
 2002.0000   110.5370     9.2740     2.2970    -0.0220   -79.5770     4.8790     4.8520   364.8550   536.5550
 2002.5000   110.7660     9.4600     2.3060    -0.0200   -79.6300     5.8680     7.2460   558.6990   536.6750
 2003.0000   110.0740     9.6220     2.3680    -0.0060   -79.5710     6.7970     7.0200   345.6860   536.7950
 2003.5000   109.4100     9.4470     2.4350     0.0080   -79.4660     6.4670     6.5220   287.6170   536.9150
 2004.0000   108.7280     9.2150     2.4780     0.0180   -79.3640     6.1110     6.0350   288.5460   537.0350
 2004.5000   108.5700     9.1250     2.4780     0.0180   -79.2610     5.7540     5.9500   289.4750   537.1550
 2005.0000   108.5640     9.0980     2.4770     0.0180   -79.1570     5.5680     5.8180   290.4040   537.2750
 2005.5000   108.5630     9.0970     2.4790     0.0180   -79.0500     5.3950     5.6710   291.3330   537.3950
 2006.0000   108.5670     9.0980     2.4810     0.0170   -79.0300     5.1660     5.4570   292.2620   537.5160
 2006.5000   108.7370     9.0980     2.4820     0.0160   -79.3120     5.2600     5.5500   293.1910   537.6360
 2007.0000   109.9070     9.0980     2.4790     0.0150   -79.6250     5.4310     5.6690   294.1200   537.7560
 2007.5000   111.1380     9.0980     2.4780     0.0140   -79.9420     5.6090     5.8180   295.0500   537.8760
 2008.0000   109.9400     9.0980     2.4790     0.0130   -79.9590     5.6090     5.5140   295.9790   537.9960
 2008.5000   108.1200     9.0980     2.4800     0.0120   -79.7560     4.6260     4.9890   296.9080   538.1160
 2009.0000   106.2770     9.0980     2.4790     0.0110   -79.6180     3.9260     4.2240   297.8370   538.2360
 2009.5000   104.4430     9.0980     2.4770     0.0100   -79.6300     4.1450     4.3810   298.7660   538.3560
 2010.0000   102.5780     9.0980     2.4770     0.0100   -80.0530     4.5730     4.5840   299.6950   538.4760
 2010.5000   103.7200     9.0980     2.4780     0.0090   -80.5070     5.1760     5.3140   300.6240   538.5960
 2011.0000   106.2470     9.0930     2.4810     0.0080   -80.6960     5.7790     6.1900   301.5530   538.7160
 2011.5000   108.7980     9.0880     2.4870     0.0080   -80.2670     6.2030     6.3750   302.4820   538.8360
 2012.0000   111.3540     9.0820     2.4860     0.0080   -79.8590     5.8820     6.0650   303.4110   538.9560
 2012.5000   113.9250     9.0770     2.4840     0.0080   -79.4490     5.4570     5.8110   304.3400   539.0760
 2013.0000   114.1340     9.0710     2.4860     0.0080   -79.0410     5.3710     5.5580   305.2690   539.1960
 2013.5000   112.1340     9.0650     2.4870     0.0080   -79.0260     5.3100     5.7690   306.1980   539.3160
 2014.0000   110.1280     9.0600     2.4890     0.0080   -79.2350     6.2050     6.6810   307.3310   539.4360
 2014.5000   109.9210     9.0540     2.4830     0.0080   -79.8510     7.4310     8.0090   309.2240   539.5560
 2015.0000   111.4210     9.0490     2.4910     0.0080   -80.4600     8.3880     8.7810   311.1170   539.6760
 2015.5000   113.5190     9.0430     2.5010     0.0080   -81.0800     8.4650     8.5800   313.0110   539.7960
 2016.0000   115.6300     9.0380     2.5060     0.0080   -81.2100     8.1200     8.3880   314.9040   539.9160
 2016.5000   117.7410     9.0320     2.5020     0.0080   -81.1780     7.8570     8.2100   316.7980   540.0360
 2017.0000   121.2060     9.0270     2.4980     0.0080   -80.9510     7.5950     8.1680   318.6910   540.1560
 2017.5000   126.0510     9.0210     2.4930     0.0080   -80.7260     7.4480     7.6270   320.5850   540.2760
 2018.0000   128.8680     9.0150     2.4880     0.0080   -80.5010     6.9090     7.0770   322.4780   540.3960
 2018.5000   131.7530     9.0100     2.4820     0.0080   -80.2760     6.3170     6.5530   324.3720   540.5160
 2019.0000   134.3660     9.0040     2.4770     0.0090   -80.0500     6.2030     6.5530   326.2650   540.6360
 2019.5000   133.1380     8.9990     2.4720     0.0100   -79.8280     6.5880     6.9230   328.1580   540.7560
 2020.0000   131.8550     8.9940     2.4680     0.0110   -79.8170     6.8960     7.2010   330.0520   540.8760
 2020.5000   133.7750     8.9780     2.4660     0.0120   -79.9210     7.2050     7.4790   331.9450   540.9960
 2021.0000   136.0890     8.9620     2.4670     0.0130   -80.0480     6.7880     7.5160   333.8390   541.1160
 2021.5000   136.5800     8.9460     2.4690     0.0130   -80.1760     6.2590     7.0390   335.7320   541.2360
 2022.0000   136.7910     8.9300     2.4700     0.0140   -80.3040     5.7290     6.2720   337.6260   541.3560
 2022.5000   136.5520     8.9150     2.4670     0.0150   -80.4310     5.5580     5.8180   339.5190   541.4760
 2023.0000   138.7080     8.8990     2.4640     0.0160   -80.5590     6.1150     6.2030   341.4130   541.5960
 2023.5000   143.4520     8.8830     2.4620     0.0170   -80.6880     6.5510     6.9120   343.3060   541.7160
 2024.0000   148.1920     8.8670     2.4600     0.0180   -80.8160     6.8590     7.2460   345.1990   541.8360
 2024.5000   152.9520     8.8510     2.4630     0.0180   -80.8150     6.4490     6.7260   346.5350   541.9560
 2025.0000   160.6630     8.8350     2.4660     0.0160   -80.9900     5.9260     6.2030   346.5350   542.0760
 2025.5000   169.6570     8.8190     2.4690     0.0150   -80.7320     6.2770     6.6170   346.5350   542.1960
 2026.0000   177.5450     8.8030     2.4650     0.0140   -80.4910     7.2590     7.5160   346.5350   542.3160
 2026.5000   183.1310     8.7850     2.4620     0.0120   -80.2530     8.2400     9.2560   346.5350   542.4360
 2027.0000   188.8580     8.7660     2.4610     0.0110   -80.0240     9.3140    11.1710   346.5350   542.5560
 2027.5000   188.7690     8.7470     2.4610     0.0100   -80.0260    11.0970    12.3920   346.5350   542.6760
 2028.0000   187.5800     8.7280     2.4620     0.0080   -80.2690    12.6600    13.0120   346.5350   542.7970
 2028.5000   188.7290     8.7090     2.4630     0.0070   -80.5210    12.7270    13.2590   346.5350   542.9170
 2029.0000   190.5680     8.6900     2.4600     0.0060   -80.7710    12.9720    13.6220   346.5350   543.0370
 2029.5000   190.4690     8.6710     2.4580     0.0040   -80.8050    13.5660    14.3730   346.5350   543.1570
 2030.0000   189.3670     8.6520     2.4620     0.0030   -80.6780    14.1610    15.1240   346.5350   543.2770
 2030.5000   188.2420     8.6330     2.4600     0.0020   -80.1830    14.7890    15.7670   346.5350   543.3970
 2031.0000   187.0410     8.6140     2.4570     0.0000   -79.8810    14.7890    15.5860   346.5350   543.5170
 2031.5000   184.1600     8.5950     2.4550    -0.0010   -79.5480    14.5700    15.3940   346.5350   543.6370
 2032.0000   181.0890     8.5760     2.4530    -0.0020   -79.2240    14.4070    15.2020   346.5350   543.7570
 2032.5000   178.0210     8.5570     2.4530    -0.0030   -78.7700    14.2440    15.0090   346.5350   543.8770
 2033.0000   175.2820     8.5380     2.4540    -0.0030   -78.6360    14.0810    14.6550   346.5350   543.9970
 2033.5000   177.7910     8.5180     2.4540    -0.0020   -78.6250    13.9180    14.6550   346.5350   544.1170
 2034.0000   180.9980     8.5000     2.4540    -0.0010   -78.7320    13.7550    14.7200   346.5350   544.2370
 2034.5000   185.1010     8.4830     2.4550     0.0000   -78.8560    13.6210    14.7770   346.5350   544.3570
 2035.0000   191.2160     8.4610     2.4510     0.0000   -78.9830    14.4650    15.1320   346.5350   544.4770
