~VERSION INFORMATION
 VERS.                2.0:   CWLS LOG ASCII STANDARD - VERSION 2.0
 WRAP.                 NO:   ONE LINE PER DEPTH STEP
~WELL INFORMATION
#MNEM.UNIT      DATA TYPE    INFORMATION
#----------   ------------   ------------------------------
 STRT.F          740.0000:   START DEPTH
 STOP.F         2749.0000:   STOP DEPTH
 STEP.F            0.5000:   STEP LENGTH
 NULL.          -999.2500:   NO VALUE
 COMP.    FENIX & SCISSON:   COMPANY
 WELL.   FENIX SHX #11-10:   WELL
 FLD .                NPR:   FIELD
 LOC .      S10 T38N R78W:   LOCATION
 CNTY.            NATRONA:   COUNTY
 STAT.            WYOMING:   STATE
 CTRY. UNITED STATES OF AMERICA:   COUNTRY
 SRVC.              WELEX:   SERVICE COMPANY
 DATE.        09-APR-1980:   LOGDATE
 API .     49025108060000:   API NUMBER
~CURVE INFORMATION
#MNEM.UNIT       API CODE    CURVE DESCRIPTION
#----------   ------------   ------------------------------
 DEPT.F                  :   
 GRD .GAPI   45 310 01 00:   GAMMA RAY FROM DENSITY LOG
 CALD.IN     45 280 60 00:   CALIPER FROM DENSITY LOG
 TEND.LBS    45 635 01 00:   TENSION FROM DENSITY LOG
 RHOB.G/C3   45 350 01 00:   BULK DENSITY
 CORR.G/C3   45 356 01 00:   DENSITY CORRECTION
~PARAMETER INFORMATION
#MNEM.UNIT          VALUE    DESCRIPTION
#----------   ------------   ------------------------------
 EKB .F         5287.0000:   Kelly bushing
 EGL .F         5277.0000:   Ground level
 EDF .F            0.0000:   Drilling floor
 EPD .F         5277.0000:   Permanent datum
 TD  .F         2762.0000:   Total depth
 DATE.        09-APR-1980:   Date logged
 CLNT.            A2DTECH:   Client Code
 SL  . 474' FNL & 644' FWL:   Surface Location
 PD  .                 GL:   Permanent Datum
 LMF .                 KB:   Log Measured From
 DMF .                 KB:   Drilling Measured From
 DAPD.F                10:   Feet Above Permanent Datum
 DD  .F              2762:   Depth driller
 DL  .F            2751.5:   Depth logger
 BLI .F              2750:   Bottom log interval
 TLI .F               750:   Top log interval
 CS1 .IN            9.625:   Casing size
 CBD1.      9.625" @ 760':   Casing driller 1
 BS1 .IN             8.75:   Bit size
 BSD1.F              2762:   Depth drilled with bit1
 DFT .                AIR:   Type fluid in hole
 TCS .HRS               3:   Time Circ. stopped
 MRT .F               118:   Maximum recorded temp.
 ENGI.            BENTSEN:   Recorded By
 WITN.           DINSMORE:   Witnessed by
 ORIG.         2.5" PRINT:   Origin of data
 UWI .     49025108060000:   Unique Well ID
 DICO. A2D TECHNOLOGIES, INC.:   Digitizing Company
~OTHER INFORMATION
~A   DEPT       GRD      CALD       TEND       RHOB       CORR   
# ...
 2326.0000    81.2810     8.5670  1492.4790     2.4400    -0.0040
 2326.5000    80.8530     8.5930  1493.1290     2.4200    -0.0040
 2327.0000    80.4620     8.6150  1493.7791     2.4560     0.0100
 2327.5000    80.0880     8.6370  1494.4301     2.4430     0.0140
 2328.0000    79.6480     8.6600  1495.0800     2.4320     0.0030
 2328.5000    79.7470     8.6830  1495.7310     2.4160    -0.0070
 2329.0000    80.6730     8.7070  1496.3810     2.4010    -0.0180
 2329.5000    81.4580     8.7210  1497.0310     2.3910    -0.0200
 2330.0000    82.3550     8.7250  1497.6820     2.4050    -0.0020
 2330.5000    81.6450     8.7310  1498.3320     2.4310     0.0190
 2331.0000    80.8140     8.7360  1498.9830     2.4540     0.0400
 2331.5000    80.1210     8.7410  1499.6331     2.4740     0.0600
 2332.0000    80.8000     8.7460  1500.2841     2.4910     0.0720
 2332.5000    81.3660     8.7510  1500.9340     2.4790     0.0560
 2333.0000    82.0020     8.7560  1501.5840     2.4850     0.0530
 2333.5000    82.6040     8.7560  1502.2350     2.5010     0.0640
 2334.0000    83.2300     8.7520  1502.8850     2.5000     0.0730
 2334.5000    83.7670     8.7490  1503.5360     2.4960     0.0630
 2335.0000    82.5890     8.7450  1504.1860     2.4890     0.0550
 2335.5000    80.2260     8.7420  1504.8370     2.4700     0.0200
 2336.0000    79.7270     8.7380  1505.4871     2.4230    -0.0020
 2336.5000    80.4690     8.7350  1506.1370     2.4300    -0.0040
 2337.0000    81.0470     8.7310  1506.7880     2.4400    -0.0050
 2337.5000    81.6570     8.7270  1507.4380     2.4340    -0.0060
 2338.0000    81.5120     8.7240  1508.0890     2.4340    -0.0070
 2338.5000    80.9680     8.7200  1508.7390     2.4410     0.0010
 2339.0000    80.4530     8.7170  1509.3890     2.4480     0.0080
 2339.5000    80.1330     8.7130  1510.0400     2.4550     0.0060
 2340.0000    80.4010     8.7100  1510.6899     2.4620     0.0090
 2340.5000    80.6820     8.7060  1511.3409     2.4600     0.0200
 2341.0000    80.9420     8.7030  1511.9910     2.4530     0.0130
 2341.5000    81.2090     8.6990  1512.6420     2.4470     0.0040
 2342.0000    80.6160     8.6960  1513.2920     2.4320    -0.0050
 2342.5000    79.9530     8.6920  1513.9420     2.4050    -0.0140
 2343.0000    79.2590     8.6890  1514.5930     2.4260    -0.0060
 2343.5000    78.5840     8.6850  1515.2430     2.4350     0.0020
 2344.0000    77.9020     8.6820  1515.8940     2.4460     0.0110
 2344.5000    77.2220     8.6790  1516.5439     2.4550     0.0200
 2345.0000    76.5370     8.6840  1517.1940     2.4660     0.0220
 2345.5000    75.8610     8.6890  1517.8450     2.4440     0.0080
 2346.0000    75.1830     8.6940  1518.4950     2.4490     0.0120
 2346.5000    74.4640     8.6980  1519.1460     2.4620     0.0230
 2347.0000    74.0140     8.7030  1519.7960     2.4700     0.0330
 2347.5000    73.9150     8.7080  1520.4470     2.4600     0.0150
 2348.0000    73.7610     8.7130  1521.0970     2.4480     0.0040
 2348.5000    73.6290     8.7180  1521.7469     2.4580     0.0140
 2349.0000    73.5420     8.7230  1522.3979     2.4630     0.0230
 2349.5000    73.9450     8.7280  1523.0480     2.4480     0.0170
 2350.0000    74.2990     8.7330  1523.6990     2.4360     0.0150
 2350.5000    74.6830     8.7380  1524.3490     2.4230     0.0190
 2351.0000    75.0540     8.7420  1525.0000     2.4080     0.0220
 2351.5000    75.4260     8.7470  1525.6500     2.3940     0.0240
 2352.0000    75.8020     8.7520  1526.3000     2.3490     0.0140
 2352.5000    76.1740     8.7570  1526.9510     2.3020     0.0020
 2353.0000    76.5450     8.7500  1527.6010     2.2920     0.0110
 2353.5000    76.9250     8.7410  1528.2520     2.2530     0.0210
 2354.0000    77.2870     8.7320  1528.9020     2.2410     0.0360
 2354.5000    77.6580     8.7200  1529.5520     2.2460     0.1010
 2355.0000    77.6730     8.7400  1530.2030     2.2680     0.1850
 2355.5000    77.6820     8.7840  1530.8530     2.2960     0.2750
 2356.0000    77.6810     8.8250  1531.5040     2.2490    -0.0280
 2356.5000    77.6680     8.8670  1532.1541     2.4140     0.0190
 2357.0000    77.6890     8.8230  1532.8051     2.4580     0.0100
 2357.5000    77.7310     8.6130  1533.4550     2.4500     0.0180
 2358.0000    78.4760     8.6050  1534.1050     2.4420    -0.0030
 2358.5000    79.0780     8.6030  1534.7560     2.4760     0.0190
 2359.0000    79.7270     8.6110  1535.4060     2.4830     0.0410
 2359.5000    80.4500     8.6130  1536.0570     2.4900     0.0520
 2360.0000    80.2020     8.6170  1536.7070     2.4830     0.0460
 2360.5000    79.2770     8.6210  1537.3571     2.4750     0.0410
 2361.0000    78.3370     8.6240  1538.0081     2.4710     0.0390
 2361.5000    78.4230     8.6280  1538.6740     2.4740     0.0370
 2362.0000    78.4840     8.6320  1539.3149     2.4740     0.0360
 2362.5000    78.6650     8.6350  1540.0060     2.4660     0.0330
 2363.0000    78.8560     8.6380  1540.6680     2.4780     0.0410
 2363.5000    77.9440     8.6290  1541.1990     2.4920     0.0490
 2364.0000    75.6600     8.6200  1542.1890     2.4680     0.0540
 2364.5000    74.2260     8.6100  1542.4460     2.4280     0.0060
 2365.0000    73.8680     8.6010  1541.9940     2.4210    -0.0160
 2365.5000    73.3560     8.5920  1527.1530     2.4090    -0.0230
 2366.0000    71.5420     8.5820  1514.7920     2.4060    -0.0310
 2366.5000    68.4740     8.5730  1501.4880     2.4240    -0.0230
 2367.0000    67.4360     8.5630  1488.3070     2.4410    -0.0020
 2367.5000    65.9060     8.5590  1475.5551     2.4430     0.0010
 2368.0000    66.1750     8.5600  1463.4670     2.4330    -0.0100
 2368.5000    66.6840     8.5600  1463.4351     2.4610     0.0050
 2369.0000    67.2770     8.5590  1463.5210     2.4670     0.0210
 2369.5000    67.4190     8.5600  1464.1140     2.4530     0.0180
 2370.0000    66.8880     8.5600  1464.4540     2.4400     0.0070
 2370.5000    66.4120     8.5600  1464.8390     2.4280    -0.0040
 2371.0000    65.9250     8.5600  1465.2600     2.4150    -0.0140
 2371.5000    65.4380     8.5600  1465.6460     2.4040    -0.0220
 2372.0000    64.9310     8.5590  1466.0439     2.3970    -0.0110
 2372.5000    64.4670     8.5600  1466.4320     2.4110    -0.0010
 2373.0000    64.0480     8.5590  1466.8199     2.4270     0.0090
 2373.5000    64.7440     8.5590  1467.2080     2.4450     0.0200
 2374.0000    65.4230     8.5600  1467.5959     2.4510     0.0280
 2374.5000    66.1690     8.5590  1467.9840     2.4460     0.0320
 2375.0000    66.8640     8.5670  1468.3719     2.4420     0.0360
 2375.5000    67.5250     8.5830  1468.7590     2.4450     0.0390
 2376.0000    67.5530     8.5970  1469.1470     2.4490     0.0440
 2376.5000    67.5610     8.6120  1469.5350     2.4400     0.0380
 2377.0000    67.5680     8.6270  1469.9230     2.4280     0.0200
 2377.5000    67.5780     8.6380  1470.3110     2.4010    -0.0110
 2378.0000    68.4910     8.6280  1470.6990     2.3850    -0.0140
 2378.5000    69.6460     8.6200  1471.0870     2.3830    -0.0130
 2379.0000    70.8160     8.6120  1471.4750     2.3870    -0.0080
 2379.5000    71.0090     8.6020  1471.8630     2.4000    -0.0010
 2380.0000    70.8360     8.6020  1472.2510     2.4130     0.0060
 2380.5000    70.5170     8.6090  1472.6390     2.4240     0.0140
 2381.0000    71.2800     8.6160  1473.0260     2.4370     0.0220
 2381.5000    72.8160     8.6220  1473.4139     2.4490     0.0300
 2382.0000    73.0900     8.6290  1473.8020     2.4720     0.0410
 2382.5000    71.3810     8.6360  1474.1899     2.4880     0.0510
 2383.0000    69.9190     8.6300  1474.5780     2.4960     0.0620
 2383.5000    68.2340     8.6060  1474.9659     2.4990     0.0620
 2384.0000    67.4280     8.5840  1475.3540     2.5040     0.0560
 2384.5000    66.4200     8.5610  1475.7419     2.5070     0.0540
 2385.0000    65.5500     8.5650  1476.1300     2.5110     0.0550
 2385.5000    61.9430     8.5690  1476.5179     2.4930     0.0220
 2386.0000    60.9930     8.5750  1476.9060     2.4680     0.0130
 2386.5000    61.0130     8.5800  1477.2939     2.4700     0.0130
