~VERSION INFORMATION
 VERS.                2.0:   CWLS LOG ASCII STANDARD - VERSION 2.0
 WRAP.                 NO:   ONE LINE PER DEPTH STEP
~WELL INFORMATION
#MNEM.UNIT      DATA TYPE    INFORMATION
#----------   ------------   ------------------------------
 STRT.F            0.0000:   START DEPTH
 STOP.F         5673.0000:   STOP DEPTH
 STEP.F            0.5000:   STEP LENGTH
 NULL.          -999.2500:   NO VALUE
 COMP.       FLUOR DANIEL:   COMPANY
 WELL.   FLUOR "X" #63-10:   WELL
 FLD .             NPR #3:   FIELD
 LOC .      S10 T38N R78W:   LOCATION
 CNTY.            NATRONA:   COUNTY
 STAT.            WYOMING:   STATE
 CTRY. UNITED STATES OF AMERICA:   COUNTRY
 SRVC.      WESTERN ATLAS:   SERVICE COMPANY
 DATE.        02-MAR-1996:   LOGDATE
 API .     49025227690000:   API NUMBER
~CURVE INFORMATION
#MNEM.UNIT       API CODE    CURVE DESCRIPTION
#----------   ------------   ------------------------------
 DEPT.F                  :   
 GRD .GAPI   45 310 01 00:   GAMMA RAY FROM DENSITY LOG
 TEND.LBS    45 635 01 00:   TENSION FROM DENSITY LOG
 CALD.IN     45 280 60 00:   CALIPER FROM DENSITY LOG
 ZCOR.G/C3   45 356 01 00:   DENSITY CORRECTION
 ZDEN.G/C3   45 350 01 00:   BULK DENSITY
 CNC .DEC    42 890 03 00:   COMPENSATED NEUTRON POROSITY SANDSTONE
 SPR .MV     11 010 01 00:   SPONTANEOUS POTENTIAL FROM RESISTIVITY
 RD  .OHMM   11 220 10 00:   RESISTIVITY DEEP
 RS  .OHMM   11 220 09 00:   RESISTIVITY SHALLOW
~PARAMETER INFORMATION
#MNEM.UNIT          VALUE    DESCRIPTION
#----------   ------------   ------------------------------
 EKB .F         5196.0000:   Kelly bushing
 EGL .F         5186.0000:   Ground level
 EDF .F         5195.0000:   Drilling floor
 TD  .F         5674.0000:   Total depth
 CLNT.            A2DTECH:   Client Code
 SL  . 1688' FNL & 1730' FEL:   Surface Location
 PD  .                 GL:   Permanent Datum
 EPD .F              5186:   Elevation Permanent Datum
 LMF .                 KB:   Log Measured From
 DMF .                 KB:   Drilling Measured From
 DAPD.F                10:   Feet Above Permanent Datum
 DATE.        02-MAR-1996:   Date Logged [DD-MMM-YYYY]
 DD  .F              5674:   Depth driller
 DL  .F              5674:   Depth logger
 BLI .F              5663:   Bottom log interval
 CS1 .IN            9.625:   Casing size
 CBD1.      9.625" @ 448':   Casing driller 1
 CBL1.F               448:   Casing logger 1
 BS1 .IN             8.75:   Bit size
 BSD1.F              5674:   Depth drilled with bit1
 DFT .               CHEM:   Type fluid in hole
 DFD .                9.7:   Density
 DFV .                 53:   Viscosity
 DFPH.                9.0:   pH
 DFL .                9.2:   Fluid loss
 MSS .           FLOWLINE:   Source of sample
 RMS .OHMM          0.628:   Rm
 MST .F                71:   Rm Meas. temp.
 RMF .OHMM          0.477:   Rmf
 MFST.F                71:   Rmf Meas. temp.
 MFSS.               MEAS:   Source Rmf.
 RMC .OHMM          0.779:   Rmc
 MCST.F                71:   Rmc Meas. temp.
 MCSS.               MEAS:   Source Rmc.
 RMB .OHMM          0.251:   Rm. at BHT
 BHT .F               178:   BHT.
 TCS .F               4.5:   Time Circ. stopped
 MRT .HRS             178:   Maximum recorded temp.
 LUN .            HL-6530:   Logging unit number
 LUL .             CASPER:   Logging unit location
 ENGI.      PAT RASMUSSEN:   Recorded By
 ORIG.           5" PRINT:   Origin of data
 UWI .     49025227690000:   Unique Well ID
 WITN.         LAFRENIERE:   Witnessed by
 DICO.   A2D TECHNOLOGIES:   Digitizing Company
~OTHER INFORMATION
~A  DEPTH      GRD       TEND       CALD       ZCOR       ZDEN        CNC        SPR         RD         RS
# ...
 1131.5000    91.3100   -47.6012     9.4432     0.1423     2.5378     0.3145   -71.5642    10.1498     7.3582
 1132.0000    90.4453   -47.6012     9.4283     0.1394     2.5333     0.3112   -71.4600    10.1465     7.5125
 1132.5000    92.5607   -55.0975     9.4285     0.1379     2.5183     0.3076   -71.3580    10.1439     7.5647
 1133.0000    94.0723   -47.6012     9.4136     0.1411     2.5018     0.3046   -71.2559    10.1413     7.6172
 1133.5000    91.9708   -47.6012     9.4137     0.1486     2.4987     0.3037   -71.1534    10.2799     7.6701
 1134.0000    90.4704   -32.6087     9.4289     0.1502     2.5047     0.2998   -71.0532    10.5650     7.7234
 1134.5000    91.3795   -10.1199     9.4291     0.1337     2.5152     0.2980   -71.0192    10.8587     7.7234
 1135.0000    92.8925   -10.1199     9.4292     0.1243     2.5280     0.2911   -71.1336    10.8559     7.7234
 1135.5000    93.1979   -10.1199     9.4294     0.1157     2.5453     0.2896   -71.2455    10.7032     7.7838
 1136.0000    91.3977   -10.1199     9.4295     0.1113     2.5588     0.2887   -71.3578    10.7004     7.8854
 1136.5000    90.1984    -2.6237     9.4297     0.1113     2.5603     0.2896   -71.4699    10.6238     7.9401
 1137.0000    89.6016    -2.6237     9.4449     0.1114     2.5565     0.2905   -71.5821    10.6211     7.9953
 1137.5000    89.6085    -2.6237     9.4300     0.1130     2.5490     0.2911   -71.6942    10.9156     8.1630
 1138.0000    89.6155   -10.1199     9.4301     0.1145     2.5377     0.2933   -71.8064    11.0656     8.1630
 1138.5000    89.9223   -25.1124     9.4453     0.1161     2.5264     0.3000   -71.9183    10.5389     7.9953
 1139.0000    90.5303   -40.1049     9.4455     0.1222     2.5120     0.3116   -72.0281    10.3914     7.7770
 1139.5000    92.0433   -47.6012     9.4457     0.1237     2.5054     0.3086   -72.1339     9.5602     7.3074
 1140.0000    92.6513   -55.0975     9.4307     0.1223     2.5129     0.3032   -72.2387     9.1690     7.0589
 1140.5000    92.9580   -55.0975     9.4309     0.1101     2.5287     0.2996   -72.3462     9.1667     7.3074
 1141.0000    93.2662   -55.0975     9.4311     0.1028     2.5450     0.2942   -72.1460     9.2980     7.5647
 1141.5000    92.6694   -55.0975     9.4312     0.0999     2.5527     0.2888   -71.7243    10.0932     7.9401
 1142.0000    91.4701   -40.1049     9.4313     0.1165     2.5504     0.2867   -71.5143    10.3745     7.9953
 1142.5000    90.5721   -40.1049     9.4315     0.1286     2.5437     0.2873   -71.4040    10.2286     7.9401
 1143.0000    90.8802   -40.1049     9.4317     0.1392     2.5249     0.2885   -71.2953    10.0751     7.8854
 1143.5000    92.9943   -32.6087     9.4318     0.1438     2.5174     0.2906   -71.1850     9.6721     7.8854
 1144.0000    93.6386   -32.6087     9.4319     0.1301     2.5181     0.2900   -71.0768     9.6029     7.8854
 1144.5000    93.9104   -32.6087     9.4321     0.1168     2.5204     0.2885   -71.0692     9.9383     7.8310
 1145.0000    93.6134   -32.6087     9.4322     0.1108     2.5339     0.2897   -71.5666    10.1442     7.8310
 1145.5000    93.9217   -32.6087     9.4324     0.1064     2.5399     0.2924   -71.3709    10.2120     7.8854
 1146.0000    94.2297   -40.1049     9.4325     0.1034     2.5481     0.2936   -71.1884    10.2086     7.9953
 1146.5000    94.5365   -40.1049     9.4327     0.1020     2.5496     0.2929   -71.0063    10.6387     8.2197
 1147.0000    94.5241   -40.1049     9.4329     0.1036     2.5421     0.2868   -70.8251    11.7384     8.5154
 1147.5000    92.7418   -55.0975     9.4330     0.1081     2.5361     0.2844   -70.6425    12.0436     8.8698
 1148.0000    90.6390   -55.0975     9.4331     0.1112     2.5376     0.2841   -70.5475    11.8742     8.9934
 1148.5000    88.8281   -55.0975     9.4333     0.1083     2.5391     0.2853   -70.3168    11.8711     9.0558
 1149.0000    87.6381   -55.0975     9.4335     0.1068     2.5383     0.2871   -70.7736    12.1162     8.9934
 1149.5000    87.3424   -55.0975     9.4336     0.1069     2.5338     0.2892   -71.2167    12.1971     9.0558
 1150.0000    87.3499   -55.0975     9.4337     0.1084     2.5323     0.2925   -71.6626    12.1940     8.9934
 1150.5000    86.4458   -58.4715     9.4337     0.1115     2.5330     0.2967   -72.1003    12.1908     8.9314
 1151.0000    86.1446   -62.5937     9.4337     0.1131     2.5405     0.3003   -72.2955    12.3575     8.9934
 1151.5000    85.8434   -47.6012     9.4337     0.1147     2.5510     0.3033   -72.0116    12.0950     8.9934
 1152.0000    85.5422   -40.1049     9.4187     0.1132     2.5623     0.3012   -71.7368    11.9229     9.0558
 1152.5000    85.5573   -47.6012     9.4187     0.1102     2.5555     0.3015   -71.6093    11.3547     9.0558
 1153.0000    89.7590   -55.0975     9.4187     0.1118     2.5375     0.3045   -71.6606    11.1942     8.8698
 1153.5000    90.3614   -62.5937     9.4337     0.1239     2.5232     0.3094   -71.7111    10.8843     8.3921
 1154.0000    90.0602   -62.5937     9.4337     0.1300     2.4954     0.3145   -71.7621    10.7245     7.9953
 1154.5000    89.7590   -40.1049     9.4337     0.1361     2.4932     0.3130   -71.8128    10.5048     7.9401
 1155.0000    91.0245   -40.1049     9.4337     0.1376     2.5007     0.3082   -71.8637    10.4283     7.9953
 1155.5000    93.9759   -40.1049     9.4337     0.1242     2.4999     0.3031   -71.9142    10.4242     8.2767
 1156.0000    88.5542   -40.1049     9.4187     0.1137     2.5022     0.2983   -71.9654    10.8618     8.3921
 1156.5000    85.8434   -55.0975     9.4169     0.1062     2.5104     0.2953   -71.9202    11.0088     8.4504
 1157.0000    85.4584   -62.5937     9.4036     0.1108     2.5112     0.2977   -71.7998    10.8522     8.2197
 1157.5000    86.4315   -62.5937     9.4187     0.1184     2.5089     0.3004   -71.6767    10.6988     8.0508
 1158.0000    87.4046   -62.9903     9.4187     0.1214     2.5079     0.2938   -71.4847    10.4026     8.0508
 1158.5000    88.5542   -55.0975     9.4187     0.1185     2.5169     0.2841   -71.0341    10.5434     8.1630
 1159.0000    86.7470   -55.0975     9.4187     0.1110     2.5416     0.2773   -70.5916    11.0613     8.2197
 1159.5000    84.6386   -47.6012     9.4187     0.1141     2.5506     0.2770   -70.6194    11.1348     8.3921
 1160.0000    85.5422   -55.0975     9.4187     0.1202     2.5446     0.2782   -70.9385    11.2066     8.4504
 1160.5000    88.5774   -55.0975     9.4187     0.1278     2.5348     0.2761   -71.6248    11.2811     8.2197
 1161.0000    89.4578   -55.0975     9.4187     0.1309     2.5295     0.2768   -71.5572    11.1977     8.1630
 1161.5000    89.7590   -47.6012     9.4187     0.1279     2.5287     0.2833   -71.0946    11.2710     8.2197
 1162.0000    89.7590   -40.1049     9.4187     0.1189     2.5325     0.2887   -70.6318    11.3448     8.3921
 1162.5000    89.4578   -40.1049     9.4337     0.1129     2.5295     0.2866   -70.1974    11.3393     8.4504
 1163.0000    88.2147   -32.6087     9.4337     0.1115     2.5272     0.2830   -70.3418    11.3348     8.4504
 1163.5000    86.7470   -32.6087     9.4337     0.1342     2.5317     0.2743   -70.5105    11.4090     8.3921
 1164.0000    87.9518   -25.1124     9.4187     0.1402     2.5399     0.2746   -70.6760    11.5634     8.2767
 1164.5000    90.6627   -17.6162     9.4337     0.1388     2.5384     0.2798   -70.8411    11.3203     8.1579
 1165.0000    92.1687   -17.6162     9.4337     0.1336     2.5316     0.2846   -71.0062    10.7064     7.9401
 1165.5000    93.3735   -17.6162     9.4337     0.1336     2.5211     0.2912   -71.1713    10.1961     7.8310
 1166.0000    93.3735   -25.1124     9.4187     0.1336     2.5195     0.2927   -71.3365    10.4771     7.8310
 1166.5000    93.3735   -32.6087     9.4187     0.1169     2.5225     0.2909   -71.5016    10.7680     7.8854
 1167.0000    93.3735   -10.1199     9.4187     0.1139     2.5293     0.2855   -71.6667    10.3250     7.9401
 1167.5000    93.0525    -2.6237     9.4036     0.1288     2.5292     0.2819   -71.8319    10.0392     8.0508
