~VERSION INFORMATION
 VERS.                2.0:   CWLS LOG ASCII STANDARD - VERSION 2.0
 WRAP.                 NO:   ONE LINE PER DEPTH STEP
~WELL INFORMATION
#MNEM.UNIT      DATA TYPE    INFORMATION
#----------   ------------   ------------------------------
 STRT.F           11.0000:   START DEPTH
 STOP.F         3368.0000:   STOP DEPTH
 STEP.F            0.5000:   STEP LENGTH
 NULL.          -999.2500:   NO VALUE
 COMP. LAWRENCE ALLISON AND ASSOC.:   COMPANY
 WELL. LAWRENCE NPR "AX" #3-11:   WELL
 FLD .                NPR:   FIELD
 LOC .      S11 T38N R78W:   LOCATION
 CNTY.            NATRONA:   COUNTY
 STAT.            WYOMING:   STATE
 CTRY. UNITED STATES OF AMERICA:   COUNTRY
 SRVC.      DRESSER ATLAS:   SERVICE COMPANY
 DATE.        17-JAN-1986:   LOGDATE
 API .     49025110540000:   API NUMBER
~CURVE INFORMATION
#MNEM.UNIT       API CODE    CURVE DESCRIPTION
#----------   ------------   ------------------------------
 DEPT.F                  :   
 TEND.LBS    45 635 01 00:   TENSION FROM DENSITY LOG
 DEN .G/C3   45 350 01 00:   BULK DENSITY
 CORR.G/C3   45 356 01 00:   DENSITY CORRECTION
 CNC .DEC    42 890 03 00:   NEUTRON PORISITY SANDSTONE
 TENR.LBS    07 635 01 00:   TENSION FROM RESISTIVITY
 CALR.IN     07 280 01 00:   CALIPER FROM RESISTIVITY
 SPR .MV     07 010 01 00:   SPONTANEOUS POTENTIAL
 GRR .GAPI   07 310 01 00:   GAMMA RAY FROM RESISTIVITY
 RFOC.OHMM   07 220 04 00:   RESISTIVITY FOCUSED LOG RES.
 RILD.OHMM   07 120 46 00:   INDUCTION LOG DEEP RESISTIVITY
 RILM.OHMM   07 120 44 00:   INDUCTION LOG MEDIUM RESISTIVITY
 TENS.LBS    60 635 01 00:   TENSION FROM SONIC
 AC  .US/F   60 250 00 00:   ACCOUSTIC
~PARAMETER INFORMATION
#MNEM.UNIT          VALUE    DESCRIPTION
#----------   ------------   ------------------------------
 EKB .F         5195.5000:   Kelly bushing
 EGL .F         5183.2000:   Ground level
 EDF .F         5194.5000:   Drilling floor
 TD  .F         3360.0000:   Total depth
 DATE.        17-JAN-1986:   Date logged
 CLNT.            A2DTECH:   Client Code
 SL  . 2389' FSL & 461'FWL:   Surface Location
 PD  .                 GL:   Permanent Datum
 EPD .F            5183.2:   Elevation Permanent Datum
 LMF .                 KB:   Log Measured From
 DMF .                 KB:   Drilling Measured From
 DAPD.F              12.3:   Feet Above Permanent Datum
 DD  .F              3360:   Depth driller
 DL  .F              3358:   Depth logger
 BLI .F              3356:   Bottom log interval
 TLI .F               575:   Top log interval
 CS1 .IN            8.625:   Casing size
 CBD1.      8.625" @ 575':   Casing driller 1
 CBL1.F               575:   Casing logger 1
 BS1 .IN            7.875:   Bit size
 BSD1.F              3360:   Depth drilled with bit1
 DFT .        POLYMER-KCL:   Type fluid in hole
 DFD .                  9:   Density
 DFV .                 36:   Viscosity
 DFPH.                  9:   pH
 DFL .                9.5:   Fluid loss
 MSS .           FLOWLINE:   Source of sample
 RMS .OHMM           .633:   Rm
 MST .F                68:   Rm Meas. temp.
 RMF .OHMM           .475:   Rmf
 MFST.F                68:   Rmf Meas. temp.
 RMC .OHMM           .791:   Rmc
 MCST.F                68:   Rmc Meas. temp.
 RMB .OHMM            .44:   Rm. at BHT
 BHT .F                98:   BHT.
 TCS .HRS               4:   Time Circ. stopped
 MRT .F                98:   Maximum recorded temp.
 LUN .               6264:   Logging unit number
 LUL .               GLTE:   Logging unit location
 ENGI.             MILLER:   Recorded By
 WITN.             STRONG:   Witnessed by
 ORIG.        2" 5" PRINT:   Origin of data
 UWI .     49025110540000:   Unique Well ID
 DICO. A2D TECHNOLOGIES, INC.:   Digitizing Company
~OTHER INFORMATION
~A   DEPT     TEND        DEN       CORR        CNC       TENR       CALR        SPR         GRR      RFOC       RILD       RILM       TENS         AC   
# ...
 3339.0000   210.9000     2.5040     0.0770     0.2840   372.2830     8.1530   -38.7530  -999.2500     4.8060     3.3810     3.6940   392.3420  -999.2500
 3339.5000   212.1720     2.5030     0.0650     0.2840   377.0140     8.1530   -38.9070  -999.2500     4.8600     3.4130     3.7340   396.4550  -999.2500
 3340.0000   213.4440     2.5040     0.0530     0.2840   381.7440     8.1530   -39.0590  -999.2500     4.9720     3.4720     3.7660   400.5670  -999.2500
 3340.5000   214.7150     2.5040     0.0680     0.2820   386.2730     8.1530   -39.2120  -999.2500     5.0330     3.5310     3.7980   405.6560  -999.2500
 3341.0000   215.9870     2.5020     0.0850     0.2820   389.7390     8.1530   -39.3680  -999.2500     4.9860     3.6120     3.8800   411.9290  -999.2500
 3341.5000   217.2590     2.4970     0.0990     0.2840   393.0630     8.1530   -39.5210  -999.2500     4.9300     3.7640     4.0300   420.1530  -999.2500
 3342.0000   218.5310     2.4920     0.0860     0.2800   396.3870     8.1530   -40.0130  -999.2500     4.8960     3.9390     4.1790   428.3780  -999.2500
 3342.5000   219.8020     2.4980     0.0710     0.2690   399.7120     8.1530   -40.7550  -999.2500     5.2710     4.2090     4.4350   435.6860  -999.2500
 3343.0000   221.0740     2.5040     0.0700     0.2520   403.0360     8.1530   -41.4980  -999.2500     6.2800     4.4790     5.1990   437.0570  -999.2500
 3343.5000   222.3460     2.5230     0.0730     0.2420   406.3600     8.1530   -42.1920  -999.2500     7.3220     4.9420     5.9640   438.2910  -999.2500
 3344.0000   223.6180     2.5460     0.0750     0.2330   409.6840     8.1530   -42.4960  -999.2500     8.3630     5.4700     6.7170   439.5250  -999.2500
 3344.5000   224.8890     2.5610     0.0720     0.2200   413.0080     8.1530   -42.7940  -999.2500     9.4050     6.1690     7.3840   440.7580  -999.2500
 3345.0000   226.1610     2.5620     0.0690     0.2230   416.3330     8.1530   -42.9690  -999.2500    10.4110     6.9380     8.0510   441.9920  -999.2500
 3345.5000   233.7350     2.5620     0.0710     0.2270   419.6570     8.1530   -43.0000  -999.2500    11.3300     7.7070     8.6760   443.2260  -999.2500
 3346.0000   257.7640     2.5630     0.0790     0.2290   422.9810     8.1530   -43.0310  -999.2500    12.2070     8.3330     9.2000   444.4590  -999.2500
 3346.5000   312.0860     2.5670     0.0880     0.2260   426.3050     8.1530   -43.0620  -999.2500    11.7760     8.5280     9.6940   445.6960  -999.2500
 3347.0000   366.4080     2.5710     0.0960     0.2230   429.6300     8.1530   -43.0930  -999.2500    11.2640     8.7220    10.2440   451.6650  -999.2500
 3347.5000   420.7310     2.5740     0.1000     0.2230   432.9540     8.1530   -43.1230  -999.2500    10.4960     8.9190    10.2290   457.6470  -999.2500
 3348.0000   477.9120     2.5750     0.0790     0.2240   436.3730     8.1530   -43.1540  -999.2500    10.8170     8.7960    10.1940   463.6290  -999.2500
 3348.5000   499.0590     2.5760     0.0440     0.2250   441.8630     8.1530   -43.1550  -999.2500    11.8260     8.6710    10.1580   469.6110  -999.2500
 3349.0000   521.3810     2.5840     0.0280     0.2259   447.5140     8.1530   -43.1550  -999.2500    12.9020     8.5460    10.0320   475.5920  -999.2500
 3349.5000   543.7030     2.6050     0.0180     0.2273   453.1650     8.1530   -43.1550  -999.2500    12.5270     8.3276     9.8760   481.5740  -999.2500
 3350.0000   568.2730     2.6290     0.0380     0.2287   458.8160     8.1530   -43.1520  -999.2500    11.7370     8.2673     9.7200   486.4810  -999.2500
 3350.5000   590.6840     2.6160     0.0780     0.2295   464.4670     8.1530   -42.9430  -999.2500    10.8370     8.2070     9.5284   488.9290  -999.2500
 3351.0000   601.7250     2.5990     0.1010     0.2295   470.1180     8.1530   -42.7080  -999.2500     9.8230     8.1467     9.5158   491.3780  -999.2500
 3351.5000   606.5480     2.5830     0.1030     0.2295   475.7690     8.1530   -42.4720  -999.2500     8.8100     8.0865     9.5031   493.8260  -999.2500
 3352.0000   611.3720     2.5740     0.1070     0.2295   481.4200     8.1530   -42.2370  -999.2500     7.7300     8.0521     9.4905   495.7460  -999.2500
 3352.5000   616.1950     2.5610     0.1080     0.2295   487.0710     8.1530   -42.0000  -999.2500     6.5170     8.0521     9.4778   522.1920  -999.2500
 3353.0000   621.0190     2.5400     0.1090     0.2295   492.7220     8.1530   -41.7780  -999.2500     6.0480     8.0521     9.4652   534.1170  -999.2500
 3353.5000   625.8420     2.5170     0.1050     0.2295   498.3730     8.1530   -41.9140  -999.2500     5.4910     8.0521     9.4525   529.6690  -999.2500
 3354.0000   615.1750     2.5050     0.1020     0.2295   504.0250     8.1530   -42.0650  -999.2500     4.9410     8.0521     9.4399   525.7760  -999.2500
 3354.5000   585.2700     2.4940     0.0990     0.2295   509.6760     8.1530   -42.1980  -999.2500     4.6630     8.0521     9.4273   544.1270  -999.2500
 3355.0000   520.4630     2.4870     0.0740     0.2295   515.3270     8.1530   -42.2950  -999.2500     4.3880     8.0294     9.4146   551.1720  -999.2500
 3355.5000   409.7020     2.4790     0.0570     0.2295   476.4530     8.1530   -42.3920  -999.2500     4.1130     7.9974     9.4020   535.7860  -999.2500
 3356.0000   278.3830     2.4760     0.0690     0.2295   349.7890     8.1530   -42.4900  -999.2500  -999.2500     7.9653     9.3893   515.7660  -999.2500
 3356.5000   134.3950  -999.2500  -999.2500  -999.2500   220.2140  -999.2500  -999.2500  -999.2500  -999.2500     7.9332     9.3767   294.5170  -999.2500
 3357.0000    56.2250  -999.2500  -999.2500  -999.2500    82.6740  -999.2500  -999.2500  -999.2500  -999.2500  -999.2500  -999.2500   115.8940  -999.2500
 3357.5000    -8.4980  -999.2500  -999.2500  -999.2500   -69.7680  -999.2500  -999.2500  -999.2500  -999.2500  -999.2500  -999.2500   -62.7290  -999.2500
 3358.0000   -83.2620  -999.2500  -999.2500  -999.2500  -222.2090  -999.2500  -999.2500  -999.2500  -999.2500  -999.2500  -999.2500  -214.9650  -999.2500
 3358.5000  -182.2290  -999.2500  -999.2500  -999.2500  -265.0300  -999.2500  -999.2500  -999.2500  -999.2500  -999.2500  -999.2500  -244.9950  -999.2500
 3359.0000  -999.2500  -999.2500  -999.2500  -999.2500  -265.0300  -999.2500  -999.2500  -999.2500  -999.2500  -999.2500  -999.2500  -244.9950  -999.2500
 3359.5000  -999.2500  -999.2500  -999.2500  -999.2500  -265.0300  -999.2500  -999.2500  -999.2500  -999.2500  -999.2500  -999.2500  -244.9950  -999.2500
 3360.0000  -999.2500  -999.2500  -999.2500  -999.2500  -265.0300  -999.2500  -999.2500  -999.2500  -999.2500  -999.2500  -999.2500  -244.9950  -999.2500
 3360.5000  -999.2500  -999.2500  -999.2500  -999.2500  -265.0300  -999.2500  -999.2500  -999.2500  -999.2500  -999.2500  -999.2500  -244.9950  -999.2500
 3361.0000  -999.2500  -999.2500  -999.2500  -999.2500  -265.0300  -999.2500  -999.2500  -999.2500  -999.2500  -999.2500  -999.2500  -244.9950  -999.2500
 3361.5000  -999.2500  -999.2500  -999.2500  -999.2500  -257.3760  -999.2500  -999.2500  -999.2500  -999.2500  -999.2500  -999.2500  -227.9640  -999.2500
 3362.0000  -999.2500  -999.2500  -999.2500  -999.2500  -226.4110  -999.2500  -999.2500  -999.2500  -999.2500  -999.2500  -999.2500  -174.9250  -999.2500
 3362.5000  -999.2500  -999.2500  -999.2500  -999.2500  -234.4130  -999.2500  -999.2500  -999.2500  -999.2500  -999.2500  -999.2500  -999.2500  -999.2500
 3363.0000  -999.2500  -999.2500  -999.2500  -999.2500  -265.0300  -999.2500  -999.2500  -999.2500  -999.2500  -999.2500  -999.2500  -999.2500  -999.2500
 3363.5000  -999.2500  -999.2500  -999.2500  -999.2500  -267.3600  -999.2500  -999.2500  -999.2500  -999.2500  -999.2500  -999.2500  -999.2500  -999.2500
 3364.0000  -999.2500  -999.2500  -999.2500  -999.2500  -269.6650  -999.2500  -999.2500  -999.2500  -999.2500  -999.2500  -999.2500  -255.0050  -999.2500
 3364.5000  -999.2500  -999.2500  -999.2500  -999.2500  -271.9690  -999.2500  -999.2500  -999.2500  -999.2500  -999.2500  -999.2500  -255.0050  -999.2500
