~VERSION INFORMATION
 VERS.                2.0:   CWLS LOG ASCII STANDARD - VERSION 2.0
 WRAP.                 NO:   ONE LINE PER DEPTH STEP
~WELL INFORMATION
#MNEM.UNIT      DATA TYPE    INFORMATION
#----------   ------------   ------------------------------
 STRT.F          200.0000:   START DEPTH
 STOP.F         3142.0000:   STOP DEPTH
 STEP.F            0.5000:   STEP LENGTH
 NULL.          -999.2500:   NO VALUE
 COMP.    FENIX & SCISSON:   COMPANY
 WELL.  FENIX "AX" #37-10:   WELL
 FLD .              NPR-3:   FIELD
 LOC .      S10 T38N R78W:   LOCATION
 CNTY.            NATRONA:   COUNTY
 STAT.            WYOMING:   STATE
 CTRY. UNITED STATES OF AMERICA:   COUNTRY
 SRVC.              WELEX:   SERVICE COMPANY
 DATE.        19-SEP-1977:   LOGDATE
 API .     49025104190000:   API NUMBER
~CURVE INFORMATION
#MNEM.UNIT       API CODE    CURVE DESCRIPTION
#----------   ------------   ------------------------------
 DEPT.F                  :   
 CALD.IN     45 280 60 00:   CALIPER FROM DENSITY LOG
 GRD .GAPI   45 310 01 00:   GAMMA RAY FROM DENSITY LOG
 RHOB.G/C3   45 350 01 00:   BULK DENSITY
 CORR.G/C3   45 356 01 00:   DENSITY CORRECTION
 NPHI.DEC    42 890 03 00:   NEUTRON POROSITY SANDSTONE
 SPR .MV     07 010 01 00:   SPONTANEOUS POTENTIAL
 SGRD.OHMM   07 220 05 00:   SHALLOW GUARD RESISTIVITY
 ILD .OHMM   07 120 46 00:   INDUCTION LOG DEEP RESISTIVITY
 ILM .OHMM   07 120 44 00:   INDUCTION LOG MEDIUM RESISTIVITY
 TENR.LBS    07 635 01 00:   TENSION FROM RESISTIVITY
~PARAMETER INFORMATION
#MNEM.UNIT          VALUE    DESCRIPTION
#----------   ------------   ------------------------------
 EKB .F         5221.0000:   Kelly bushing
 EGL .F         5211.0000:   Ground level
 EDF .F            0.0000:   Drilling floor
 TD  .F         3150.0000:   Total depth
 DATE.        19-SEP-1977:   Date logged
 CLNT.            A2DTECH:   Client Code
 SL  . 1190' FSL & 1750' FWL:   Surface Location
 PD  .                 GL:   Permanent Datum
 DD  .F              3150:   Depth driller
 DL  .F              3146:   Depth logger
 BLI .F              3144:   Bottom log interval
 CS1 .IN            8.625:   Casing size
 CBD1.      8.625" @ 215':   Casing driller 1
 BS1 .IN            7.875:   Bit size
 DFT .            KCL/MUD:   Type fluid in hole
 DFD .                8.9:   Density
 TCS .HRS               2:   Time Circ. stopped
 MRT .F               116:   Maximum recorded temp.
 ENGI.            C. DOAK:   Recorded By
 WITN.      B. HARRINGTON:   Witnessed by
 ORIG.           5" PRINT:   Origin of data
 UWI .     49025104190000:   Unique Well ID
 DICO. A2D TECHNOLOGIES, INC.:   Digitizing Company
 DAPD.F                10:   Feet Above Permanent Datum
 BSD1.F              3150:   Depth drilled with bit1
 EPD .F              5211:   Elevation Permanent Datum
 LMF .                 KB:   Log Measured From
 DMF .                 KB:   Drilling Measured From
 TLI .F               200:   Top log interval
 CBL1.                213:   Casing logger 1
 DFV .                 37:   Viscosity
 DFPH.                 11:   pH
 DFL .                5.8:   Fluid loss
 MSS .           MEASURED:   Source of sample
 RMS .               2.82:   Rm
 MST .                 94:   Rm Meas. temp.
 RMF .               1.61:   Rmf
 MFST.                 94:   Rmf Meas. temp.
 MFSS.               MEAS:   Source Rmf.
 RMC .               3.12:   Rmc
 MCST.                 94:   Rmc Meas. temp.
 MCSS.               MEAS:   Source Rmc.
 RMB .               2.28:   Rm. at BHT
 BHT .                116:   BHT.
 LUN .               8611:   Logging unit number
 LUL .             CASPER:   Logging unit location
~OTHER INFORMATION
~A   DEPT       CALD       GRD        RHOB      CORR      NPHI        SPR       SGRD        ILD        ILM       TENR   
# ...
  602.0000    11.0300    63.3198     2.5090     0.0220     0.2136   -72.9643     9.4096     6.5178     6.8246  1037.1392
  602.5000    11.0103    63.3210     2.5070     0.0240     0.2208   -72.7650     9.4102     6.6392     6.8248  1036.9835
  603.0000    11.0104    63.5950     2.5050     0.0280     0.2228   -72.9618     9.4976     6.7629     6.8884  1036.7501
  603.5000    11.0105    63.8690     2.5050     0.0280     0.2277   -72.9605     9.4982     6.7632     6.9523  1036.5555
  604.0000    11.0106    64.1148     2.5030     0.0300     0.2353   -73.1573     9.4989     6.7637     6.9529  1036.3610
  604.5000    11.0305    64.1163     2.5030     0.0280     0.2317   -73.3541     9.7647     6.7639     7.0174  1036.1665
  605.0000    11.0306    63.9205     2.5010     0.0300     0.2281   -73.5509     9.7653     6.8271     7.0179  1016.0103
  605.5000    10.9715    63.7247     2.5010     0.0300     0.2217   -73.5496     9.5007     6.8274     7.0184  1035.7778
  606.0000    10.8926    63.5289     2.5011     0.0280     0.2177   -73.1523     9.5013     6.8279     7.0836  1035.5833
  606.5000    10.8138    63.5304     2.4991     0.0300     0.2177   -72.9530     9.5019     6.8282     7.0841  1035.3887
  607.0000    10.7152    63.3346     2.4851     0.0280     0.2181   -72.9517     9.5026     6.6430     7.0845  1035.1942
  607.5000    10.6561    63.3361     2.4682     0.0281     0.2209   -72.9505     9.5032     6.7048     7.0850  1034.9996
  608.0000    10.6167    63.3376     2.4493     0.0281     0.2241   -72.9492     9.5038     6.7671     7.0854  1034.8051
  608.5000    10.5971    63.3391     2.4373     0.0281     0.2294   -72.9480     9.5044     6.8300     7.0859  1034.6106
  609.0000    10.5971    63.3407     2.4245     0.0301     0.2330   -72.7486     9.5050     6.8935     7.0864  1034.4160
  609.5000    10.5972    63.3422     2.4085     0.0301     0.2370   -72.7474     9.5056     6.8939     7.1522  1034.2216
  610.0000    10.6170    63.3437     2.3836     0.0281     0.2407   -72.9442     9.5063     6.9581     7.2855  1034.0269
  610.5000    10.6369    63.3452     2.3766     0.0301     0.2507   -72.9429     9.2487     6.9585     7.3531  1033.8044
  611.0000    10.6764    63.5441     2.3647     0.0321     0.2528   -73.1398     9.1648     7.2864     7.4215  1053.6007
  611.5000    10.7357    63.9405     2.3447     0.0361     0.2528   -73.1385     9.0815     6.8958     7.5596  1033.4434
  612.0000    10.7951    63.9420     2.3308     0.0441     0.2504   -73.1372     8.9169     6.5864     7.9891  1033.2487
  612.5000    10.8544    63.9436     2.3159     0.0461     0.2508   -73.3341     8.5176     6.2335     8.5993  1033.0542
  613.0000    10.8742    63.9451     2.2900     0.0461     0.2674   -73.1347     8.2868     6.0642     9.7811  1032.8596
  613.5000    10.8746    63.9467     2.2521     0.0481     0.2818   -73.1335     7.9155     5.9541    10.9227  1032.6650
  614.0000    10.9339    63.9482     2.2213     0.0501     0.3007   -72.9342     7.7011     5.7925    10.6262  1032.4705
  614.5000    10.9537    64.1472     2.1929     0.0501     0.3016   -72.7348     7.2889     5.1878     9.1733  1052.2395
  615.0000    10.9341    64.3462     2.1465     0.0501     0.3076   -72.5355     7.1565     4.8203     7.7036  1032.0814
  615.5000    10.8552    64.5452     2.0868     0.0501     0.3141   -72.3361     7.0272     4.0208     4.0479  1031.8871
  616.0000    10.7565    65.1393     2.0858     0.0442     0.3378   -72.1368     6.5296     3.1449     2.7305  1031.6926
  616.5000    10.4406    65.7334     1.9972     0.0422     0.3604   -72.1355     5.9564     2.4417     1.8418  1031.4980
  617.0000    10.4012    66.7225     1.9354     0.0203     0.3592   -72.1342     5.1894     2.1868     1.0874  1051.2675
  617.5000    10.4408    68.1068     1.8926    -0.0077     0.3427   -71.9349     3.0748     2.1080     0.9215  1031.1088
  618.0000    10.5199    71.0713     1.8896    -0.0176     0.2980   -71.7355     1.8918     2.0507     0.8802  1030.9089
  618.5000    10.6187    76.6037     2.1815     0.0064     0.2473   -71.9323     1.9269     2.0889     1.5184  1030.7089
  619.0000    10.7176    99.3250     2.4872     0.0422     0.2416   -72.1292     3.3425     2.2075     3.1020  1030.5090
  619.5000    10.8164    99.7201     2.5161     0.0442     0.2396   -72.3260     4.8865     2.4426     3.1308  1030.3090
  620.0000    10.8955    66.3397     2.5171     0.0442     0.2380   -72.3248     7.1614     2.8298     2.9628  1030.1359
  620.5000    10.9351    62.5877     2.5201     0.0363     0.2324   -72.5211     7.1618     3.2784     3.6317  1029.9414
  621.0000    10.9352    62.7867     2.5221     0.0363     0.2312   -72.5203     7.2283     3.9769     4.4516  1029.7468
  621.5000    10.9748    62.3931     2.5261     0.0343     0.2292   -72.5191     7.3627     4.8242     5.5887  1029.5522
  622.0000    11.0145    62.7897     2.5321     0.0323     0.2252   -72.5178     7.5689     5.3872     7.7105  1029.3575
  622.5000    11.0541    62.7912     2.5331     0.0303     0.2320   -72.5166     8.0716     5.6931    10.6381  1049.1282
  623.0000    11.1133    62.7927     2.5281     0.0304     0.2336   -72.3172     8.1465     6.1280    11.1392  1048.9337
  623.5000    11.1133    62.7942     2.5221     0.0284     0.2352   -72.5140     8.0726     6.2997    10.0685  1028.7738
  624.0000    11.1529    62.5989     2.5162     0.0264     0.2405   -72.3147     7.9994     6.3584     8.9348  1048.5447
  624.5000    11.1926    62.5998     2.5092     0.0204     0.2397   -72.3134     7.7842     6.1858     6.9073  1048.3502
  625.0000    11.2322    62.5998     2.5022     0.0184     0.2393   -72.5103     7.9273     6.1295     6.6583  1048.1556
  625.5000    11.2718    62.6021     2.4973     0.0165     0.2393   -72.3109     8.0009     6.1298     6.8450  1027.9957
  626.0000    11.3115    62.6039     2.4993     0.0085     0.2405   -72.3096     8.0014     6.1301     6.5378  1047.7670
  626.5000    11.3511    62.6054     2.5033     0.0205     0.2429   -72.3083     8.0757     6.1873     6.4191  1047.5725
  627.0000    11.3710    62.6066     2.5072     0.0205     0.2462   -72.1089     8.0762     6.1876     6.4195  1027.5676
  627.5000    11.3513    62.6081     2.5092     0.0205     0.2502   -72.3058     8.1512     6.1881     6.4198  1047.1835
  628.0000    11.2529    62.6096     2.5092     0.0225     0.2607   -72.3045     8.0035     6.1883     6.3615  1046.9889
  628.5000    11.1739    62.6113     2.5092     0.0225     0.2647   -72.1051     7.9308     6.0761     6.3037  1046.7944
  629.0000    11.1345    62.6125     2.5093     0.0265     0.2704   -72.1039     8.0783     6.0209     6.1325  1046.5999
  629.5000    11.1346    62.8097     2.5093     0.0285     0.2764   -72.1026     8.1533     5.8038     6.0769  1026.4388
  630.0000    11.1347    62.8112     2.5093     0.0305     0.2668   -72.1014     8.1539     5.6984     5.9665  1026.2441
  630.5000    11.0557    62.8127     2.5093     0.0365     0.2615   -72.1001     8.1544     5.5437     5.9669  1026.0496
  631.0000    10.9965    62.8142     2.5172     0.0365     0.2515   -72.0988     8.3060     5.5439     5.9673  1045.8218
  631.5000    10.9768    63.0134     2.5212     0.0405     0.2437   -72.0976     8.2307     5.5443     5.8053  1045.6273
  632.0000    10.9769    63.2149     2.5252     0.0385     0.2421   -72.0963     7.8619     5.4437     5.6477  1045.4327
  632.5000    10.9968    63.2164     2.5252     0.0385     0.2397   -72.2932     8.0081     5.0580     5.6480  1025.2710
  633.0000    11.0166    63.6135     2.5232     0.0365     0.2397   -72.2919     8.2322     5.0582     5.6484  1025.0764
  633.5000    11.0167    63.8127     2.5193     0.0365     0.2397   -72.2907     8.3853     5.4450     5.8067  1024.8817
  634.0000    10.9773    63.8143     2.5173     0.0385     0.2394   -72.2894     9.0249     5.8071     5.8607  1004.6028
  634.5000    10.9378    63.6180     2.5173     0.0405     0.2479   -72.4863     9.5366     5.8610     5.9699  1024.4926
  635.0000    10.9575    63.8173     2.5173     0.0406     0.2523   -72.4850     9.8940     5.8615     6.0253  1044.2655
