~VERSION INFORMATION
 VERS.                2.0:   CWLS LOG ASCII STANDARD - VERSION 2.0
 WRAP.                 NO:   ONE LINE PER DEPTH STEP
~WELL INFORMATION
#MNEM.UNIT      DATA TYPE    INFORMATION
#----------   ------------   ------------------------------
 STRT.F            0.0000:   START DEPTH
 STOP.F         2870.0000:   STOP DEPTH
 STEP.F            0.5000:   STEP LENGTH
 NULL.          -999.2500:   NO VALUE
 COMP.  FENIX AND SCISSON:   COMPANY
 WELL.  FENIX "A" #304-28:   WELL
 FLD .             NPR #3:   FIELD
 LOC .      S28 T39N R78W:   LOCATION
 CNTY.            NATRONA:   COUNTY
 STAT.            WYOMING:   STATE
 CTRY. UNITED STATES OF AMERICA:   COUNTRY
 SRVC.         MCCULLOUGH:   SERVICE COMPANY
 DATE.        21-DEC-1977:   LOGDATE
 API .     49025105600000:   API NUMBER
~CURVE INFORMATION
#MNEM.UNIT       API CODE    CURVE DESCRIPTION
#----------   ------------   ------------------------------
 DEPT.F                  :   
 GR  .GAPI   30 310 01 00:   GAMMA RAY
 CALI.IN     70 280 01 00:   CALIPER
~PARAMETER INFORMATION
#MNEM.UNIT          VALUE    DESCRIPTION
#----------   ------------   ------------------------------
 EKB .F            0.0000:   Kelly bushing
 EGL .F            0.0000:   Ground level
 EDF .F         5074.7000:   Drilling floor
 EPD .F         5074.7000:   Permanent datum
 TD  .F         2868.0000:   Total depth
 DATE.        21-DEC-1977:   Date logged
 CLNT.            A2DTECH:   Client Code
 DL  .F              2868:   Depth logger
 BLI .F              2866:   Bottom log interval
 TLI .F              2000:   Top log interval
 CS1 .IN             6.25:   Casing size
 CBD1.     6.625" @ 2935':   Casing driller 1
 BS1 .IN             6.25:   Bit size
 BSD1.F              2868:   Depth drilled with bit1
 DFT .              WATER:   Type fluid in hole
 TCS .HRS             1.5:   Time Circ. stopped
 ENGI.             CONLEY:   Recorded By
 WITN.           HARRISON:   Witnessed by
 ORIG.           5" PRINT:   Origin of data
 UWI .     49025105600000:   Unique Well ID
 DICO. A2D TECHNOLOGIES, INC.:   Digitizing Company
~OTHER INFORMATION
~A    DEPT      GR         CALI 
# ...
 2065.5000    66.5760     6.6620
 2066.0000    65.7880     6.6630
 2066.5000    61.3320     6.6670
 2067.0000    60.2460     6.6710
 2067.5000    61.0230     6.6700
 2068.0000    61.2000     6.6680
 2068.5000    64.0510     6.6650
 2069.0000    63.8860     6.6660
 2069.5000    63.1680     6.6670
 2070.0000    63.8500     6.6680
 2070.5000    64.1140     6.6680
 2071.0000    64.7300     6.6670
 2071.5000    63.5730     6.6670
 2072.0000    61.1500     6.6680
 2072.5000    59.0220     6.6710
 2073.0000    58.7820     6.6750
 2073.5000    58.3830     6.6780
 2074.0000    58.2660     6.6790
 2074.5000    56.4570     6.6790
 2075.0000    56.0420     6.6780
 2075.5000    57.5890     6.6790
 2076.0000    56.2160     6.6830
 2076.5000    54.0070     6.6990
 2077.0000    52.6790     6.7530
 2077.5000    52.0830     6.8070
 2078.0000    53.3680     6.9390
 2078.5000    57.5560     6.7810
 2079.0000    59.5930     6.8100
 2079.5000    59.0350     6.8140
 2080.0000    58.4690     6.8090
 2080.5000    64.2090     6.7970
 2081.0000    64.2580     6.7770
 2081.5000    65.1030     6.7570
 2082.0000    62.8010     6.7450
 2082.5000    63.8920     6.7440
 2083.0000    65.1540     6.7420
 2083.5000    66.5420     6.7410
 2084.0000    66.2370     6.7400
 2084.5000    66.2840     6.7400
 2085.0000    65.6380     6.7390
 2085.5000    65.1940     6.7390
 2086.0000    65.0430     6.7330
 2086.5000    64.4450     6.7270
 2087.0000    63.8620     6.7220
 2087.5000    63.9010     6.7200
 2088.0000    64.4390     6.7180
 2088.5000    64.6810     6.7150
 2089.0000    65.4760     6.7110
 2089.5000    63.9250     6.7100
 2090.0000    62.7140     6.7080
 2090.5000    61.2550     6.7080
 2091.0000    59.4290     6.7070
 2091.5000    59.1080     6.7090
 2092.0000    59.1570     6.7090
 2092.5000    60.4780     6.7100
 2093.0000    61.9290     6.7080
 2093.5000    62.1270     6.7050
 2094.0000    60.4520     6.7020
 2094.5000    60.2460     6.7040
 2095.0000    61.0560     6.7080
 2095.5000    59.1440     6.7150
 2096.0000    59.7260     6.7630
 2096.5000    63.7420     6.7570
 2097.0000    64.4700     6.7430
 2097.5000    64.6340     6.7250
 2098.0000    64.2680     6.7240
 2098.5000    64.6950     6.7240
 2099.0000    66.8550     6.7230
 2099.5000    68.0290     6.7240
 2100.0000    68.3290     6.7860
 2100.5000    68.5870     6.8560
 2101.0000    71.1700     6.8980
 2101.5000    77.3280     6.9000
 2102.0000    80.5520     6.8930
 2102.5000    81.1080     6.8470
 2103.0000    82.9380     6.8370
 2103.5000    85.8050     6.8190
 2104.0000    84.5970     6.8030
 2104.5000    79.4460     6.8030
 2105.0000    78.8330     6.8030
 2105.5000    78.9970     6.8000
 2106.0000    79.1810     6.7970
 2106.5000    79.2620     6.7940
 2107.0000    79.3190     6.7910
 2107.5000    80.4940     6.7900
 2108.0000    80.0550     6.7890
 2108.5000    82.5250     6.7890
 2109.0000    82.4960     6.7810
 2109.5000    81.6450     6.7730
 2110.0000    81.8350     6.7680
 2110.5000    81.0050     6.7680
 2111.0000    80.2200     6.7660
 2111.5000    80.6650     6.7600
 2112.0000    83.5570     6.7540
 2112.5000    81.3120     6.7540
 2113.0000    79.7560     6.7550
 2113.5000    80.8750     6.7560
 2114.0000    83.4150     6.7570
 2114.5000    87.3440     6.7590
 2115.0000    87.6920     6.7650
 2115.5000    85.7180     6.7730
 2116.0000    83.6500     6.7830
 2116.5000    83.5890     6.7900
 2117.0000    86.4910     6.7940
 2117.5000    85.2650     6.7990
 2118.0000    81.8820     6.8030
 2118.5000    80.6950     6.8080
 2119.0000    77.4500     6.8120
 2119.5000    77.4700     6.8090
 2120.0000    78.9650     6.7950
 2120.5000    80.5110     6.7790
 2121.0000    78.7310     6.7760
 2121.5000    77.4040     6.7760
 2122.0000    76.0700     6.7930
 2122.5000    77.4890     6.9330
 2123.0000    77.2030     6.7210
 2123.5000    79.1680     6.7180
 2124.0000    83.0220     6.7140
 2124.5000    81.9150     6.7120
 2125.0000    79.7130     6.7120
 2125.5000    83.5920     6.7120
 2126.0000    86.1200     6.7150
 2126.5000    80.7540     6.7160
 2127.0000    80.3810     6.7160
 2127.5000    78.0690     6.7160
 2128.0000    74.8550     6.7140
 2128.5000    73.5050     6.6960
 2129.0000    76.0240     6.6770
 2129.5000    77.5960     6.6700
 2130.0000    78.4420     6.6660
 2130.5000    78.3380     6.6650
 2131.0000    76.3180     6.6650
 2131.5000    74.0630     6.6650
 2132.0000    72.6290     6.6650
 2132.5000    67.1380     6.6660
 2133.0000    68.3970     6.6720
 2133.5000    70.0580     6.6780
 2134.0000    71.8250     6.6800
 2134.5000    71.1900     6.6840
 2135.0000    70.0490     6.6870
 2135.5000    70.7650     6.6870
 2136.0000    72.6160     6.6870
 2136.5000    73.3470     6.6880
 2137.0000    76.5030     6.6870
 2137.5000    78.8160     6.6820
 2138.0000    78.5990     6.6710
 2138.5000    78.4970     6.6620
 2139.0000    76.4120     6.6600
 2139.5000    75.5210     6.6610
 2140.0000    75.6960     6.6620
 2140.5000    74.6630     6.6600
 2141.0000    75.9000     6.6590
 2141.5000    77.7540     6.6600
 2142.0000    77.9930     6.6650
 2142.5000    74.1270     6.6660
 2143.0000    72.1690     6.6740
 2143.5000    73.0120     6.6810
 2144.0000    74.1680     6.6880
 2144.5000    72.6120     6.6940
 2145.0000    72.9750     6.8970
 2145.5000    71.9590     6.7230
 2146.0000    71.2360     6.7370
 2146.5000    70.5720     6.7430
 2147.0000    77.3730     6.7420
 2147.5000    78.5860     6.7410
 2148.0000    78.6900     6.7580
 2148.5000    77.6790     6.7580
 2149.0000    77.0360     6.7370
 2149.5000    79.5030     6.7270
 2150.0000    78.5820     6.7340
 2150.5000    78.2410     6.7340
 2151.0000    77.1590     6.7160
 2151.5000    77.9920     6.7010
 2152.0000    82.6630     6.7050
 2152.5000    81.5660     6.7050
 2153.0000    81.1280     6.7000
 2153.5000    77.8590     6.6950
 2154.0000    75.8290     6.6950
 2154.5000    76.2890     6.6960
 2155.0000    76.3180     6.6990
 2155.5000    78.1140     6.7130
 2156.0000    77.2700     6.7290
 2156.5000    77.2850     6.7210
 2157.0000    75.8020     6.7170
 2157.5000    75.4920     6.7180
 2158.0000    74.0700     6.7200
 2158.5000    69.1830     6.7150
 2159.0000    66.1690     6.7090
 2159.5000    63.6410     6.7030
 2160.0000    62.3530     6.6970
 2160.5000    57.5220     6.6960
 2161.0000    57.5020     6.6950
 2161.5000    60.1240     6.6950
 2162.0000    61.0780     6.6950
 2162.5000    61.2690     6.6960
 2163.0000    64.0920     6.6960
 2163.5000    67.1950     6.6970
 2164.0000    67.4970     6.6970
 2164.5000    68.4790     6.6990
 2165.0000    70.9540     6.7000
 2165.5000    73.3950     6.7060
 2166.0000    72.6560     6.7260
 2166.5000    74.4960     6.8950
 2167.0000    73.1480     6.7420
 2167.5000    70.1460     6.7560
 2168.0000    72.5310     6.7550
 2168.5000    75.0790     6.7490
 2169.0000    75.1380     6.7440
 2169.5000    75.5900     6.7420
 2170.0000    76.2420     6.7420
 2170.5000    77.1110     6.7400
 2171.0000    78.7100     6.7390
 2171.5000    78.5290     6.7470
 2172.0000    78.7230     6.7550
 2172.5000    78.5100     6.7530
 2173.0000    78.3490     6.7420
 2173.5000    79.3870     6.7310
 2174.0000    80.8750     6.7280
 2174.5000    80.5460     6.7250
 2175.0000    79.3150     6.7150
 2175.5000    78.4730     6.7130
 2176.0000    79.9200     6.7120
 2176.5000    79.9090     6.7100
 2177.0000    79.1010     6.7070
 2177.5000    79.1240     6.7090
 2178.0000    78.4700     6.7130
 2178.5000    82.2780     6.7160
 2179.0000    83.3010     6.7180
 2179.5000    81.6560     6.7190
 2180.0000    80.1630     6.7210
 2180.5000    76.5780     6.7270
 2181.0000    74.4510     6.7300
 2181.5000    74.7200     6.6970
 2182.0000    77.1820     6.6930
 2182.5000    76.9170     6.6940
 2183.0000    76.6540     6.6960
 2183.5000    77.3130     6.7120
 2184.0000    80.3210     6.7180
 2184.5000    82.2220     6.7190
 2185.0000    79.7390     6.7190
 2185.5000    79.2630     6.7250
 2186.0000    77.5170     6.7300
 2186.5000    79.0190     6.7310
