~VERSION INFORMATION
 VERS.                2.0:   CWLS LOG ASCII STANDARD - VERSION 2.0
 WRAP.                 NO:   ONE LINE PER DEPTH STEP
~WELL INFORMATION
#MNEM.UNIT      DATA TYPE    INFORMATION
#----------   ------------   ------------------------------
 STRT.F           90.0000:   START DEPTH
 STOP.F         3342.0000:   STOP DEPTH
 STEP.F            0.5000:   STEP LENGTH
 NULL.          -999.2500:   NO VALUE
 COMP. LAWRENCE ALLISON AND ASSOCIATES:   COMPANY
 WELL. LAWERNCE "X" #83-3:   WELL
 FLD .             NPR #3:   FIELD
 LOC .       S3 T38N R78W:   LOCATION
 CNTY.            NATRONA:   COUNTY
 STAT.            WYOMING:   STATE
 CTRY. UNITED STATES OF AMERICA:   COUNTRY
 SRVC.      DRESSER ATLAS:   SERVICE COMPANY
 DATE.        23-APR-1985:   LOGDATE
 API .     49025110210000:   API NUMBER
~CURVE INFORMATION
#MNEM.UNIT       API CODE    CURVE DESCRIPTION
#----------   ------------   ------------------------------
 DEPT.F                  :   
 TENR.LBS    07 635 01 00:   TENSION FROM RESISTIVITY
 CALR.IN     07 280 01 00:   CALIPER FROM RESISTIVITY
 SPR .MV     07 010 01 00:   SPONTANEOUS POTENTIAL
 GRR .GAPI   07 310 01 00:   GAMMA RAY FROM RESISTIVITY
 RFOC.OHMM   07 220 04 00:   RESISTIVITY FOCUSED LOG RES.
 RILD.OHMM   07 120 46 00:   DEEP INDUCTION RESISTIVITY
 RILM.OHMM   07 120 44 00:   INDUCTION LOG MEDIUM RESISTIVITY
 NPHI.DEC    42 890 03 00:   NEUTRON POROSITY SANDSTONE
 RHOB.G/C3   45 350 01 00:   BULK DENSITY
 TEND.LBS    45 635 01 00:   TENSION FROM DENSITY LOG
 CORR.G/C3   45 356 01 00:   DENSITY CORRECTION
~PARAMETER INFORMATION
#MNEM.UNIT          VALUE    DESCRIPTION
#----------   ------------   ------------------------------
 EKB .F         5125.0000:   Kelly bushing
 EGL .F         5112.0000:   Ground level
 EDF .F            0.0000:   Drilling floor
 TD  .F         3330.0000:   Total depth
 DATE.        23-APR-1985:   Date logged
 CLNT.            A2DTECH:   Client Code
 SL  . 1745' FNL & 612' FEL:   Surface Location
 PD  .                 GL:   Permanent Datum
 DD  .F              3330:   Depth driller
 DL  .F              3328:   Depth logger
 BLI .F              3326:   Bottom log interval
 CS1 .IN            8.625:   Casing size
 CBD1.      8.625" @ 526':   Casing driller 1
 CBL1.F               528:   Casing logger 1
 BS1 .IN            7.875:   Bit size
 DFT .            KCL-GEL:   Type fluid in hole
 DFD .                9.1:   Density
 DFV .                 43:   Viscosity
 DFPH.                  8:   pH
 DFL .                  8:   Fluid loss
 MSS .           FLOWLINE:   Source of sample
 RMS .OHMM          0.445:   Rm
 MST .F                72:   Rm Meas. temp.
 RMF .OHMM           0.36:   Rmf
 MFST.F                70:   Rmf Meas. temp.
 RMC .OHMM           0.55:   Rmc
 MCST.F                72:   Rmc Meas. temp.
 MFSS.               MEAS:   Source Rmf.
 RMB .OHMM          0.286:   Rm. at BHT
 BHT .F               116:   BHT.
 TCS .HRS               3:   Time Circ. stopped
 MRT .F               116:   Maximum recorded temp.
 LUN .               6274:   Logging unit number
 LUL .               GLTE:   Logging unit location
 ENGI.             RAUTIO:   Recorded By
 WITN.             STRONG:   Witnessed by
 ORIG.           5" PRINT:   Origin of data
 UWI .     49025110210000:   Unique Well ID
 DICO. A2D TECHNOLOGIES, INC.:   Digitizing Company
 DAPD.                 13:   Feet Above Permanent Datum
 BSD1.               3330:   Depth drilled with bit1
 MCSS.               CALC:   Source Rmc.
 EPD .               5112:   Elevation Permanent Datum
 LMF .                 KB:   Log Measured From
 DMF .                 KB:   Drilling Measured From
~OTHER INFORMATION
~A   DEPT     TENR       CALR        SPR         GRR      RFOC       RILD       RILM       NPHI       RHOB       TEND       CORR   
# ...
 3292.5000   234.0280     8.1870   -73.3950   128.2100     5.9720     4.3550     4.6670     0.2460     2.5080   243.5940  -999.2500
 3293.0000   242.0520     8.1860   -73.9170   129.6800     5.7380     4.5040     4.6960     0.2430     2.5130   250.4530  -999.2500
 3293.5000   250.0760     8.1860   -74.4370   128.7620     5.5040     4.6020     4.7240     0.2360     2.5170   257.3120  -999.2500
 3294.0000   258.1000     8.1850   -74.9610   127.8770     5.2710     4.6020     4.7520     0.2300  -999.2500   268.0710  -999.2500
 3294.5000   266.1240     8.1850   -75.5870   127.4760     5.0910     4.6020     4.7740     0.2250  -999.2500   296.8130  -999.2500
 3295.0000   274.1480     8.1840   -76.5830   126.6730     5.2540     4.6020     4.8180     0.2320  -999.2500   306.4110  -999.2500
 3295.5000   282.1710  -999.2500   -77.5870   117.8960     5.5180     4.6720     4.9230     0.2400  -999.2500   310.9830  -999.2500
 3296.0000   288.5210  -999.2500   -79.5400   105.2050     5.7820     4.7840     5.0790     0.2490  -999.2500   315.5560  -999.2500
 3296.5000   294.5690  -999.2500   -81.4630   108.7560     6.0460     4.8950     5.2170     0.2460  -999.2500   320.1290  -999.2500
 3297.0000   300.6160  -999.2500   -82.4930   117.1940     6.4640     5.0070     5.4290     0.2400  -999.2500   322.7090  -999.2500
 3297.5000   306.6640  -999.2500   -79.5120   125.4140     6.3690     5.1380     5.3790     0.2340  -999.2500   322.7090  -999.2500
 3298.0000   312.7110  -999.2500   -75.9980   126.1620     6.1650     5.1820     5.4150     0.2300  -999.2500   322.7090  -999.2500
 3298.5000   318.7590  -999.2500   -75.1320   126.1520     5.8970     5.2320     5.4430     0.2380  -999.2500   322.7090  -999.2500
 3299.0000   324.8060  -999.2500   -76.1670   126.1410     6.0050     5.2830     5.4710     0.2410  -999.2500   334.8760  -999.2500
 3299.5000   330.8540  -999.2500   -77.3250  -999.2500     6.1740     5.3330     5.5300     0.2410  -999.2500   348.8400  -999.2500
 3300.0000   336.9010  -999.2500   -78.0460  -999.2500     6.0370     5.3840     5.6320     0.2410  -999.2500   362.8040  -999.2500
 3300.5000   342.9490  -999.2500   -75.9440  -999.2500     5.8300     5.4530     5.8440     0.2410  -999.2500   371.8940  -999.2500
 3301.0000   348.9960  -999.2500   -73.9230  -999.2500     6.5820     5.6860     6.1630     0.2500  -999.2500   366.1070  -999.2500
 3301.5000   357.0180  -999.2500   -71.8600  -999.2500     7.3000     5.9200     6.4830     0.2660  -999.2500   360.3200  -999.2500
 3302.0000   363.1610  -999.2500   -71.8780  -999.2500     8.0190     6.1740     6.8020     0.2880  -999.2500   354.5320  -999.2500
 3302.5000   357.4780  -999.2500   -71.9790  -999.2500     8.5140     6.9570     7.0860     0.2670  -999.2500   348.7450  -999.2500
 3303.0000   351.2320  -999.2500   -70.2470  -999.2500     8.3800     6.8930     7.2910     0.2380  -999.2500   342.6290  -999.2500
 3303.5000   344.9860  -999.2500   -67.9150  -999.2500     8.2770     7.1710     7.5160     0.2170  -999.2500   351.8160  -999.2500
 3304.0000   349.9680  -999.2500   -66.1980  -999.2500     8.2070     7.3830     7.7410     0.2220  -999.2500   361.5550  -999.2500
 3304.5000   359.3740  -999.2500   -66.2440  -999.2500     8.8140     7.5950     7.9840     0.2280  -999.2500   371.2940  -999.2500
 3305.0000   368.7800  -999.2500   -66.4600  -999.2500     9.2750     7.7670     8.1320  -999.2500  -999.2500   381.0330  -999.2500
 3305.5000   378.1850  -999.2500   -66.6850  -999.2500     9.7350     7.7670     8.2070  -999.2500  -999.2500   390.7730  -999.2500
 3306.0000   387.5910  -999.2500   -66.9100  -999.2500    10.0440     7.7670     8.1470  -999.2500  -999.2500   400.5120  -999.2500
 3306.5000   396.9970  -999.2500   -67.1350  -999.2500     8.8800     7.6960     8.0580  -999.2500  -999.2500   410.2510  -999.2500
 3307.0000   406.4030  -999.2500   -67.3600  -999.2500     8.3590     7.4870     7.9230  -999.2500  -999.2500   419.9900  -999.2500
 3307.5000   415.8090  -999.2500   -67.5860  -999.2500     9.0090     7.2840     7.7380  -999.2500  -999.2500   429.7290  -999.2500
 3308.0000   425.2150  -999.2500   -67.8120  -999.2500     9.7720     7.1410     7.5530  -999.2500  -999.2500   439.4680  -999.2500
 3308.5000   434.6210  -999.2500   -68.0140  -999.2500     8.7610     6.9890     7.3680  -999.2500  -999.2500   449.2070  -999.2500
 3309.0000   444.0270  -999.2500   -67.9500  -999.2500     7.3920     6.8360     7.2170  -999.2500  -999.2500   458.9460  -999.2500
 3309.5000   453.4330  -999.2500   -67.8820  -999.2500     6.7680     6.7060     7.1570  -999.2500  -999.2500   468.6860  -999.2500
 3310.0000   462.8390  -999.2500   -67.8150  -999.2500     7.0500     6.2210     6.9120  -999.2500  -999.2500   478.4250  -999.2500
 3310.5000   472.2450  -999.2500   -67.7480  -999.2500     7.2970     5.7090     6.1720  -999.2500  -999.2500   488.1640  -999.2500
 3311.0000   481.6510  -999.2500   -67.6810  -999.2500     7.5560     5.1960     5.4310  -999.2500  -999.2500   497.9030  -999.2500
 3311.5000   491.0570  -999.2500   -67.6270  -999.2500     6.9350     4.6840     4.8940  -999.2500  -999.2500   507.6420  -999.2500
 3312.0000   500.4630  -999.2500   -67.8760  -999.2500     5.9570     4.1710     4.5160  -999.2500  -999.2500   517.3810  -999.2500
 3312.5000   502.7420  -999.2500   -68.1550  -999.2500     4.9800     3.9490     4.1380  -999.2500  -999.2500   527.1200  -999.2500
 3313.0000   502.7420  -999.2500   -68.1220  -999.2500     4.1220     3.7730     3.9160  -999.2500  -999.2500   536.8590  -999.2500
 3313.5000   510.8130  -999.2500   -67.9590  -999.2500     4.1720     3.5980     3.7450  -999.2500  -999.2500   546.9270  -999.2500
 3314.0000   533.0210  -999.2500   -67.8150  -999.2500     4.3090     3.4220     3.5730  -999.2500  -999.2500   557.3370  -999.2500
 3314.5000   548.9800  -999.2500   -67.8320  -999.2500     4.3950     3.2460     3.4300  -999.2500  -999.2500   567.7470  -999.2500
 3315.0000   560.1800  -999.2500   -68.2900  -999.2500     4.3240     3.1010     3.4060  -999.2500  -999.2500   578.1560  -999.2500
 3315.5000   571.3800  -999.2500   -68.6170  -999.2500     4.2500     3.1210     3.3990  -999.2500  -999.2500   588.5660  -999.2500
 3316.0000   582.5800  -999.2500   -68.9620  -999.2500     4.1600     3.1420     3.3990  -999.2500  -999.2500   598.9760  -999.2500
 3316.5000   593.7800  -999.2500   -69.3540  -999.2500     4.1860     3.1640     3.4300  -999.2500  -999.2500   609.3860  -999.2500
 3317.0000   604.9800  -999.2500   -68.7080  -999.2500     4.2560     3.1850     3.4940  -999.2500  -999.2500   619.7960  -999.2500
 3317.5000   616.1800  -999.2500   -68.0110  -999.2500     4.3250     3.2060     3.5410  -999.2500  -999.2500   630.2060  -999.2500
 3318.0000   627.3800  -999.2500   -67.3230  -999.2500     4.3950     3.2270     3.6240  -999.2500  -999.2500   640.6150  -999.2500
 3318.5000   638.5800  -999.2500   -67.1610  -999.2500     4.2980     3.2480     3.7850  -999.2500  -999.2500   651.3940  -999.2500
 3319.0000   649.7800  -999.2500   -67.0840  -999.2500     4.1980     3.2690     4.1120  -999.2500  -999.2500   655.1160  -999.2500
 3319.5000   660.9800  -999.2500   -67.0280  -999.2500     4.7390     3.2900     4.4400  -999.2500  -999.2500   658.9740  -999.2500
 3320.0000   672.2330  -999.2500  -999.2500  -999.2500     5.7170     3.3120     4.7680  -999.2500  -999.2500   664.0990  -999.2500
 3320.5000   687.6510  -999.2500  -999.2500  -999.2500     6.6960     3.3330     5.0950  -999.2500  -999.2500   671.3150  -999.2500
 3321.0000   707.0270  -999.2500  -999.2500  -999.2500     7.0910     3.3370     5.4230  -999.2500  -999.2500   696.2150  -999.2500
 3321.5000   726.4030  -999.2500  -999.2500  -999.2500     7.4220     3.3370     5.6840  -999.2500  -999.2500   721.2930  -999.2500
 3322.0000   745.7780  -999.2500  -999.2500  -999.2500     7.9200     3.3370     5.6580  -999.2500  -999.2500   746.3720  -999.2500
 3322.5000   765.1540  -999.2500  -999.2500  -999.2500     8.7350     3.3370     5.6360  -999.2500  -999.2500   771.4500  -999.2500
