~VERSION INFORMATION
 VERS.                2.0:   CWLS LOG ASCII STANDARD - VERSION 2.0
 WRAP.                 NO:   ONE LINE PER DEPTH STEP
~WELL INFORMATION
#MNEM.UNIT      DATA TYPE    INFORMATION
#----------   ------------   ------------------------------
 STRT.F            0.0000:   START DEPTH
 STOP.F         3504.0000:   STOP DEPTH
 STEP.F            0.5000:   STEP LENGTH
 NULL.          -999.2500:   NO VALUE
 COMP. LAWRENCE-ALLISON AND ASSOCIATES:   COMPANY
 WELL. LAWRENCE "TX" #16-34:   WELL
 FLD .              NPR 3:   FIELD
 LOC .      S34 T39N R78W:   LOCATION
 CNTY.            NATRONA:   COUNTY
 STAT.            WYOMING:   STATE
 CTRY. UNITED STATES OF AMERICA:   COUNTRY
 SRVC.       SCHLUMBERGER:   SERVICE COMPANY
 DATE.        10-APR-1982:   LOGDATE
 API .     49025108970000:   API NUMBER
~CURVE INFORMATION
#MNEM.UNIT       API CODE    CURVE DESCRIPTION
#----------   ------------   ------------------------------
 DEPT.F                  :   
 SPR .MV     07 010 01 00:   SPONTANEOUS POTENTIAL
 ILD .OHMM   07 120 46 00:   DEEP INDUCTION RESISTIVITY
 SFLU.OHMM   07 220 01 00:   SPHERICALLY FOCUSED LOG UNAVERAGED RESISTIVITY
 TENR.LBS    07 635 01 00:   TENSION FROM RESISTIVITY
 ILM .OHMM   07 120 44 00:   INDUCTION LOG MEDIUM RESISTIVITY
 GRD .GAPI   45 310 01 00:   GAMMA RAY FROM DENSITY LOG
 CALD.IN     45 280 60 00:   CALIPER FROM DENSITY LOG
 RHOB.G/C3   45 350 01 00:   BULK DENSITY
 CORR.G/C3   45 356 01 00:   DENSITY CORRECTION
 TEND.LBS    45 635 01 00:   TENSION FROM DENSITY LOG
 NPHI.DEC    42 890 03 00:   NEUTRON POROSITY SANDSTONE
~PARAMETER INFORMATION
#MNEM.UNIT          VALUE    DESCRIPTION
#----------   ------------   ------------------------------
 EKB .F         5149.0000:   Kelly bushing
 EGL .F         5139.0000:   Ground level
 EDF .F            0.0000:   Drilling floor
 TD  .F         3500.0000:   Total depth
 DATE.        10-APR-1982:   Date logged
 CLNT.            A2DTECH:   Client Code
 SL  . 1406' FSL & 423' FWL:   Surface Location
 PD  .                 GL:   Permanent Datum
 EPD .F              5139:   Elevation Permanent Datum
 LMF .                 KB:   Log Measured From
 DMF .                 KB:   Drilling Measured From
 DAPD.F                10:   Feet Above Permanent Datum
 DD  .F              3500:   Depth driller
 DL  .F              3497:   Depth logger
 BLI .F              3491:   Bottom log interval
 TLI .F               658:   Top log interval
 CS1 .IN            9.625:   Casing size
 CBD1.      9.625" @ 632':   Casing driller 1
 CBL1.F               658:   Casing logger 1
 BS1 .IN             8.75:   Bit size
 BSD1.F              3500:   Depth drilled with bit1
 DFT .           SPUD MUD:   Type fluid in hole
 DFD .                  9:   Density
 DFV .                 44:   Viscosity
 DFPH.                 10:   pH
 DFL .                  7:   Fluid loss
 MSS .           FLOWLINE:   Source of sample
 RMS .OHMM              2:   Rm
 MST .F                53:   Rm Meas. temp.
 RMF .OHMM            1.9:   Rmf
 MFST.F                53:   Rmf Meas. temp.
 RMC .OHMM            1.5:   Rmc
 MCST.F                53:   Rmc Meas. temp.
 MFSS.               MEAS:   Source Rmf.
 MCSS.               CALC:   Source Rmc.
 RMB .OHMM              1:   Rm. at BHT
 BHT .F               106:   BHT.
 TCS .HRS            1100:   Time Circ. stopped
 TLAB.HRS            1330:   Time logger at bottom
 MRT .F               106:   Maximum recorded temp.
 LUN .               8151:   Logging unit number
 LUL .                GLT:   Logging unit location
 ENGI.            NEUFFER:   Recorded By
 WITN.           JENNINGS:   Witnessed by
 ORIG.           5" PRINT:   Origin of data
 UWI .     49025108970000:   Unique Well ID
 DICO. A2D TECHNOLOGIES, INC.:   Digitizing Company
~OTHER INFORMATION
~A    DEPT     SPR        ILD       SFLU       TENR        ILM        GRD       CALD       RHOB       CORR       TEND       NPHI   
# ...
 3263.5000   -14.5140     3.0020     3.9550  1738.2620     3.1400   163.6270     7.8350     2.4750     0.0310  1740.0000     0.3470
 3264.0000   -14.4950     3.0460     3.9240  1738.2620     3.1880   162.3870     7.8350     2.4750     0.0290  1740.0000     0.3420
 3264.5000   -14.4770     3.0890     4.0230  1738.2620     3.2650   162.5600     7.8350     2.4740     0.0250  1740.0000     0.3370
 3265.0000   -14.4590     3.0770     4.1050  1738.2620     3.2590   162.5870     7.8350     2.4740     0.0220  1740.0000     0.3340
 3265.5000   -14.4410     3.0640     4.1850  1738.2620     3.2460   160.8350     7.8340     2.4730     0.0230  1740.0000     0.3360
 3266.0000   -14.4190     3.0520     4.1850  1738.2620     3.2330   159.1150     7.8340     2.4700     0.0260  1740.0000     0.3400
 3266.5000   -14.5130     3.0400     4.0440  1738.2620     3.2200   157.9270     7.8340     2.4630     0.0260  1740.0000     0.3460
 3267.0000   -14.6360     3.0250     3.9070  1738.2620     3.2070   158.2030     7.8340     2.4540     0.0190  1740.0000     0.3470
 3267.5000   -14.7600     2.9920     3.7480  1738.2620     3.1840   159.7090     7.8340     2.4480     0.0120  1740.0000     0.3440
 3268.0000   -14.8830     2.9600     3.7800  1738.2620     3.1500   161.2040     7.8340     2.4490     0.0120  1740.0000     0.3410
 3268.5000   -15.0070     2.9270     3.8170  1738.2620     3.1160   161.0200     7.8330     2.4580     0.0160  1740.0000     0.3540
 3269.0000   -15.1290     2.8940     3.7330  1738.2620     3.0830   161.0100     7.8330     2.4680     0.0200  1740.0000     0.3670
 3269.5000   -15.1610     2.8610     3.6530  1738.2620     3.0490   162.0440     7.8330     2.4670     0.0160  1740.0000     0.3740
 3270.0000   -15.0290     2.8180     3.5460  1738.2620     3.0160   163.0860     7.8330     2.4620     0.0100  1740.0000     0.3730
 3270.5000   -14.9010     2.8300     3.6160  1738.2620     2.9800   164.1210     7.8330     2.4590     0.0080  1740.0000     0.3690
 3271.0000   -14.7720     2.8480     3.7200  1738.2620     2.9950   164.1750     7.8330     2.4600     0.0110  1740.0000     0.3660
 3271.5000   -14.6430     2.8660     3.8170  1738.2620     3.0140   164.1510     7.8320     2.4610     0.0150  1740.0000     0.3610
 3272.0000   -14.5140     2.8850     3.6810  1738.2620     3.0340   163.9770     7.8320     2.4560     0.0160  1740.0000     0.3450
 3272.5000   -14.3850     2.9030     3.5140  1738.2620     3.0540   161.7250     7.8320     2.4510     0.0170  1740.0000     0.3330
 3273.0000   -14.2550     2.9210     3.6500  1738.2620     3.0730   160.2900     7.8320     2.4530     0.0180  1740.0000     0.3280
 3273.5000   -14.1280     2.9400     3.8770  1738.2620     3.0930   159.5300     7.8320     2.4550     0.0180  1740.0000     0.3240
 3274.0000   -14.0570     2.9580     3.9610  1738.2620     3.1130   158.9480     7.8310     2.4550     0.0160  1740.0000     0.3260
 3274.5000   -14.2600     2.9760     4.0460  1738.2620     3.1320   157.1320     7.8310     2.4530     0.0130  1740.0000     0.3270
 3275.0000   -14.4580     2.9950     4.0840  1738.2620     3.1520   154.9890     7.8310     2.4520     0.0120  1740.0000     0.3320
 3275.5000   -14.6560     3.0130     4.1090  1738.2620     3.1720   155.0900     7.8310     2.4590     0.0110  1740.0000     0.3400
 3276.0000   -14.8520     3.0330     4.0320  1738.2620     3.1910   155.6760     7.8310     2.4700     0.0160  1740.0000     0.3490
 3276.5000   -15.0140     3.0440     3.9220  1738.2620     3.2110   156.2660     7.8310     2.4800     0.0210  1740.0000     0.3510
 3277.0000   -14.9920     3.0570     3.7820  1738.2620     3.2320   156.1880     7.8300     2.4790     0.0170  1740.6541     0.3500
 3277.5000   -14.9730     3.0700     3.7950  1738.2620     3.2520   152.6600     7.8300     2.4720     0.0120  1741.5710     0.3540
 3278.0000   -14.9540     3.0820     3.8120  1738.2620     3.2730   145.9220     7.8300     2.4700     0.0070  1742.4880     0.3580
 3278.5000   -14.9360     3.0950     3.9960  1738.2620     3.2950   139.7370     7.8300     2.4790     0.0000  1743.4050     0.3500
 3279.0000   -14.9170     3.1080     4.4410  1738.2620     3.3920   129.9140     7.8300     2.5150     0.0000  1744.3210     0.3370
 3279.5000   -14.8990     3.1200     5.2160  1738.2620     3.4820   126.3220     7.8290     2.5620     0.0230  1745.2380     0.3240
 3280.0000   -14.8800     3.1330     5.9620  1738.2620     3.4820   128.0020     7.8290     2.6010     0.0540  1746.1550     0.3140
 3280.5000   -14.8620     3.1470     6.3890  1738.2620     3.3890   145.2940     7.8290     2.5580     0.0680  1747.0720     0.3320
 3281.0000   -14.8440     3.1250     4.9070  1738.2620     3.3140   152.1850     7.8290     2.4960     0.0460  1747.9890     0.3460
 3281.5000   -14.8250     3.1030     3.9020  1738.2620     3.2800   158.9170     7.8290     2.4540     0.0240  1748.9060     0.3480
 3282.0000   -14.8070     3.0810     3.5790  1738.2620     3.2470   163.5000     7.8290     2.4470     0.0170  1749.8230     0.3420
 3282.5000   -14.7880     3.0580     3.6330  1738.2620     3.2140   162.7280     7.8280     2.4660     0.0170  1750.7400     0.3360
 3283.0000   -14.7700     3.0360     3.6800  1738.2620     3.1800   164.5430     7.8280     2.4820     0.0140  1751.6570     0.3410
 3283.5000   -14.7510     3.0130     3.7270  1738.2620     3.1470   166.6580     7.8280     2.4920     0.0110  1752.5740     0.3480
 3284.0000   -14.7330     2.9910     3.8080  1738.2620     3.1130   168.8230     7.8280     2.4910     0.0070  1753.4900     0.3540
 3284.5000   -14.7140     2.9690     3.9150  1738.2620     3.0800   168.3950     7.8280     2.4840     0.0040  1754.4070     0.3500
 3285.0000   -14.6960     2.9500     3.9700  1738.2620     3.0330   167.7650     7.8270     2.4720     0.0030  1755.3240     0.3450
 3285.5000   -14.6770     2.9900     3.9850  1738.2620     3.0530   167.1450     7.8270     2.4570     0.0030  1756.2410     0.3430
 3286.0000   -14.6590     3.0230     4.0010  1738.2620     3.0870   166.2700     7.8270     2.4480     0.0030  1757.1580     0.3430
 3286.5000   -14.6410     3.0570     4.0170  1738.2620     3.1220   163.4600     7.8270     2.4420     0.0030  1758.0750     0.3440
 3287.0000   -14.6190     3.0910     4.0330  1738.2620     3.1560   160.0670     7.8270     2.4440     0.0030  1758.9919     0.3400
 3287.5000   -14.7330     3.1240     4.0490  1738.2620     3.1910   156.6390     7.8270     2.4470     0.0030  1759.9091     0.3340
 3288.0000   -14.9120     3.1580     4.0650  1738.2620     3.2250   153.2980     7.8260     2.4540     0.0030  1760.8260     0.3280
 3288.5000   -15.0920     3.1910     4.0810  1738.2620     3.2600   154.8070     7.8260     2.4690     0.0030  1761.7419     0.3280
 3289.0000   -15.2700     3.2250     4.0970  1738.2620     3.2940   156.7300     7.8260     2.4840     0.0020  1762.6591     0.3410
 3289.5000   -15.3820     3.2580     4.1130  1738.2620     3.3290   160.9310     7.8260     2.4850     0.0030  1763.5760     0.3480
 3290.0000   -15.2660     3.2910     4.1280  1738.2620     3.3620   165.3370     7.8260     2.4750     0.0090  1764.4930     0.3390
 3290.5000   -15.1560     3.2630     4.1440  1738.2620     3.3870   168.2740     7.8250     2.4650     0.0140  1765.4100     0.3300
 3291.0000   -15.0470     3.2130     4.1600  1738.2620     3.3600   168.3450     7.8250     2.4570     0.0150  1766.3270     0.3200
 3291.5000   -14.9370     3.1620     4.1850  1738.2620     3.3330   167.7530     7.8250     2.4580     0.0150  1767.2440     0.3290
 3292.0000   -14.8270     3.1120     4.1690  1738.2620     3.3060   166.0940     7.8250     2.4640     0.0180  1768.1610     0.3410
 3292.5000   -14.7170     3.0610     4.1330  1738.2620     3.2790   164.4230     7.8250     2.4710     0.0210  1769.0780     0.3540
 3293.0000   -14.6170     3.0110     4.0970  1738.2620     3.2320   164.5880     7.8250     2.4780     0.0190  1769.9950     0.3570
 3293.5000   -14.5850     2.9600     4.0610  1738.2620     3.1590   167.5820     7.8240     2.4770     0.0170  1770.9110     0.3470
