~VERSION INFORMATION
 VERS.                2.0:   CWLS LOG ASCII STANDARD - VERSION 2.0
 WRAP.                 NO:   ONE LINE PER DEPTH STEP
~WELL INFORMATION
#MNEM.UNIT      DATA TYPE    INFORMATION
#----------   ------------   ------------------------------
 STRT.F         2933.0000:   START DEPTH
 STOP.F         5494.0000:   STOP DEPTH
 STEP.F            0.5000:   STEP LENGTH
 NULL.          -999.2500:   NO VALUE
 COMP.    FENIX & SCISSON:   COMPANY
 WELL. FENIX "TPX" #56-10:   WELL
 FLD .        TEAPOT DOME:   FIELD
 LOC .      S10 T38N R78W:   LOCATION
 CNTY.            NATRONA:   COUNTY
 STAT.            WYOMING:   STATE
 CTRY. UNITED STATES OF AMERICA:   COUNTRY
 SRVC.       SCHLUMBERGER:   SERVICE COMPANY
 DATE.        22-MAY-1978:   LOGDATE
 API .     49025106100000:   API NUMBER
~CURVE INFORMATION
#MNEM.UNIT       API CODE    CURVE DESCRIPTION
#----------   ------------   ------------------------------
 DEPT.F                  :   
 NPHI.DEC    42 890 03 00:   NEUTRON POROSITY SANDSTONE
 GRD .GAPI   45 310 01 00:   GAMMA RAY FROM DENSITY LOG
 CALD.IN     45 280 60 00:   CALIPER FROM DENSITY LOG
 CORR.G/C3   45 356 01 00:   DENSITY CORRECTION
 RHOB.G/C3   45 350 01 00:   BULK DENSITY
 SPR .MV     07 010 01 00:   SPONTANEOUS POTENTIAL
 ILD .OHMM   07 120 46 00:   INDUCTION LOG DEEP RESISTIVITY
 ILM .OHMM   07 120 44 00:   INDUCTION LOG MEDIUM RESISTIVITY
 SFL .OHMM   07 220 01 00:   SHALLOW FOCUSED LOG RESISITIVITY
 DT  .US/F   60 520 00 00:   DELTA TIME
~PARAMETER INFORMATION
#MNEM.UNIT          VALUE    DESCRIPTION
#----------   ------------   ------------------------------
 EKB .F         5212.0000:   Kelly bushing
 EGL .F         5202.0000:   Ground level
 TD  .F         5500.0000:   Total depth
 CLNT.            A2DTECH:   Client Code
 SL  . 1270' FSL & 2130' FEL:   Surface Location
 PD  .                 GL:   Permanent Datum
 EPD .F              5202:   Elevation Permanent Datum
 LMF .                 KB:   Log Measured From
 DMF .                 KB:   Drilling Measured From
 DAPD.F                10:   Feet Above Permanent Datum
 DATE.        22-MAY-1978:   Date Logged [DD-MMM-YYYY]
 DD  .F              5500:   Depth driller
 DL  .F              5499:   Depth logger
 BLI .F              5497:   Bottom log interval
 TLI .F              2971:   Top log interval
 CS1 .IN            8.625:   Casing size
 CBD1.     8.625" @ 2972':   Casing driller 1
 CBL1.F              2971:   Casing logger 1
 BS1 .IN            7.875:   Bit size
 BSD1.F              5500:   Depth drilled with bit1
 DFT .                FGM:   Type fluid in hole
 DFD .                9.3:   Density
 DFV .                 57:   Viscosity
 DFPH.               10.5:   pH
 DFL .                  6:   Fluid loss
 MSS .           MUD TANK:   Source of sample
 RMS .OHMM           0.93:   Rm
 MST .F                58:   Rm Meas. temp.
 RMF .OHMM           0.71:   Rmf
 MFST.F                61:   Rmf Meas. temp.
 MFSS.               MEAS:   Source Rmf.
 RMB .OHMM           0.27:   Rm. at BHT
 BHT .F               198:   BHT.
 TCS .HRS            1500:   Time Circ. stopped
 TLAB.HRS            0100:   Time logger at bottom
 MRT .F               198:   Maximum recorded temp.
 LUN .               8039:   Logging unit number
 LUL .               CSPR:   Logging unit location
 ENGI.          CHALUPSKY:   Recorded By
 WITN.            RHOADES:   Witnessed by
 ORIG.      2.5" 5" PRINT:   Origin of data
 UWI .     49025106100000:   Unique Well ID
 DICO. A2D TECHNOLOGIES, INC.:   Digitizing Company
~OTHER INFORMATION
~A  DEPTH     NPHI        GRD       CALD       CORR       RHOB        SPR        ILD        ILM        SFL         DT
# ...
 5278.0000     0.0818    47.4991     8.6895     0.0039     2.7557   -31.7762    91.4592   137.4536   150.1202    55.0245
 5278.5000     0.0794    71.9827     8.6898     0.0038     2.7622   -30.7326    73.7493   106.3205   134.3112    56.9864
 5279.0000     0.0870    97.0632     8.6901     0.0009     2.7636   -30.0073    59.8820    83.9668    93.6516    58.0461
 5279.5000     0.0964   101.8452     8.6904    -0.0008     2.7640   -29.4131    51.7490    68.6510    68.0711    58.3539
 5280.0000     0.1176   106.6273     8.6907    -0.0021     2.6926   -28.8180    47.5301    53.4710    56.8277    58.5865
 5280.5000     0.1186   109.0212     8.6910     0.0009     2.6601   -28.0732    43.3087    46.1300    46.1303    58.9695
 5281.0000     0.1133   111.4152     8.6913     0.0012     2.6660   -27.1786    38.3540    42.3581    42.3939    58.7207
 5281.5000     0.1086   112.6151     8.6916     0.0038     2.6704   -26.5835    36.0169    39.0934    40.3262    58.3837
 5282.0000     0.1049   113.8151     8.6919     0.0067     2.6719   -26.2878    35.0139    38.5395    39.2902    58.3908
 5282.5000     0.1017   112.6270     8.6922     0.0067     2.6613   -26.5909    34.2753    38.5238    40.3745    58.5482
 5283.0000     0.1001   112.0358     8.6925     0.0046     2.6475   -27.0437    34.2567    38.5081    41.4888    58.5552
 5283.5000     0.0989   113.8364     8.6928     0.0030     2.6310   -27.0473    33.7671    38.2266    41.7622    58.4870
 5284.0000     0.0994   114.4523     8.6931    -0.0007     2.6149   -26.7515    33.5158    37.4248    42.0324    58.4171
 5284.5000     0.1015   116.2611     8.6934    -0.0061     2.6076   -26.7553    33.2664    36.6398    42.0075    58.7266
 5285.0000     0.1042   117.4328     8.6937    -0.0082     2.6102   -26.7590    33.0189    35.6236    41.4100    59.0344
 5285.5000     0.1079   118.0876     8.6940    -0.0053     2.6229   -26.7627    33.0009    35.1189    39.4317    59.3422
 5286.0000     0.1211   117.3812     8.6943    -0.0023     2.6340   -26.9364    32.7554    35.1046    37.2888    59.8004
 5286.5000     0.1241   116.8534     8.6946     0.0021     2.6538   -27.0703    32.2827    35.3343    37.0139    59.5064
 5287.0000     0.1199   117.5439     8.6949     0.0065     2.6700   -27.0740    31.8045    35.5656    36.7409    59.3632
 5287.5000     0.1176   118.1586     8.6952     0.0109     2.6784   -27.0777    31.3703    35.5475    36.2180    59.5207
 5288.0000     0.1152   118.6621     8.7079     0.0138     2.6723   -26.7811    31.1333    35.5330    36.2005    59.8285
 5288.5000     0.1129   117.3510     8.7394     0.0123     2.6525   -26.4863    30.6884    35.2732    36.1796    59.2139
 5289.0000     0.1117   116.1511     8.7562     0.0079     2.6422   -25.7414    30.2498    35.2589    36.4137    58.9403
 5289.5000     0.1111   115.0978     8.7565     0.0034     2.6451   -24.9966    30.0248    35.2445    36.6493    59.0994
 5290.0000     0.1111   116.4575     8.7568     0.0064     2.6673   -24.2518    29.8013    34.9868    36.6319    58.9561
 5290.5000     0.1105   118.4370     8.7571     0.0123     2.6747   -23.8055    29.5796    34.9726    36.8733    58.6606
 5291.0000     0.1105   120.0751     8.7574     0.0137     2.6555   -23.6594    29.5635    34.9583    37.1119    58.6694
 5291.5000     0.1105   121.2868     8.7577     0.0045     2.6303   -23.6640    29.5474    34.7028    37.6116    58.6764
 5292.0000     0.1124   121.6945     8.7580    -0.0044     2.6185   -23.8174    29.3275    34.4491    37.0722    59.1345
 5292.5000     0.1181   118.4373     8.7583    -0.0102     2.6288   -23.6714    29.1093    34.1969    36.2927    59.0646
 5293.0000     0.1248   115.2757     8.7586    -0.0115     2.6318   -23.8012    29.0935    34.1827    35.5296    59.4493
 5293.5000     0.1246   112.5156     8.7889    -0.0077     2.6273   -23.8030    28.6775    33.9299    35.0242    58.8549
 5294.0000     0.1196   112.1672     8.7892     0.0013     2.6307   -24.1075    28.4638    33.4493    35.0072    58.3252
 5294.5000     0.1158   112.1731     8.7895     0.0091     2.6381   -24.8609    28.2486    33.4356    35.5551    58.4178
 5295.0000     0.1153   112.1791     8.7898     0.0091     2.6436   -25.3145    27.8449    33.1912    38.0003    58.7256
 5295.5000     0.1157   112.1851     8.7901     0.0091     2.6432   -25.3204    27.6377    33.1777    38.2508    59.0335
 5296.0000     0.1174   112.4937     8.7904     0.0091     2.6387   -25.4755    27.4321    33.1642    37.4420    59.0406
 5296.5000     0.1177   113.1084     8.7907     0.0069     2.6337   -25.3306    27.4171    32.9217    35.9011    59.3499
 5297.0000     0.1178   114.3214     8.7910     0.0018     2.6261   -25.3380    27.2131    32.9083    35.1462    59.4321
 5297.5000     0.1183   115.8723     8.7913    -0.0057     2.6192   -25.9408    26.8242    32.6677    34.6463    59.3622
 5298.0000     0.1237   117.3419     8.7916    -0.0110     2.6139   -26.5437    26.2584    32.4289    34.1535    59.9725
 5298.5000     0.1264   119.3862     8.8219    -0.0109     2.6222   -26.8481    25.8831    31.9692    34.3786    59.5284
 5299.0000     0.1273   119.3921     8.8222    -0.0044     2.6327   -26.7047    25.3372    31.5161    34.3581    59.1595
 5299.5000     0.1267   117.0100     8.8225     0.0030     2.6420   -26.5612    24.8027    30.8524    34.1048    58.7906
 5300.0000     0.1261   112.2398     8.8228     0.0080     2.6479   -26.2687    24.0295    29.7895    33.8533    58.4951
 5300.5000     0.1259   111.6478     8.8273     0.0145     2.6644   -25.6551    23.6843    28.7632    33.8369    58.7280
 5301.0000     0.1273   112.2516     8.8326     0.0207     2.6720   -25.0864    23.3440    27.7723    33.5871    59.4364
 5301.5000     0.1386   112.8545     8.8380     0.0204     2.6753   -24.7937    23.3297    27.0020    33.1088    60.4703
 5302.0000     0.1457   114.0545     8.8434     0.0147     2.6700   -24.7975    23.0763    26.6194    32.1889    60.6265
 5302.5000     0.1463   116.4484     8.8487     0.0098     2.6634   -24.8004    22.9398    26.7936    31.0784    60.4820
 5303.0000     0.1404   115.2603     8.8541     0.0049     2.6568   -24.8033    22.8033    26.9694    30.6361    59.9616
 5303.5000     0.1336   113.4752     8.8594     0.0028     2.6538   -24.5098    22.6668    27.1457    31.9175    59.3660
 5304.0000     0.1310   111.6901     8.8648     0.0033     2.6509   -24.0665    22.5846    27.1373    33.2558    59.1448
 5304.5000     0.1389   110.5019     8.8701     0.0070     2.6642   -23.9205    22.4103    27.1226    33.2400    59.9041
 5305.0000     0.1468   119.4631     8.8755     0.0086     2.6805   -24.2245    22.3918    26.7328    32.5411    60.5115
 5305.5000     0.1598   124.8421     8.8812     0.0094     2.6893   -24.8259    22.3732    26.3451    31.8569    60.3670
 5306.0000     0.1613   126.6391     8.9111     0.0115     2.6953   -25.4273    22.6674    25.9593    31.4038    59.7654
 5306.5000     0.1564   121.2719     8.9410     0.0114     2.6701   -25.7302    22.9650    25.9399    31.8267    59.1568
 5307.0000     0.1408   114.5988     8.9408     0.0129     2.6582   -25.7346    23.2665    26.2820    33.6237    58.6568
 5307.5000     0.1323   111.1639     8.9407     0.0129     2.6491   -25.8883    23.5720    27.0051    37.2865    58.2853
 5308.0000     0.1318   110.0978     8.9405     0.0128     2.6435   -26.1912    24.2098    27.7428    39.3918    58.2926
 5308.5000     0.1342   113.1606     8.9450     0.0084     2.6545   -26.4941    24.8700    28.4954    40.5021    58.2985
 5309.0000     0.1365   114.3522     8.9764     0.0054     2.6598   -26.6478    25.3717    29.2739    41.0241    58.4548
 5309.5000     0.1383   113.1795     9.0002     0.0024     2.6524   -26.8199    25.8889    29.6655    41.2895    59.2126
 5310.0000     0.1437   112.5970     9.0000     0.0024     2.6430   -27.2546    26.4058    30.2600    41.5567    60.1207
 5310.5000     0.1496   110.8264     9.0103     0.0023     2.6420   -27.5575    26.9385    30.4478    41.5320    60.4273
 5311.0000     0.1609   112.0379     9.0298     0.0023     2.6606   -27.2623    27.2921    30.6362    40.0995    60.5836
