~VERSION INFORMATION
 VERS.                2.0:   CWLS LOG ASCII STANDARD - VERSION 2.0
 WRAP.                 NO:   ONE LINE PER DEPTH STEP
~WELL INFORMATION
#MNEM.UNIT      DATA TYPE    INFORMATION
#----------   ------------   ------------------------------
 STRT.F            0.5000:   START DEPTH
 STOP.F         4256.0000:   STOP DEPTH
 STEP.F            0.5000:   STEP LENGTH
 NULL.          -999.2500:   NO VALUE
 COMP. LAWRENCE-ALLISON & ASSOC:   COMPANY
 WELL. LAWRENCE "X" #64-15:   WELL
 FLD .        N.P.R. NO.3:   FIELD
 LOC .      S15 T38N R78W:   LOCATION
 CNTY.            NATRONA:   COUNTY
 STAT.            WYOMING:   STATE
 CTRY. UNITED STATES OF AMERICA:   COUNTRY
 SRVC.      DRESSER ATLAS:   SERVICE COMPANY
 DATE.        13-SEP-1984:   LOGDATE
 API .     49025111610000:   API NUMBER
~CURVE INFORMATION
#MNEM.UNIT       API CODE    CURVE DESCRIPTION
#----------   ------------   ------------------------------
 DEPT.F                  :   
 TENR.LBS    07 635 01 00:   TENSION FROM RESISTIVITY
 GRR .GAPI   07 310 01 00:   GAMMA RAY FROM RESISTIVITY
 RFOC.OHMM   07 220 04 00:   RESISTIVITY FOCUSED LOG RES.
 RILD.OHMM   07 120 46 00:   DEEP INDUCTION RESISTIVITY
 RILM.OHMM   07 120 44 00:   INDUCTION LOG MEDIUM RESISTIVITY
 SPR .MV     07 010 01 00:   SPONTANEOUS POTENTIAL
 DT  .US/F   60 520 00 00:   DELTA TIME
 TENS.LBS    60 635 01 00:   TENSION FROM SONIC
 CALD.IN     45 280 60 00:   CALIPER FROM DENSITY LOG
 TEND.LBS    45 635 01 00:   TENSION FORM DENSITY LOG
 CORR.G/C3   45 356 01 00:   DENSITY CORRECTION
 DEN .G/C3   45 350 01 00:   BULK DENSITY
 CNC .DEC    42 890 03 00:   NEUTRON POROSITY SANDSTONE
~PARAMETER INFORMATION
#MNEM.UNIT          VALUE    DESCRIPTION
#----------   ------------   ------------------------------
 EKB .F         5294.0000:   Kelly bushing
 EGL .F         5282.0000:   Ground level
 TD  .F         4256.0000:   Total depth
 CLNT.            A2DTECH:   Client Code
 SL  . 2299' FNL & 1785' FEL:   Surface Location
 PD  .                 GL:   Permanent Datum
 EPD .F              5282:   Elevation Permanent Datum
 LMF .                 KB:   Log Measured From
 DMF .                 KB:   Drilling Measured From
 DAPD.F                12:   Feet Above Permanent Datum
 DATE.        13-SEP-1984:   Date Logged [DD-MMM-YYYY]
 DD  .F              4256:   Depth driller
 DL  .F              4248:   Depth logger
 BLI .F              4246:   Bottom log interval
 TLI .F                 0:   Top log interval
 CS1 .IN            8.625:   Casing size
 CBD1.      8.625" @ 817':   Casing driller 1
 CBL1.F               814:   Casing logger 1
 BS1 .IN            7.875:   Bit size
 BSD1.F              4256:   Depth drilled with bit1
 DFT .            KCL-GEL:   Type fluid in hole
 DFD .                  9:   Density
 DFV .                 40:   Viscosity
 DFPH.                8.6:   pH
 DFL .               11.8:   Fluid loss
 MSS .            MUDTANK:   Source of sample
 RMS .OHMM           0.38:   Rm
 MST .F                74:   Rm Meas. temp.
 RMF .OHMM           0.31:   Rmf
 MFST.F                72:   Rmf Meas. temp.
 MFSS.               MEAS:   Source Rmf.
 RMC .OHMM           0.48:   Rmc
 MCST.F                74:   Rmc Meas. temp.
 MCSS.               CALC:   Source Rmc.
 RMB .OHMM           0.22:   Rm. at BHT
 BHT .F               134:   BHT.
 TCS .HRS               4:   Time Circ. stopped
 MRT .F               134:   Maximum recorded temp.
 LUN .            HL-6274:   Logging unit number
 LUL .           GILLETTE:   Logging unit location
 ENGI.             RAUTIO:   Recorded By
 WITN.            JOHNSON:   Witnessed by
 ORIG.        2" 5" PRINT:   Origin of data
 UWI .     49025111610000:   Unique Well ID
 DICO. A2D TECHNOLOGIES, INC.:   Digitizing Company
~OTHER INFORMATION
~A    DEPT    TENR         GRR      RFOC       RILD       RILM        SPR         DT       TENS       CALD       TEND       CORR        DEN        CNC   
# ...
 3978.5000   -15.0000    94.0059     7.1533     4.0805     4.5590   -43.8476    64.8955   -41.2803     8.7055   -15.9363     0.0307     2.6533     0.2270
 3979.0000   -15.0000    96.7163     7.6147     4.6554     5.0591   -43.8403    64.3689   -38.2948     8.7067   -15.9363     0.0293     2.6511     0.2207
 3979.5000   -15.0000   101.5313     7.3564     5.0964     5.3113   -44.1342    66.6180   -34.7689     8.7079   -25.8964     0.0353     2.6285     0.2148
 3980.0000   -15.0000   105.7447     6.9606     5.3539     5.5376   -44.2775    72.7680   -28.8048     8.7089   -25.8964     0.0429     2.6082     0.2092
 3980.5000   -35.0000   108.1536     6.7712     5.2762     5.6581   -44.4208    79.8933   -22.8406     8.7074   -25.8964     0.0475     2.5969     0.2216
 3981.0000   -25.0000   110.2618     6.5869     4.7559     5.0943   -44.4116    81.2422   -16.8765     8.7507   -25.8964     0.0429     2.5862     0.2363
 3981.5000   -15.0000   112.3700     6.4069     4.3167     4.6774   -44.4043    82.8912   -10.9124     8.7497   -35.8566     0.0384     2.5721     0.2462
 3982.0000   -15.0000   113.8840     5.5490     3.8642     4.1993   -44.3970    84.9902    -7.4529     8.7500   -44.0792     0.0385     2.5593     0.2556
 3982.5000   -15.0000   116.0249     4.6600     3.7331     3.7591   -44.5421    88.0645   -16.0221     8.7500   -41.3070     0.0415     2.5503     0.2676
 3983.0000    -5.9100   116.5893     4.4093     3.6064     3.5568   -44.8343    90.8040   -24.5913     8.7500   -38.5347     0.0476     2.5504     0.2834
 3983.5000    -8.4200   111.4802     4.2302     3.4361     3.4361   -44.9775    93.8041   -33.1605     8.7500   -35.8566     0.0521     2.5527     0.2965
 3984.0000   -10.9300   109.0763     4.1724     3.2948     3.3659   -44.8193    95.0365   -41.7296     8.7500   -41.2849     0.0491     2.5603     0.2995
 3984.5000   -13.4400   109.3807     4.4726     3.1528     3.3200   -44.6598    95.5605   -50.2988     8.7500   -53.7600     0.0431     2.5913     0.2941
 3985.0000   -25.0000   114.4964     4.5672     2.9927     3.2521   -44.5019    94.5084   -53.3865     8.7500   -55.7769     0.0356     2.6367     0.2881
 3985.5000   -25.0000   119.0106     4.3515     2.8712     3.0985   -44.3440    94.2068   -46.7596     8.7500   -65.7371     0.0295     2.6609     0.2862
 3986.0000    -8.1333   122.3218     3.9443     2.7356     3.0142   -43.8849    94.5054   -40.1328     8.7500   -67.4730     0.0250     2.6632     0.2923
 3986.5000   -25.0000   122.3248     3.8689     2.6245     2.8720   -43.5764    94.5794   -35.8566     8.7476   -74.6016     0.0387     2.6142     0.2965
 3987.0000   -25.0000   119.9224     3.9509     2.5355     2.6987   -43.2679    94.3525   -35.8566     8.7421   -85.6574     0.0553     2.5886     0.2917
 3987.5000   -35.0000   113.0080     3.8701     2.4665     2.5712   -43.1099    94.3510   -39.7300     8.7366   -85.6574     0.0432     2.5766     0.2856
 3988.0000   -32.9600   109.4019     3.7910     2.3994     2.4668   -43.1024    94.4996   -50.7747     8.7311   -82.0717     0.0659     2.5729     0.2820
 3988.5000   -25.0000   114.8184     3.6623     2.3493     2.4163   -43.0935    94.5053   -44.4472     8.7256   -67.8145     0.1203     2.5858     0.2950
 3989.0000   -25.0000   117.8288     3.5381     2.3316     2.4000   -43.2386    94.4966   -23.7384     8.7201   -65.7371     0.0977     2.5994     0.3010
 3989.5000   -25.0000   119.3355     3.3710     2.3348     2.4339   -43.3801    94.8832   -12.1638     8.7146   -55.7769     0.0811     2.5904     0.2931
 3990.0000   -25.0000   120.5414     3.2566     2.3513     2.5564   -43.5252    97.1542   -55.6524     8.7091   -59.4290     0.1144     2.5256     0.2967
 3990.5000   -25.0000   122.3489     3.2122     2.3680     2.6457   -43.6685   100.1933   -69.3930     8.7036   -64.9734     0.2575     2.4555     0.2989
 3991.0000   -25.0000   121.8950     3.4914     2.3848     2.7205   -43.9608   100.7173   -57.6986     8.6981   -67.8884     0.2972     2.4298     0.2946
 3991.5000   -25.0058   116.9419     3.9833     2.3851     2.7397   -44.1039    99.1401   -46.0042     8.6927   -70.3835     0.1990     2.4896     0.2907
 3992.0000   -25.5673   115.4410     4.2402     2.3526     2.6837   -44.2471    95.5377   -35.8566     8.6872   -72.8785     0.0797     2.5628     0.2831
 3992.5000   -28.1078   119.0530     3.9844     2.3367     2.6288   -44.0874    94.9361   -35.8566     8.6817   -75.3735     0.0616     2.6127     0.2937
 3993.0000   -30.6100   123.2664     3.6416     2.3533     2.5574   -43.9295    94.8596   -35.8566     8.6763   -75.6972     0.1100     2.6241     0.3040
 3993.5000   -33.1200   125.3746     3.4937     2.3699     2.5400   -44.0746    97.4087   -35.8566     8.6711   -75.6972     0.1689     2.5834     0.3145
 3994.0000   -32.2000   126.2798     3.4942     2.3215     2.5228   -44.2179    98.7576   -35.8566     8.6650   -81.0757     0.1855     2.5653     0.3058
 3994.5000   -21.0444   125.6727     3.6697     2.2740     2.5407   -44.2088    98.9945   -35.8566     8.6506   -65.7371     0.1569     2.5540     0.2925
 3995.0000   -15.0000   123.1181     3.7720     2.2276     2.5062   -44.3539    98.2295   -35.8566     8.6514   -55.7769     0.1282     2.5549     0.2820
 3995.5000   -15.0000   116.3645     3.7989     2.2125     2.4380   -44.5648    97.5529   -35.8566     8.6537   -45.8167     0.0950     2.5625     0.2784
 3996.0000   -15.0000   111.5554     3.6955     2.1975     2.4047   -44.6386    97.1763   -36.5511     8.6560   -42.3734     0.0270     2.5671     0.2753
 3996.5000   -75.0000   110.0538     3.5701     2.1959     2.3719   -44.6310    97.4943   -37.8944     8.6583   -35.8566     0.0527     2.5362     0.2747
 3997.0000   -25.0000   115.4710     3.4971     2.2134     2.4054   -44.6222    98.7484   -39.2376     8.6605   -35.8566     0.0769     2.5181     0.2814
 3997.5000   -25.0000   119.3837     3.4494     2.2307     2.4057   -44.6160    99.7972   -40.5809     8.6628   -35.8566     0.0618     2.5189     0.2853
 3998.0000    14.8308   121.4918     3.4499     2.2922     2.4060   -44.6076   100.0962   -41.9242     8.6651   -48.7763     0.0312     2.5376     0.2856
 3998.5000   -23.4471   121.1940     3.5721     2.3406     2.4399   -44.6002    97.0936   -43.2675     8.6673   -35.8566     0.0107     2.5855     0.2874
 3999.0000   -25.3615   112.5205     3.8906     2.4067     2.5107   -44.2917    94.0913   -44.6107     8.6696   -35.8566     0.0062     2.6172     0.2988
 3999.5000   -25.0000   104.3585     4.1044     2.4747     2.6340   -43.5314    92.3644   -45.5058     8.6718   -35.8566     0.0108     2.6339     0.3015
 4000.0000   -25.0000   102.5561     3.7773     2.5623     2.7273   -43.0723    91.8378   -42.4635     8.6741   -38.8497     0.0290     2.6400     0.2916
 4000.5000   -25.0000   108.5748     3.5990     2.6715     2.8135   -43.0648    94.1619   -39.4212     8.6763   -42.1820     0.0577     2.5766     0.2897
 4001.0000   -25.0000   112.8083     3.5994     2.7491     2.9044   -43.1023    97.3863   -36.3788     8.6786   -45.5144     0.0893     2.5261     0.2886
 4001.5000   -25.0000   115.2260     3.8591     2.7596     2.9662   -43.1777    98.2850   -33.3365     8.6808   -48.8467     0.0924     2.5224     0.2855
 4002.0000   -25.0000   105.6136     3.9960     2.7692     3.0294   -43.2054    97.5334   -30.2942     8.6831   -52.1790     0.0670     2.5413     0.2768
 4002.5000   -25.0000   104.4194     4.1091     2.6944     2.9678   -43.6517    96.7739   -27.2519     8.6853   -55.7769     0.0595     2.5527     0.2732
 4003.0000   -25.0000   110.4491     4.0239     2.6583     2.8675   -43.9485    96.4051   -27.2244     8.6876   -45.8167     0.0596     2.5452     0.2736
 4003.5000   -25.0000   118.8818     3.7693     2.6223     2.7676   -44.2455    98.4933   -29.6196     8.6899   -45.8167     0.0687     2.5407     0.2792
 4004.0000   -25.0000   117.6905     3.5796     2.5695     2.6403   -44.8434    99.9908   -32.0148     8.6892   -41.2600     0.0718     2.5446     0.2910
