~VERSION INFORMATION
 VERS.                2.0:   CWLS LOG ASCII STANDARD - VERSION 2.0
 WRAP.                 NO:   ONE LINE PER DEPTH STEP
~WELL INFORMATION
#MNEM.UNIT      DATA TYPE    INFORMATION
#----------   ------------   ------------------------------
 STRT.F          150.0000:   START DEPTH
 STOP.F         2980.0000:   STOP DEPTH
 STEP.F            0.5000:   STEP LENGTH
 NULL.          -999.2500:   NO VALUE
 COMP. FENIX & SCISSION U.S. NAVY:   COMPANY
 WELL.   FENIX "A" #84-20:   WELL
 FLD .             NPR #3:   FIELD
 LOC .      S20 T39N R78W:   LOCATION
 CNTY.            NATRONA:   COUNTY
 STAT.            WYOMING:   STATE
 CTRY. UNITED STATES OF AMERICA:   COUNTRY
 SRVC.       SCHLUMBERGER:   SERVICE COMPANY
 DATE.        21-FEB-1977:   LOGDATE
 API .     49025103020000:   API NUMBER
~CURVE INFORMATION
#MNEM.UNIT       API CODE    CURVE DESCRIPTION
#----------   ------------   ------------------------------
 DEPT.F                  :   
 NPHI.DEC    42 890 03 00:   NEUTRON POROSITY SANDSTONE
 GRD .GAPI   45 310 01 00:   GAMMA RAY FROM DENSITY LOG
 CALD.IN     45 280 60 00:   CALIPER FROM DENSITY LOG
 RHOB.G/C3   45 350 01 00:   BULK DENSITY
 DCOR.G/C3   45 356 01 00:   DENSITY CORRECTION
 SPR .MV     07 010 01 00:   SPONTANEOUS POTENTIAL
 LLD .OHMM   11 220 10 00:   LATEROLOG DEEP
 LLS .OHMM   11 220 09 00:   LATEROLOG SHALLOW
 MSFL.OHMM   07 270 04 00:   MICRO SPHERICALLY FOCUSED RES.
~PARAMETER INFORMATION
#MNEM.UNIT          VALUE    DESCRIPTION
#----------   ------------   ------------------------------
 EKB .F         5006.0000:   Kelly bushing
 EGL .F         4996.0000:   Ground level
 EDF .F            0.0000:   Drilling floor
 TD  .F         2973.0000:   Total depth
 DATE.        21-FEB-1977:   Date logged
 CLNT.            A2DTECH:   Client Code
 SL  . 330' FEL & 2310' FNL:   Surface Location
 PD  .                 GL:   Permanent Datum
 EPD .F              4996:   Elevation Permanent Datum
 LMF .                 KB:   Log Measured From
 DMF .                 KB:   Drilling Measured From
 DAPD.F                10:   Feet Above Permanent Datum
 DD  .F              2973:   Depth driller
 DL  .F              2971:   Depth logger
 BLI .F              2970:   Bottom log interval
 TLI .F               164:   Top log interval
 CS1 .IN            8.625:   Casing size
 CBD1.      8.625" @ 167':   Casing driller 1
 CBL1.F               164:   Casing logger 1
 BS1 .IN            7.875:   Bit size
 BSD1.F              2973:   Depth drilled with bit1
 DFT .            KCL MUD:   Type fluid in hole
 DFD .                9.5:   Density
 DFV .                 35:   Viscosity
 DFPH.                6.5:   pH
 DFL .                 11:   Fluid loss
 MSS .              CIRC.:   Source of sample
 RMS .OHMM           0.27:   Rm
 MST .F                72:   Rm Meas. temp.
 RMF .OHMM           0.19:   Rmf
 MFST.F                72:   Rmf Meas. temp.
 RMC .OHMM           0.35:   Rmc
 MCST.F                72:   Rmc Meas. temp.
 MFSS.               MEAS:   Source Rmf.
 MCSS.               CALC:   Source Rmc.
 RMB .OHMM           0.18:   Rm. at BHT
 BHT .F               110:   BHT.
 TCS .HRS            0300:   Time Circ. stopped
 TLAB.HRS            1000:   Time logger at bottom
 MRT .F               110:   Maximum recorded temp.
 LUN .               7711:   Logging unit number
 LUL .               CSPR:   Logging unit location
 ENGI.             SAYLER:   Recorded By
 WITN.               JAPP:   Witnessed by
 ORIG.           5" PRINT:   Origin of data
 UWI .     49025103020000:   Unique Well ID
 DICO. A2D TECHNOLOGIES, INC.:   Digitizing Company
~OTHER INFORMATION
~A   DEPT       NPHI       GRD      CALD       RHOB       DCOR        SPR        LLD        LLS       MSFL   
# ...
  332.5000     0.3160    98.5480    10.4210     2.4720     0.0210   -26.2300    12.5510    13.3470    13.1040
  333.0000     0.3050    98.8560    10.4140     2.4760     0.0280   -26.1500    12.6310    13.3470    13.1040
  333.5000     0.2970    98.7580    10.4070     2.4850     0.0380   -26.0700    12.6860    13.3480    13.1040
  334.0000     0.2880    98.1500    10.4000     2.4940     0.0250   -25.9890    12.7450    13.3470    13.1040
  334.5000     0.2920    97.4130    10.3930     2.5060     0.0290   -25.9090    12.8040    13.3470    13.1040
  335.0000     0.2980    97.4800    10.3900     2.5170     0.0390   -25.8280    12.8650    13.6760    13.2450
  335.5000     0.3030    98.4370    10.3940     2.5040     0.0310   -25.7480    13.4700    14.1110    13.3470
  336.0000     0.3080    99.3380    10.3980     2.4890     0.0240   -25.6670    14.3650    14.5470    15.1060
  336.5000     0.3140    99.7380    10.4020     2.5000     0.0320   -25.5870    14.0470    14.9030    16.3380
  337.0000     0.3210    97.8700    10.4060     2.5030     0.0360   -25.5060    13.4970    13.7750    14.7320
  337.5000     0.3260    98.3520    10.4090     2.5020     0.0410   -25.4260    12.9460    12.6310    13.1040
  338.0000     0.3290    98.8720    10.4120     2.5130     0.0500   -25.3450    12.4010    12.7000    13.1650
  338.5000     0.3240    99.3830    10.4140     2.5230     0.0590   -25.2650    12.4980    12.8700    13.2420
  339.0000     0.3180    99.0570    10.4170     2.5270     0.0630   -25.1850    12.6310    13.1040    13.3470
  339.5000     0.3130    98.6570    10.4190     2.5050     0.0470   -25.1040    12.3990    12.8340    13.0640
  340.0000     0.3090    98.2410    10.4220     2.4780     0.0380   -25.0240    12.0300    12.4020    12.6130
  340.5000     0.3210    97.9980    10.4240     2.4830     0.0330   -24.9430    11.6600    11.7350    12.1610
  341.0000     0.3300    97.7520    10.4260     2.4950     0.0290   -24.8630    11.3120    11.8520    11.7350
  341.5000     0.3400    97.1350    10.4290     2.4890     0.0290   -24.7820    11.6330    12.1110    12.2120
  342.0000     0.3410    96.1610    10.4430     2.4790     0.0220   -24.7020    11.9380    12.3700    12.6630
  342.5000     0.3450    95.5700    10.4580     2.4720     0.0270   -24.6210    12.4010    12.6290    13.3470
  343.0000     0.3480    96.0500    10.4720     2.4730     0.0370   -24.5400    12.2880    12.8650    13.2160
  343.5000     0.3480    96.4430    10.4860     2.4850     0.0490   -24.4610    12.0550    12.6020    12.9450
  344.0000     0.3440    95.9970    10.4560     2.5000     0.0570   -24.3790    11.8220    12.3600    12.6740
  344.5000     0.3380    95.4910    10.4200     2.5090     0.0690   -24.2990    11.5880    12.1180    12.4040
  345.0000     0.3340    96.5320    10.3910     2.4910     0.0310   -24.2230    11.3550    11.8770    12.1330
  345.5000     0.3390    99.5960    10.4300     2.5010     0.0380   -24.1240    11.1060    11.5220    11.7350
  346.0000     0.3350   103.6640    10.4690     2.5100     0.0540   -24.2320    10.9030    12.0420    12.2400
  346.5000     0.3310   106.0080    10.5070     2.4990     0.0500   -24.5090    11.9020    13.0220    13.6220
  347.0000     0.3320   105.8730    10.5310     2.4890     0.0440   -24.7630    13.3470    14.6320    17.2650
  347.5000     0.3310   105.3670    10.5390     2.4990     0.0480   -25.0180    12.7680    13.5130    15.6060
  348.0000     0.3280   106.6670    10.5460     2.4910     0.0410   -25.2770    10.1300    10.5100    10.3180
  348.5000     0.3320   108.2100    10.5460     2.4850     0.0400   -25.5320    10.2220    10.5530    10.4660
  349.0000     0.3390   108.0540    10.5460     2.4910     0.0420   -25.7890    10.4670    10.6680    10.8630
  349.5000     0.3350   107.7580    10.5460     2.4880     0.0360   -26.0460    10.7130    10.7830    11.2590
  350.0000     0.3310   108.2190    10.5460     2.4850     0.0310   -26.3030    11.1060    10.8980    11.7350
  350.5000     0.3310   108.8320    10.5460     2.4900     0.0360   -26.5600    10.9780    11.0130    11.6290
  351.0000     0.3340   108.5120    10.5460     2.4940     0.0400   -26.8160    10.6610    11.1060    11.4970
  351.5000     0.3370   108.1660    10.5480     2.5040     0.0420   -27.0730    10.3430    10.7260    11.3650
  352.0000     0.3370   108.2540    10.5600     2.5020     0.0410   -27.3300    10.0250    10.4090    11.0840
  352.5000     0.3320   108.4620    10.5720     2.5120     0.0480   -27.5830     9.7080    10.0930    10.7050
  353.0000     0.3260   108.0710    10.5840     2.5090     0.0470   -27.7950     9.3900     9.7770    10.3250
  353.5000     0.3240   107.7410    10.5960     2.5020     0.0500   -27.9790     9.0720     9.5290     9.9460
  354.0000     0.3140   108.2940    10.6080     2.4880     0.0340   -28.1600     9.0380     9.3850     9.8640
  354.5000     0.3110   109.6220    10.6200     2.4800     0.0230   -28.3430     9.0030     9.2410     9.7830
  355.0000     0.3120   111.1480    10.6100     2.4800     0.0240   -28.4860     8.9690     9.2800     9.7010
  355.5000     0.3190   111.2100    10.5850     2.4810     0.0240   -28.5280     8.9350     9.3190     9.5870
  356.0000     0.3250   109.7960    10.5590     2.4810     0.0270   -28.5650     8.9070     9.3590     9.6510
  356.5000     0.3300   108.6190    10.5330     2.4870     0.0260   -28.6000     8.9830     9.3980     9.7590
  357.0000     0.3300   108.4080    10.5080     2.4950     0.0320   -28.6360     9.0460     9.4370     9.8670
  357.5000     0.3300   108.2940    10.4910     2.5010     0.0400   -28.6710     9.1090     9.4770     9.9750
  358.0000     0.3270   108.4870    10.5120     2.4960     0.0350   -28.7070     9.1720     9.5160    10.0830
  358.5000     0.3250   108.7310    10.5320     2.4990     0.0410   -28.7420     9.2350     9.5550    10.1900
  359.0000     0.3270   108.6560    10.5530     2.4970     0.0330   -28.7770     9.2980     9.5870    10.2980
  359.5000     0.3340   108.1580    10.5730     2.4930     0.0270   -28.8140     9.3620     9.7660    10.4060
  360.0000     0.3410   107.6620    10.5930     2.4930     0.0270   -28.8480     9.4120     9.9160    10.5140
  360.5000     0.3430   107.1670    10.6140     2.4980     0.0350   -28.8790     9.6180    10.0650    10.6220
  361.0000     0.3410   106.8160    10.6340     2.5090     0.0420   -28.8160     9.7890    10.2150    10.7290
  361.5000     0.3350   106.4900    10.6540     2.5210     0.0430   -28.7500     9.9610    10.3650    10.8370
  362.0000     0.3290   105.9700    10.6650     2.5260     0.0470   -28.6800    10.1320    10.5140    10.9450
  362.5000     0.3230   105.0770    10.6650     2.5130     0.0460   -28.6130    10.3040    10.6640    11.0530
  363.0000     0.3170   103.9740    10.6650     2.5040     0.0370   -28.5450    10.5100    10.8140    11.1610
  363.5000     0.3130   102.1330    10.6650     2.4940     0.0270   -28.4770    10.5100    10.9030    11.2690
  364.0000     0.3100   100.5190    10.6650     2.4870     0.0320   -28.4090    10.5100    10.9030    11.3120
  364.5000     0.3080    99.7610    10.6650     2.4900     0.0360   -28.3410    10.5100    10.9030    11.3120
  365.0000     0.3110    99.4410    10.6650     2.4900     0.0350   -28.2730    10.5100    11.0220    11.3120
  365.5000     0.3180    99.2290    10.6650     2.4950     0.0360   -28.2050    10.8160    11.2210    11.5710
  366.0000     0.3250    99.7310    10.6650     2.5080     0.0450   -28.1370    11.0710    11.4200    11.8940
  366.5000     0.3290   100.3890    10.6660     2.5230     0.0480   -28.0700    11.3270    11.6180    12.2180
  367.0000     0.3300   101.4640    10.6680     2.5150     0.0510   -28.0020    11.5820    11.8170    12.5410
  367.5000     0.3290   102.5160    10.6690     2.5060     0.0360   -27.9340    11.7350    12.0160    12.8650
  368.0000     0.3270   103.1510    10.6710     2.5010     0.0300   -27.8660    11.6750    12.1750    12.7360
  368.5000     0.3240   103.6510    10.6720     2.5210     0.0470   -27.7980    11.6150    12.1040    12.6070
