~VERSION INFORMATION
 VERS.                2.0:   CWLS LOG ASCII STANDARD - VERSION 2.0
 WRAP.                 NO:   ONE LINE PER DEPTH STEP
~WELL INFORMATION
#MNEM.UNIT      DATA TYPE    INFORMATION
#----------   ------------   ------------------------------
 STRT.F          212.0000:   START DEPTH
 STOP.F         2806.0000:   STOP DEPTH
 STEP.F            0.5000:   STEP LENGTH
 NULL.          -999.2500:   NO VALUE
 COMP.    FENIX & SCISSON:   COMPANY
 WELL.    FENIX AX #12-21:   WELL
 FLD .        TEAPOT DOME:   FIELD
 LOC .      S21 T39N R78W:   LOCATION
 CNTY.            NATRONA:   COUNTY
 STAT.            WYOMING:   STATE
 CTRY. UNITED STATES OF AMERICA:   COUNTRY
 SRVC.           BIRDWELL:   SERVICE COMPANY
 DATE.        14-AUG-1973:   LOGDATE
 API .     49025106930000:   API NUMBER
~CURVE INFORMATION
#MNEM.UNIT       API CODE    CURVE DESCRIPTION
#----------   ------------   ------------------------------
 DEPT.F                  :   
 SN  .OHMM   05 040 16 00:   SHORT NORMAL 16"
 ILD .OHMM   05 120 46 00:   INDUCTION LOG DEEP RESISTIVITY
 RHOB.G/C3   45 350 01 00:   BULK DENSITY
 CORR.G/C3   45 356 01 00:   DENSITY CORRECTION
 GRD .GAPI   45 310 01 00:   GAMMA RAY FROM DENSITY LOG
 CALD.IN     45 280 60 00:   CALIPER FROM DENSITY LOG
 SPR .MV     05 010 01 00:   SPONTANEOUS POTENTIAL
~PARAMETER INFORMATION
#MNEM.UNIT          VALUE    DESCRIPTION
#----------   ------------   ------------------------------
 EKB .F         4998.0000:   Kelly bushing
 EGL .F         4988.0000:   Ground level
 EDF .F            0.0000:   Drilling floor
 EPD .F         4988.0000:   Permanent datum
 TD  .F         2809.0000:   Total depth
 DATE.        14-AUG-1973:   Date logged
 CLNT.            A2DTECH:   Client Code
 SL  . 1300' FNL & 300' FWL:   Surface Location
 PD  .                 GL:   Permanent Datum
 DD  .F              2800:   Depth driller
 DL  .F              2809:   Depth logger
 BLI .F              2803:   Bottom log interval
 TLI .F               235:   Top log interval
 CS1 .IN            8.625:   Casing size
 BS1 .IN            7.875:   Bit size
 BSD1.F              2800:   Depth drilled with bit1
 DFT .                GEL:   Type fluid in hole
 DFD .                9.7:   Density
 DFV .                 34:   Viscosity
 DFPH.                 12:   pH
 MSS .           FLOWLINE:   Source of sample
 RMS .OHMM            .15:   Rm
 MST .F                57:   Rm Meas. temp.
 RMF .OHMM            .95:   Rmf
 MFST.F                69:   Rmf Meas. temp.
 RMC .OHMM            1.5:   Rmc
 MCST.F                78:   Rmc Meas. temp.
 MFSS.               MEAS:   Source Rmf.
 RMB .OHMM            .87:   Rm. at BHT
 BHT .F               115:   BHT.
 TCS .HRS               3:   Time Circ. stopped
 MRT .F               115:   Maximum recorded temp.
 LUN .               3006:   Logging unit number
 LUL .               CASP:   Logging unit location
 ENGI.             MILLER:   Recorded By
 WITN.           MCGINLEY:   Witnessed by
 UWI .     49025106930000:   Unique Well ID
 DICO. A2D TECHNOLOGIES, INC.:   Digitizing Company
 ORIG.           5" PRINT:   Origin of data
~OTHER INFORMATION
~A   DEPT       SN        ILD       RHOB       CORR         GRD      CALD        SPR   
# ...
 2077.5000     5.0150     3.9360     2.5180     0.1350    89.9150     9.1910   -13.8830
 2078.0000     4.6800     3.8220     2.5180     0.1430    90.9020     9.1880   -13.8920
 2078.5000     4.3790     3.7010     2.5170     0.1510    93.0060     9.1840   -13.9020
 2079.0000     4.2110     3.5730     2.5170     0.1590    94.4930     9.1800   -13.9120
 2079.5000     4.1620     3.4450     2.5160     0.1650    93.3480     9.1730   -13.9210
 2080.0000     4.1110     3.3180     2.5170     0.1660    91.8760     9.1650   -13.9310
 2080.5000     4.0590     3.1380     2.5240     0.1720    90.3790     9.1930   -13.9260
 2081.0000     3.9230     3.1400     2.5250     0.1680    90.3770     9.2560   -13.9180
 2081.5000     3.7860     3.1440     2.5230     0.1670    92.0760     9.2360   -13.9100
 2082.0000     3.6490     3.1480     2.5220     0.1690    94.1210     9.2110   -13.9010
 2082.5000     3.5520     3.1520     2.5210     0.1700    95.7940     9.2250   -13.8930
 2083.0000     3.5040     3.1570     2.5250     0.1740    97.7580     9.2700   -13.8840
 2083.5000     3.5070     3.1610     2.5310     0.1850    99.7110     9.3160   -13.8760
 2084.0000     3.5110     3.1650     2.5370     0.1870    99.3800     9.3360   -13.8680
 2084.5000     3.5160     3.1690     2.5380     0.1810    97.0840     9.3560   -13.8590
 2085.0000     3.5200     3.1730     2.5230     0.1740    94.3860     9.3640   -13.8510
 2085.5000     3.5240     3.1770     2.5230     0.1740    93.2750     9.3720   -13.8430
 2086.0000     3.5280     3.1810     2.5240     0.1740    94.1560     9.3800   -13.8340
 2086.5000     3.5320     3.1850     2.5250     0.1730    96.6430     9.3880   -13.8260
 2087.0000     3.5360     3.1890     2.5260     0.1730    97.1790     9.3960   -13.8170
 2087.5000     3.5570     3.1930     2.5280     0.1720    97.4830     9.4040   -13.8090
 2088.0000     3.5760     3.1970     2.5280     0.1710    95.9700     9.4130   -13.8010
 2088.5000     3.5950     3.2010     2.5270     0.1680    93.7530     9.4210   -13.7920
 2089.0000     3.6140     3.2050     2.5210     0.1660    92.5630     9.4280   -13.7840
 2089.5000     3.6330     3.2090     2.5140     0.1630    91.3110     9.4260   -13.7760
 2090.0000     3.6520     3.2130     2.5140     0.1610    89.3920     9.3970   -13.7670
 2090.5000     3.6720     3.2170     2.5140     0.1690    99.1720     9.4420   -13.7590
 2091.0000     3.6970     3.2210     2.5150     0.1740    96.3700     9.4860   -13.7510
 2091.5000     3.7330     3.2260     2.5150     0.1730    95.6720     9.5310   -13.7420
 2092.0000     3.7250     3.1820     2.5160     0.1720    94.6710     9.5420   -13.7030
 2092.5000     3.6930     3.1360     2.5160     0.1710   108.0950     9.5530   -13.5070
 2093.0000     3.6610     3.0900     2.5160     0.1710   132.6860     9.5630   -13.3110
 2093.5000     3.6000     3.0450     2.5170     0.1790  -999.2500     9.5670   -13.1160
 2094.0000     3.4210     2.9990     2.5170     0.1860  -999.2500     9.5410   -12.9210
 2094.5000     3.1380     2.9530     2.5170     0.1930  -999.2500     9.5140   -12.7250
 2095.0000     3.1420     2.9080     2.5180     0.2010  -999.2500     9.4950   -12.5300
 2095.5000     3.1530     2.8620     2.5180     0.2030  -999.2500     9.5110   -12.3350
 2096.0000     3.1630     2.8360     2.5180     0.2040  -999.2500     9.5260   -12.1390
 2096.5000     3.1750     2.8710     2.5170     0.2050  -999.2500     9.5400   -11.9420
 2097.0000     3.1890     2.9500     2.5120     0.2070  -999.2500     9.5520   -11.7690
 2097.5000     3.2560     3.0250     2.5110     0.2090  -999.2500     9.5480   -11.9660
 2098.0000     3.4880     3.1930     2.5190     0.2120  -999.2500     9.5450   -12.1670
 2098.5000     3.7020     3.3520     2.5270     0.2150  -999.2500     9.5420   -12.3670
 2099.0000     3.8770     3.5110     2.5310     0.2150  -999.2500     9.5390   -12.5660
 2099.5000     4.2020     3.6700     2.5350     0.2130  -999.2500     9.5350   -12.7450
 2100.0000     4.5320     3.8280     2.5380     0.2120  -999.2500     9.5330   -12.7490
 2100.5000     4.7450     3.9870     2.5420     0.2120  -999.2500     9.5830   -12.7660
 2101.0000     4.8480     4.0960     2.5460     0.2120   111.7870     9.5930   -12.7830
 2101.5000     4.9690     4.1170     2.5500     0.2120    90.2820     9.5600   -12.8000
 2102.0000     5.0150     4.1400     2.5490     0.2120    90.7410     9.5270   -12.8170
 2102.5000     4.9130     4.1620     2.5440     0.2030    82.8520     9.4940   -12.8350
 2103.0000     4.7890     4.1850     2.5320     0.1940    83.4580     9.4850   -12.8520
 2103.5000     4.7890     4.2070     2.5220     0.1860    85.9700     9.4770   -12.8690
 2104.0000     4.8890     4.2300     2.5190     0.1880    89.9850     9.4510   -12.8860
 2104.5000     5.0680     4.2520     2.5220     0.1890    93.9340     9.4170   -12.9030
 2105.0000     5.2500     4.2750     2.5280     0.1900    95.6300     9.4480   -12.9200
 2105.5000     5.2560     4.2970     2.5350     0.1840    95.5570     9.4820   -12.9370
 2106.0000     5.2620     4.3200     2.5370     0.1750    92.3520     9.4550   -12.9000
 2106.5000     5.2690     4.3430     2.5380     0.1670    87.4460     9.3940   -12.8280
 2107.0000     5.2750     4.3650     2.5390     0.1640    87.3990     9.3760   -12.7560
 2107.5000     5.2810     4.3880     2.5400     0.1640    88.3170     9.3760   -12.6830
 2108.0000     5.2870     4.4100     2.5480     0.1640    89.2790     9.3680   -12.6100
 2108.5000     5.2930     4.4330     2.5640     0.1630    87.0680     9.3570   -12.5360
 2109.0000     5.2990     4.4650     2.5760     0.1630    84.4460     9.3450   -12.4660
 2109.5000     5.5690     4.5290     2.5770     0.1630    83.4760     9.3340   -12.3990
 2110.0000     5.6160     4.5920     2.5790     0.1640    87.3120     9.3230   -12.8750
 2110.5000     5.7660     4.6560     2.5830     0.1660    89.6780     9.3110   -13.9200
 2111.0000     6.1990     4.7260     2.5910     0.1650    89.4160     9.3020   -13.9520
 2111.5000     6.3630     4.8120     2.5850     0.1600    88.3340     9.2380   -13.9640
 2112.0000     6.4420     4.8980     2.5730     0.1490    85.5630     9.1040   -13.9800
 2112.5000     6.4720     4.9840     2.5780     0.1520    86.2240     9.1080   -13.9960
 2113.0000     6.5030     5.1080     2.5860     0.1570    87.0330     9.1630   -14.0120
 2113.5000     6.5330     5.1180     2.5860     0.1530    87.8650     9.1390   -14.0290
 2114.0000     6.5630     5.1300     2.5820     0.1440    89.0120     9.0910   -14.0450
 2114.5000     6.5940     5.1420     2.5800     0.1390    90.1630     9.0580   -14.0610
 2115.0000     6.6240     5.1540     2.5810     0.1380    91.3240     9.0460   -14.0780
 2115.5000     6.6540     5.1660     2.5810     0.1370    91.5670     9.0340   -14.0940
 2116.0000     6.6680     5.1780     2.5810     0.1320    90.7150     9.0240   -14.1100
 2116.5000     6.6680     5.1900     2.5810     0.1210    88.9610     9.0270   -14.1270
 2117.0000     6.6680     5.2020     2.5820     0.1120    87.2490     9.0310   -14.1150
 2117.5000     6.6680     5.1850     2.5820     0.1070    85.7250     9.0350   -14.0890
 2118.0000     6.6680     5.1680     2.5820     0.1030    84.1470     9.0390   -14.0630
 2118.5000     6.6440     5.1510     2.5800     0.0990    80.8370     9.0420   -14.0370
 2119.0000     6.5210     5.1330     2.5650     0.0880    81.5880     9.0460   -14.0110
 2119.5000     6.3970     5.1160     2.5560     0.0770    82.8610     9.0500   -13.9840
 2120.0000     6.2740     5.0980     2.5580     0.0780    85.0610     9.0540   -13.9580
 2120.5000     6.2090     5.0810     2.5640     0.0840    91.4810     9.0570   -13.9340
 2121.0000     6.1440     5.0640     2.5640     0.0850    93.3920     9.0610   -13.9590
 2121.5000     6.1720     5.0080     2.5650     0.0850    94.0860     9.0690   -13.9850
 2122.0000     6.2520     4.9440     2.5650     0.0860    93.9450     9.0800   -14.0100
 2122.5000     6.2360     4.8800     2.5620     0.0860    88.4990     9.1030   -14.0360
