~VERSION INFORMATION
 VERS.                2.0:   CWLS LOG ASCII STANDARD - VERSION 2.0
 WRAP.                 NO:   ONE LINE PER DEPTH STEP
~WELL INFORMATION
#MNEM.UNIT      DATA TYPE    INFORMATION
#----------   ------------   ------------------------------
 STRT.F           57.0000:   START DEPTH
 STOP.F         5817.0000:   STOP DEPTH
 STEP.F            0.5000:   STEP LENGTH
 NULL.          -999.2500:   NO VALUE
 COMP. DEPARTMENT OF ENERGY:   COMPANY
 WELL. DEPARTMENT NPR 371 "X" #1-4:   WELL
 FLD .              NPR-3:   FIELD
 LOC .       S4 T38N R78W:   LOCATION
 CNTY.            NATRONA:   COUNTY
 STAT.            WYOMING:   STATE
 CTRY. UNITED STATES OF AMERICA:   COUNTRY
 SRVC.       SCHLUMBERGER:   SERVICE COMPANY
 DATE.        25-AUG-2002:   LOGDATE
 API .     49025230480000:   API NUMBER
~CURVE INFORMATION
#MNEM.UNIT       API CODE    CURVE DESCRIPTION
#----------   ------------   ------------------------------
 DEPT.F                  :   
 HCAL.IN     07 280 01 00:   HRLT CALIPER
 RLA1.OHMM   06 120 01 00:   HRLT RESISTIVITY 1
 RLA2.OHMM   06 120 02 00:   HRLT RESISTIVITY 2
 RLA3.OHMM   06 120 03 00:   HRLT RESISTIVITY 3
 RXOZ.OHMM   06 270 04 00:   STAN RES. MICROCFL RESISTIVITY
 TENR.LBS    06 635 01 00:   TENSION FROM RESITIVITY
 GRR .GAPI   07 310 01 00:   GAMMA RAY FROM RESISTIVITY
 SPHI.DEC    60 890 22 00:   SONIC POROSITY SANDSTONE
 DT  .US/F   60 520 00 00:   DELTA TIME
 TENS.LBS    60 635 01 00:   TENSION FROM SONIC
 RT  .OHMM   06 120 00 00:   HRLT TRUE RESISTIVITY
~PARAMETER INFORMATION
#MNEM.UNIT          VALUE    DESCRIPTION
#----------   ------------   ------------------------------
 EKB .F         5196.0000:   Kelly bushing
 EGL .F         5186.0000:   Ground level
 EDF .F         5194.0000:   Drilling floor
 TD  .F         5803.0000:   Total depth
 CLNT.            A2DTECH:   Client Code
 SL  . 794' FEL & 333' FNL:   Surface Location
 PD  .                 GL:   Permanent Datum
 EPD .F              5186:   Elevation Permanent Datum
 LMF .                 KB:   Log Measured From
 DMF .                 KB:   Drilling Measured From
 DAPD.F                10:   Feet Above Permanent Datum
 DATE.        25-AUG-2002:   Date Logged [DD-MMM-YYYY]
 DD  .F              5800:   Depth driller
 DL  .F              5803:   Depth logger
 BLI .F              5803:   Bottom log interval
 TLI .F               656:   Top log interval
 CS1 .IN            9.625:   Casing size
 CBD1.      9.625" @ 660':   Casing driller 1
 CBL1.F               656:   Casing logger 1
 BS1 .IN            8.750:   Bit size
 BSD1.F              5800:   Depth drilled with bit1
 DFT .           GEL CHEM:   Type fluid in hole
 DFD .                  9:   Density
 DFV .                 36:   Viscosity
 DFPH.                8.5:   pH
 DFL .                7.6:   Fluid loss
 MSS .           FLOWLINE:   Source of sample
 RMS .OHMM          0.846:   Rm
 MST .F                90:   Rm Meas. temp.
 RMF .OHMM          0.670:   Rmf
 MFST.F                90:   Rmf Meas. temp.
 MFSS.               MEAS:   Source Rmf.
 RMC .OHMM          1.075:   Rmc
 MCST.F                90:   Rmc Meas. temp.
 MCSS.               CALC:   Source Rmc.
 TCS .HRS            0300:   Time Circ. stopped
 TLAB.HRS            0915:   Time logger at bottom
 MRT .F               156:   Maximum recorded temp.
 LUN .               2211:   Logging unit number
 LUL .             CASPER:   Logging unit location
 ENGI.        J.L. FLORES:   Recorded By
 WITN.        STEVE HARDY:   Witnessed by
 ORIG.        2" 5" PRINT:   Origin of data
 UWI .     49025230480000:   Unique Well ID
 DICO. A2D TECHNOLOGIES, INC.:   Digitizing Company
~OTHER INFORMATION
~A   DEPT     HCAL       RLA1       RLA2       RLA3       RXOZ       TENR         GRR      SPHI         DT       TENS         RT   
# ...
 2375.0000    10.3278    11.6483    16.4154    15.1547    10.7510  1691.5394   120.9338  -999.2500    93.2854  1280.1205    11.6484
 2375.5000    10.3120    14.7446    17.1124    17.1698    12.6972  1690.7760   120.5910  -999.2500    92.0763  1280.1205    14.8448
 2376.0000    10.2810    15.6943    15.3163    15.4733    13.4207  1689.9999   120.1358     0.2968    91.4712  1280.1205    15.4744
 2376.5000    10.2048    12.5739    13.3339    13.0102    12.1779  1689.0585   120.5833     0.2947    91.9236  1280.1205    13.3773
 2377.0000    10.1284    11.4913    12.0174    11.9712    10.7481  1688.2950   119.4503     0.2987    92.3761  1280.1205    12.2240
 2377.5000    10.1277    11.0239    12.9694    13.8481     9.8891  1787.5320   121.7059     0.3005    92.5265  1280.1205    13.4684
 2378.0000    10.1420    13.3858    15.2105    15.3664    10.7466  1836.7686   116.9576     0.3005    91.7703  1280.1205    15.3630
 2378.5000    10.1866    12.4905    14.4902    14.6382    11.6783  1835.8141   113.7915     0.2926    90.7877  1280.1205    13.9415
 2379.0000    10.1707    12.1354    13.9967    14.3368    11.8409  1784.8601   113.1103     0.2824    89.4882  1280.1205    14.0376
 2379.5000    10.1851    12.3201    12.9694    13.1919    11.0465  1784.0967   111.9764     0.2769    88.8979  1280.1205    13.0967
 2380.0000    10.2598    10.7263    12.2699    11.9712     9.4172  1783.3333   111.2953     0.2747    88.8972  1280.1205    12.2190
 2380.5000    10.2893    11.4969    13.8041    13.6574     9.2227  1782.3792   111.5173     0.2748    88.9720  1280.1205    13.3700
 2381.0000    10.1979    13.2155    11.6081    11.4833    10.8921  1781.6157   115.3538     0.2763    89.5754  1280.1205    11.7196
 2381.5000    10.2878    10.4353    10.6818    11.0919     8.5785  1730.8333   118.5130     0.2842    90.9342  1280.1205    11.0870
 2382.0000    10.9214     9.4673    14.3902    14.5370     7.6461  1729.8983   117.7184     0.2914    91.3112  1295.1807    14.5262
 2382.5000    10.2712    14.5558    15.3163    14.0416     8.6023  1729.1348   113.3094     0.2920    91.2347  1295.1807    14.9339
 2383.0000    10.3761    12.6726    12.2699    12.1384    11.0411  1728.1808   111.4987     0.2854    90.5543  1295.1807    11.6354
 2383.5000    10.4509    10.0131     9.8978     9.9960    11.3512  1727.4174   110.0637     0.2794    89.5717  1295.1807    10.3416
 2384.0000    10.6163     9.3432     9.2993     9.2617     8.8423  1726.6539   108.7801     0.2754    89.3444  1295.1807     9.5086
 2384.5000    10.6458    10.4396    10.7561    10.8635     8.8418  1775.8904   106.7435     0.2766    89.4948  1310.2410    10.4844
 2385.0000    10.6601    10.5860    10.2467     9.8583     8.4808  1774.9364   104.9319     0.2806    90.0981  1310.2410    10.7114
 2385.5000    10.6745     8.8412     8.7977     8.8228     8.3634  1774.1669   105.8321     0.2872    91.1548  1310.2410     8.7546
 2386.0000    10.7190    10.1869    10.6818    10.5663     8.3628  1773.2190   104.2473     0.2915    91.0029  1310.2410     9.9859
 2386.5000    10.7787    12.1624    12.2699    12.3080     8.9628  1772.4554    97.9177     0.2846    90.0958  1310.2410    11.7115
 2387.0000    10.8534    10.9780    10.2467    10.6398     9.2783  1771.5011    93.8480     0.2785    89.4154  1310.2410    11.1553
 2387.5000    10.8981     8.7219     8.7977     8.5814     8.8381  1770.7380    97.2327     0.2788    90.0943  1310.2410     8.9360
 2388.0000    10.8972     7.3401     7.7123     6.9695     6.9810  1769.9746   100.1655     0.2877    91.2265  1310.2410     7.4620
 2388.5000    10.8814     5.5982     5.4917     4.7592     5.2529  1769.0201   100.6138  -999.2500    93.0385  1310.2410     6.5410
 2389.0000    10.9108     3.6684     4.0204     3.7856     3.5373  1768.2571    95.3012  -999.2500    95.0472  1310.2410     4.7222
 2389.5000    10.9403    10.5927    12.0698    12.1384     3.1656  1767.4937    92.2479  -999.2500    97.7954  1310.2410     7.3578
 2390.0000    10.9697    13.7849    14.0941    13.9445     3.1002  1766.5392    91.0016  -999.2500    97.1147  1310.2410    13.7276
 2390.5000    10.9993     9.8848     9.8294    10.2772     5.5126  1765.7762    88.8516  -999.2500    95.9056  1310.2410    11.2275
 2391.0000    11.0286     9.3523     9.6941    10.2772     6.4208  1715.0001    91.3331  -999.2500    91.1464  1310.2410    10.1183
 2391.5000    11.0582     9.4179    10.4620    10.5663     8.1278  1714.0587    93.3619     0.2845    89.2575  1310.2410    10.4021
 2392.0000    11.1103     8.4888    10.1057    10.2061     8.8327  1713.2953    94.9397     0.2761    89.4078  1310.2410    10.3276
 2392.5000    11.1473     8.0873     9.6941     9.9960     8.2402  1762.5319    92.2254     0.2806    89.9357  1310.2410     9.9769
 2393.0000    11.1540     8.2578    10.0359     9.7225     7.3742  1711.5778    90.1880     0.2888    90.6147  1310.2410     9.8389
 2393.5000    11.1609     9.2268    11.9344    12.6542     7.0244  1710.8143    88.8291     0.2879    90.5385  1310.2410    12.4522
 2394.0000    11.1601    13.0489    15.7468    15.5810     8.4702  1709.8600    87.9220     0.2830    90.0744  1310.2410    15.4356
 2394.5000    11.1594    12.7811    15.7468    15.7987     9.5958  1709.1666    86.1105     0.2770    89.3284  1310.2410    15.7589
 2395.0000    11.1662    11.3615    14.8975    14.9460    11.0228  1708.3334    84.9775     0.2695    88.4214  1310.2410    15.7577
 2395.5000    11.2938    10.6015    11.1353    11.2468    10.5728  1757.5699    85.6514     0.2637    87.4388  1310.2410    11.0652
 2396.0000    11.3233    11.2846    12.6148    12.7423     9.3313  1756.6160    85.5923     0.2598    86.7582  1310.2410    12.3620
 2396.5000    11.3527    10.7509    12.1010    12.0545     9.2022  1755.8334    85.5838     0.2589    86.9841  1303.6442    12.2757
 2397.0000    11.4427     8.4947    10.8309    11.0152     8.8264  1754.8981    86.0278     0.2628    87.6631  1295.1807    11.4530
 2397.5000    11.5778     7.8173     9.6941     9.8583     8.2345  1754.1350    86.9222     0.2671    88.4175  1295.1807    10.3109
 2398.0000    11.6375    10.4592    12.4411    12.2229     7.6822  1803.1807    88.7237     0.2713    88.7189  1295.1807    12.7943
 2398.5000    11.6820    12.4386    14.6925    14.5370     8.5832  1752.4171    89.6202     0.2722    88.7182  1295.1807    14.7977
 2399.0000    11.7266    13.6123    17.1124    16.9333    11.6452  1751.6541    87.1220     0.2722    88.7175  1310.2410    17.4741
 2399.5000    11.7862    15.0001    21.0670    20.7057    13.3770  1750.6997    88.0175     0.2707    88.4145  1310.2410    20.0708
 2400.0000    11.8611    11.5650    11.6153    11.6437     9.8582  1749.9363    88.9140     0.2668    87.3565  1295.1807    11.5279
 2400.5000    11.9660    10.1768    10.5333    10.3470     8.5808  1749.1667    90.0368     0.2631    87.5831  1295.1807    10.3890
 2401.0000    12.0408     9.5621    13.5159    13.3723     8.0054  1748.2188    87.5386     0.2625    87.8097  1295.1807    13.1449
 2401.5000    12.0710    12.0199    17.8313    18.1417     9.6532  1749.3741    85.9454     0.2638    87.8095  1295.1807    17.8350
 2402.0000    12.0554    16.0823    19.6455    19.9890    12.6506  1757.9999    85.2582     0.2613    87.2054  1295.1807    20.3438
 2402.5000    12.0549     9.9701    17.1000     9.9889     7.9869  1760.0392    87.2859     0.2574    86.4501  1295.1807    12.9648
 2403.0000    12.3263     6.8107     7.1402     7.1597     6.3037  1762.3926    94.9676     0.2505    85.7704  1295.1807     8.1022
 2403.5000    12.8243     5.8477    12.9567    13.5904     5.1269  1713.8043   100.8415     0.2532    86.6012  1295.1807    14.9937
 2404.0000    12.6425     9.6996    15.5215    15.7808     7.0471  1716.1569   103.7743     0.2722    88.0708  1295.1807    15.9576
 2404.5000    11.9547    11.6154    16.3946    16.4492     8.9765  1668.0004   101.7285     0.2982    93.0967  1295.1807    16.5192
 2405.0000    11.9315    12.3638    16.6218    16.6769    10.1746  1670.3918   101.4928     0.2989    93.7764  1295.1807    16.1782
