~VERSION INFORMATION
 VERS.                2.0:   CWLS LOG ASCII STANDARD - VERSION 2.0
 WRAP.                 NO:   ONE LINE PER DEPTH STEP
~WELL INFORMATION
#MNEM.UNIT      DATA TYPE    INFORMATION
#----------   ------------   ------------------------------
 STRT.F         3288.0000:   START DEPTH
 STOP.F         4421.0000:   STOP DEPTH
 STEP.F            0.5000:   STEP LENGTH
 NULL.          -999.2500:   NO VALUE
 COMP.       FLUOR DANIEL:   COMPANY
 WELL. FLUOR 22 "X" #2-10:   WELL
 FLD . TEA POT DOME NAVAL PETROLEUM DO:   FIELD
 LOC .      S10 T38N R78W:   LOCATION
 CNTY.            NATRONA:   COUNTY
 STAT.            WYOMING:   STATE
 CTRY. UNITED STATES OF AMERICA:   COUNTRY
 SRVC.        HALLIBURTON:   SERVICE COMPANY
 DATE.        13-DEC-1996:   LOGDATE
 API .     49025228330000:   API NUMBER
~CURVE INFORMATION
#MNEM.UNIT       API CODE    CURVE DESCRIPTION
#----------   ------------   ------------------------------
 DEPT.F                  :   
 NPHI.DEC    42 890 03 00:   NEUTRON POROSITY SANDSTONE
 GRD .GAPI   45 310 01 00:   GAMMA RAY FROM DENSITY LOG
 CALD.IN     45 280 60 00:   CALIPER FROM DENSITY LOG
 PE  .B/E    45 358 01 00:   PHOTOELECTRIC FACTOR
 CORR.G/C3   45 356 01 00:   DENSITY CORRECTION
 TEND.LBS    45 635 01 00:   TENSION FORM DENSITY LOG
 RHOB.G/C3   45 350 01 00:   BULK DENSITY
 TENR.LBS    07 635 01 00:   TENSION FROM RESISTIVITY
 ILD .OHMM   07 120 46 00:   DEEP INDUCTION RESISTIVITY
 ILM .OHMM   07 120 44 00:   INDUCTION LOG MEDIUM RESISTIVITY
 SFL .OHMM   07 220 01 00:   SHALLOW FOCUSED LOG RESISTIVITY
~PARAMETER INFORMATION
#MNEM.UNIT          VALUE    DESCRIPTION
#----------   ------------   ------------------------------
 EKB .F         5268.0000:   Kelly bushing
 EGL .F         5258.0000:   Ground level
 EDF .F         5267.0000:   Drilling floor
 TD  .F         4435.0000:   Total depth
 CLNT.            A2DTECH:   Client Code
 SL  . 569' FNL & 1440' FWL:   Surface Location
 PD  .                 GL:   Permanent Datum
 EPD .F              5258:   Elevation Permanent Datum
 LMF .                 KB:   Log Measured From
 DMF .                 KB:   Drilling Measured From
 DAPD.F                10:   Feet Above Permanent Datum
 DATE.        13-DEC-1996:   Date Logged [DD-MMM-YYYY]
 DD  .F              4435:   Depth driller
 DL  .F              4412:   Depth logger
 BLI .F              4403:   Bottom log interval
 TLI .F              3308:   Top log interval
 CS1 .IN            9.625:   Casing size
 CBD1.     9.625" @ 3307':   Casing driller 1
 CBL1.F              3308:   Casing logger 1
 BS1 .IN              8.5:   Bit size
 BSD1.F              4435:   Depth drilled with bit1
 DFT .           POLY-KCL:   Type fluid in hole
 DFD .                  9:   Density
 DFV .                 50:   Viscosity
 DFPH.                  9:   pH
 DFL .                  7:   Fluid loss
 MSS .           MUD TANK:   Source of sample
 RMS .OHMM           0.47:   Rm
 MST .F                56:   Rm Meas. temp.
 RMF .OHMM           0.36:   Rmf
 MFST.F                61:   Rmf Meas. temp.
 MFSS.               MEAS:   Source Rmf.
 RMC .OHMM           0.48:   Rmc
 MCST.F                68:   Rmc Meas. temp.
 MCSS.               MEAS:   Source Rmc.
 RMB .OHMM           0.20:   Rm. at BHT
 BHT .F               138:   BHT.
 TCS .HRS              20:   Time Circ. stopped
 TLAB.HRS            0108:   Time logger at bottom
 MRT .F               138:   Maximum recorded temp.
 LUN .              52546:   Logging unit number
 LUL .              VERNI:   Logging unit location
 ENGI.        JOHN SAVAGE:   Recorded By
 WITN.          STEBBINGS:   Witnessed by
 ORIG.         2.5" PRINT:   Origin of data
 UWI .     49025228330000:   Unique Well ID
 DICO. A2D TECHNOLOGIES, INC.:   Digitizing Company
~OTHER INFORMATION
~A  DEPT        NPHI       GRD      CALD         PE       CORR       TEND       RHOB       TENR        ILD        ILM        SFL   
# ...
 4020.0000     0.3105   141.3897     9.0666     3.0675     0.0867  3129.9094     2.5369  3078.8198     4.3124     4.1694     4.4040
 4020.5000     0.2983   139.8481     9.0802     3.0940     0.0859  3119.0762     2.5354  3111.0742     7.4121     8.6993     6.9102
 4021.0000     0.2786   137.6635     9.1120     3.0943     0.0781  3099.0935     2.5278  3168.5132    17.1026    12.8130    44.1059
 4021.5000     0.2592   133.1433     9.1557     3.0731     0.0655  3098.7915     2.5188  3169.8794    26.4176    23.0144    59.5854
 4022.0000     0.2145   121.0499     9.1552     2.9782     0.0529  3068.2190     2.5143  3200.0615    18.2550    17.5146    65.9474
 4022.5000     0.1727   101.1016     9.1246     2.8834     0.0348  3074.7734     2.5113  3230.3206    18.9987    17.2857    70.8838
 4023.0000     0.0795    81.7575     9.1241     2.7584     0.0288  3135.0332     2.5173  3260.6416    21.1569    17.2761    26.4020
 4023.5000     0.0511    66.0387     9.0935     2.6729     0.0284  3195.3098     2.5313  3174.5032    16.8057    16.1212    23.9855
 4024.0000     0.0432    53.3412     9.0930     2.6732     0.0288  3225.3777     2.5436  3233.8398    14.8506    11.4491    18.6570
 4024.5000     0.0372    36.9541     9.0624     2.7037     0.0303  3193.7375     2.5514  3264.0215    11.6578     9.2671    12.0858
 4025.0000     0.0373    29.0529     9.0594     2.7342     0.0318  3131.9160     2.5566  3177.8425    11.3422     9.1387    12.5216
 4025.5000     0.0416    26.7281     9.0313     2.7647     0.0319  3143.0435     2.5458  3208.2810    10.8217     9.5103    13.8099
 4026.0000     0.0561    27.5894     9.0308     2.7643     0.0351  3315.4231     2.5272  3119.5386    10.3076     9.6353    14.1800
 4026.5000     0.0948    31.9009     9.0304     2.7291     0.0379  3186.2959     2.5169  3064.5637     9.6365     9.4997    13.7946
 4027.0000     0.1350    49.8781     9.0602     2.6646     0.0409  3133.8608     2.5076  3328.4956     8.4082     9.0787    11.9794
 4027.5000     0.1618    68.0044     9.0899     2.5470     0.0424  3217.7791     2.4997  3367.3279     7.3227     7.6491     9.2061
 4028.0000     0.1857    82.8468     9.1196     2.4544     0.0439  3243.5190     2.4873  3213.9326     7.2051     7.0470     8.2382
 4028.5000     0.1992    91.8890     9.1494     2.3737     0.0424  3087.6255     2.4812  3244.3152     8.0793     7.1501     9.1959
 4029.0000     0.2010    96.7537     9.2093     2.3438     0.0409  3237.8320     2.4752  3245.6558     8.8552     7.8423    10.6046
 4029.5000     0.2025    97.9534     9.2391     2.3441     0.0394  3336.1951     2.4692  3159.2197     9.2173     8.1044    10.7953
 4030.0000     0.2049    99.7573     9.2386     2.3445     0.0394  3163.1199     2.4677  -999.2500     9.6985     9.2117    10.9354
 4030.5000     0.2189   105.1866     9.2080     2.3448     0.0424  3102.5505     2.4632  -999.2500    10.2576    10.3976    11.6468
 4031.0000     0.2933   117.2624     9.1773     2.3148     0.0439  3223.2500     2.4136  -999.2500    10.7169    10.0516    12.6644
 4031.5000     0.3435   120.2748     9.1769     2.2849     0.0407  3287.0032     2.3216  -999.2500    10.9627    10.6704    13.3583
 4032.0000     0.3659   120.2414     9.1764     2.1946     0.0213  3132.3223     2.2604  -999.2500    10.7866    10.1946    10.6217
 4032.5000     0.3505   118.9830     9.1792     2.1344     0.0091  3101.9644     2.2316  -999.2500     9.6967     8.2464    10.6168
 4033.0000     0.2982   116.9077     9.2058     2.1045     0.0184  3384.2126     2.2385  -999.2500     8.7867     7.3717    10.6839
 4033.5000     0.2260   112.0989     9.2053     2.1694     0.0289  3494.4207     2.3281  -999.2500     7.4465     7.2945     9.9157
 4034.0000     0.1909   104.4037     9.2048     2.2689     0.0392  3223.3899     2.4282  -999.2500     7.2909     7.2780     8.2100
 4034.5000     0.1786    97.4576     9.2044     2.3557     0.0447  2980.5322     2.4729  -999.2500     7.6362     7.2447     8.3163
 4035.0000     0.1760    90.4533     9.2039     2.4381     0.0485  3290.6006     2.4916  -999.2500     8.7986     8.2244     9.5668
 4035.5000     0.1777    85.4263     9.2035     2.4816     0.0485  3342.7771     2.5071  -999.2500     9.9313     9.3363    10.7258
 4036.0000     0.1830    82.7293     9.2029     2.4991     0.0485  3087.6108     2.5147  -999.2500     9.7087     9.5486    11.0283
 4036.5000     0.1881    81.5121     9.2025     2.5296     0.0500  3252.0559     2.5177  -999.2500    10.2083    10.0429    11.6094
 4037.0000     0.1903    82.1088     9.2021     2.5602     0.0515  3402.7190     2.5192  -999.2500    10.4640    10.4650    12.5833
 4037.5000     0.1930    83.9115     9.1714     2.5605     0.0530  3281.6946     2.5223  -999.2500    10.3191    10.4127    13.0955
 4038.0000     0.1954    86.3196     9.1710     2.5608     0.0499  3190.9136     2.5253  -999.2500     9.8631     9.7703    12.0724
 4038.5000     0.1996    91.7489     9.1705     2.5610     0.0465  3160.5554     2.5268  -999.2500     9.3779     9.2224    10.2183
 4039.0000     0.2075   108.0544     9.2003     2.5613     0.0436  3130.1975     2.5111  -999.2500     8.7304     7.2236     9.5950
 4039.5000     0.2202   125.8850     9.2301     2.5918     0.0424  3130.0510     2.4969  -999.2500     7.1502     6.6836     9.5855
 4040.0000     0.2336   134.3404     9.2296     2.5951     0.0439  3129.9045     2.4867  -999.2500     6.0775     6.3578     8.9275
 4040.5000     0.2517   137.6353     9.2231     2.6227     0.0449  3129.7578     2.4816  -999.2500     5.8326     5.9925     7.7257
 4041.0000     0.2732   137.2995     9.1985     2.6607     0.0512  3191.7341     2.4801  3127.6970     5.6625     5.7211     7.3848
 4041.5000     0.2947   134.7905     9.1678     2.6934     0.0588  3220.0994     2.4756  3356.8364     5.2295     5.4459     6.9302
 4042.0000     0.3232   130.3382     9.1551     2.7684     0.0573  3184.2822     2.4620  3334.1111     4.9523     5.2135     6.9430
 4042.5000     0.3480   124.6819     9.1065     2.8638     0.0558  3121.8521     2.4484  3247.8389     4.1476     4.5049     6.3007
 4043.0000     0.3558   118.4263     9.0758     2.9894     0.0558  3068.5801     2.4409  3184.2385     3.4353     3.6754     4.9938
 4043.5000     0.3583   111.5965     9.0451     3.1683     0.0634  3068.4290     2.4726  3119.2415     2.9241     3.1603     3.4912
 4044.0000     0.3589   107.9623     9.0446     3.3197     0.0908  3081.1650     2.5410  3105.5396     2.4012     2.4816     2.4217
 4044.5000     0.3582   104.3282     9.0442     3.4106     0.1125  3158.0615     2.5499  3107.5784     2.2265     2.2265     2.3883
 4045.0000     0.3568   103.1110     9.0740     3.3505     0.1230  3188.8218     2.5515  3166.1807     2.2985     2.3491     2.7671
 4045.5000     0.3516   102.4980     9.1038     3.2903     0.1290  3158.4307     2.5554  3167.5681     2.1647     2.2210     3.1707
 4046.0000     0.3371   102.4892     9.1033     3.2302     0.1274  3067.6499     2.5603  3139.4412     2.2218     2.2528     3.1618
 4046.5000     0.3275   103.0847     9.1029     3.1701     0.1148  3067.5032     2.5571  3111.3142     2.4090     2.3767     3.1599
 4047.0000     0.3230   103.1298     9.1024     3.1621     0.0973  3037.1453     2.5471  3112.5364     2.7561     2.7421     3.1587
 4047.5000     0.3180   103.7665     9.1020     3.1039     0.0878  3067.2205     2.5331  3113.8828     2.6809     2.7670     3.2431
 4048.0000     0.3066   105.1435     9.1015     3.0415     0.0824  3127.4866     2.5111  3114.9099     2.6351     2.6796     3.2854
 4048.5000     0.2900   106.0708     9.1011     2.9900     0.0787  3127.3401     2.5049  3145.1899     2.7513     2.7477     3.2832
 4049.0000     0.2640   105.2367     9.1006     2.9601     0.0757  3187.6165     2.5181  3117.2014     3.1594     3.2701     3.2882
 4049.5000     0.2343   102.2465     9.1002     2.9906     0.0757  3187.4624     2.5393  3089.3516     4.6536     4.3498     4.4681
 4050.0000     0.2339    99.0937     9.0997     3.0086     0.0773  3177.2205     2.5499  3061.2246     5.0442     4.8435     6.5079
