~VERSION INFORMATION
 VERS.                2.0:   CWLS LOG ASCII STANDARD - VERSION 2.0
 WRAP.                 NO:   ONE LINE PER DEPTH STEP
~WELL INFORMATION
#MNEM.UNIT      DATA TYPE    INFORMATION
#----------   ------------   ------------------------------
 STRT.F          203.5000:   START DEPTH
 STOP.F         3126.0000:   STOP DEPTH
 STEP.F            0.5000:   STEP LENGTH
 NULL.          -999.2500:   NO VALUE
 COMP.    FENIX & SCISSON:   COMPANY
 WELL. FENIX NPR 3 "AX" #88-33:   WELL
 FLD .        TEAPOT DOME:   FIELD
 LOC .      S33 T39N R78W:   LOCATION
 CNTY.            NATRONA:   COUNTY
 STAT.            WYOMING:   STATE
 CTRY. UNITED STATES OF AMERICA:   COUNTRY
 SRVC.       SCHLUMBERGER:   SERVICE COMPANY
 DATE.        23-JAN-1978:   LOGDATE
 API .     49025105610000:   API NUMBER
~CURVE INFORMATION
#MNEM.UNIT       API CODE    CURVE DESCRIPTION
#----------   ------------   ------------------------------
 DEPT.F                  :   
 CALD.IN     45 280 60 00:   CALIPER FROM DENSITY LOG
 GRD .GAPI   45 310 01 00:   GAMMA RAY FROM DENSITY LOG
 RHOB.G/C3   45 350 01 00:   BULK DENSITY
 CORR.G/C3   45 356 01 00:   DENSITY CORRECTION
 SPR .MV     05 010 01 00:   SPONTANEOUS POTENTIAL
 SN  .OHMM   05 040 16 00:   SHORT NORMAL 16"
 ILD .OHMM   05 120 46 00:   DEEP INDUCTION RESISTIVITY
~PARAMETER INFORMATION
#MNEM.UNIT          VALUE    DESCRIPTION
#----------   ------------   ------------------------------
 EKB .F         5174.0000:   Kelly bushing
 EGL .F         5164.0000:   Ground level
 EDF .F            0.0000:   Drilling floor
 TD  .F         3115.0000:   Total depth
 DATE.        23-JAN-1978:   Date logged
 CLNT.            A2DTECH:   Client Code
 PD  .                 GL:   Permanent Datum
 EPD .F              5164:   Elevation Permanent Datum
 LMF .                 KB:   Log Measured From
 DMF .                 KB:   Drilling Measured From
 DD  .F              3115:   Depth driller
 DL  .F              3115:   Depth logger
 BLI .F              3115:   Bottom log interval
 TLI .F               210:   Top log interval
 CS1 .IN            8.625:   Casing size
 CBD1.      9.625" @ 219':   Casing driller 1
 CBL1.F               219:   Casing logger 1
 BS1 .IN            7.875:   Bit size
 BSD1.F              3115:   Depth drilled with bit1
 DFT .                GEL:   Type fluid in hole
 DFD .                8.9:   Density
 DFV .                 36:   Viscosity
 DFPH.                 10:   pH
 DFL .                7.8:   Fluid loss
 MSS .           FLOWLINE:   Source of sample
 RMS .OHMM            2.2:   Rm
 MST .F                62:   Rm Meas. temp.
 RMF .OHMM           1.94:   Rmf
 MFST.F                54:   Rmf Meas. temp.
 RMC .OHMM            3.4:   Rmc
 MCST.F                54:   Rmc Meas. temp.
 MFSS.               MEAS:   Source Rmf.
 MCSS.               MEAS:   Source Rmc.
 RMB .OHMM            1.1:   Rm. at BHT
 BHT .F               114:   BHT.
 TCS .HRS             4.5:   Time Circ. stopped
 MRT .F               114:   Maximum recorded temp.
 LUN .               2958:   Logging unit number
 LUL .             CASPER:   Logging unit location
 ENGI.           REYNOLDS:   Recorded By
 WITN.           MCGINLEY:   Witnessed by
 ORIG.           5" PRINT:   Origin of data
 UWI .     49025105610000:   Unique Well ID
 DICO. A2D TECHNOLOGIES, INC.:   Digitizing Company
 DAPD.F              5164:   Feet Above Permanent Datum
 SL  . 100' FSL & 550' FEL:   Surface Location
~OTHER INFORMATION
~A   DEPT     CALD        GRD       RHOB       CORR        SPR         SN        ILD   
# ...
 2888.0000     9.4980   120.5261     2.5540     0.0276   -36.3319     5.8225     5.1172
 2888.5000     9.4779   116.9453     2.5540     0.0296   -36.3309     5.8225     5.1172
 2889.0000     9.4777   118.3349     2.5510     0.0296   -36.1314     5.8764     5.0703
 2889.5000     9.4775   119.5257     2.5510     0.0355   -36.1304     5.8225     5.0238
 2890.0000     9.4773   119.7225     2.5540     0.0355   -36.3278     5.8764     5.0703
 2890.5000     9.4771   118.1300     2.5540     0.0355   -36.3268     5.8764     5.1172
 2891.0000     9.4769   120.5145     2.5550     0.0415   -36.3258     5.8764     5.1172
 2891.5000     9.4767   114.9455     2.5600     0.0435   -35.9280     5.8764     5.1172
 2892.0000     9.4765   115.1419     2.5620     0.0435   -35.7288     5.8764     5.1172
 2892.5000     9.4763   116.7303     2.5600     0.0415   -35.5294     5.9308     5.1172
 2893.0000     9.4761   118.3188     2.5540     0.0415   -35.7268     5.9856     5.1172
 2893.5000     9.4759   120.9012     2.5490     0.0414   -35.9242     5.9856     5.1645
 2894.0000     9.4757   122.8876     2.5490     0.0434   -36.1216     5.9308     5.1645
 2894.5000     9.4755   121.2952     2.5490     0.0434   -36.3190     5.8764     5.1645
 2895.0000     9.4753   122.6848     2.5500     0.0434   -36.3180     5.8764     5.1645
 2895.5000     9.4751   122.8816     2.5519     0.0434   -36.3170     5.8764     5.1172
 2896.0000     9.4749   119.4999     2.5539     0.0354   -36.5144     5.8764     5.0703
 2896.5000     9.4747   117.3110     2.5400     0.0334   -36.3150     5.8764     5.0238
 2897.0000     9.4745   118.8995     2.5330     0.0314   -36.5124     5.8225     4.9777
 2897.5000     9.4742   119.0963     2.5310     0.0334   -36.3129     5.7162     4.8869
 2898.0000     9.4741   121.2811     2.5350     0.0374   -36.5103     5.6119     4.7537
 2898.5000     9.4739   119.4902     2.5419     0.0374   -36.3109     5.5604     4.7537
 2899.0000     9.4737   118.0962     2.5429     0.0373   -36.3101     5.5604     4.6241
 2899.5000     9.4735   118.2930     2.5459     0.0373   -36.1107     5.5594     4.6241
 2900.0000     9.4733   119.0866     2.5499     0.0373   -35.7129     5.4580     4.5817
 2900.5000     9.4731   117.8801     2.5529     0.0373   -35.8998     5.3638     4.5817
 2901.0000     9.4729   118.0873     2.5539     0.0374   -35.9118     5.3095     4.5820
 2901.5000     9.4728   123.0541     2.5539     0.0294   -35.9121     5.3106     4.5821
 2902.0000     9.4726   124.2438     2.5509     0.0294   -35.9125     5.3108     4.5823
 2902.5000     9.4724   124.8371     2.5529     0.0294   -36.1113     5.4097     4.6248
 2903.0000     9.4722   125.8278     2.5529     0.0214   -36.1117     5.4098     4.6250
 2903.5000     9.4522   126.8185     2.5538     0.0195   -36.3104     5.4100     4.6679
 2904.0000     9.4520   125.8217     2.5260     0.0215   -36.1124     5.5107     4.7112
 2904.5000     9.4518   125.2225     2.5220     0.0235   -36.1128     5.5109     4.8434
 2905.0000     9.4318   124.8220     2.5250     0.0335   -36.1131     5.5620     4.9336
 2905.5000     9.4316   124.0242     2.5300     0.0435   -36.1134     5.6137     4.9337
 2906.0000     9.4314   123.0271     2.5360     0.0535   -36.3122     5.7711     4.9338
 2906.5000     9.4511   121.2364     2.5380     0.0615   -36.1141     5.8247     4.9796
 2907.0000     9.4509   118.8492     2.5500     0.0595   -36.1145     5.9331     5.0259
 2907.5000     9.4508   117.0583     2.5527     0.0555   -36.3133     5.9882     5.0725
 2908.0000     9.4506   116.0622     2.5380     0.0515   -36.3137     6.0438     5.1196
 2908.5000     9.4504   115.6622     2.5320     0.0516   -36.3141     6.0440     5.1671
 2909.0000     9.4502   114.0703     2.5390     0.0516   -36.3144     6.0442     5.1673
 2909.5000     9.4501   113.0745     2.5410     0.0556   -36.3148     6.0443     5.2152
 2910.0000     9.4499   114.6616     2.5520     0.0496   -36.3152     6.0445     5.2154
 2910.5000     9.4497   116.0490     2.5600     0.0496   -36.1171     6.0447     5.2156
 2911.0000     9.4496   117.2381     2.5610     0.0437   -35.7205     6.1008     5.2157
 2911.5000     9.4295   115.4478     2.5600     0.0377   -35.7209     6.1574     5.2159
 2912.0000     9.4293   113.4590     2.5540     0.0277   -35.5227     6.3289     5.1209
 2912.5000     9.4093   113.2584     2.5500     0.0277   -35.5231     6.3876     5.1210
 2913.0000     9.3893   113.4544     2.5470     0.0297   -35.5234     6.3293     5.1211
 2913.5000     9.3891   113.6505     2.5441     0.0298   -35.5238     6.2714     5.0743
 2914.0000     9.3889   113.8465     2.5391     0.0358   -35.5242     6.1007     5.0280
 2914.5000     9.3887   113.6454     2.5391     0.0418   -35.5245     5.9347     4.8911
 2915.0000     9.3886   113.2457     2.5471     0.0498   -35.7234     5.7202     4.8020
 2915.5000     9.3884   115.0302     2.5511     0.0518   -35.9222     5.6160     4.7581
 2916.0000     9.3882   117.6087     2.5511     0.0518   -36.1210     5.5147     4.8023
 2916.5000     9.3880   118.9958     2.5501     0.0518   -36.1214     5.5148     4.8917
 2917.0000     9.3879   119.5887     2.5461     0.0478   -36.3202     5.5150     5.0289
 2917.5000     9.3877   120.7770     2.5391     0.0458   -36.3206     5.6177     5.1225
 2918.0000     9.3875   121.5197     2.5331     0.0459   -36.3210     5.7752     5.1701
 2918.5000     9.3873   121.1209     2.5261     0.0499   -36.3213     5.9371     5.3150
 2919.0000     9.4269   121.7155     2.5281     0.0499   -36.3216     6.0477     5.4140
 2919.5000     9.4267   120.7210     2.5311     0.0479   -36.3220     6.1603     5.5148
 2920.0000     9.4265   117.5876     2.5262     0.0439   -36.3224     6.5104     5.5660
 2920.5000     9.4462   114.2107     2.5242     0.0479   -36.1242     6.5106     5.6176
 2921.0000     9.4460   114.4061     2.5242     0.0539   -36.1246     6.5108     5.6178
 2921.5000     9.4657   113.2132     2.5272     0.0599   -35.9265     6.5110     5.6179
 2922.0000     9.4655   111.6230     2.5312     0.0699   -35.9268     6.5112     5.6181
 2922.5000     9.4653   110.6283     2.5302     0.0720   -35.9272     6.5114     5.5668
 2923.0000     9.4850   110.6259     2.5242     0.0741   -35.9276     6.4519     5.5159
 2923.5000     9.5047   114.5916     2.5252     0.0981   -35.9279     6.4520     5.2679
 2924.0000     9.5045   111.6131     2.5452     0.1459   -35.9283     6.2764     4.9392
 2924.5000     9.5043   109.2297     2.5651     0.1359   -36.1272     5.9392     4.5465
 2925.0000     9.5041   114.1880     2.5652     0.1260   -36.1275     5.6201     3.9850
 2925.5000     9.5040   112.9945     2.5642     0.1060   -36.3264     5.1258     3.6399
 2926.0000     9.5038   113.7856     2.5592     0.1000   -36.3267     4.8953     3.4439
 2926.5000     9.5036   114.5766     2.5552     0.0961   -36.3271     4.3033     3.3192
 2927.0000     9.5035   117.9464     2.5542     0.0961   -36.3274     3.8533     3.3193
 2927.5000     9.5033   120.9198     2.5472     0.0921   -36.3278     3.4822     3.3502
 2928.0000     9.5031   124.4874     2.5412     0.0877   -36.3282     3.4504     3.3503
 2928.5000     9.5475   132.8153     2.5213     0.0941   -36.3286     3.5146     3.5087
 2929.0000     9.7460   137.7706     2.5073     0.0941   -36.3289     3.8538     3.8482
 2929.5000     8.8282   141.5362     2.4993     0.1021   -36.3293     4.1869     4.0300
 2930.0000     8.8280   146.2909     2.4843     0.1321   -36.3297     5.0803     4.1433
 2930.5000     8.8279   146.9002     2.4963     0.1421   -36.5286     5.3690     5.1237
 2931.0000     8.8277   136.1707     2.4993     0.1561   -36.5289     5.5195     5.1714
 2931.5000     8.8276   125.8547     2.4993     0.1641   -36.5293     5.6743     5.1241
 2932.0000     8.9909   119.5061     2.5503     0.0862   -36.3311     5.7799     5.1242
 2932.5000     8.6092   108.5973     2.5413     0.0723   -36.3314     5.6746     4.9844
 2933.0000     8.5892   107.6035     2.5393     0.0723   -36.3318     5.6748     4.9387
