~VERSION INFORMATION
 VERS.                2.0:   CWLS LOG ASCII STANDARD - VERSION 2.0
 WRAP.                 NO:   ONE LINE PER DEPTH STEP
~WELL INFORMATION
#MNEM.UNIT      DATA TYPE    INFORMATION
#----------   ------------   ------------------------------
 STRT.F          602.0000:   START DEPTH
 STOP.F         5553.0000:   STOP DEPTH
 STEP.F            0.5000:   STEP LENGTH
 NULL.          -999.2500:   NO VALUE
 COMP.         U. S. NAVY:   COMPANY
 WELL. U. S. 1-TP-33 NPR #3-33:   WELL
 FLD . TEAPOT NAVAL RESERVE:   FIELD
 LOC .      S33 T39N R78W:   LOCATION
 CNTY.            NATRONA:   COUNTY
 STAT.            WYOMING:   STATE
 CTRY. UNITED STATES OF AMERICA:   COUNTRY
 SRVC.       SCHLUMBERGER:   SERVICE COMPANY
 DATE.        24-JUN-1952:   LOGDATE
 API .     49025065260000:   API NUMBER
~CURVE INFORMATION
#MNEM.UNIT       API CODE    CURVE DESCRIPTION
#----------   ------------   ------------------------------
 DEPT.F                  :   
 SPR .MV     01 010 01 00:   SPONTANEOUS POTENTIAL FROM RES.
 ASN .OHMM   01 041 16 00:   AMPLIFIED SHORT NORMAL 16"
 LAT .OHMM   01 070 08 00:   LATERAL 8'
 LN  .OHMM   01 060 64 00:   LONG NORMAL 64"
~PARAMETER INFORMATION
#MNEM.UNIT          VALUE    DESCRIPTION
#----------   ------------   ------------------------------
 EKB .F         5160.0000:   Kelly bushing
 EGL .F         5147.0000:   Ground level
 TD  .F         5553.0000:   Total depth
 CLNT.            A2DTECH:   Client Code
 DATE.        24-JUN-1952:   Date Logged [DD-MMM-YYYY]
 DD  .F              5549:   Depth driller
 DL  .F              5553:   Depth logger
 BLI .F              5553:   Bottom log interval
 TLI .F               602:   Top log interval
 CBL1.F               602:   Casing logger 1
 BSD1.F              5549:   Depth drilled with bit1
 DFT .           GYP BASE:   Type fluid in hole
 DFD .                9.8:   Density
 DFV .                 44:   Viscosity
 MSS .           FLOWLINE:   Source of sample
 RMS .OHMM            1.4:   Rm
 MST .F                60:   Rm Meas. temp.
 RMB .OHMM           0.48:   Rm. at BHT
 BHT .F               175:   BHT.
 TCS .HRS             1.5:   Time Circ. stopped
 MRT .F               175:   Maximum recorded temp.
 LUN .                563:   Logging unit number
 ENGI.             SANDER:   Recorded By
 WITN.            GRIBBIN:   Witnessed by
 ORIG.      1" 2.5" PRINT:   Origin of data
 UWI .     49025065260000:   Unique Well ID
 DICO. A2D TECHNOLOGIES, INC.:   Digitizing Company
~OTHER INFORMATION
~A  DEPTH      SPR        ASN        LAT         LN
  602.0000    -2.6138     3.6996     4.3147  -999.2500
  602.5000    -8.1554     4.4086     4.3157     0.1877
  603.0000   -13.8736     4.8748     4.3374     0.2270
  603.5000   -20.6877     5.3242     4.4616     0.2663
  604.0000   -29.4263     5.6331     4.6772     0.3055
  604.5000   -37.0442     5.7649     4.8299     0.3448
  605.0000   -41.9689     5.7652     5.0467     1.1030
  605.5000   -44.3121     5.7432     5.3715     2.1841
  606.0000   -45.9804     5.6706     5.6164     5.1832
  606.5000   -47.5417     5.5709     5.8344     5.9098
  607.0000   -48.4893     5.4486     6.0659     6.3925
  607.5000   -49.5107     5.2947     6.2973     6.5999
  608.0000   -50.7872     5.2063     6.4825     6.7495
  608.5000   -51.7205     5.1179     6.3402     6.8635
  609.0000   -52.1746     5.1215     6.3412     6.9774
  609.5000   -52.6344     5.2345     6.2611     7.0968
  610.0000   -52.8642     5.4197     6.2524     7.0994
  610.5000   -52.9790     5.9524     6.3687     7.1812
  611.0000   -53.4369     6.4167     6.4893     7.2431
  611.5000   -53.6657     6.8142     6.6012     7.2709
  612.0000   -53.8946     7.1695     6.7998     7.3868
  612.5000   -54.3630     7.5225     6.9774     7.4989
  613.0000   -54.9906     7.7890     7.1190     7.6128
  613.5000   -55.4504     7.9866     7.3567     7.7822
  614.0000   -55.9103     8.2114     7.5819     8.0074
  614.5000   -56.3701     8.4531     7.7298     8.2341
  615.0000   -56.8299     8.6295     7.8460     8.5705
  615.5000   -57.2216     8.7629     7.9889     8.9068
  616.0000   -57.4620     8.8790     8.2242     9.2431
  616.5000   -58.0115     8.9903     8.2252     9.6114
  617.0000   -58.1957     9.0952     8.3111    10.0488
  617.5000   -58.4245     9.1827     8.4836    10.3182
  618.0000   -58.6534     9.2274     8.6595    10.4991
  618.5000   -58.8822     9.2721     8.6606    10.6618
  619.0000   -59.1509     9.2929     8.6616    10.7758
  619.5000   -59.3399     9.2997     8.6627    10.8897
  620.0000   -59.5687     9.3213     8.6063    11.0226
  620.5000   -59.7199     9.3217     8.4922    11.1176
  621.0000   -59.7177     9.3220     8.3786    11.2316
  621.5000   -59.7152     9.3224     8.3797    11.3455
  622.0000   -60.1045     9.3227     8.2936    11.4475
  622.5000   -60.4253     9.3231     8.2381    11.4506
  623.0000   -60.6541     9.3234     8.2392    11.5493
  623.5000   -60.8830     9.3060     8.2403    11.6632
  624.0000   -61.1422     9.2964     8.2414    11.7348
  624.5000   -61.3407     9.2967     8.2425    11.7530
  625.0000   -61.5695     9.2971     8.2435    11.8787
  625.5000   -61.7111     9.2975     8.2760    11.9809
  626.0000   -61.7089     9.2800     8.3980    12.0948
  626.5000   -61.7065     9.2581     8.7446    12.1630
  627.0000   -61.9097     9.2363     9.0017    12.1657
  627.5000   -61.9900     9.2132     9.2942    12.1687
  628.0000   -61.9879     9.1607     9.6408    12.1713
  628.5000   -61.9857     9.1072     9.9793    12.1740
  629.0000   -61.9833     9.0286    10.0955    12.1275
  629.5000   -61.9814     8.9402    10.3933    12.0414
  630.0000   -61.9792     8.8518    10.6154    12.0443
  630.5000   -61.9771     8.7469    10.7655    11.9404
  631.0000   -61.9749     8.6389    10.9916    11.8320
  631.5000   -61.9726     8.5062    11.1079    11.7762
  632.0000   -61.9706     8.3804    11.3161    11.7532
  632.5000   -61.9685     8.2669    11.5475    11.6437
  633.0000   -62.0679     8.0839    11.7091    11.5364
  633.5000   -62.2521     7.9025    11.7101    11.4280
  634.0000   -62.2494     7.7063    11.7114    11.3195
  634.5000   -62.4668     7.5434    11.7123    11.2111
  635.0000   -62.5327     7.4107    11.7134    11.1027
  635.5000   -62.6370     7.2546    11.7144    10.9942
  636.0000   -62.8160     7.1817    11.7155    10.8858
  636.5000   -62.8138     7.1189    11.7168    10.7774
  637.0000   -63.0359     7.0676    11.7177    10.6690
  637.5000   -63.0970     7.0048    11.7846    10.5662
  638.0000   -63.0949     6.9793    11.8635    10.5696
  638.5000   -63.0927     6.9612    11.8735    10.4818
  639.0000   -63.0906     6.9522    12.0095    10.3734
  639.5000   -63.0884     6.9452    11.9149    10.2650
  640.0000   -63.0863     6.9215    11.8008    10.1565
  640.5000   -63.0841     6.8702    11.7252    10.0308
  641.0000   -63.0820     6.8705    11.7162    10.0331
  641.5000   -63.0798     6.8319    11.5839     9.9694
  642.0000   -63.0776     6.7731    11.4880     9.8610
  642.5000   -63.0755     6.7272    11.4422     9.7525
  643.0000   -63.0733     6.6503    11.4432     9.6302
  643.5000   -63.0712     6.5947    11.4331     9.6326
  644.0000   -63.0690     6.5154    11.3019     9.5654
  644.5000   -63.0669     6.4346    11.3028     9.4570
  645.0000   -63.0647     6.3663    11.2344     9.3485
  645.5000   -63.1881     6.2643    11.1613     9.2296
  646.0000   -63.4169     6.2083    11.1624     9.1317
  646.5000   -63.6458     6.1421    11.1636     9.0967
  647.0000   -63.9183     6.0682    11.1645     9.0529
  647.5000   -64.1034     5.9798    11.0950     8.9636
  648.0000   -64.2019     5.8782    10.9808     8.9670
  648.5000   -64.1998     5.7842    10.8531     8.8658
  649.0000   -64.2149     5.6602    10.5942     8.8343
  649.5000   -64.4826     5.5275    10.4948     8.7871
  650.0000   -64.4808     5.3994    10.2370     8.7017
  650.5000   -64.4787     5.2982     9.9793     8.7045
  651.0000   -64.4765     5.2795     9.8503     8.7072
  651.5000   -64.4523     5.3788     9.5939     8.7099
  652.0000   -64.1843     5.5725     9.2902     8.7127
  652.5000   -64.1825     5.7898     8.8727     8.7155
  653.0000   -64.1804     5.9924     8.6358     8.7182
  653.5000   -64.0948     6.1645     8.7520     8.7210
  654.0000   -63.8885     6.3645     8.8809     8.8075
  654.5000   -63.8861     6.5404     8.8818     8.8646
  655.0000   -63.8842     6.6713     8.8829     8.8674
  655.5000   -63.8820     6.7975     8.8840     8.8732
  656.0000   -63.8799     6.8938     8.8851     8.9871
  656.5000   -63.8777     6.9640     8.8862     9.0138
  657.0000   -63.8753     7.0006     8.8872     9.0769
  657.5000   -63.8734     7.0231     8.8883     9.1908
  658.0000   -63.8712     7.0485     8.9363     9.3048
  658.5000   -63.9621     7.0488     9.0526     9.4397
  659.0000   -64.1548     7.0492     9.1790     9.4420
  659.5000   -64.1521     7.0495     9.1800     9.5085
  660.0000   -64.3610     7.0471     9.2577     9.5856
  660.5000   -64.5899     7.0225     9.3739     9.5983
  661.0000   -64.7209     7.0229     9.4705     9.7297
  661.5000   -64.7188     7.0093     9.4717     9.6379
  662.0000   -64.7165     6.9958     9.4727     9.5967
  662.5000   -64.7145     6.9904     9.4738     9.5994
  663.0000   -64.5532     6.9412     9.4749     9.5889
  663.5000   -64.4226     6.9024     9.4968     9.4672
  664.0000   -64.3745     6.8584     9.6208     9.3720
  664.5000   -64.1307     6.8143     9.6218     9.2636
  665.0000   -64.1286     6.7733     9.7019     9.1114
  665.5000   -64.1264     6.7490     9.7676     8.8918
  666.0000   -64.1243     6.6903     9.7687     8.6522
  666.5000   -64.1221     6.6241     9.7698     8.4526
  667.0000   -64.1199     6.5406     9.7708     8.1588
  667.5000   -64.1178     6.3802     9.7719     7.8752
  668.0000   -64.1157     5.8643     9.7730     7.6353
  668.5000   -64.1135     5.6074     9.7508     7.2847
  669.0000   -64.1113     5.2481     9.6315     7.0783
  669.5000   -64.1092     4.8316     9.5226     6.7811
  670.0000   -64.1070     4.3785     9.1643     6.5009
  670.5000   -63.9314     3.8162     8.8105     6.3050
  671.0000   -63.8152     3.3190     8.5812     6.1935
  671.5000   -63.8130     2.9661     8.3438     6.0882
  672.0000   -63.8109     2.7845     8.0115     6.0608
  672.5000   -63.8087     2.7061     7.7496     6.0635
  673.0000   -63.6283     2.6822     7.4121     6.0663
  673.5000   -63.6386     2.6825     6.9781     6.0691
  674.0000   -63.8022     2.7263     6.6250     6.0718
  674.5000   -63.8001     2.8202     6.2891     5.9901
