~VERSION INFORMATION
 VERS.                2.0:   CWLS LOG ASCII STANDARD - VERSION 2.0
 WRAP.                 NO:   ONE LINE PER DEPTH STEP
~WELL INFORMATION
#MNEM.UNIT      DATA TYPE    INFORMATION
#----------   ------------   ------------------------------
 STRT.F          670.0000:   START DEPTH
 STOP.F         3440.0000:   STOP DEPTH
 STEP.F            0.5000:   STEP LENGTH
 NULL.          -999.2500:   NO VALUE
 COMP.    FENIX & SCISSON:   COMPANY
 WELL.   FENIX "A" #57-33:   WELL
 FLD .             NPR #3:   FIELD
 LOC .      S33 T39N R78W:   LOCATION
 CNTY.            NATRONA:   COUNTY
 STAT.            WYOMING:   STATE
 CTRY. UNITED STATES OF AMERICA:   COUNTRY
 SRVC.       SCHLUMBERGER:   SERVICE COMPANY
 DATE.        27-APR-1977:   LOGDATE
 API .     49025103600000:   API NUMBER
~CURVE INFORMATION
#MNEM.UNIT       API CODE    CURVE DESCRIPTION
#----------   ------------   ------------------------------
 DEPT.F                  :   
 SPR .MV     11 010 01 00:   SPONTANEOUS POTENTIAL FROM RES.
 MSFL.OHMM   11 270 04 00:   MICRO SPHERICALLY FOCUSED
 LLD .OHMM   11 220 10 00:   LATEROLOG LOG DEEP
 LLS .OHMM   11 220 09 00:   LATEROLOG LOG SHALLOW
 CALD.IN     45 280 60 00:   CALIPER FROM DENSITY LOG
 DRHO.G/C3   45 356 01 00:   DENSITY CORRECTION
 NPHI.DEC    42 890 03 00:   NEUTRON POROSITY SANDSTONE
 RHOB.G/C3   45 350 01 00:   BULK DENSITY
 GRD .GAPI   45 310 01 00:   GAMMA RAY FROM RESISTIVITY
~PARAMETER INFORMATION
#MNEM.UNIT          VALUE    DESCRIPTION
#----------   ------------   ------------------------------
 EKB .F         5183.0000:   Kelly bushing
 EGL .F         5172.0000:   Ground level
 EDF .F            0.0000:   Drilling floor
 TD  .F         3424.0000:   Total depth
 DATE.        27-APR-1977:   Date logged
 CLNT.            A2DTECH:   Client Code
 SL  . 990' FSL & 2310' FEL:   Surface Location
 PD  .                 GL:   Permanent Datum
 EPD .F              5172:   Elevation Permanent Datum
 LMF .                 KB:   Log Measured From
 DMF .                 KB:   Drilling Measured From
 DAPD.F                11:   Feet Above Permanent Datum
 DD  .F              3421:   Depth driller
 DL  .F              3424:   Depth logger
 BLI .F              3423:   Bottom log interval
 TLI .F               764:   Top log interval
 CS1 .IN            8.625:   Casing size
 CBD1.      8.625" @ 711':   Casing driller 1
 BS1 .IN            7.875:   Bit size
 BSD1.F              3421:   Depth drilled with bit1
 DFT .            KCL MUD:   Type fluid in hole
 DFD .                9.5:   Density
 DFV .                 41:   Viscosity
 DFPH.                  8:   pH
 DFL .               10.8:   Fluid loss
 MSS .            MUD PIT:   Source of sample
 RMS .OHMM           0.26:   Rm
 MST .F                74:   Rm Meas. temp.
 RMF .OHMM           0.21:   Rmf
 MFST.F                74:   Rmf Meas. temp.
 RMC .OHMM            .09:   Rmc
 MCST.F                74:   Rmc Meas. temp.
 MFSS.               MEAS:   Source Rmf.
 MCSS.               CALC:   Source Rmc.
 RMB .OHMM           0.15:   Rm. at BHT
 BHT .F               126:   BHT.
 TCS .HRS            0900:   Time Circ. stopped
 TLAB.HRS            1430:   Time logger at bottom
 MRT .F               126:   Maximum recorded temp.
 LUN .               7711:   Logging unit number
 LUL .               CSPR:   Logging unit location
 ENGI.             SAYLER:   Recorded By
 WITN.         PETTINGILL:   Witnessed by
 ORIG.           5" PRINT:   Origin of data
 UWI .     49025103600000:   Unique Well ID
 DICO. A2D TECHNOLOGIES, INC.:   Digitizing Company
~OTHER INFORMATION
~A   DEPT      SPR       MSFL        LLD        LLS         CALD      DRHO        NPHI       RHOB      GRD   
# ...
 2312.5000   -59.2760     6.4770     5.2000     6.0730     8.9930     0.0010     0.3320     2.4950   128.1900
 2313.0000   -59.1000     7.5710     4.7390     6.0560     8.9960     0.0020     0.3450     2.4820   129.1930
 2313.5000   -58.9240     8.5970     4.8710     6.0200     8.9980     0.0090     0.3560     2.4970   125.7770
 2314.0000   -58.7490     9.7930     5.3560     6.1290     8.9930     0.0050     0.3530     2.5090   123.6490
 2314.5000   -58.5710    11.5540     6.5250     7.1260     8.9850     0.0000     0.3510     2.5170   122.4300
 2315.0000   -58.3920    10.3070     7.2310     8.1490     8.9760    -0.0050     0.3490     2.5020   124.2280
 2315.5000   -58.2750     8.7330     6.6200     7.5620     8.9680    -0.0010     0.3470     2.4980   127.7350
 2316.0000   -58.6110     7.5020     6.0760     7.0720     8.9600     0.0030     0.3450     2.5000   127.9700
 2316.5000   -58.8360     9.1830     5.4390     6.5970     8.9510     0.0070     0.3460     2.5050   126.5830
 2317.0000   -59.0510     8.5120     5.6630     6.7440     8.9430     0.0120     0.3610     2.5210   127.6070
 2317.5000   -59.2660     8.2240     5.9630     6.9410     8.9390     0.0150     0.3590     2.5370   127.9640
 2318.0000   -59.4810     8.5660     5.8930     6.9710     8.9620     0.0170     0.3630     2.5330   129.7760
 2318.5000   -59.6960     8.8910     5.8110     6.9710     8.9840     0.0160     0.3770     2.5210   131.0370
 2319.0000   -59.9110     9.9670     6.6200     6.9710     9.0060     0.0080     0.3760     2.5140   130.4000
 2319.5000   -60.1260    11.9700     7.5610     7.1000     9.0290     0.0050     0.3600     2.5210   127.7990
 2320.0000   -60.1510    13.9730     8.5020     8.7570     9.0530     0.0090     0.3490     2.5300   124.4810
 2320.5000   -59.9700    15.3610     9.5270    10.2530     8.9720     0.0130     0.3470     2.5260   120.3640
 2321.0000   -59.7900    13.1680     9.1860     9.7020     8.8590     0.0130  -999.2500     2.5230   119.0330
 2321.5000   -59.6100    11.2480     8.5230     9.0610     8.8580     0.0120  -999.2500     2.5240   117.8980
 2322.0000   -59.4300     9.9740     7.8610     8.4200     8.8590     0.0120  -999.2500     2.5210   114.8630
 2322.5000   -59.2500    10.8840     7.1990     7.9270     8.8620     0.0150  -999.2500     2.5380   111.3570
 2323.0000   -59.0700    11.2400     7.0350     7.9270     8.8650     0.0180  -999.2500     2.5550   110.0030
 2323.5000   -58.8830    11.1790     7.1640     7.9870     8.8670     0.0170  -999.2500     2.5590   110.0300
 2324.0000   -58.8530    11.1000     7.2310     8.0010     8.8700     0.0140  -999.2500     2.5510   108.7630
 2324.5000   -58.8990    11.0350     7.2980     8.1490     8.8730     0.0110  -999.2500     2.5400   108.1230
 2325.0000   -58.9470    11.3440     7.5760     8.3450     8.8750     0.0080  -999.2500     2.5420   109.3900
 2325.5000   -58.9950    12.3210     7.9270     8.5430     8.8780     0.0220  -999.2500     2.5560   110.8470
 2326.0000   -59.0280    11.7350     8.0280     8.7410     8.8800     0.0420  -999.2500     2.5720   110.4490
 2326.5000   -58.9850    11.0350     8.2240     8.9330     8.8830     0.0220  -999.2500     2.5740   110.0880
 2327.0000   -58.9400    11.5480     8.1300     8.8970     8.8860     0.0160  -999.2500     2.5720   111.1260
 2327.5000   -58.8980    12.4350     7.9150     8.8160     8.8880     0.0100     0.2850     2.5680   113.1000
 2328.0000   -58.8490    11.3910     7.7120     8.7340     8.8910     0.0110     0.2920     2.5570   114.3520
 2328.5000   -59.1160    10.7350     7.8550     8.6900     8.8940     0.0110     0.2980     2.5510   115.5960
 2329.0000   -59.2820    12.7930     8.0010     9.0900     8.8960     0.0110     0.3000     2.5480   117.1680
 2329.5000   -59.4610    14.2730     8.7520     9.4050     8.8990     0.0120     0.3060     2.5520   119.2340
 2330.0000   -59.6460    13.2610     9.4480     9.4390     8.9020     0.0120     0.3110     2.5470   120.1320
 2330.5000   -59.8170    11.7910     9.7930     8.9720     8.9040     0.0120     0.3170     2.5540   118.9010
 2331.0000   -59.7900    10.3480     8.1630     8.5460     8.9070     0.0120     0.3230     2.5520   118.2730
 2331.5000   -59.7580     9.5540     6.6930     8.1200     8.9090     0.0130     0.3290     2.5510   121.8980
 2332.0000   -59.7260     8.6930     5.9750     7.6940     8.9120     0.0130     0.3350     2.5670   126.5050
 2332.5000   -59.6950     8.1490     5.7900     7.2690     8.9150     0.0130     0.3410     2.5540   132.9480
 2333.0000   -59.6640     8.0010     5.6060     6.8430     8.9170     0.0150     0.3510     2.5440   137.0850
 2333.5000   -59.6280     8.1490     5.4890     6.6580     8.9200     0.0180     0.3550     2.5410   135.8620
 2334.0000   -59.7660     9.7070     6.1700     7.0960     8.9230     0.0220     0.3590     2.5460   132.8690
 2334.5000   -59.9660    12.4350     6.8710     7.6440     8.9250     0.0220     0.3590     2.5400   132.8060
 2335.0000   -60.1660    11.2140     7.7120     8.3000     8.9280     0.0160     0.3540     2.5320   130.9750
 2335.5000   -60.3680     9.9800     7.3150     7.9670     8.9300     0.0090     0.3490     2.5280   128.8010
 2336.0000   -60.5720     8.7700     6.6850     7.5520     8.9330     0.0060     0.3450     2.5320   132.2380
 2336.5000   -60.6140     9.1010     6.0730     7.1650     8.9360     0.0050     0.3490     2.5300   134.9260
 2337.0000   -60.6150     9.5020     6.1830     7.2980     8.9380     0.0070     0.3590     2.5250   133.7400
 2337.5000   -60.6150     9.8830     6.4170     7.2870     8.9400     0.0090     0.3640     2.5230   131.2590
 2338.0000   -60.6150     9.6800     6.3670     7.2610     8.9410     0.0120     0.3640     2.5250   128.7580
 2338.5000   -60.6140     9.3530     6.2430     7.2350     8.9420     0.0190     0.3560     2.5270   127.3640
 2339.0000   -60.6220    11.4400     6.6860     7.7540     8.9440     0.0300     0.3550     2.5330   126.9750
 2339.5000   -60.8360    13.3100     7.6200     8.2240     8.9450     0.0360     0.3540     2.5390   127.6540
 2340.0000   -61.0540    14.0130     9.0160     8.3000     8.9470     0.0320     0.3480     2.5450   131.0290
 2340.5000   -61.3020    12.3510     8.6910     7.9270     8.9480     0.0260     0.3440     2.5440   134.2740
 2341.0000   -61.6650    10.5250     7.9010     7.7580     8.9500     0.0200     0.3450     2.5390   136.3970
 2341.5000   -62.0240     8.9330     7.1120     7.5210     8.9510     0.0110     0.3450     2.5400   132.3460
 2342.0000   -62.3820     8.7650     6.3220     7.2840     8.9530     0.0150     0.3470     2.5640   128.6470
 2342.5000   -62.7410     8.4230     5.9630     6.9710     8.9540     0.0170     0.3510     2.5590   125.6720
 2343.0000   -63.1080     8.0010     6.1340     7.0500     8.9560     0.0110     0.3520     2.5540   123.6510
 2343.5000   -63.1940     9.0860     6.3040     7.1940     8.9570     0.0100     0.3510     2.5640   124.5150
 2344.0000   -63.1270     9.9100     6.4740     7.3380     8.9590     0.0170     0.3470     2.5820   126.1600
 2344.5000   -63.0350     9.2680     6.6440     7.4820     8.9600     0.0190     0.3450     2.5980   128.3870
 2345.0000   -62.9440     9.4120     6.7810     7.7120     8.9620     0.0160     0.3440     2.5760   135.0850
 2345.5000   -62.8520     9.7090     6.7810     7.6410     8.9630     0.0040     0.3440     2.5590   142.1400
 2346.0000   -62.7600     9.8830     6.5890     7.5040     8.9650     0.0030     0.3440     2.5580   149.0020
 2346.5000   -62.6770     9.0140     6.3990     7.3680     8.9660     0.0080     0.3540     2.5640   155.3870
 2347.0000   -62.7690     8.5320     6.2090     7.2330     8.9680     0.0130     0.3670     2.5600   166.2610
 2347.5000   -63.1710     8.4540     6.0190     7.0970     8.9690     0.0170     0.3780     2.5570   172.6170
 2348.0000   -63.5320     8.3770     5.8300     6.9610     8.9710     0.0180     0.3740     2.5470   164.9490
 2348.5000   -63.8930     8.7700     5.6400     6.8250     8.9720     0.0190     0.3730     2.5430   156.9460
