~VERSION INFORMATION
 VERS.                2.0:   CWLS LOG ASCII STANDARD - VERSION 2.0
 WRAP.                 NO:   ONE LINE PER DEPTH STEP
~WELL INFORMATION
#MNEM.UNIT      DATA TYPE    INFORMATION
#----------   ------------   ------------------------------
 STRT.F           35.5000:   START DEPTH
 STOP.F         6235.5000:   STOP DEPTH
 STEP.F            0.5000:   STEP LENGTH
 NULL.          -999.2500:   NO VALUE
 COMP. LAWRENCE-ALLISON ASSOCIATES:   COMPANY
 WELL. LAWRENCE-ALLISON "X" #62-11:   WELL
 FLD .                NPR:   FIELD
 LOC .      S11 T38N R78W:   LOCATION
 CNTY.            NATRONA:   COUNTY
 STAT.            WYOMING:   STATE
 CTRY. UNITED STATES OF AMERICA:   COUNTRY
 SRVC.      DRESSER ATLAS:   SERVICE COMPANY
 DATE.        18-DEC-1982:   LOGDATE
 API .     49025109020000:   API NUMBER
~CURVE INFORMATION
#MNEM.UNIT       API CODE    CURVE DESCRIPTION
#----------   ------------   ------------------------------
 DEPT.F                  :   
 ILM .OHMM   07 120 44 00:   INDUCTION LOG MEDIUM
 ILD .OHMM   07 120 46 00:   DEEP RESISTIVITY
 RFOC.OHMM   07 220 04 00:   RESISTIVITY FOCUSED LOG RES.
 DT  .US/F   60 520 00 00:   DELTA TIME
 TENS.LBS    60 635 01 00:   TENSION FROM SONIC LOG.
 RS  .OHMM   11 220 09 00:   RESISTIVITY SHALLOW
 RD  .OHMM   11 220 10 00:   RESISTIVITY DEEP
 RLL .OHMM   11 220 00 00:   LATEROLOG RESISTIVITY
 SPR .MV     07 010 01 00:   SPONTANEOUS POTENTIAL
 TENR.LBS    07 635 01 00:   TENSION FROM RES. LOG
 CALD.IN     45 280 60 00:   CALIPER FROM DENSITY LOG
 GRD .GAPI   45 310 01 00:   GAMMA RAY FROM DENSITY LOG
 DEN .G/C3   45 350 01 00:   FORMATION FACTOR DENSITY
 DRHO.G/C3   45 356 01 00:   DENSITY CORRECTION
 TEND.LBS    45 635 01 00:   TENSION FROM DENSITY LOG
 CN  .DEC    42 890 00 00:   NEUTRON POROSITY
~PARAMETER INFORMATION
#MNEM.UNIT          VALUE    DESCRIPTION
#----------   ------------   ------------------------------
 EKB .F         5218.0000:   Kelly bushing
 EGL .F         5208.0000:   Ground level
 EDF .F            0.0000:   Drilling floor
 TD  .F         6232.0000:   Total depth
 DATE.        18-DEC-1982:   Date logged
 CLNT.            A2DTECH:   Client Code
 SL  . 971' FNL & 1898' FEL:   Surface Location
 PD  .                 GL:   Permanent Datum
 EPD .F              5208:   Elevation Permanent Datum
 LMF .                 KB:   Log Measured From
 DMF .                 KB:   Drilling Measured From
 DAPD.F                10:   Feet Above Permanent Datum
 DD  .F              6222:   Depth driller
 DL  .F              6232:   Depth logger
 BLI .F              6230:   Bottom log interval
 CS1 .IN            9.625:   Casing size
 CBD1.     9.625" @ 1002':   Casing driller 1
 CBL1.F              1002:   Casing logger 1
 BS1 .IN             8.75:   Bit size
 BSD1.F              6222:   Depth drilled with bit1
 DFT .                KCL:   Type fluid in hole
 DFD .                  9:   Density
 DFV .                 37:   Viscosity
 DFPH.                  8:   pH
 DFL .                8.4:   Fluid loss
 MSS .           FLOWLINE:   Source of sample
 RMS .OHMM            .25:   Rm
 MST .F                60:   Rm Meas. temp.
 RMF .OHMM            .18:   Rmf
 MFST.F                62:   Rmf Meas. temp.
 RMC .OHMM            .32:   Rmc
 MCST.F                60:   Rmc Meas. temp.
 MFSS.               MEAS:   Source Rmf.
 MCSS.               CALC:   Source Rmc.
 RMB .OHMM            .09:   Rm. at BHT
 BHT .F               166:   BHT.
 TCS .HRS               6:   Time Circ. stopped
 MRT .F               166:   Maximum recorded temp.
 LUN .               6274:   Logging unit number
 LUL .               GLTE:   Logging unit location
 ENGI.             RAUTIO:   Recorded By
 WITN.           JENNINGS:   Witnessed by
 ORIG.           5" PRINT:   Origin of data
 UWI .     49025109020000:   Unique Well ID
 DICO. A2D TECHNOLOGIES, INC.:   Digitizing Company
~OTHER INFORMATION
~A  DEPTH      ILM        ILD       RFOC         DT       TENS         RS         RD        RLL        SPR       TENR       CALD        GRD        DEN       DRHO       TEND         CN
# ...
 5389.0000  -999.2500  -999.2500  -999.2500    65.0966   -42.3587    15.4497    13.5550    19.5876   -87.7536   -48.7901    10.4042    88.7807     2.6761     0.0217    -3.4200     0.1889
 5389.5000  -999.2500  -999.2500  -999.2500    63.5891   -42.1557    12.9015    12.8224    14.1319   -87.9127   -45.1064    10.4186    90.2960     2.6769     0.0231    -3.2712     0.1795
 5390.0000  -999.2500  -999.2500  -999.2500    62.2324   -41.9529    12.3765    12.6455    12.6455   -87.9224   -45.1761    10.4180    88.1431     2.6691     0.0168    -3.1249     0.1645
 5390.5000  -999.2500  -999.2500  -999.2500    61.1773   -41.7790    12.5503    12.7336    12.2138   -87.9322   -56.5526    10.4221    84.2044     2.6620     0.0105    -2.7041     0.1592
 5391.0000  -999.2500  -999.2500  -999.2500    61.0271   -45.4162    13.2671    14.0341    12.6455   -88.0911   -64.1525    10.4319    81.4694     2.6581     0.0058     1.0937     0.1573
 5391.5000  -999.2500  -999.2500  -999.2500    61.1034   -45.1966    15.4552    16.0140    15.2540   -88.1009   -56.7036    10.4312    79.9440     2.6557     0.0073     5.1855     0.1554
 5392.0000  -999.2500  -999.2500  -999.2500    61.0286   -45.0075    17.8795    17.7725    16.6955   -87.9573   -37.9481    10.4306    78.1168     2.6549     0.0166     5.3124     0.1535
 5392.5000  -999.2500  -999.2500  -999.2500    60.8787   -48.5898    19.1650    18.7880    17.8964   -87.9684   -34.2643    10.4301    75.9852     2.6643     0.0227     5.4687     0.1519
 5393.0000  -999.2500  -999.2500  -999.2500    60.8038   -48.3868    19.7054    19.5876    18.7880   -88.1274   -41.8642    10.4294    75.3676     2.6721     0.0258     5.6250     0.1494
 5393.5000  -999.2500  -999.2500  -999.2500    60.8048   -48.2225    19.9819    19.5876    19.1836   -88.1372   -53.2408    10.4137    77.7609     2.6783     0.0086     9.6990     0.1440
 5394.0000  -999.2500  -999.2500  -999.2500    60.9563   -51.8212    20.1225    19.5876    19.0508   -88.1456   -53.3104    10.4132    80.4558     2.6799     0.0039     9.8438     0.1409
 5394.5000  -999.2500  -999.2500  -999.2500    60.5800   -51.5894    20.1238    19.5876    18.4006   -88.1539   -45.8617    10.4277    74.4040     2.6814     0.0069    10.0087     0.1327
 5395.0000  -999.2500  -999.2500  -999.2500    59.3742   -51.4155    20.1253    19.5876    18.0211   -88.1637   -45.9314    10.4270    69.2586     2.6845     0.0084    10.1563     0.1237
 5395.5000  -999.2500  -999.2500  -999.2500    58.8469   -47.4305    20.2666    19.7241    17.8964   -88.1735   -61.0730    10.4265    65.9232     2.6876     0.0068    10.3309     0.1196
 5396.0000  -999.2500  -999.2500  -999.2500    59.3003   -43.4947    22.6468    21.1428    18.6580   -88.1807   -68.6729    10.4409    62.5878     2.6837     0.0036    14.3750     0.1208
 5396.5000  -999.2500  -999.2500  -999.2500    60.5076   -39.4894    26.1992    24.9782    22.5067   -88.1902   -53.6823    10.4403    61.9702     2.6673     0.0035    14.5346     0.1270
 5397.0000  -999.2500  -999.2500  -999.2500    62.6954   -35.5333    26.9382    27.1494    29.3051   -88.2000   -42.4685    10.4547    66.1706     2.6501     0.0019    10.8019     0.1382
 5397.5000  -999.2500  -999.2500  -999.2500    64.1290   -35.3306    26.5689    25.8609    29.7150   -88.2084   -46.3032    10.4541    70.9771     2.6407     0.0003    10.9375     0.1501
 5398.0000  -999.2500  -999.2500  -999.2500    64.9594   -35.1567    24.9630    23.1408    25.8609   -88.2181   -61.4449    10.4535    75.4848     2.6376     0.0034    11.0992     0.1622
 5398.5000  -999.2500  -999.2500  -999.2500    65.3372   -34.9537    22.1881    18.7880    20.0000   -88.2265   -65.2797    10.4681    79.3892     2.6383     0.0173     7.3437     0.1669
 5399.0000  -999.2500  -999.2500  -999.2500    65.7905   -34.7798    18.9180    16.4651    14.5300   -88.2363   -61.5959    10.4673    84.4975     2.6399     0.0468     5.6873     0.1703
 5399.5000  -999.2500  -999.2500  -999.2500    66.3945   -34.5769    17.0499    15.2540    13.3680   -88.2446   -50.3705    10.4667    86.8936     2.6422     0.0644    -4.9688     0.1737
 5400.0000  -999.2500  -999.2500  -999.2500    67.0352   -30.6208    15.2603    14.7333    14.4292   -88.8542   -48.5415    10.4961    90.1946     2.6461     0.0609   -15.6498     0.1768
 5400.5000  -999.2500  -999.2500  -999.2500    67.6835   -26.7635    14.4356    13.4612    14.4264   -89.3034   -76.6559    10.4962    89.7635     2.6461     0.0031   -31.2922     0.1762
 5401.0000  -999.2500  -999.2500  -999.2500    67.3869   -22.9095    13.6554    12.2990    13.4554   -89.2978   -65.2211    10.4962    87.7632     2.6453    -0.0203   -27.4281     0.1752
 5401.5000  -999.2500  -999.2500  -999.2500    66.3361   -19.0555    13.0075    11.7153    12.0378   -89.2929   -53.7629    10.4962    82.0233     2.6413    -0.0219   -27.4643     0.1733
 5402.0000  -999.2500  -999.2500  -999.2500    64.7574   -18.9718    12.5632    11.7969    11.4639   -89.2892   -53.6234    10.4962    80.2036     2.6382    -0.0172   -23.5882     0.1693
 5402.5000  -999.2500  -999.2500  -999.2500    62.6516   -15.1178    12.8265    13.0924    12.0328   -89.2846   -79.8158    10.4962    80.1952     2.6366    -0.0125   -19.7241     0.1617
 5403.0000  -999.2500  -999.2500  -999.2500    61.6009   -15.0460    14.0356    14.9394    13.6322   -89.2797   -79.6761    10.4962    78.9787     2.6382    -0.0048   -23.6786     0.1514
 5403.5000  -999.2500  -999.2500  -999.2500    61.5296   -19.6933    15.6819    16.9290    15.2317   -89.2748   -60.6879    10.4962    75.0488     2.6410    -0.0063   -23.7109     0.1452
 5404.0000  -999.2500  -999.2500  -999.2500    61.5355   -26.2368    17.5209    18.5288    16.4374   -89.2711   -45.4879    10.4812    72.0224     2.6459    -0.0204   -23.7570     0.1417
 5404.5000  -999.2500  -999.2500  -999.2500    61.6168   -26.8962    19.1728    19.8616    17.6163   -89.2665   -49.0901    10.4812    72.0140     2.6506    -0.0219   -23.7890     0.1423
 5405.0000  -999.2500  -999.2500  -999.2500    61.8480   -33.6695    20.6912    20.5635    19.0114   -89.1110   -56.4805    10.4662    72.0056     2.6560    -0.0064   -23.8293     0.1445
 5405.5000  -999.2500  -999.2500  -999.2500    62.0801   -41.1381    21.4200    20.9965    20.6593   -89.1061   -60.0827    10.4662    72.2975     2.6615     0.0061   -23.8715     0.1467
 5406.0000  -999.2500  -999.2500  -999.2500    62.2360   -41.0663    19.3022    19.3173    20.7993   -89.1019   -59.9430    10.4662    73.4957     2.6661     0.0092   -23.9137     0.1460
 5406.5000  -999.2500  -999.2500  -999.2500    62.2410   -44.7807    17.2737    17.2855    17.9722   -89.0971   -59.8033    10.4662    74.9955     2.6677    -0.0002   -23.9499     0.1423
 5407.0000  -999.2500  -999.2500  -999.2500    61.7944   -44.6928    16.4539    16.4651    16.9975   -89.0934   -67.1706    10.4662    71.9686     2.6708    -0.0002   -23.9921     0.1366
 5407.5000  -999.2500  -999.2500  -999.2500    60.5928   -48.4115    16.6826    16.6955    16.9937   -89.0880   -78.3260    10.4662    70.4519     2.6684    -0.0143   -18.5514     0.1329
 5408.0000  -999.2500  -999.2500  -999.2500    59.7682   -48.3358    17.8794    19.0508    19.7956   -89.0838   -63.1029    10.4662    68.6321     2.6613    -0.0314   -12.3457     0.1316
 5408.5000  -999.2500  -999.2500  -999.2500    59.8487   -47.0720    20.2554    22.9806    22.2717   -88.9283   -51.6680    10.4662    67.4171     2.6582    -0.0376    -8.2705     0.1316
 5409.0000  -999.2500  -999.2500  -999.2500    60.9858   -44.4024    22.6309    26.2227    25.2330   -88.9242   -51.5050    10.4662    66.2007     2.6550    -0.0345    -0.7031     0.1316
 5409.5000  -999.2500  -999.2500  -999.2500    62.1220   -40.5396    24.2546    27.1494    26.1188   -88.6181   -58.8956    10.4662    64.9856     2.6550    -0.0190    -0.7475     0.1328
 5410.0000  -999.2500  -999.2500  -999.2500    62.6549   -40.4678    24.7630    25.8609    25.9330   -88.4633   -54.9675    10.4733    64.3725     2.6644    -0.0003     3.1286     0.1372
