~VERSION INFORMATION
 VERS.                2.0:   CWLS LOG ASCII STANDARD - VERSION 2.0
 WRAP.                 NO:   ONE LINE PER DEPTH STEP
~WELL INFORMATION
#MNEM.UNIT      DATA TYPE    INFORMATION
#----------   ------------   ------------------------------
 STRT.F            3.5000:   START DEPTH
 STOP.F         5648.0000:   STOP DEPTH
 STEP.F            0.5000:   STEP LENGTH
 NULL.          -999.2500:   NO VALUE
 COMP.       FLUOR DANIEL:   COMPANY
 WELL.   FLUOR "X" #46-10:   WELL
 FLD .          N.P.R. #3:   FIELD
 LOC .      S10 T38N R78W:   LOCATION
 CNTY.            NATRONA:   COUNTY
 STAT.            WYOMING:   STATE
 CTRY. UNITED STATES OF AMERICA:   COUNTRY
 SRVC.      WESTERN ATLAS:   SERVICE COMPANY
 DATE.        25-MAR-1996:   LOGDATE
 API .     49025227700000:   API NUMBER
~CURVE INFORMATION
#MNEM.UNIT       API CODE    CURVE DESCRIPTION
#----------   ------------   ------------------------------
 DEPT.F                  :   
 CALD.IN     45 280 60 00:   CALIPER FROM DENSITY LOG
 ZDEN.G/C3   45 350 01 00:   BULK DENSITY
 ZCOR.G/C3   45 356 01 00:   DENSITY CORRECTION
 TEND.LBS    45 635 01 00:   TENSION FORM DENSITY LOG
 GRD .GAPI   45 310 01 00:   GAMMA RAY FROM DENSITY LOG
 CNC .DEC    42 890 01 00:   NEUTRON POROSITY LIMESTONE
 SPR .MV     07 010 01 00:   SPONTANEOUS POTENTIAL
 RD  .OHMM   07 220 10 00:   RESISTIVITY DEEP
 RS  .OHMM   07 220 09 00:   RESISTIVITY SHALLOW
~PARAMETER INFORMATION
#MNEM.UNIT          VALUE    DESCRIPTION
#----------   ------------   ------------------------------
 EKB .F         5216.0000:   Kelly bushing
 EGL .F         5206.0000:   Ground level
 EDF .F         5215.0000:   Drilling floor
 TD  .F         5650.0000:   Total depth
 CLNT.            A2DTECH:   Client Code
 SL  . 1493' FSL & 2330' FWL:   Surface Location
 PD  .                 GL:   Permanent Datum
 EPD .F              5206:   Elevation Permanent Datum
 LMF .                 KB:   Log Measured From
 DMF .                 KB:   Drilling Measured From
 DAPD.F                10:   Feet Above Permanent Datum
 DATE.        25-MAR-1996:   Date Logged [DD-MMM-YYYY]
 DD  .F              5650:   Depth driller
 DL  .F              5648:   Depth logger
 BLI .F              5636:   Bottom log interval
 TLI .F                 0:   Top log interval
 CS1 .IN            9.625:   Casing size
 CBD1.      9.625" @ 498':   Casing driller 1
 CBL1.F               496:   Casing logger 1
 BS1 .IN             8.75:   Bit size
 BSD1.F              5650:   Depth drilled with bit1
 DFT .           CHEM GEL:   Type fluid in hole
 DFD .                9.6:   Density
 DFV .                 54:   Viscosity
 DFPH.                9.5:   pH
 DFL .                8.4:   Fluid loss
 MSS .           FLOWLINE:   Source of sample
 RMS .OHMM          0.635:   Rm
 MST .F                68:   Rm Meas. temp.
 RMF .OHMM          0.483:   Rmf
 MFST.F                68:   Rmf Meas. temp.
 MFSS.               MEAS:   Source Rmf.
 RMC .OHMM          0.789:   Rmc
 MCST.F                68:   Rmc Meas. temp.
 MCSS.               MEAS:   Source Rmc.
 RMB .OHMM           0.26:   Rm. at BHT
 BHT .F               166:   BHT.
 TCS .HRS               6:   Time Circ. stopped
 MRT .F               166:   Maximum recorded temp.
 LUN .            HL-6530:   Logging unit number
 LUL .             CASPER:   Logging unit location
 ENGI.        VERN RAUTIO:   Recorded By
 WITN. LORRAINE LAFRENIERE:   Witnessed by
 ORIG.           5" PRINT:   Origin of data
 UWI .     49025227700000:   Unique Well ID
 DICO. A2D TECHNOLOGIES, INC.:   Digitizing Company
~OTHER INFORMATION
~A  DEPTH     CALD       ZDEN       ZCOR       TEND        GRD        CNC        SPR         RD         RS
# ...
 1171.5000     9.4238     2.5318     0.0453   -35.7458    91.3946     0.2756   -86.4697    11.1346     8.3907
 1172.0000     9.4227     2.5318     0.0423   -36.0555    87.1810     0.2716   -87.0772    11.2134     8.3900
 1172.5000     9.4215     2.5318     0.0318   -35.5608    87.7863     0.2690   -85.5693    11.1374     8.3895
 1173.0000     9.4204     2.5319     0.0243   -25.8964    89.3473     0.2723   -84.0701    10.9858     8.2734
 1173.5000     9.4193     2.5304     0.0259   -25.8964    90.8047     0.2780   -84.0743    10.9876     8.1591
 1174.0000     9.4182     2.5289     0.0274   -25.8964    89.9039     0.2759   -84.9835    10.9890     7.9357
 1174.5000     9.4170     2.5334     0.0259   -25.6967    88.4007     0.2714   -84.6870    10.9904     8.1579
 1175.0000     9.4159     2.5372     0.0260   -25.6993    86.8975     0.2714   -83.7863    10.9922     8.3865
 1175.5000     9.4148     2.5395     0.0260   -26.6011    86.2986     0.2717   -83.4887    11.0700     8.6215
 1176.0000     9.4136     2.5395     0.0290   -15.9363    85.6983     0.2808   -84.0974    11.1483     8.6809
 1176.5000     9.4285     2.5380     0.0321    -5.9761    84.7982     0.2838   -84.7049    10.9964     8.5608
 1177.0000     9.4288     2.5366     0.0351    -5.9761    83.2957     0.2829   -85.3124    10.9980     8.2689
 1177.5000     9.4291     2.5351     0.0382   -15.9363    81.4906     0.2808   -85.3176    10.9996     8.0937
 1178.0000     9.4293     2.5343     0.0397   -15.9363    86.0122     0.2844   -85.3218    10.9252     7.8222
 1178.5000     9.4296     2.5351     0.0412   -15.9363    89.3792     0.2859   -85.3260    10.8513     8.0413
 1179.0000     9.4298     2.5351     0.0428   -15.9363    91.7414     0.2838   -86.0279    10.8530     8.1549
 1179.5000     9.4301     2.5359     0.0413   -15.9363    92.6472     0.2810   -87.8996    10.8544     8.2661
 1180.0000     9.4303     2.5359     0.0368   -20.1195    89.6386     0.2829   -88.9595    10.8562     8.2655
 1180.5000     9.4306     2.5375     0.0353   -25.8964    88.7379     0.2832   -88.1731    10.8576     8.2650
 1181.0000     9.4308     2.5405     0.0369   -25.8964    89.3438     0.2808   -85.0474    10.9344     8.3797
 1181.5000     9.4310     2.5526     0.0369   -15.9363    89.3466     0.2760   -84.1456    11.4789     8.6144
 1182.0000     9.4313     2.5616     0.0339    -5.9761    85.7350     0.2664   -83.8492    11.8026     9.1045
 1182.5000     9.4315     2.5631     0.0293    -5.9761    82.7265     0.2649   -85.0611    12.1354     9.1672
 1183.0000     9.4318     2.5526     0.0279   -15.9363    81.2225     0.2718   -86.5735    12.1370     9.1032
 1183.5000     9.4320     2.5435     0.0325   -35.8566    82.4309     0.2751   -87.6336    12.1389     8.9774
 1184.0000     9.4323     2.5391     0.0370   -35.8566    83.9479     0.2760   -86.5830    12.1405     8.9768
 1184.5000     9.4325     2.5346     0.0371   -35.8566    85.1481     0.2770   -85.0789    12.0583     8.9923
 1185.0000     9.4328     2.5264     0.0311   -25.8964    86.0545     0.2794   -85.0831    12.1440     9.1007
 1185.5000     9.4330     2.5227     0.0266   -25.9761    85.7561     0.2839   -84.9375    12.1456     9.1000
 1186.0000     9.4333     2.5260     0.0281   -33.8164    85.4578     0.2842   -84.6400    12.1471     9.0994
 1186.5000     9.4335     2.5347     0.0312   -35.8718    87.2685     0.2848   -83.5874    12.2331     9.0988
 1187.0000     9.4337     2.5415     0.0312   -35.5978    88.7774     0.2864   -84.9511    12.1507     9.0982
 1187.5000     9.4340     2.5468     0.0312   -26.3694    89.0814     0.2893   -86.0111    11.9848     9.0975
 1188.0000     9.4342     2.5476     0.0313   -25.6796    88.1813     0.2893   -86.9203    11.6595     8.7873
 1188.5000     9.4345     2.5446     0.0328   -25.8964    87.8829     0.2911   -87.5413    11.1868     8.3709
 1189.0000     9.4347     2.5409     0.0328   -25.8964    87.2833     0.3008   -87.8347    11.0344     8.2551
 1189.5000     9.4350     2.5386     0.0389   -25.8964    86.6837     0.3038   -86.6323    11.1900     8.3699
 1190.0000     9.4352     2.5379     0.0555   -15.9363    85.7829     0.3003   -84.0673    11.1915     8.7243
 1190.5000     9.4355     2.5432     0.0645   -25.8964    85.1834     0.2978   -84.0776    11.3493     8.7236
 1191.0000     9.4357     2.5500     0.0570   -25.8964    84.8850     0.2915   -84.2326    11.4580     8.7230
 1191.5000     9.4210     2.5545     0.0508   -25.8964    85.1898     0.2846   -84.2368    11.5914     8.8441
 1192.0000     9.4217     2.5590     0.0496   -21.0491    85.4944     0.2779   -84.0902    11.6727     8.8434
 1192.5000     9.4224     2.5658     0.0496   -15.9363    85.7985     0.2771   -84.2463    11.8369     8.8428
 1193.0000     9.4232     2.5802     0.0496   -25.8964    85.8013     0.2686   -84.2505    11.8384     8.8423
 1193.5000     9.4239     2.5787     0.0465   -35.8566    85.8048     0.2665   -84.8590    11.6776     8.8415
 1194.0000     9.4247     2.5651     0.0331   -65.7371    85.8076     0.2723   -84.8632    11.5182     8.7194
 1194.5000     9.4255     2.5569     0.0452   -45.8167    85.8105     0.2711   -84.7166    11.3613     8.4806
 1195.0000     9.4262     2.5517     0.0482   -35.8566    86.1145     0.2720   -83.9677    11.3632     8.3634
 1195.5000     9.4270     2.5470     0.0468   -25.8964    87.0216     0.2795   -83.6692    11.3650     8.4795
 1196.0000     9.4277     2.5382     0.0453   -25.8964    85.8196     0.2819   -83.6744    11.4454     8.6568
 1196.5000     9.4285     2.5337     0.0408   -25.8964    84.6169     0.2772   -83.9804    11.6064     8.8380
 1197.0000     9.4292     2.5314     0.0333   -25.8964    84.9217     0.2723   -84.2872    11.6889     8.8373
 1197.5000     9.4300     2.5300     0.0243   -25.8964    85.8288     0.2732   -84.5930    11.6904     8.8367
 1198.0000     9.4307     2.5360     0.0198   -28.7849    87.0364     0.2756   -83.0671    11.5312     8.7146
 1198.5000     9.4315     2.5398     0.0229   -35.8566    87.9429     0.2804   -82.4898    11.2086     8.4759
 1199.0000     9.4322     2.5398     0.0274   -45.8167    89.1886     0.2804   -82.9475    10.9133     8.2438
 1199.5000     9.4330     2.5398     0.0304   -35.8566    91.5637     0.2792   -83.4042    10.6168     8.1299
 1200.0000     9.4337     2.5398     0.0320   -31.9877    94.2773     0.2708   -84.0128    10.4716     8.1126
 1200.5000     9.4345     2.5361     0.0275   -25.8964    95.7862     0.2651   -84.1667    10.4705     8.0579
 1201.0000     9.4352     2.5339     0.0275   -35.8566    93.3801     0.2648   -83.4178    10.4692     8.0152
 1201.5000     9.4360     2.5362     0.0291   -35.8566    89.1660     0.2654   -83.1204    10.4679     8.0140
 1202.0000     9.4367     2.5369     0.0291   -35.8566    87.0597     0.2697   -82.8229    10.4662     8.0129
 1202.5000     9.4373     2.5323     0.0306   -35.8566    88.2731     0.2742   -82.9790    10.5375     8.0119
 1203.0000     9.4377     2.5204     0.0307   -35.8566    89.4764     0.2826   -83.1350    10.6830     8.1223
 1203.5000     9.4381     2.5211     0.0381   -35.8566    88.2744     0.2904   -83.4409    10.8301     8.2346
 1204.0000     9.4385     2.5301     0.0472   -34.8163    85.8676     0.2883   -83.4451    10.9043     8.2908
 1204.5000     9.4389     2.5391     0.0457   -29.0837    84.3644     0.2865   -82.3945    10.8672     8.2894
 1205.0000     9.4393     2.5451     0.0412   -23.3510    86.1751     0.2871   -81.9452    10.7510     8.2311
 1205.5000     9.4397     2.5496     0.0382   -17.6184    90.1270     0.2985   -81.7986    10.6019     8.2301
 1206.0000     9.4401     2.5602     0.0383   -15.9363    93.1447     0.3012   -82.2734    10.4548     8.0596
 1206.5000     9.4405     2.5677     0.0427   -15.9363    92.8132     0.3046   -82.8649    10.1678     7.9477
 1207.0000     9.4409     2.5684     0.0457   -25.8964    89.8443     0.3082   -83.4619     9.8889     7.6762
 1207.5000     9.4413     2.5617     0.0473   -25.8964    88.3425     0.3154   -83.7671     9.4855     7.1357
