~VERSION INFORMATION
 VERS.                2.0:   CWLS LOG ASCII STANDARD - VERSION 2.0
 WRAP.                 NO:   ONE LINE PER DEPTH STEP
~WELL INFORMATION
#MNEM.UNIT      DATA TYPE    INFORMATION
#----------   ------------   ------------------------------
 STRT.F          176.0000:   START DEPTH
 STOP.F         3400.0000:   STOP DEPTH
 STEP.F            0.5000:   STEP LENGTH
 NULL.          -999.2500:   NO VALUE
 COMP.    PENIX & SCISSON:   COMPANY
 WELL. FENIX NPR 3 "AX" #64-4:   WELL
 FLD .                NPR:   FIELD
 LOC .       S4 T38N R78W:   LOCATION
 CNTY.            NATRONA:   COUNTY
 STAT.            WYOMING:   STATE
 CTRY. UNITED STATES OF AMERICA:   COUNTRY
 SRVC.       SCHLUMBERGER:   SERVICE COMPANY
 DATE.        25-JAN-1981:   LOGDATE
 API .     49025108640000:   API NUMBER
~CURVE INFORMATION
#MNEM.UNIT       API CODE    CURVE DESCRIPTION
#----------   ------------   ------------------------------
 DEPT.F                  :   
 SPR .MV     07 010 01 00:   SPONTANEOUS POTENTIAL
 RFOC.OHMM   07 220 01 00:   RESISTIVITY FOCUSED LOG RES.
 ILD .OHMM   07 120 46 00:   DEEP INDUCTION RESISTIVITY
 TENR.LBS    07 635 01 00:   TENSION
 ILM .OHMM   07 120 44 00:   INDUCTION LOG MEDIUM RESISTIVITY
 GRD .GAPI   45 310 01 00:   GAMMA RAY FROM DENSITY LOG
 CALD.IN     45 280 60 00:   CALIPER FROM DENSITY LOG
 RHOB.G/C3   45 350 01 00:   BULK DENSITY
 TEND.LBS    45 635 01 00:   TENSION FROM DENSITY LOG
 CORR.G/C3   45 356 01 00:   DENSITY CORRECTION
~PARAMETER INFORMATION
#MNEM.UNIT          VALUE    DESCRIPTION
#----------   ------------   ------------------------------
 EKB .F         5257.0000:   Kelly bushing
 EGL .F         5247.0000:   Ground level
 EDF .F            0.0000:   Drilling floor
 TD  .F         3388.0000:   Total depth
 DATE.        25-JAN-1981:   Date logged
 CLNT.            A2DTECH:   Client Code
 SL  . 2289' FNL & 1495' FEL:   Surface Location
 PD  .                 GL:   Permanent Datum
 EPD .F              5247:   Elevation Permanent Datum
 LMF .                 KB:   Log Measured From
 DMF .                 KB:   Drilling Measured From
 DAPD.F                10:   Feet Above Permanent Datum
 DD  .F              3388:   Depth driller
 DL  .F              3386:   Depth logger
 BLI .F              3380:   Bottom log interval
 TLI .F               192:   Top log interval
 CS1 .IN            8.625:   Casing size
 CBD1.      8.625" @ 191':   Casing driller 1
 CBL1.F               192:   Casing logger 1
 BS1 .IN            7.875:   Bit size
 BSD1.F              3388:   Depth drilled with bit1
 DFT .                FGM:   Type fluid in hole
 DFD .                8.7:   Density
 DFV .                 32:   Viscosity
 DFPH.                9.5:   pH
 DFL .                 18:   Fluid loss
 MSS .           FLOWLINE:   Source of sample
 RMS .OHMM           1.60:   Rm
 MST .F                60:   Rm Meas. temp.
 RMF .OHMM           1.33:   Rmf
 MFST.F                60:   Rmf Meas. temp.
 MFSS.               MEAS:   Source Rmf.
 RMB .OHMM            .83:   Rm. at BHT
 BHT .F               115:   BHT.
 TCS .HRS            1700:   Time Circ. stopped
 TLAB.HRS            2200:   Time logger at bottom
 MRT .F               115:   Maximum recorded temp.
 LUN .               8039:   Logging unit number
 LUL .               CSPR:   Logging unit location
 ENGI.           C. PFARR:   Recorded By
 WITN.           L. FIVAS:   Witnessed by
 ORIG.           5" PRINT:   Origin of data
 UWI .     49025108640000:   Unique Well ID
 DICO. A2D TECHNOLOGIES, INC.:   Digitizing Company
~OTHER INFORMATION
~A   DEPT      SPR       RFOC        ILD       TENR        ILM         GRD      CALD         RHOB      TEND      CORR   
# ...
 2085.5000   -12.0200    10.5920     9.0450   818.3630     8.8840   121.9320     8.8780     2.5970   976.0960     0.0900
 2086.0000   -12.1570    10.5920     9.0500   818.3630     8.8890   122.9800     8.8770     2.6140   976.0960     0.0970
 2086.5000   -12.2820    10.6780     9.0550   818.3630     8.8940   123.7280     8.8780     2.6260   976.0960     0.1000
 2087.0000   -12.4160    10.8470     9.0600   818.3630     8.8980   123.9280     8.8790     2.6070   976.0960     0.0780
 2087.5000   -12.5470    11.0150     9.0650   818.3630     8.9030   125.0940     8.8800     2.5900   976.0960     0.0550
 2088.0000   -12.6760    11.1830     9.0690   818.3630     8.9080   127.2140     8.8810     2.5820   976.0960     0.0360
 2088.5000   -12.7900    11.4030     9.0740   818.3630     8.9120   128.4630     8.8820     2.5940   976.0960     0.0500
 2089.0000   -12.7940    11.2480     9.0790   818.3630     8.9170   127.5040     8.8840     2.6110   976.0960     0.0690
 2089.5000   -12.7960    11.0240     9.0840   818.3630     8.9220   126.0460     8.8850     2.6270   976.0960     0.0870
 2090.0000   -12.7950    10.8000     9.0890   818.3630     8.9270   124.6120     8.8860     2.6370   976.0960     0.1010
 2090.5000   -12.7950    10.5930     9.0940   818.3630     8.9310   123.2840     8.8870     2.6070   976.0960     0.0900
 2091.0000   -12.7950    10.5930     9.0980   818.3630     8.9360   121.6790     8.8880     2.5900   976.0960     0.0810
 2091.5000   -12.7950    10.5930     9.1030   818.3630     8.9410   121.9080     8.8890     2.5780   976.3440     0.0730
 2092.0000   -12.7950    10.5930     9.1080   818.3630     8.9460   122.2780     8.8900     2.5990   976.5510     0.0870
 2092.5000   -12.7950    10.5930     9.1130   818.3630     8.9500   122.7190     8.8920     2.6100   976.7580     0.1000
 2093.0000   -12.7950    10.5930     9.1180   818.3630     8.9550   122.5830     8.8930     2.5940   976.9640     0.0870
 2093.5000   -12.7950    10.5930     9.1230   818.3630     8.9600   122.3480     8.8940     2.5650   977.1710     0.0720
 2094.0000   -12.7950    10.5930     9.1280   818.3630     8.9650   122.6600     8.8950     2.5490   977.3780     0.0570
 2094.5000   -12.7950    10.5930     9.1320   818.3630     8.9700   123.1690     8.8960     2.5460   977.5850     0.0420
 2095.0000   -12.7950    10.5930     9.1370   818.3630     8.9750   125.3320     8.8970     2.5490   977.7920     0.0370
 2095.5000   -12.7950    10.5930     9.1430   818.3630     8.9950   125.8110     8.8980     2.5500   977.9990     0.0260
 2096.0000   -12.7950    10.5930     9.1680   818.3630     9.0200   125.2210     8.9000     2.5480   978.2060     0.0160
 2096.5000   -12.7950    10.7570     9.1920   818.3630     9.0440   123.6580     8.9010     2.5450   978.4120     0.0060
 2097.0000   -12.7950    11.1380     9.2180   818.3630     9.0690   122.2710     8.9020     2.5510   978.6190    -0.0010
 2097.5000   -12.7950    11.5180     9.2420   818.3630     9.0930   121.0290     8.9030     2.5630   978.8260     0.0040
 2098.0000   -12.7950    11.8990     9.2670   818.3630     9.1160   118.7520     8.9040     2.5750   979.0330     0.0090
 2098.5000   -12.7950    12.2750     9.3050   818.3630     9.1400   115.4770     8.9050     2.5790   979.2400     0.0060
 2099.0000   -12.7950    12.0560     9.2990   818.3630     9.0850   114.6100     8.9060     2.5710   979.4470     0.0010
 2099.5000   -12.7950    11.6960     9.2430   818.3630     9.0310   116.2630     8.9080     2.5650   979.6530    -0.0010
 2100.0000   -12.7950    11.3360     9.1880   818.3630     8.9760   117.3040     8.9090     2.5570   979.8600    -0.0030
 2100.5000   -12.7960    10.9760     9.1320   818.3630     8.9210   117.6600     8.9100     2.5550   980.0670    -0.0020
 2101.0000   -12.7950    10.6160     9.0760   818.3630     8.8670   116.2380     8.9110     2.5540   980.2740     0.0020
 2101.5000   -12.7940    10.3880     9.0200   818.3630     8.8110   115.7100     8.9120     2.5510   980.4810     0.0060
 2102.0000   -12.8280    10.3580     8.9760   818.3630     8.8240   116.3200     8.9130     2.5590   980.6880     0.0140
 2102.5000   -12.9680    10.3290     8.9910   818.3630     8.8420   120.8660     8.9140     2.5740   980.8950     0.0390
 2103.0000   -13.1070    10.2990     9.0110   818.3630     8.8610   124.7980     8.9160     2.5890   981.1010     0.0610
 2103.5000   -13.2500    10.2690     9.0300   818.3630     8.8810   127.8400     8.9170     2.5950   981.3080     0.0720
 2104.0000   -13.3910    10.2400     9.0500   818.3630     8.9010   126.9240     8.9170     2.5870   981.5150     0.0640
 2104.5000   -13.5290    10.2100     9.0700   818.3630     8.9180   126.3710     8.9160     2.5820   981.7220     0.0480
 2105.0000   -13.6770     9.6850     9.0900   818.3630     8.9320   127.3480     8.9170     2.5780   981.9290     0.0400
 2105.5000   -13.8070     8.8110     9.1100   818.3630     8.9590   128.2370     8.9160     2.5770   982.1360     0.0290
 2106.0000   -13.9570     9.1450     9.1420   818.3630     8.9750   128.6480     8.9170     2.5770   982.3430     0.0230
 2106.5000   -13.7380     9.7020     8.9660   818.3630     8.4450   124.6930     8.9180     2.5760   982.5490     0.0260
 2107.0000   -13.4560    10.5930     8.5270   818.3630     8.0030   119.1930     8.9080     2.5790   982.7560     0.0600
 2107.5000   -13.1710    10.1270     8.0880   818.3630     7.5610   115.7160     9.0140     2.5860   982.9630     0.1240
 2108.0000   -12.8930     8.9610     7.6490   818.3630     7.1200   115.3270     9.2610     2.5770   983.1700     0.2200
 2108.5000   -12.5900     7.7950     7.2110   818.3630     6.6780   114.6850     9.5080     2.4790   983.3770     0.2120
 2109.0000   -12.5640     7.3290     6.6840   818.3630     6.3250   113.1840     9.4020     2.3580   983.5840     0.1580
 2109.5000   -13.1760     7.3290     6.9100   818.3630     6.6230   112.0550     9.1930     2.3850   983.7910     0.0880
 2110.0000   -13.5770     8.1710     7.1930   818.3630     6.8720   113.1910     9.0370     2.4760   983.9970     0.1030
 2110.5000   -13.5770     9.0130     7.4750   818.3630     7.1200   115.5070     9.0390     2.5940   984.2040     0.1840
 2111.0000   -13.5860    10.0240     7.7580   818.3630     7.3690   117.6460     9.0340     2.5880   984.4110     0.2300
 2111.5000   -13.5810     9.9510     8.0400   818.3630     7.6180   119.8490     9.0360     2.5840   984.6180     0.2210
 2112.0000   -13.5830     9.8610     8.3230   818.3630     7.8660   121.5310     9.0350     2.5530   984.8250     0.2120
 2112.5000   -13.5830     9.7700     8.5190   818.3630     8.1150   121.8470     9.0520     2.5190   985.0320     0.2050
 2113.0000   -13.5820     9.6610     8.5840   818.3630     8.3640   120.5480     9.0950     2.4790   985.2380     0.1970
 2113.5000   -13.5840     9.7980     8.6500   818.3630     8.6120   119.2700     9.1380     2.4770   985.4450     0.1950
 2114.0000   -13.5830     9.9700     8.4610   818.3630     8.8110   117.7060     9.1550     2.5170   985.6520     0.2110
 2114.5000   -13.5800    10.1410     8.2730   818.3630     8.4800   117.6440     9.1370     2.5680   985.8590     0.2270
 2115.0000   -13.5920    10.2100     8.0840   818.3630     8.2040   118.6090     9.1240     2.5770   986.0660     0.2420
 2115.5000   -13.4750    10.4000     7.8950   818.3630     7.9280   119.3010     9.1020     2.5790   986.2730     0.2460
 2116.0000   -13.2310     9.8410     7.7060   818.3630     7.6520   119.4290     9.0680     2.5810   986.4800     0.2130
 2116.5000   -13.0080     8.8360     7.5170   818.3630     7.3760   119.6210     9.0370     2.5760   986.6860     0.1750
 2117.0000   -12.7830     7.3290     7.3280   818.3630     7.1000   119.9320     8.9990     2.5570   986.8930     0.1380
 2117.5000   -12.5320     7.0710     7.1390   818.3630     6.8580   119.2440     9.0090     2.5190   987.1000     0.0960
 2118.0000   -12.4270     6.6840     7.0640   818.3630     6.6680   117.4210     9.0260     2.5090   987.3070     0.0750
 2118.5000   -12.5630     7.2440     7.2350   818.3630     6.4770   115.7640     9.0370     2.5030   987.5140     0.0430
