~VERSION INFORMATION
 VERS.                2.0:   CWLS LOG ASCII STANDARD - VERSION 2.0
 WRAP.                 NO:   ONE LINE PER DEPTH STEP
~WELL INFORMATION
#MNEM.UNIT      DATA TYPE    INFORMATION
#----------   ------------   ------------------------------
 STRT.F          450.5000:   START DEPTH
 STOP.F         3173.5000:   STOP DEPTH
 STEP.F            0.5000:   STEP LENGTH
 NULL.          -999.2500:   NO VALUE
 COMP.    FENIX & SCISSON:   COMPANY
 WELL. FENIX & SCISSONNPR #72-TX-33:   WELL
 FLD .              N.P.R:   FIELD
 LOC .      S33 T39N R78W:   LOCATION
 CNTY.            NATRONA:   COUNTY
 STAT.            WYOMING:   STATE
 CTRY. UNITED STATES OF AMERICA:   COUNTRY
 SRVC.       SCHLUMBERGER:   SERVICE COMPANY
 DATE.        03-SEP-1981:   LOGDATE
 API .     49025108810000:   API NUMBER
~CURVE INFORMATION
#MNEM.UNIT       API CODE    CURVE DESCRIPTION
#----------   ------------   ------------------------------
 DEPT.F                  :   
 CALD.IN     45 280 60 00:   CALIPER FROM DENSITY LOG
 GRD .GAPI   45 310 01 00:   GAMMA RAY FROM DENSITY LOG
 DPHI.DEC    45 890 03 00:   
 RHOB.G/C3   45 350 01 00:   BULK DENSITY
 CORR.G/C3   45 356 01 00:   DENSITY CORRECTION
 SPR .MV     07 010 01 00:   SPONTANEOUS POTENTIAL
 SFL .OHMM   07 220 01 00:   SHALLOW FOCUSED LOG RESISTIVITY
 ILD .OHMM   07 120 46 00:   DEEP INDUCTION RESISTIVITY
 ILM .OHMM   07 120 44 00:   INDUCTION LOG MEDIUM RESISTIVITY
 TENR.LBS    07 635 01 00:   TENSION FROM RESISTIVITY
~PARAMETER INFORMATION
#MNEM.UNIT          VALUE    DESCRIPTION
#----------   ------------   ------------------------------
 EKB .F         5115.0000:   Kelly bushing
 EGL .F         5105.0000:   Ground level
 EDF .F            0.0000:   Drilling floor
 TD  .F         3162.0000:   Total depth
 DATE.        03-SEP-1981:   Date logged
 CLNT.            A2DTECH:   Client Code
 CTRY.                USA:   Country
 SL  . 808' FNL & 954' FEL:   Surface Location
 PD  .                 GL:   Permanent Datum
 EPD .F              5105:   Elevation Permanent Datum
 LMF .                 KB:   Log Measured From
 DMF .                 KB:   Drilling Measured From
 DAPD.F                10:   Feet Above Permanent Datum
 DD  .F              3162:   Depth driller
 DL  .F              3162:   Depth logger
 BLI .F              3158:   Bottom log interval
 TLI .F              1612:   Top log interval
 CS1 .IN            9.625:   Casing size
 CBD1.      9.625" @ 480':   Casing driller 1
 BS1 .IN            7.875:   Bit size
 BSD1.F              3162:   Depth drilled with bit1
 DFT .              WATER:   Type fluid in hole
 MSS .               TANK:   Source of sample
 RMS .OHMM            6.3:   Rm
 MST .F                73:   Rm Meas. temp.
 RMF .OHMM            6.3:   Rmf
 MFST.F                73:   Rmf Meas. temp.
 TCS .HRS            2200:   Time Circ. stopped
 TLAB.HRS            0300:   Time logger at bottom
 MRT .F               100:   Maximum recorded temp.
 LUN .               8039:   Logging unit number
 LUL .               CSPR:   Logging unit location
 ENGI.           C. PEARR:   Recorded By
 WITN.           R. SCOTT:   Witnessed by
 ORIG.         2.5" PRINT:   Origin of data
 UWI .     49025108810000:   Unique Well ID
 DICO. A2D TECHNOLOGIES, INC.:   Digitizing Company
~OTHER INFORMATION
~A   DEPT     CALD         GRD      DPHI       RHOB       CORR        SPR        SFL        ILD        ILM       TENR   
# ...
 1020.0000     9.4741   114.5042     0.1141     2.4922     0.0024  -999.2500  -999.2500  -999.2500  -999.2500  -999.2500
 1020.5000     9.4740   115.0788     0.1141     2.4883     0.0043  -999.2500  -999.2500  -999.2500  -999.2500  -999.2500
 1021.0000     9.5121   116.8183     0.1141     2.4883     0.0043  -999.2500  -999.2500  -999.2500  -999.2500  -999.2500
 1021.5000     9.5506   119.7184     0.1141     2.4882     0.0121  -999.2500  -999.2500  -999.2500  -999.2500  -999.2500
 1022.0000     9.5501   120.8766     0.1141     2.4882     0.0062  -999.2500  -999.2500  -999.2500  -999.2500  -999.2500
 1022.5000     9.5498   123.7767     0.1125     2.4921     0.0120  -999.2500  -999.2500  -999.2500  -999.2500  -999.2500
 1023.0000     9.5881   123.1884     0.1110     2.4960     0.0120  -999.2500  -999.2500  -999.2500  -999.2500  -999.2500
 1023.5000     9.5877   122.6025     0.1126     2.4901     0.0081  -999.2500  -999.2500  -999.2500  -999.2500  -999.2500
 1024.0000     9.6261   122.5956     0.1149     2.4862     0.0002  -999.2500  -999.2500  -999.2500  -999.2500  -999.2500
 1024.5000     9.5869   122.5910     0.1157     2.4822     0.0022  -999.2500  -999.2500  -999.2500  -999.2500  -999.2500
 1025.0000     9.5866   122.0028     0.1165     2.4842     0.0080  -999.2500  -999.2500  -999.2500  -999.2500  -999.2500
 1025.5000     9.5862   123.1610     0.1165     2.4841     0.0138  -999.2500  -999.2500  -999.2500  -999.2500  -999.2500
 1026.0000     9.5858   124.8982     0.1181     2.4724     0.0177  -999.2500  -999.2500  -999.2500  -999.2500  -999.2500
 1026.5000     9.5857   125.4751     0.1220     2.4645     0.0197  -999.2500  -999.2500  -999.2500  -999.2500  -999.2500
 1027.0000     9.5851   121.9799     0.1338     2.4586     0.0118  -999.2500  -999.2500  -999.2500  -999.2500  -999.2500
 1027.5000     9.5459   119.6497     0.1299     2.4645     0.0000  -999.2500  -999.2500  -999.2500  -999.2500  -999.2500
 1028.0000     9.5456   119.0615     0.1181     2.4684     0.0137  -999.2500  -999.2500  -999.2500  -999.2500  -999.2500
 1028.5000     9.4676   119.0569     0.1111     2.4977     0.0176  -999.2500  -999.2500  -999.2500  -999.2500  -999.2500
 1029.0000     9.4672   118.4687     0.1043     2.5035     0.0215  -999.2500  -999.2500  -999.2500  -999.2500  -999.2500
 1029.5000     9.4667   109.7410     0.0976     2.5074     0.0097  -999.2500  -999.2500  -999.2500  -999.2500  -999.2500
 1030.0000     9.4664   106.8295     0.0892     2.5250     0.0116  -999.2500  -999.2500  -999.2500  -999.2500  -999.2500
 1030.5000     9.4661   105.0785     0.0853     2.5250     0.0194  -999.2500  -999.2500  -999.2500  -999.2500  -999.2500
 1031.0000     9.4658   105.0739     0.0947     2.5132     0.0214  -999.2500  -999.2500  -999.2500  -999.2500  -999.2500
 1031.5000     9.5042   120.1831     0.1002     2.4995     0.0311  -999.2500  -999.2500  -999.2500  -999.2500  -999.2500
 1032.0000     9.6199   119.5971     0.1057     2.4916     0.0252  -999.2500  -999.2500  -999.2500  -999.2500  -999.2500
 1032.5000     9.6196   123.6599     0.1159     2.4994     0.0173  -999.2500  -999.2500  -999.2500  -999.2500  -999.2500
 1033.0000     9.6191   122.4926     0.1221     2.4740     0.0114  -999.2500  -999.2500  -999.2500  -999.2500  -999.2500
 1033.5000     9.6188   123.6485     0.1206     2.4798     0.0036  -999.2500  -999.2500  -999.2500  -999.2500  -999.2500
 1034.0000     9.6183   124.2253     0.1167     2.4818    -0.0001  -999.2500  -999.2500  -999.2500  -999.2500  -999.2500
 1034.5000     9.6179   125.3812     0.1159     2.4837     0.0114  -999.2500  -999.2500  -999.2500  -999.2500  -999.2500
 1035.0000     9.6176   125.9580     0.1174     2.4837     0.0141  -999.2500  -999.2500  -999.2500  -999.2500  -999.2500
 1035.5000     9.6173   125.9511     0.1175     2.4817     0.0172  -999.2500  -999.2500  -999.2500  -999.2500  -999.2500
 1036.0000     9.6556   127.6884     0.1175     2.4778     0.0172  -999.2500  -999.2500  -999.2500  -999.2500  -999.2500
 1036.5000     9.6939   128.8466     0.1246     2.4621     0.0172  -999.2500  -999.2500  -999.2500  -999.2500  -999.2500
 1037.0000     9.7332   128.8398     0.1324     2.4523     0.0128  -999.2500  -999.2500  -999.2500  -999.2500  -999.2500
 1037.5000     9.7706   127.6724     0.1363     2.4523     0.0112  -999.2500  -999.2500  -999.2500  -999.2500  -999.2500
 1038.0000     9.7703   124.7586     0.1363     2.4620     0.0112  -999.2500  -999.2500  -999.2500  -999.2500  -999.2500
 1038.5000     9.6924   122.4285     0.1262     2.4698     0.0112  -999.2500  -999.2500  -999.2500  -999.2500  -999.2500
 1039.0000     9.6921   120.6775     0.1231     2.4776     0.0131  -999.2500  -999.2500  -999.2500  -999.2500  -999.2500
 1039.5000     9.6916   120.0915     0.1199     2.4835     0.0229  -999.2500  -999.2500  -999.2500  -999.2500  -999.2500
 1040.0000     9.6912   118.9219     0.1153     2.4932     0.0228  -999.2500  -999.2500  -999.2500  -999.2500  -999.2500
 1040.5000     9.6908   119.4987     0.1113     2.4912     0.0272  -999.2500  -999.2500  -999.2500  -999.2500  -999.2500
 1041.0000     9.6905   116.5849     0.1137     2.4873     0.0315  -999.2500  -999.2500  -999.2500  -999.2500  -999.2500
 1041.5000     9.6901   117.1594     0.1160     2.4834     0.0345  -999.2500  -999.2500  -999.2500  -999.2500  -999.2500
 1042.0000     9.6898   118.8990     0.1192     2.4794     0.0364  -999.2500  -999.2500  -999.2500  -999.2500  -999.2500
 1042.5000     9.6509   122.9618     0.1208     2.4794     0.0383  -999.2500  -999.2500  -999.2500  -999.2500  -999.2500
 1043.0000     9.6501   122.9572     0.1098     2.4950     0.0500  -999.2500  -999.2500  -999.2500  -999.2500  -999.2500
 1043.5000     9.6498   121.7876     0.1059     2.5028     0.0578  -999.2500  -999.2500  -999.2500  -999.2500  -999.2500
 1044.0000     9.6881   122.3644     0.1036     2.5126     0.0715  -999.2500  -999.2500  -999.2500  -999.2500  -999.2500
 1044.5000     9.6878   123.5203     0.1059     2.4813     0.0402  -999.2500  -999.2500  -999.2500  -999.2500  -999.2500
 1045.0000     9.6873   124.0971     0.1177     2.4773     0.0245  -999.2500  -999.2500  -999.2500  -999.2500  -999.2500
 1045.5000     9.6869   125.2530     0.1099     2.4890     0.0265  -999.2500  -999.2500  -999.2500  -999.2500  -999.2500
 1046.0000     9.6866   126.9926     0.1060     2.4949     0.0362  -999.2500  -999.2500  -999.2500  -999.2500  -999.2500
 1046.5000     9.6863   128.1485     0.1028     2.4909     0.0362  -999.2500  -999.2500  -999.2500  -999.2500  -999.2500
 1047.0000     9.6858   125.8184     0.1060     2.4850     0.0361  -999.2500  -999.2500  -999.2500  -999.2500  -999.2500
 1047.5000     9.6855   121.7418     0.1130     2.4772     0.0342  -999.2500  -999.2500  -999.2500  -999.2500  -999.2500
 1048.0000     9.7238   120.5722     0.1201     2.4752     0.0263  -999.2500  -999.2500  -999.2500  -999.2500  -999.2500
 1048.5000     9.7234   120.5676     0.1240     2.4693     0.0165  -999.2500  -999.2500  -999.2500  -999.2500  -999.2500
 1049.0000     9.7230   119.3980     0.1217     2.4732     0.0193  -999.2500  -999.2500  -999.2500  -999.2500  -999.2500
 1049.5000     9.7226   119.3934     0.1099     2.4869     0.0223  -999.2500  -999.2500  -999.2500  -999.2500  -999.2500
 1050.0000     9.7223   120.5493     0.1006     2.5025     0.0262  -999.2500  -999.2500  -999.2500  -999.2500  -999.2500
 1050.5000     9.7218   121.7075     0.0959     2.5064     0.0281  -999.2500  -999.2500  -999.2500  -999.2500  -999.2500
 1051.0000     9.7215   121.1192     0.1006     2.4985     0.0203  -999.2500  -999.2500  -999.2500  -999.2500  -999.2500
 1051.5000     9.7440   121.1147     0.1077     2.4946     0.0185  -999.2500  -999.2500  -999.2500  -999.2500  -999.2500
 1052.0000     9.7595   122.8519     0.1123     2.4887     0.0202  -999.2500  -999.2500  -999.2500  -999.2500  -999.2500
 1052.5000     9.7590   124.0101     0.1139     2.4887     0.0280  -999.2500  -999.2500  -999.2500  -999.2500  -999.2500
 1053.0000     9.7587   124.5847     0.1147     2.4867     0.0280  -999.2500  -999.2500  -999.2500  -999.2500  -999.2500
