~VERSION INFORMATION
 VERS.                2.0:   CWLS LOG ASCII STANDARD - VERSION 2.0
 WRAP.                 NO:   ONE LINE PER DEPTH STEP
~WELL INFORMATION
#MNEM.UNIT      DATA TYPE    INFORMATION
#----------   ------------   ------------------------------
 STRT.F          206.0000:   START DEPTH
 STOP.F         3218.0000:   STOP DEPTH
 STEP.F            0.5000:   STEP LENGTH
 NULL.          -999.2500:   NO VALUE
 COMP.    FENIX & SCISSON:   COMPANY
 WELL.     FENIX AX #16-2:   WELL
 FLD .              NPR 3:   FIELD
 LOC .       S2 T38N R78W:   LOCATION
 CNTY.            NATRONA:   COUNTY
 STAT.            WYOMING:   STATE
 CTRY. UNITED STATES OF AMERICA:   COUNTRY
 SRVC.       SCHLUMBERGER:   SERVICE COMPANY
 DATE.        10-OCT-1977:   LOGDATE
 API .     49025105780000:   API NUMBER
~CURVE INFORMATION
#MNEM.UNIT       API CODE    CURVE DESCRIPTION
#----------   ------------   ------------------------------
 DEPT.F                  :   
 GRD .GAPI   45 310 01 00:   GAMMA RAY FROM DENSITY LOG
 CALD.IN     45 280 60 00:   CALIPER FROM DENSITY LOG
 RHOB.G/C3   45 350 01 00:   BULK DENSITY
 CORR.G/C3   45 356 01 00:   DENSITY CORRECTION
 SPR .MV     07 010 01 00:   SPONTANEOUS POTENTIAL FROM RES.
 RILD.OHMM   07 120 46 00:   DEEP INDUCTION RESISTIVITY
 RILM.OHMM   07 120 44 00:   INDUCTION LOG MEDIUM RESISTIVITY
 RLL8.OHMM   07 220 08 00:   LATEROLOG-8 RES.
~PARAMETER INFORMATION
#MNEM.UNIT          VALUE    DESCRIPTION
#----------   ------------   ------------------------------
 EKB .F         5123.0000:   Kelly bushing
 EGL .F         5113.0000:   Ground level
 EDF .F            0.0000:   Drilling floor
 TD  .F         3220.0000:   Total depth
 CLNT.            A2DTECH:   Client Code
 SL  . 1772' FSL & 576' FWL:   Surface Location
 PD  .                 GL:   Permanent Datum
 EPD .F              5113:   Elevation Permanent Datum
 LMF .                 KB:   Log Measured From
 DMF .                 KB:   Drilling Measured From
 DAPD.F                10:   Feet Above Permanent Datum
 DATE.        10-OCT-1977:   Date Logged [DD-MMM-YYYY]
 DD  .F              3220:   Depth driller
 DL  .F              3218:   Depth logger
 BLI .F              3212:   Bottom log interval
 TLI .F               223:   Top log interval
 CS1 .IN            8.625:   Casing size
 CBD1.      8.625" @ 222':   Casing driller 1
 CBL1.F               223:   Casing logger 1
 BS1 .IN            7.875:   Bit size
 BSD1.F              3220:   Depth drilled with bit1
 DFT .                KCL:   Type fluid in hole
 DFD .                8.6:   Density
 DFV .                 32:   Viscosity
 DFPH.                 11:   pH
 MSS .            MUD PIT:   Source of sample
 RMS .OHMM           0.29:   Rm
 MST .F                82:   Rm Meas. temp.
 RMF .OHMM          0.228:   Rmf
 MFST.F                81:   Rmf Meas. temp.
 MFSS.               MEAS:   Source Rmf.
 RMB .OHMM           0.21:   Rm. at BHT
 BHT .F               122:   BHT.
 TCS .HRS            0600:   Time Circ. stopped
 MRT .F               122:   Maximum recorded temp.
 LUN .               5642:   Logging unit number
 ENGI. CHALUPSKY PETERSON:   Recorded By
 WITN.     WES PETTINGILL:   Witnessed by
 ORIG.           5" PRINT:   Origin of data
 UWI .     49025105780000:   Unique Well ID
 DICO. A2D TECHNOLOGIES, INC.:   Digitizing Company
 TLAB.HRS            1000:   Time logger at bottom
 LUL .               CSPR:   Logging unit location
~OTHER INFORMATION
~A   DEPT       GRD      CALD       RHOB       CORR        SPR       RILD       RILM       RLL8   
# ...
 1785.5000   128.1741    10.3605     2.5017     0.0157   -26.9977     6.0842     5.7326     6.9926
 1786.0000   129.5264    10.3460     2.5032     0.0015   -24.5807     6.0453     5.6585     6.8563
 1786.5000   130.5787    10.3467     2.5017     0.0023   -23.4965     6.0527     5.6242     6.8628
 1787.0000   130.0980    10.3473     2.5024     0.0137   -22.8849     6.0586     5.6302     6.7744
 1787.5000   129.5350    10.3479     2.5032     0.0145   -22.5637     6.0214     5.6767     6.7809
 1788.0000   129.8385    10.3484     2.5024     0.0116   -22.3922     6.0274     5.7246     6.7873
 1788.5000   130.4411    10.3490     2.4995     0.0071   -22.3704     6.0346     5.7717     6.8411
 1789.0000   130.2941    10.3497     2.4950     0.0049   -22.3486     6.0839     5.8192     6.8954
 1789.5000   126.5489    10.3503     2.4875    -0.0086   -22.7814     6.1335     5.9204     6.9031
 1790.0000   124.3029    10.3358     2.4837    -0.0040   -23.5026     6.1835     5.9577     7.0055
 1790.5000   124.1559    10.3365     2.4905     0.0021   -24.1740     6.2786     6.0067     7.0626
 1791.0000   124.3094    10.3219     2.4972     0.0022   -24.8565     6.3752     6.0561     7.1683
 1791.5000   123.8625    10.3227     2.5032     0.0032   -25.5389     6.4733     6.1059     7.3264
 1792.0000   119.9674    10.3232     2.5063     0.0151   -26.2213     6.5261     6.1562     7.4361
 1792.5000   116.9711    10.3238     2.4995     0.0220   -26.9810     6.5793     6.1628     7.5474
 1793.0000   118.1741    10.3245     2.4973     0.0243   -27.5634     6.5858     6.1706     7.6604
 1793.5000   120.2759    10.3401     2.4995     0.0086   -28.0909     6.5924     6.1761     7.7212
 1794.0000   121.1784    10.3407     2.5025     0.0063   -28.2734     6.6003     6.2279     7.7825
 1794.5000   121.0314    10.3562     2.4973     0.0057   -27.9416     6.5597     6.2344     7.7901
 1795.0000   121.3348    10.3568     2.4905     0.0057   -27.7695     6.5194     6.1949     7.7991
 1795.5000   121.7875    10.3425     2.4831     0.0050   -27.4435     6.4793     6.2030     7.8065
 1796.0000   122.5400    10.3431     2.4898     0.0059   -26.6732     6.3936     6.2095     7.7060
 1796.5000   125.3915    10.3286     2.4944     0.0089   -24.7053     6.3527     6.2160     7.5016
 1797.0000   128.0931    10.3142     2.4981    -0.0023   -23.6356     6.3137     6.2226     7.3027
 1797.5000   128.6957    10.3149     2.4996     0.0091   -22.5659     6.2762     6.1846     7.2572
 1798.0000   129.2025    10.3005     2.4996     0.0152   -22.2447     6.2377     6.1927     7.2152
 1798.5000   131.1010    10.3263     2.4974     0.0047   -21.9235     6.1994     6.1535     7.2223
 1799.0000   132.3033    10.3114     2.4899    -0.0028   -21.9017     6.2057     6.1160     7.2798
 1799.5000   132.4561    10.3114     2.4839    -0.0072   -22.3236     6.2119     6.0788     7.2882
 1800.0000   129.1607    10.3114     2.4876     0.0045   -22.4569     6.2188     5.9572     7.2951
 1800.5000   122.5637    10.2964     2.4996     0.0021   -22.8667     6.2266     5.9644     7.3020
 1801.0000   123.6132    10.2964     2.5011     0.0007   -23.4557     6.1898     5.9717     7.3090
 1801.5000   125.8621    10.2814     2.4966     0.0044   -24.1583     6.1977     5.9795     7.2782
 1802.0000   126.0120    10.2665     2.4997     0.0127   -24.8631     6.1613     5.9866     7.1937
 1802.5000   125.7121    10.2665     2.5003     0.0224   -25.5699     6.1710     5.9937     7.1328
 1803.0000   125.8621    10.2515     2.4973     0.0157   -26.3259     6.1787     6.0008     7.0438
 1803.5000   126.4618    10.2515     2.4913     0.0006   -27.0610     6.1853     6.0081     7.0006
 1804.0000   128.2609    10.2365     2.4867    -0.0009   -27.4359     6.1942     6.0168     7.0258
 1804.5000   128.8606    10.2216     2.4882     0.0006   -27.7372     6.2465     6.0239     7.0480
 1805.0000   128.7106    10.2066     2.4897     0.0043   -27.7088     6.2991     6.0743     7.0702
 1805.5000   127.8111    10.2066     2.4852     0.0096   -27.5039     6.3978     6.1251     7.0924
 1806.0000   126.0120    10.1916     2.4792     0.0065   -27.1396     6.5446     6.2206     7.1146
 1806.5000   123.7631    10.1916     2.4791    -0.0025   -26.2435     6.6949     6.3334     7.1369
 1807.0000   122.2639    10.1916     2.4799     0.0057   -25.0066     6.7516     6.4161     7.1606
 1807.5000   121.5142    10.1916     2.4821     0.0110   -23.3435     6.8104     6.5162     7.6276
 1808.0000   121.3643    10.1916     2.4851     0.0080   -22.4945     6.7682     6.5240     8.7148
 1808.5000   125.1124    10.1916     2.4946     0.0064   -22.2362     6.7306     6.5186     9.4838
 1809.0000   125.8621    10.1916     2.5220     0.0184   -21.9289     6.7390     6.5011     9.8960
 1809.5000   120.3148    10.1916     2.5242     0.0274   -21.9809     6.7475     6.4836     8.9275
 1810.0000   111.2882    10.1916     2.5167     0.0244   -22.1470     6.7057     6.4638     7.6157
 1810.5000   108.0039    10.1916     2.5084     0.0184   -22.7413     6.7162     6.3777     6.8205
 1811.0000   108.8888    10.1916     2.4941     0.0093   -23.3954     6.7247     6.2965     7.0270
 1811.5000   121.4679    10.2216     2.4813    -0.0057   -23.9729     6.7333     6.3040     7.2792
 1812.0000   126.5508    10.2535     2.4745    -0.0087   -24.5499     6.7920     6.3567     7.4927
 1812.5000   127.2864    10.2964     2.4813    -0.0054   -25.1993     6.8005     6.4099     7.6059
 1813.0000   126.9713    10.3114     2.4850     0.0040   -25.8340     6.8578     6.5100     7.5069
 1813.5000   126.1970    10.3114     2.4835     0.0070   -26.6224     6.8664     6.5662     7.6755
 1814.0000   125.5922    10.3263     2.4805     0.0062   -27.1986     6.8750     6.5740     8.0113
 1814.5000   125.2746    10.3413     2.4820     0.0002   -27.8793     6.8325     6.5330     8.0200
 1815.0000   123.9106    10.3413     2.4850     0.0024   -28.3010     6.6978     6.4039     8.0286
 1815.5000   121.1973    10.3563     2.4849     0.0069   -28.5186     6.5175     6.1864     7.8188
 1816.0000   121.0364    10.3713     2.4879     0.0017   -28.3383     6.3873     5.9338     7.3522
 1816.5000   120.4184    10.3713     2.4947    -0.0014   -28.1500     6.3065     5.6915     6.9618
 1817.0000   116.2059    10.4012     2.5030     0.0024   -27.3578     6.3144     5.6174     5.8162
 1817.5000   115.8914    10.4162     2.5060     0.0053   -26.1686     6.4134     5.7079     6.0706
 1818.0000   117.6759    10.4311     2.5059     0.0091   -24.7361     6.4214     5.8850     6.5605
 1818.5000   121.2900    10.4475     2.5029     0.0128   -22.9360     6.4755     6.1439     7.0929
 1819.0000   124.4129    10.4760     2.4984     0.0060   -22.5591     6.5302     6.3295     7.6779
 1819.5000   124.9784    10.4910     2.4999     0.0090   -22.0435     6.6325     6.4743     8.2249
 1820.0000   122.8611    10.4910     2.5059     0.0158   -21.7496     6.7363     6.6225     8.3492
 1820.5000   121.8285    10.5060     2.4969     0.0194   -21.9646     6.8420     6.6778     8.3582
 1821.0000   120.4644    10.5210     2.4886     0.0148   -22.4986     6.8999     6.6362     8.3672
 1821.5000   119.1003    10.5509     2.4883     0.0102   -23.2394     6.8590     6.6460     8.3763
 1822.0000   117.7361    10.5659     2.5119     0.0154   -23.6131     6.8187     6.6053     8.2692
 1822.5000   118.4769    10.5808     2.5081     0.0198   -24.9712     6.7325     6.4740     8.1640
 1823.0000   121.1685    10.6108     2.4983     0.0182   -25.9656     6.5980     6.3442     7.9955
 1823.5000   121.7612    10.6257     2.4908     0.0128   -27.2299     6.5105     6.2189     7.6339
 1824.0000   122.9535    10.6407     2.4847     0.0067   -28.4226     6.3824     6.1361     7.2284
 1824.5000   125.7933    10.6557     2.4840     0.0043   -30.1614     6.2547     6.0148     6.8923
 1825.0000   130.4339    10.6707     2.4877     0.0050   -31.6353     6.1299     5.9773     7.0453
 1825.5000   132.5258    10.6856     2.4900     0.0064   -33.1455     6.0895     5.9418     7.1002
