~VERSION INFORMATION
 VERS.                2.0:   CWLS LOG ASCII STANDARD - VERSION 2.0
 WRAP.                 NO:   ONE LINE PER DEPTH STEP
~WELL INFORMATION
#MNEM.UNIT      DATA TYPE    INFORMATION
#----------   ------------   ------------------------------
 STRT.F          200.0000:   START DEPTH
 STOP.F         3058.0000:   STOP DEPTH
 STEP.F            0.5000:   STEP LENGTH
 NULL.          -999.2500:   NO VALUE
 COMP.    FENIX & SCISSON:   COMPANY
 WELL. FENIX & SCISSON "A" #45-34:   WELL
 FLD .              N P R:   FIELD
 LOC .      S34 T39N R78W:   LOCATION
 CNTY.            NATRONA:   COUNTY
 STAT.            WYOMING:   STATE
 CTRY. UNITED STATES OF AMERICA:   COUNTRY
 SRVC.              WELEX:   SERVICE COMPANY
 DATE.        11-MAY-1977:   LOGDATE
 API .     49025103760000:   API NUMBER
~CURVE INFORMATION
#MNEM.UNIT       API CODE    CURVE DESCRIPTION
#----------   ------------   ------------------------------
 DEPT.F                  :   
 GRD .GAPI   45 310 01 00:   GAMMA RAY FROM DENSITY LOG
 CALD.IN     45 280 60 00:   CALIPER FROM DENSITY LOG
 RHOB.G/C3   45 350 01 00:   BULK DENSITY
 CORR.G/C3   45 356 01 00:   DENSITY CORRECTION
 SPR .MV     07 010 01 00:   SPONTANEOUS POTENTIAL
 ILD .OHMM   07 120 46 00:   DEEP INDUCTION RESISTIVITY
 ILM .OHMM   07 120 44 00:   INDUCTION LOG MEDIUM RESISTIVITY
 GURD.OHMM   07 220 05 00:   GUARD LOG RESISTIVITY
~PARAMETER INFORMATION
#MNEM.UNIT          VALUE    DESCRIPTION
#----------   ------------   ------------------------------
 EKB .F         5123.0000:   Kelly bushing
 EGL .F         5113.0000:   Ground level
 EDF .F            0.0000:   Drilling floor
 EPD .F            0.0000:   Permanent datum
 TD  .F         3060.0000:   Total depth
 DATE.        11-MAY-1977:   Date logged
 CLNT.            A2DTECH:   Client Code
 SL  . 2310' FSL & 2310' FWL:   Surface Location
 PD  .                 GL:   Permanent Datum
 DD  .F              3060:   Depth driller
 DL  .F              3060:   Depth logger
 BLI .F              3058:   Bottom log interval
 CS1 .IN            8.625:   Casing size
 CBD1.      8.625" @ 205':   Casing driller 1
 CBL1.F               214:   Casing logger 1
 BS1 .IN            7.875:   Bit size
 DFT .            KCL/MUD:   Type fluid in hole
 DFD .                8.8:   Density
 DFV .                 45:   Viscosity
 MSS .           FLOWLINE:   Source of sample
 RMS .OHMM            3.2:   Rm
 MST .F                85:   Rm Meas. temp.
 RMF .OHMM            2.7:   Rmf
 MFST.F                85:   Rmf Meas. temp.
 RMC .OHMM            3.6:   Rmc
 MCST.F                85:   Rmc Meas. temp.
 MFSS.               CALC:   Source Rmf.
 RMB .OHMM           2.44:   Rm. at BHT
 BHT .F               112:   BHT.
 TCS .HRS             2.5:   Time Circ. stopped
 MRT .F               112:   Maximum recorded temp.
 LUN .               8611:   Logging unit number
 LUL .           GILLETTE:   Logging unit location
 ENGI.            C. DOAK:   Recorded By
 WITN.      B. HARRINGTON:   Witnessed by
 ORIG.           5" PRINT:   Origin of data
 UWI .     49025103760000:   Unique Well ID
 DICO. A2D TECHNOLOGIES, INC.:   Digitizing Company
 DAPD.F                10:   Feet Above Permanent Datum
 BSD1.F              3060:   Depth drilled with bit1
 MCSS.               CALC:   Source Rmc.
 TLI .F               200:   Top log interval
~OTHER INFORMATION
~A   DEPT       GRD      CALD         RHOB      CORR       SPR        ILD        ILM       GURD   
# ...
 2670.5000    98.2170     9.5080     2.3740     0.0100   -26.2020    15.3520    16.1480    25.8710
 2671.0000    99.9590     9.5140     2.3560     0.0060   -26.3310    15.9310    16.4740    25.4920
 2671.5000   102.1050     9.5200     2.3520     0.0010   -26.4990    16.5710    16.8000    24.4570
 2672.0000    99.6860     9.5260     2.3490    -0.0010   -26.6340    16.4410    17.2650    23.4230
 2672.5000    96.3270     9.5320     2.3670     0.0000   -26.7830    16.1810    17.0630    22.3890
 2673.0000    93.6430     9.5370     2.3890     0.0030   -26.9360    15.9210    16.7150    21.3550
 2673.5000    93.0590     9.5370     2.4120     0.0050   -27.0710    15.6620    16.3660    20.3200
 2674.0000    92.2790     9.5310     2.4180     0.0080   -27.2370    15.4020    16.0170    19.2780
 2674.5000    91.5740     9.5220     2.4110     0.0110   -27.0490    15.1420    15.6690    19.8560
 2675.0000    90.9170     9.5130     2.4030     0.0140   -26.7940    14.8830    15.3200    20.4380
 2675.5000    90.1880     9.5040     2.3950     0.0150   -26.5300    14.6230    14.9030    21.1340
 2676.0000    89.5560     9.4950     2.3840     0.0150   -26.2720    14.3650    14.8020    20.7980
 2676.5000    89.1900     9.4870     2.3900     0.0140   -26.0260    14.2050    14.6750    20.3800
 2677.0000    91.0820     9.4780     2.4020     0.0130   -25.7440    14.0460    14.5490    19.9620
 2677.5000    92.6740     9.4690     2.4080     0.0120   -25.5060    13.8870    14.4230    19.7120
 2678.0000    94.4180     9.4600     2.4130     0.0120   -25.3840    13.7280    14.2960    20.0620
 2678.5000    96.0770     9.4520     2.4240     0.0120   -26.4170    13.5690    14.1700    20.4110
 2679.0000    97.7770     9.4430     2.4330     0.0160   -27.2760    13.4100    14.0440    20.7490
 2679.5000    99.4560     9.4340     2.4420     0.0170   -28.2180    13.2510    13.9170    20.5110
 2680.0000   101.1260     9.4250     2.4520     0.0190   -29.1140    13.0910    13.7910    20.2800
 2680.5000   102.9290     9.4170     2.4610     0.0210   -30.0180    12.9320    13.6650    20.0490
 2681.0000   104.2540     9.4080     2.4710     0.0230   -30.7510    12.7730    13.5240    19.8190
 2681.5000   104.8410     9.3990     2.4770     0.0250   -31.3660    12.6140    13.3640    19.5880
 2682.0000   105.5620     9.3910     2.4720     0.0270   -32.0200    12.4550    13.2050    19.3570
 2682.5000   106.2720     9.3820     2.4590     0.0250   -32.4160    12.3120    13.0460    18.8370
 2683.0000   106.9380     9.3810     2.4480     0.0210   -32.4610    12.1760    12.8870    18.1660
 2683.5000   107.6520     9.3840     2.4370     0.0170   -32.5540    12.0400    12.7280    17.4950
 2684.0000   107.3890     9.3860     2.4250     0.0130   -32.6390    11.9050    12.5690    16.8250
 2684.5000   106.7150     9.3890     2.4130     0.0090   -32.7180    11.7690    12.4090    16.3380
 2685.0000   106.0630     9.3910     2.4040     0.0070   -32.8040    11.6330    12.2500    16.6270
 2685.5000   105.4110     9.3940     2.4000     0.0070   -32.8870    11.4980    12.0910    16.9560
 2686.0000   104.7780     9.3960     2.4100     0.0080   -32.9700    11.3620    11.9320    17.2850
 2686.5000   104.1120     9.3990     2.4290     0.0090   -33.0540    11.2270    11.7730    17.6140
 2687.0000   104.4470     9.4020     2.4400     0.0110   -33.1370    11.0910    11.6130    17.9110
 2687.5000   105.2560     9.4040     2.4470     0.0120   -33.2210    10.9550    11.4540    17.5820
 2688.0000   106.0410     9.4070     2.4540     0.0130   -33.3040    10.8200    11.3120    17.1100
 2688.5000   106.8190     9.4090     2.4600     0.0140   -33.3880    10.6840    11.3660    16.6390
 2689.0000   107.5790     9.4120     2.4650     0.0150   -33.4710    10.5220    11.4150    16.1670
 2689.5000   108.4190     9.4140     2.4710     0.0160   -33.5540    10.5500    11.4640    15.6950
 2690.0000   108.2740     9.4170     2.4760     0.0170   -33.6380    10.6050    11.5140    14.9030
 2690.5000   107.5900     9.4190     2.4810     0.0180   -33.7220    10.6610    11.5630    15.0600
 2691.0000   106.9860     9.4190     2.4870     0.0190   -33.8040    10.7170    11.6120    15.5450
 2691.5000   106.3850     9.4190     2.4900     0.0190   -33.8900    10.7730    11.6610    16.0290
 2692.0000   105.7660     9.4210     2.4880     0.0190   -33.9240    10.8290    11.7110    16.5140
 2692.5000   105.1600     9.4300     2.4860     0.0180   -33.9210    10.8850    11.7600    15.9980
 2693.0000   104.5500     9.4380     2.4850     0.0170   -33.9210    10.9410    11.8090    15.1260
 2693.5000   103.9380     9.4460     2.4830     0.0160   -33.9220    10.9970    11.8580    14.9030
 2694.0000   103.3270     9.4550     2.4800     0.0150   -33.9210    11.0530    11.9080    17.2650
 2694.5000   102.7270     9.4630     2.4620     0.0140   -33.9220    11.1090    11.9570    17.0540
 2695.0000   102.0900     9.4710     2.4440     0.0130   -33.9220    11.1650    12.0060    16.4620
 2695.5000   101.5240     9.4800     2.4380     0.0130   -33.9210    11.2210    12.0550    15.8690
 2696.0000   100.8510     9.4880     2.4350     0.0120   -33.9220    11.2760    12.1050    14.9030
 2696.5000   101.1730     9.4960     2.4350     0.0110   -33.9210    11.3440    12.1750    18.9270
 2697.0000   102.0180     9.5050     2.4380     0.0120   -33.9220    11.4320    12.0890    18.9270
 2697.5000   103.9890     9.5130     2.4420     0.0130   -33.9220    11.5220    11.9400    18.0500
 2698.0000   105.8090     9.5210     2.4460     0.0140   -33.9180    11.1860    11.7910    16.9210
 2698.5000   107.3510     9.5300     2.4500     0.0150   -33.9700    10.8450    11.6420    15.7920
 2699.0000   108.9050     9.5380     2.4540     0.0170   -34.1010    10.5030    11.5220    14.6630
 2699.5000   110.4330     9.5460     2.4610     0.0180   -34.2270    10.1610    11.1290    13.5350
 2700.0000   111.9260     9.5550     2.4680     0.0190   -34.3540     9.8190    10.7990    12.6310
 2700.5000   113.6170     9.5630     2.4750     0.0200   -34.4820     9.4770    10.4700    14.3650
 2701.0000   113.2390     9.5710     2.4820     0.0210   -34.6090     9.1360    10.1400    14.3650
 2701.5000   111.3610     9.5800     2.4890     0.0220   -34.7340     8.7940     9.8110    13.1040
 2702.0000   109.5580     9.5880     2.4960     0.0230   -34.8660     8.4520     9.4810    11.5220
 2702.5000   108.5180     9.5970     2.5020     0.0240   -34.9890     8.1100     9.1520    11.6050
 2703.0000   109.0400     9.6050     2.5000     0.0250   -35.0790     7.7680     8.8220    11.8370
 2703.5000   109.8080     9.6130     2.4910     0.0270   -34.8760     7.4260     8.4930    12.1750
 2704.0000   110.5770     9.6240     2.4810     0.0270   -34.7000     7.0850     8.1630    11.2560
 2704.5000   111.0040     9.6380     2.4690     0.0250   -34.5060     6.7430     7.8340     9.5540
 2705.0000   110.7250     9.6520     2.4550     0.0240   -34.3220     6.1670     7.4530     8.7450
 2705.5000   110.4860     9.6650     2.4540     0.0230   -34.1340     6.2210     7.5500     9.4580
 2706.0000   110.1940     9.6790     2.4540     0.0220   -33.9480     6.3930     7.7420    10.0950
 2706.5000   109.0320     9.6920     2.4540     0.0210   -33.7600     6.5650     7.9350    10.7320
 2707.0000   107.5600     9.7050     2.4540     0.0200   -33.5720     6.7370     8.1280    11.3120
 2707.5000   106.0560     9.7190     2.4510     0.0180   -33.3900     6.9090     8.3200    11.5040
 2708.0000   104.6290     9.7330     2.4440     0.0170   -33.1900     7.0810     8.5130    11.6810
 2708.5000   103.2300     9.7350     2.4280     0.0160   -33.2050     7.2530     8.7060    11.9530
 2709.0000   103.3740     9.7430     2.4150     0.0150   -33.3420     7.4250     8.8980    11.8660
 2709.5000   103.5620     9.7780     2.4180     0.0140   -33.4630     7.5970     9.0910    11.6780
 2710.0000   103.7770     9.7720     2.4220     0.0120   -33.5820     7.7690     9.2840    11.4900
 2710.5000   104.4030     9.7610     2.4190     0.0110   -33.7060     8.1250     9.5870    11.3010
