~VERSION INFORMATION
 VERS.                2.0:   CWLS LOG ASCII STANDARD - VERSION 2.0
 WRAP.                 NO:   ONE LINE PER DEPTH STEP
~WELL INFORMATION
#MNEM.UNIT      DATA TYPE    INFORMATION
#----------   ------------   ------------------------------
 STRT.F          220.0000:   START DEPTH
 STOP.F         3284.5000:   STOP DEPTH
 STEP.F            0.5000:   STEP LENGTH
 NULL.          -999.2500:   NO VALUE
 COMP.    FENIX & SCISSON:   COMPANY
 WELL. FENIX HARPEL "A" #85-28:   WELL
 FLD .              NPR-3:   FIELD
 LOC .      S28 T39N R78W:   LOCATION
 CNTY.            NATRONA:   COUNTY
 STAT.            WYOMING:   STATE
 CTRY. UNITED STATES OF AMERICA:   COUNTRY
 SRVC.      DRESSER ATLAS:   SERVICE COMPANY
 DATE.        07-AUG-1977:   LOGDATE
 API .     49025104040000:   API NUMBER
~CURVE INFORMATION
#MNEM.UNIT       API CODE    CURVE DESCRIPTION
#----------   ------------   ------------------------------
 DEPT.F                  :   
 GRD .GAPI   45 310 01 00:   GAMMA RAY FROM DENSITY LOG
 CALD.IN     45 280 60 00:   CALIPER FROM DENSITY LOG
 CORR.G/C3   45 356 01 00:   DENSITY CORRECTION
 RHOB.G/C3   45 350 01 00:   BULK DENSITY
 TEND.LBS    45 635 01 00:   TENSION FORM DENSITY LOG
 NPHI.DEC    42 890 03 00:   NEUTRON POROSITY SANDSTONE
 SPR .MV     11 010 01 00:   SPONTANEOUS POTENTIAL FROM RES.
 TENR.LBS    11 635 01 00:   TENSION FROM RES.
 LLD .OHMM   11 220 10 00:   LATEROLOG LOG DEEP
 LLS .OHMM   11 220 09 00:   LATEROLOG SHALLOW
 RXO .OHMM   11 270 04 00:   FLUSHED ZONE RESISTIVITY
~PARAMETER INFORMATION
#MNEM.UNIT          VALUE    DESCRIPTION
#----------   ------------   ------------------------------
 EKB .F         5059.0000:   Kelly bushing
 EGL .F         5049.0000:   Ground level
 EDF .F            0.0000:   Drilling floor
 EPD .F            0.0000:   Permanent datum
 TD  .F         3240.0000:   Total depth
 CLNT.            A2DTECH:   Client Code
 SL  . 2310' FSL & 330' FEL:   Surface Location
 PD  .                 GL:   Permanent Datum
 DAPD.F                10:   Feet Above Permanent Datum
 DATE.        07-AUG-1977:   Date Logged [DD-MMM-YYYY]
 DD  .F              3240:   Depth driller
 DL  .F              3267:   Depth logger
 BLI .F              3265:   Bottom log interval
 TLI .F               224:   Top log interval
 CS1 .IN            8.625:   Casing size
 CBD1.      8.625" @ 254':   Casing driller 1
 CBL1.F               224:   Casing logger 1
 BS1 .IN            7.875:   Bit size
 BSD1.F              3240:   Depth drilled with bit1
 DFT .                KCL:   Type fluid in hole
 DFD .                8.8:   Density
 DFV .                 36:   Viscosity
 DFPH.               10.5:   pH
 DFL .                9.6:   Fluid loss
 MSS .         CIRCULATED:   Source of sample
 RMS .OHMM           0.22:   Rm
 MST .F                78:   Rm Meas. temp.
 RMF .OHMM           0.16:   Rmf
 MFST.F                78:   Rmf Meas. temp.
 MFSS.               MEAS:   Source Rmf.
 RMC .OHMM           0.28:   Rmc
 MCST.F                78:   Rmc Meas. temp.
 MCSS.               MEAS:   Source Rmc.
 RMB .OHMM           0.14:   Rm. at BHT
 BHT .F               125:   BHT.
 TCS .HRS               7:   Time Circ. stopped
 MRT .F               125:   Maximum recorded temp.
 LUN .               6134:   Logging unit number
 LUL .              GLTTE:   Logging unit location
 ENGI.              GOULD:   Recorded By
 WITN.         HARRINGTON:   Witnessed by
 ORIG.      2.5" 5" PRINT:   Origin of data
 UWI .     49025104040000:   Unique Well ID
 DICO. A2D TECHNOLOGIES, INC.:   Digitizing Company
~OTHER INFORMATION
~A   DEPT      GRD       CALD       CORR       RHOB       TEND         NPHI      SPR       TENR        LLD        LLS        RXO   
# ...
  433.5000    37.1662     8.6735     0.0348     2.3616  1050.2312     0.2932   -72.4745   708.8323    17.4850    12.3427     7.3758
  434.0000    37.0386     8.6456     0.0471     2.3902  1050.8770     0.2905   -73.1892   709.5808    17.9958    12.5093     7.4747
  434.5000    37.6537     8.5583     0.0473     2.4436  1051.5228     0.2833   -74.6832   710.3293    18.2511    11.9198     7.7901
  435.0000    37.0547     8.4724     0.0429     2.4489  1052.1686     0.2799   -75.4955   711.0778    17.7122    13.0249     8.3520
  435.5000    38.3901     8.4153     0.0371     2.4474  1052.8145     0.2847   -75.8030   711.8264    18.8749    14.1428     8.4507
  436.0000    40.6960     8.3708     0.0327     2.4404  1053.4602     0.2904   -76.1089   712.5748    19.9335    14.1505     8.4461
  436.5000    41.9078     8.3431     0.0268     2.4224  1054.1060     0.2835   -76.4148   713.4712    19.3620    13.5590     8.4421
  437.0000    38.9404     8.3334     0.0316     2.4178  1054.7518     0.2766   -77.0210   714.0718    18.7384    13.4797     8.4993
  437.5000    38.2119     8.3361     0.0332     2.4351  1055.3976     0.2708   -77.6652   714.8790    18.3171    13.1802     8.6690
  438.0000    36.8819     8.3391     0.0395     2.4510  1056.0435     0.2702   -77.9339   715.5829    18.8020    13.5422     8.6650
  438.5000    38.5459     8.3411     0.0381     2.4593  1055.9365     0.2742   -78.2402   705.4720    18.9103    12.9871     8.5424
  439.0000    38.7129     8.3441     0.0368     2.4571  1053.4453     0.2786   -78.2462   687.0507    17.7844    12.6289     8.5385
  439.5000    39.9246     8.3466     0.0340     2.4505  1035.8483     0.2836   -77.9520   687.8742    17.2906    13.5250     8.5345
  440.0000    41.5842     8.3491     0.0311     2.4476  1048.4630     0.2896   -77.6582   688.6227    18.7709    13.1521     8.2755
  440.5000    39.6616     8.3516     0.0238     2.4424  1060.4548     0.2932   -77.6638   719.4545    19.0204    12.7894     8.2727
  441.0000    38.3316     8.3541     0.0194     2.4260  1057.9636     0.2872   -77.3692   720.0598    18.2377    13.3730     8.2698
  441.5000    38.5030     8.3563     0.0135     2.4208  1055.7402     0.2824   -77.3754   708.1351    18.8400    13.2452     8.2670
  442.0000    40.0133     8.3443     0.0137     2.4202  1052.9812     0.2769   -77.3814   691.6168    18.8457    12.8560     8.1510
  442.5000    40.7729     8.3468     0.0169     2.4218  1050.4900     0.2733   -77.3874   692.3653    17.7069    12.7096     8.0362
  443.0000    38.8547     8.3490     0.0187     2.4271  1047.9989     0.2775   -77.3945   693.1138    17.4075    12.7626     8.0336
  443.5000    37.5292     8.3516     0.0263     2.4399  1045.4684     0.2864   -77.4001   693.8622    18.6892    12.0727     8.0310
  444.0000    38.1439     8.3543     0.0250     2.4483  1042.3938     0.2990   -77.4057   694.6108    18.6275    12.4167     7.9184
  444.5000    40.6990     8.3568     0.0237     2.4506  1039.9026     0.3050   -77.4114   695.4977    17.6658    12.7473     7.9156
  445.0000    41.6122     8.3741     0.0269     2.4507  1037.4114     0.3074   -77.4174   696.2016    17.1769    12.7415     7.9129
  445.5000    42.0777     8.3768     0.0241     2.4516  1034.9203     0.3045   -77.4234   696.9055    17.0376    12.6549     7.9102
  446.0000    41.4925     8.3793     0.0318     2.4584  1032.4291     0.3002   -77.4294   697.6095    17.8746    12.3838     7.9069
  446.5000    39.4189     8.3967     0.0289     2.4698  1029.9380     0.3001   -77.4354   728.2934    17.6196    12.2095     8.0141
  447.0000    39.7989     8.3991     0.0276     2.4635  1042.5983     0.3001   -77.4423   729.0419    16.6645    11.8728     8.0115
  447.5000    42.6567     8.4017     0.0187     2.4518  1040.0302     0.3013   -77.4479   729.7904    16.4267    11.5454     8.0089
  448.0000    43.2112     8.4042     0.0265     2.4530  1037.4622     0.3034   -77.4536   730.5389    17.1105    11.5406     8.0062
  448.5000    41.2930     8.4068     0.0252     2.4581  1034.4563     0.3003   -77.4595   731.4211    16.3465    11.9467     8.0034
  449.0000    40.7093     8.4093     0.0223     2.4597  1047.6936     0.2898   -77.5345   732.1251    17.0008    12.5265     8.0451
  449.5000    41.6270     8.4118     0.0225     2.4613  1059.6854     0.2886   -77.7718   732.8290    18.0463    12.6015     8.0497
  450.0000    42.3910     8.4143     0.0211     2.4584  1057.1942     0.2838   -77.7778   733.5330    17.5429    12.6881     7.9947
  450.5000    41.0655     8.4024     0.0198     2.4525  1039.5973     0.2811   -77.7848   734.2814    17.0558    12.6832     7.9921
  451.0000    39.1429     8.3905     0.0230     2.4466  1037.1061     0.2772   -77.4901   735.0299    17.5225    11.9980     7.9896
  451.5000    40.8024     8.3771     0.0247     2.4429  1019.4863     0.2735   -77.4958   735.7784    17.2409    11.6671     8.0979
  452.0000    42.0142     8.3943     0.0295     2.4527  1032.1238     0.2768   -77.5015   736.5269    17.0261    12.1551     8.1062
  452.5000    40.6842     8.4043     0.0357     2.4693  1029.6326     0.2855   -77.5075   737.4045    16.9369    11.7690     8.2050
  453.0000    42.0392     8.4133     0.0299     2.4664  1030.2201     0.2912   -77.5135   738.1084    15.9888    11.2528     8.2017
  453.5000    42.8017     8.4008     0.0240     2.4560  1030.7698     0.2951   -77.5195   738.8123    15.8596    11.3309     8.1983
  454.0000    42.8180     8.4186     0.0212     2.4441  1031.3196     0.2902   -77.5267   739.5209    16.1915    11.3256     8.1957
  454.5000    42.8342     8.4359     0.0184     2.4419  1031.8693     0.2938   -77.5323   740.2695    15.1992    10.7137     8.1931
  455.0000    42.7012     8.4531     0.0186     2.4420  1032.4191     0.2878   -77.5380   741.0179    15.4013    11.0090     8.1904
  455.5000    42.8672     8.4555     0.0188     2.4376  1032.9688     0.2848   -77.5436   711.6879    15.8227    11.1575     8.1876
  456.0000    43.3532     8.4579     0.0220     2.4324  1033.5186     0.2860   -77.5495   712.5748    14.5995    10.3342     8.0432
  456.5000    44.0940     8.4602     0.0252     2.4442  1034.0682     0.2814   -77.5556   713.4477    14.1537    10.1231     7.7650
  457.0000    44.5614     8.4826     0.0300     2.4593  1034.6180     0.2910   -77.5616   714.1516    14.8497    10.4011     7.4747
  457.5000    44.1298     8.4948     0.0407     2.4752  1035.1677     0.2967   -77.5676   714.8555    15.0051    10.1133     7.3220
  458.0000    44.1461     8.5078     0.0379     2.4715  1035.7175     0.2903   -77.2733   715.5688    13.3670     9.5670     7.1205
  458.5000    44.4609     8.5294     0.0305     2.4595  1036.2672     0.2852   -76.9790   716.3173    12.8179     9.9672     7.1182
  459.0000    44.7756     8.5471     0.0292     2.4691  1036.8170     0.2813   -76.6847   717.0659    13.3515     9.6833     7.1159
  459.5000    44.6386     8.5644     0.0325     2.4784  1037.3668     0.2822   -76.6907   717.8143    12.5583     9.3988     7.0939
  460.0000    45.1066     8.5965     0.0296     2.4800  1037.9165     0.2966   -76.3958   718.5629    12.0526     8.7931     6.9816
  460.5000    46.6154     8.5989     0.0298     2.4725  1038.4663     0.3069   -76.5030   719.4310    12.0230     8.9115     6.7769
  461.0000    47.8257     8.6012     0.0285     2.4696  1039.0160     0.3039   -76.7087   750.0751    10.3898     8.5462     6.6322
  461.5000    48.2857     8.6036     0.0271     2.4772  1039.5658     0.3125   -76.4155   750.7790    10.1014     7.7569     6.5393
  462.0000    44.8732     8.6059     0.0304     2.4577  1040.1155     0.3275   -76.4212   751.4970    10.0774     7.6478     6.5372
  462.5000    44.2883     8.6083     0.0321     2.4458  1040.6653     0.3199   -76.4268   752.2455    10.8097     7.8585     6.5351
  463.0000    46.8460     8.6106     0.0338     2.4481  1041.2150     0.3109   -76.4324   744.2137    10.2237     7.7855     6.5209
  463.5000    46.4145     8.6130     0.0356     2.4519  1041.7648     0.3183   -75.7943   723.6545    10.6493     7.2290     6.3298
