~VERSION INFORMATION
 VERS.                2.0:   CWLS LOG ASCII STANDARD - VERSION 2.0
 WRAP.                 NO:   ONE LINE PER DEPTH STEP
~WELL INFORMATION
#MNEM.UNIT      DATA TYPE    INFORMATION
#----------   ------------   ------------------------------
 STRT.F           32.0000:   START DEPTH
 STOP.F         5116.0000:   STOP DEPTH
 STEP.F            0.5000:   STEP LENGTH
 NULL.          -999.2500:   NO VALUE
 COMP. LAWRENCE ALLISON AND ASSOCIATES:   COMPANY
 WELL. LAWRENCE "X" #11-26:   WELL
 FLD .       N.P.R. NO. 3:   FIELD
 LOC .      S26 T38N R78W:   LOCATION
 CNTY.            NATRONA:   COUNTY
 STAT.            WYOMING:   STATE
 CTRY. UNITED STATES OF AMERICA:   COUNTRY
 SRVC.      DRESSER ATLAS:   SERVICE COMPANY
 DATE.        03-DEC-1984:   LOGDATE
 API .     49025110120000:   API NUMBER
~CURVE INFORMATION
#MNEM.UNIT       API CODE    CURVE DESCRIPTION
#----------   ------------   ------------------------------
 DEPT.F                  :   
 CALD.IN     45 280 60 00:   CALIPER FROM DENSITY LOG
 TEND.LBS    45 635 01 00:   TENSION FORM DENSITY LOG
 CORR.G/C3   45 356 01 00:   DENSITY CORRECTION
 DEN .G/C3   45 350 01 00:   BULK DENSITY
 NPHI.DEC    42 890 03 00:   NEUTRON POROSITY SANDSTONE
 GRR .GAPI   07 310 01 00:   GAMMA RAY FROM RESISTIVITY
 SPR .MV     07 010 01 00:   SPONTANEOUS POTENTIAL
 CALR.IN     07 280 01 00:   CALIPER FROM RESISTIVITY
 TENR.LBS    07 635 01 00:   TENSION FROM RESISTIVITY
 RILD.OHMM   07 120 46 00:   INDUCTION LOG DEEP RESISTIVITY
 RILM.OHMM   07 120 44 00:   INDUCTION LOG MEDIUM RESISTIVITY
 RFOC.OHMM   07 220 04 00:   RESISTIVITY FOCUSED LOG RES.
 TENS.LBS    60 635 01 00:   TENSION FROM SONIC
 DT  .US/F   60 520 00 00:   DELTA TIME
~PARAMETER INFORMATION
#MNEM.UNIT          VALUE    DESCRIPTION
#----------   ------------   ------------------------------
 EKB .F         5321.0000:   Kelly bushing
 EGL .F         5309.0000:   Ground level
 EDF .F         5320.0000:   Drilling floor
 TD  .F         5104.0000:   Total depth
 CLNT.            A2DTECH:   Client Code
 SL  . 509' FWL & 22' FNL:   Surface Location
 PD  .                 GL:   Permanent Datum
 EPD .F              5309:   Elevation Permanent Datum
 LMF .                 KB:   Log Measured From
 DMF .                 KB:   Drilling Measured From
 DAPD.F                12:   Feet Above Permanent Datum
 DATE.        03-DEC-1984:   Date Logged [DD-MMM-YYYY]
 DD  .F              5100:   Depth driller
 DL  .F              5104:   Depth logger
 BLI .F              5102:   Bottom log interval
 TLI .F              1400:   Top log interval
 CS1 .IN            9.625:   Casing size
 CBD1.     9.625' @ 1657':   Casing driller 1
 CBL1.F              1652:   Casing logger 1
 BS1 .IN            7.875:   Bit size
 DFT .            KCL GEL:   Type fluid in hole
 DFD .                90.:   Density
 DFV .                 41:   Viscosity
 DFPH.                8.9:   pH
 DFL .               12.6:   Fluid loss
 MSS .           FLOWLINE:   Source of sample
 RMS .OHMM           .327:   Rm
 MST .F                84:   Rm Meas. temp.
 RMF .OHMM            .29:   Rmf
 MFST.F                84:   Rmf Meas. temp.
 MFSS.               CALC:   Source Rmf.
 RMC .OHMM            .42:   Rmc
 MCST.F                84:   Rmc Meas. temp.
 MCSS.               CALC:   Source Rmc.
 RMB .OHMM            .23:   Rm. at BHT
 BHT .F               142:   BHT.
 TCS .HRS               4:   Time Circ. stopped
 MRT .F               142:   Maximum recorded temp.
 LUN .               6307:   Logging unit number
 LUL .               CLTE:   Logging unit location
 WITN.             STRONG:   Witnessed by
 ORIG.           5" PRINT:   Origin of data
 UWI .     49025110120000:   Unique Well ID
 DICO. A2D TECHNOLOGIES, INC.:   Digitizing Company
~OTHER INFORMATION
~A  DEPTH     CALD       TEND       CORR        DEN       NPHI        GRR        SPR       CALR       TENR       RILD       RILM       RFOC       TENS         DT
# ...
  375.0000    12.5324   -21.3643     0.0026     2.3772     0.2665    81.2971   -70.7081  -999.2500   -61.7470     5.8545     4.3994     4.8984   -55.6801   107.5524
  375.5000    12.5345   -24.4755     0.0119     2.3781     0.2713    77.3864   -70.8624  -999.2500   -61.5964     5.8541     4.3696     4.8655   -56.5770   106.9977
  376.0000    12.5369   -30.9791     0.0263     2.3804     0.2794    74.3784   -71.1564  -999.2500   -61.4458     5.9356     4.4313     4.7313   -57.4738   103.8633
  376.5000    12.5395   -31.7841     0.0378     2.3843     0.2805    73.4799   -71.3059  -999.2500   -61.2952     6.0182     4.5565     4.5418   -58.5377    99.4377
  377.0000    12.5417   -32.8622     0.0336     2.3920     0.2766    73.7924   -71.3041  -999.2500   -61.1446     6.1446     4.6207     4.5111   -59.4170    98.9066
  377.5000    12.5445   -33.7331     0.0188     2.4046     0.2768    75.3093   -71.4533  -999.2500   -60.9940     6.1867     4.6858     4.7694   -60.2963   100.3168
  378.0000    12.5469   -34.7077    -0.0020     2.4291     0.2731    73.7015   -71.6024  -999.2500   -60.8434     6.2294     4.7518     5.1840   -61.1756   103.0768
  378.5000    12.5492   -35.6821    -0.0040     2.4314     0.2632    68.6923   -71.6006  -999.2500   -60.6928     6.2289     4.7857     5.4832   -62.0549   105.6870
  379.0000    12.5513   -36.6567     0.0149     2.4143     0.2671    67.4921   -71.4486  -999.2500   -60.5422     6.2285     4.7204     5.3692   -62.9341   106.7254
  379.5000    12.5537   -37.8054     0.0318     2.4024     0.2752    68.4079   -71.2966  -999.2500   -60.3916     6.1850     4.6883     4.8066   -63.8134   107.0902
  380.0000    12.5565   -38.7469     0.0334     2.3973     0.3085    72.3381   -70.8433  -999.2500   -60.2410     6.0992     4.6245     4.7084   -64.6927   107.8292
  380.5000    12.5584   -39.5802     0.0141     2.3967     0.3080    77.5232   -70.5301  -999.2500   -60.0904     5.8501     4.5525     4.7753   -65.5720   108.1939
  381.0000    12.5609   -32.8984     0.0023     2.3968     0.3027    80.5024   -70.0871  -999.2500   -59.9398     5.5337     4.4068     4.9105   -51.4948   108.1093
  381.5000    12.5483   -34.0753    -0.0005     2.3940     0.2864    80.5110   -69.7845  -999.2500   -59.7892     5.3446     4.3167     4.9117   -52.3916   107.3492
  382.0000    12.5507   -35.0169     0.0043     2.3926     0.2807    80.8214   -69.6324  -999.2500   -59.6385     5.3815     4.2873     4.7454   -53.2885   105.6181
  382.5000    12.5377   -35.9820     0.0045     2.3905     0.2822    81.4333   -69.4804  -999.2500   -59.4879     5.5325     4.2880     4.4903   -61.8351   103.8122
  383.0000    12.5406   -37.1354     0.0094     2.3891     0.2872    80.2353   -69.4789  -999.2500   -59.3373     5.6879     4.3788     4.3988   -70.1881   101.0332
  383.5000    12.5280   -30.3454     0.0245     2.3892     0.2868    79.9423   -69.7787  -999.2500   -59.1867     5.9294     4.5025     4.6205   -63.3738    99.6764
  384.0000    12.5303   -31.5223     0.0292     2.3940     0.2752    80.2548   -70.3793  -999.2500   -59.0361     6.2242     4.7598     4.9168   -64.4729    99.7418
  384.5000    12.5477   -32.3838     0.0294     2.4030     0.2574    80.5651   -70.8297  -999.2500   -58.8855     6.5479     5.0318     5.1982   -65.3521   100.1065
  385.0000    12.5501   -33.4054     0.0281     2.3949     0.2600    79.0654   -71.2801  -999.2500   -58.7230     6.8583     5.3218     5.4199   -66.2314   100.7706
  385.5000    12.5527   -34.3470     0.0254     2.3883     0.2588    74.8509   -71.5799  -999.2500   -58.5843     7.1000     5.5847     5.5349   -74.5845   101.2851
  386.0000    12.5551   -35.3074     0.0166     2.3801     0.2605    70.9379   -71.8796  -999.2500   -58.4337     7.3503     5.5469     5.5335   -75.4638   102.0241
  386.5000    12.5573   -36.2819     0.0016     2.3758     0.2638    72.1554   -72.0284  -999.2500   -58.2831     7.6093     5.3959     5.4234   -68.8693   102.0894
  387.0000    12.5596   -37.4070    -0.0055     2.3804     0.2629    73.3707   -71.8764  -999.2500   -58.1325     7.8229     5.2491     5.3129   -69.7485   102.0775
  387.5000    12.5622   -38.3486    -0.0068     2.3862     0.2532    74.8876   -71.8750  -999.2500   -57.9819     7.7683     5.1746     5.2770   -78.1016   101.7686
  388.0000    12.5649   -31.5585     0.0100     2.3964     0.2454    78.2145   -71.8735  -999.2500   -57.8313     7.7140     5.1784     5.3150   -64.0333   100.8609
  388.5000    12.5668   -32.6837     0.0192     2.3936     0.2543    79.1281   -71.8717  -999.2500   -57.6807     7.6072     5.2513     5.3903   -57.4387   100.6269
  389.0000    12.5545   -33.6581     0.0224     2.3937     0.2555    78.2318   -71.5691  -999.2500   -57.5301     7.5018     5.3253     5.4291   -66.0116   100.9167
  389.5000    12.5568   -34.6327     0.0212     2.3954     0.2513    77.3355   -71.5677  -999.2500   -57.3795     7.3978     5.4004     5.4301   -66.8909   102.1048
  390.0000    12.5592   -28.2993     0.0167     2.4023     0.2521    77.3463   -71.4156  -999.2500   -57.2289     7.2449     5.3218     5.3565   -67.7702   103.3678
  390.5000    12.5614   -29.2408     0.0246     2.4085     0.2596    77.3549   -71.2636  -999.2500   -57.0783     7.0951     5.1819     5.2473   -68.6495   105.2295
  391.0000    12.5638   -30.0600     0.0204     2.4116     0.2701    77.3636   -70.9606  -999.2500   -56.9277     6.8053     4.9715     5.0673   -69.5287   105.6691
  391.5000    12.5667   -31.1240     0.0071     2.4117     0.2749    78.0242   -70.6580  -999.2500   -56.7771     6.4287     4.8363     4.8981   -70.4080   105.8093
  392.0000    12.5690   -32.0655     0.0012     2.4156     0.2751    80.0979   -70.6565  -999.2500   -56.6265     5.9224     4.6722     4.9332   -71.2872   106.0499
  392.5000    12.5713   -33.0071     0.0330     2.4119     0.2703    81.0094   -70.3539  -999.2500   -56.4759     5.5249     4.3904     4.9341   -72.1665   107.2849
  393.0000    12.5581   -33.9580     0.0527     2.4144     0.2654    78.6069   -70.3524  -999.2500   -56.3253     5.2992     4.1541     4.8002   -65.5456   108.6227
  393.5000    12.5610   -35.1256     0.0656     2.4190     0.2696    77.1073   -70.0495  -999.2500   -56.1747     5.1537     4.0974     4.6677   -58.9686   109.1395
  394.0000    12.5633   -36.0671     0.0592     2.4176     0.2779    76.2110   -70.0480  -999.2500   -56.0241     5.0823     4.0415     4.4498   -52.3828   109.0528
  394.5000    12.5656   -37.0087     0.0354     2.4110     0.2911    76.5234   -70.0466  -999.2500   -55.8735     5.0468     4.0422     4.2400   -53.2885   108.8936
  395.0000    12.5742   -35.6070     0.0237     2.4066     0.2947    76.5321   -70.0452  -999.2500   -55.7229     5.0115     4.0428     4.1247   -46.6675   108.2853
  395.5000    12.5857   -31.1601     0.0314     2.4037     0.2985    76.2391   -70.0434  -999.2500   -55.5723     5.0112     4.0434     4.1833   -47.7667   107.4524
  396.0000    12.5880   -32.3088     0.0481     2.4245     0.2964    76.8510   -70.0419  -999.2500   -55.4217     5.0458     4.1003     4.3658   -56.1197   106.6196
  396.5000    12.5903   -33.2834     0.0528     2.4311     0.2871    78.9794   -70.0405  -999.2500   -55.2711     5.1515     4.1870     4.6115   -71.9467   106.1609
  397.0000    12.5925   -34.2579     0.0530     2.4252     0.2741    79.8849   -70.1900  -999.2500   -55.1205     5.2232     4.3075     4.6768   -80.2999   105.9935
  397.5000    12.5949   -35.3971     0.0517     2.4208     0.2711    78.6891   -70.3389  -999.2500   -54.9699     5.3327     4.4270     4.6452   -81.1791   105.7653
  398.0000    12.5973   -36.3387     0.0580     2.4247     0.2650    78.6977   -70.6386  -999.2500   -54.8193     5.5207     4.4894     4.6142   -74.3647   105.5312
  398.5000    12.5848   -37.2802     0.0597     2.4346     0.2575    79.3097   -70.9380  -999.2500   -54.6687     5.6786     4.5843     4.6152   -60.2963   105.2223
  399.0000    12.5875   -38.2218     0.0585     2.4378     0.2562    79.6200   -71.2382  -999.2500   -54.5181     5.9167     4.5849     4.7133   -53.8864   104.9134
