~VERSION INFORMATION
 VERS.                2.0:   CWLS LOG ASCII STANDARD - VERSION 2.0
 WRAP.                 NO:   ONE LINE PER DEPTH STEP
~WELL INFORMATION
#MNEM.UNIT      DATA TYPE    INFORMATION
#----------   ------------   ------------------------------
 STRT.F          444.0000:   START DEPTH
 STOP.F         3018.0000:   STOP DEPTH
 STEP.F            0.5000:   STEP LENGTH
 NULL.          -999.2500:   NO VALUE
 COMP.    FENIX & SCISSON:   COMPANY
 WELL.  FENIX "AX" #25-28:   WELL
 FLD .             TEAPOT:   FIELD
 LOC .      S28 T39N R78W:   LOCATION
 CNTY.            NATRONA:   COUNTY
 STAT.            WYOMING:   STATE
 CTRY. UNITED STATES OF AMERICA:   COUNTRY
 SRVC.              WELEX:   SERVICE COMPANY
 DATE.        01-DEC-1979:   LOGDATE
 API .     49025107940000:   API NUMBER
~CURVE INFORMATION
#MNEM.UNIT       API CODE    CURVE DESCRIPTION
#----------   ------------   ------------------------------
 DEPT.F                  :   
 SPR .MV     07 010 01 00:   SPONTANEOUS POTENTIAL
 RILM.OHMM   07 120 44 00:   INDUCTION LOG MEDIUM RESISTIVITY
 RILD.OHMM   07 120 46 00:   DEEP INDUCTION RESISTIVITY
 SGRD.OHMM   07 220 05 00:   SHALLOW GUARD LOG RESISTIVITY
 TENR.LBS    07 635 01 00:   TENSION FROM RESISTIVITY
 NPHI.DEC    42 890 03 00:   NEUTRON POROSITY SANDSTONE
 GRD .GAPI   45 310 01 00:   GAMMA RAY FROM DENSITY LOG
 CALD.IN     45 280 60 00:   CALIPER FROM DENSITY LOG
 RHOB.G/C3   45 350 01 00:   BULK DENSITY
 DCOR.G/C3   45 356 01 00:   DENSITY CORRECTION
 TEND.LBS    45 635 01 00:   TENSION FROM DENSITY LOG
~PARAMETER INFORMATION
#MNEM.UNIT          VALUE    DESCRIPTION
#----------   ------------   ------------------------------
 EKB .F         5092.0000:   Kelly bushing
 EGL .F         5082.0000:   Ground level
 EDF .F            0.0000:   Drilling floor
 TD  .F         3013.5000:   Total depth
 DATE.        01-DEC-1979:   Date logged
 CLNT.            A2DTECH:   Client Code
 SL  . 2267' FSL & 1070' FWL:   Surface Location
 PD  .                 GL:   Permanent Datum
 EPD .F              5082:   Elevation Permanent Datum
 LMF .                 KB:   Log Measured From
 DMF .                 KB:   Drilling Measured From
 DAPD.F                10:   Feet Above Permanent Datum
 DD  .F              3000:   Depth driller
 DL  .F            3013.5:   Depth logger
 BLI .F              3013:   Bottom log interval
 TLI .F               350:   Top log interval
 CS1 .IN            8.625:   Casing size
 CBD1.      8.625" @ 465':   Casing driller 1
 CBL1.F               462:   Casing logger 1
 BS1 .IN            7.875:   Bit size
 BSD1.F              3000:   Depth drilled with bit1
 DFT .           CHEM GEL:   Type fluid in hole
 DFD .                8.8:   Density
 DFV .                 55:   Viscosity
 DFPH.                  9:   pH
 DFL .                6.4:   Fluid loss
 MSS .           FLOWLINE:   Source of sample
 RMS .OHMM           1.53:   Rm
 MST .F                75:   Rm Meas. temp.
 RMF .OHMM           1.24:   Rmf
 MFST.F                75:   Rmf Meas. temp.
 RMC .OHMM           1.83:   Rmc
 MCST.F                75:   Rmc Meas. temp.
 MFSS.               MEAS:   Source Rmf.
 MCSS.               MEAS:   Source Rmc.
 RMB .OHMM           1.09:   Rm. at BHT
 BHT .F               105:   BHT.
 TCS .HRS             2.5:   Time Circ. stopped
 MRT .F               105:   Maximum recorded temp.
 LUN .                965:   Logging unit number
 LUL .             CASPER:   Logging unit location
 ENGI.            BENTSEN:   Recorded By
 WITN.           P. AMEND:   Witnessed by
 ORIG.           5" PRINT:   Origin of data
 UWI .     49025107940000:   Unique Well ID
 DICO. A2D TECHNOLOGIES, INC.:   Digitizing Company
~OTHER INFORMATION
~A   DEPT      SPR       RILM       RILD       SGRD       TENR       NPHI         GRD      CALD       RHOB       DCOR       TEND   
# ...
 2640.0000   -35.2970     4.7230     4.4950     5.8800  1166.3290     0.2300    82.2710     7.7910     2.5490     0.0280  1665.1429
 2640.5000   -35.3500     4.7620     4.4720     5.9610  1166.3290     0.2270    80.1600     7.7940     2.5500     0.0190  1668.2460
 2641.0000   -35.3360     4.7940     4.5250     6.0420  1166.3290     0.2250    78.5030     7.7960     2.5490     0.0210  1660.2820
 2641.5000   -35.2120     4.8270     4.5680     6.1230  1166.3290     0.2240    80.2180     7.7980     2.5580     0.0310  1652.3180
 2642.0000   -35.0890     4.8590     4.6110     6.2040  1166.3290     0.2230    81.2490     7.8000     2.5640     0.0390  1644.3540
 2642.5000   -34.9660     4.8910     4.6540     6.2850  1166.3290     0.2230    79.1630     7.8020     2.5560     0.0370  1636.3900
 2643.0000   -34.8440     4.9240     4.6790     6.3660  1166.3290     0.2230    80.6730     7.8040     2.5570     0.0410  1628.4260
 2643.5000   -34.7200     4.9520     4.6790     6.4290  1166.3290     0.2190    80.1400     7.8060     2.5580     0.0460  1620.4630
 2644.0000   -34.5960     4.9640     4.6790     6.2390  1166.3290     0.2180    82.2630     7.8080     2.5500     0.0480  1612.4990
 2644.5000   -34.5910     4.9750     4.6790     6.0840  1166.3290     0.2140    82.5780     7.8100     2.5440     0.0460  1617.1600
 2645.0000   -34.6070     4.9870     4.6790     5.9100  1166.3290     0.2100    82.0470     7.8120     2.5410     0.0450  1625.5790
 2645.5000   -34.6230     4.9960     4.6780     5.9100  1166.3290     0.2080    81.7730     7.8140     2.5390     0.0410  1633.9980
 2646.0000   -34.6400     5.0430     4.6770     6.1930  1166.3290     0.2040    80.7220     7.8160     2.5340     0.0300  1642.4170
 2646.5000   -34.6570     5.1380     4.7230     6.9270  1166.3290     0.1990    76.5600     7.8180     2.5180     0.0130  1650.8361
 2647.0000   -34.6730     5.3130     4.8580     7.6260  1166.3290     0.1960    73.4390     7.8200     2.4950    -0.0110  1659.2550
 2647.5000   -34.6900     5.7100     5.2370     8.3240  1166.3290     0.1910    71.0600     7.8230     2.4830    -0.0260  1667.6740
 2648.0000   -34.7060     6.1460     5.6520     9.0220  1166.3290     0.1900    69.1270     7.8250     2.4890    -0.0170  1665.9830
 2648.5000   -34.7230     6.5830     6.0670     9.7200  1166.3290     0.1880    67.5060     7.8270     2.4920    -0.0070  1660.5229
 2649.0000   -34.7400     7.0190     6.4830    10.4190  1166.3290     0.1890    67.2110     7.8280     2.4940     0.0040  1655.0620
 2649.5000   -34.7560     7.4550     6.9880    11.0520  1166.3290     0.1910    67.8320     7.8290     2.4980     0.0140  1649.6021
 2650.0000   -34.7730     7.8910     7.5330    10.7440  1166.3290     0.1950    69.2920     7.8310     2.4900     0.0130  1644.1410
 2650.5000   -34.7890     8.3170     8.3510    10.5470  1166.3290     0.1990    71.0540     7.8320     2.4820     0.0070  1638.6801
 2651.0000   -34.8060     8.7200     8.3260    10.7460  1166.4670     0.2010    71.3490     7.8330     2.4750     0.0010  1633.2200
 2651.5000   -34.8220     9.0830     8.2780    10.9490  1166.9280     0.2010    70.1080     7.8340     2.4810     0.0010  1638.8210
 2652.0000   -34.8390     9.3210     8.2300    10.5490  1167.3890     0.2020    71.7680     7.8350     2.4900     0.0050  1655.9370
 2652.5000   -34.8560     9.4290     8.1880     9.8800  1167.8500     0.2020    74.1950     7.8360     2.4870    -0.0050  1673.0540
 2653.0000   -34.8720     9.2990     8.1620     9.9400  1168.3110     0.2010    74.8210     7.8370     2.4880    -0.0120  1690.1700
 2653.5000   -34.8890     9.1680     8.1360     9.9720  1168.7720     0.2020    73.2560     7.8380     2.4950    -0.0070  1707.2860
 2654.0000   -34.9050     8.9640     8.1100     7.8950  1169.2330     0.2030    74.7770     7.8390     2.4860    -0.0150  1704.5850
 2654.5000   -34.9220     8.7370     8.0840     8.9340  1169.6940     0.2030    73.7690     7.8400     2.4920    -0.0070  1698.9611
 2655.0000   -34.9380     8.5800     8.0570     9.9720  1170.1550     0.2030    75.2050     7.8410     2.4970    -0.0120  1693.3370
 2655.5000   -34.9550     8.4530     7.9810     9.5700  1170.6160     0.2020    74.3360     7.8420     2.4990    -0.0120  1687.7130
 2656.0000   -34.9710     8.3270     7.8540     9.1680  1171.0770     0.2000    73.7480     7.8430     2.4980    -0.0150  1682.0890
 2656.5000   -34.9800     8.2000     7.7270     8.9990  1171.5380     0.1980    76.6950     7.8450     2.4880    -0.0180  1676.4650
 2657.0000   -34.9800     8.0740     7.6000     8.9150  1171.9990     0.1980    75.7140     7.8460     2.4830    -0.0250  1670.8409
 2657.5000   -34.9800     7.9470     7.4730     8.9150  1172.4600     0.2000    74.0810     7.8470     2.4840    -0.0190  1675.8890
 2658.0000   -34.9800     7.8210     7.3460     8.9150  1172.9210     0.2010    73.1090     7.8480     2.4780    -0.0310  1682.9189
 2658.5000   -34.9800     7.6940     7.2190     9.0180  1173.3820     0.2010    73.4610     7.8420     2.4750    -0.0250  1689.9490
 2659.0000   -34.9800     7.5670     7.0920     9.0460  1173.8430     0.2010    74.1790     7.8350     2.4830    -0.0240  1696.9790
 2659.5000   -34.9800     7.4410     6.9650     9.0750  1174.3040     0.1990    76.7060     7.8290     2.4920    -0.0130  1704.0090
 2660.0000   -34.9800     7.3270     6.8390     9.0830  1174.7650     0.1970    76.3750     7.8230     2.4910    -0.0150  1707.5100
 2660.5000   -34.9790     7.1440     6.7120     8.2880  1175.2260     0.1980    78.9670     7.8160     2.4860    -0.0170  1698.5630
 2661.0000   -34.9810     6.9780     6.6360     7.5660  1175.6870     0.1990    80.9700     7.8100     2.4940    -0.0080  1689.6160
 2661.5000   -35.0430     6.8960     6.5830     6.8430  1176.1479     0.1990    82.5880     7.8110     2.5020    -0.0050  1680.6680
 2662.0000   -35.2860     6.8500     6.5290     6.1930  1176.6090     0.1990    84.7530     7.8140     2.5110     0.0110  1671.7209
 2662.5000   -35.5210     6.7990     6.4760     8.8320  1177.0699     0.1980    82.1100     7.8170     2.5100     0.0060  1662.7740
 2663.0000   -35.7560     6.8180     6.4220     8.7180  1177.5310     0.1960    76.5620     7.8200     2.4990    -0.0130  1653.8270
 2663.5000   -35.9920     6.8390     6.3690     8.4910  1177.9919     0.1960    77.3550     7.8240     2.4870    -0.0280  1654.9410
 2664.0000   -36.2230     6.8590     6.3100     8.1960  1178.4530     0.1950    78.4710     7.8270     2.4870    -0.0250  1662.9210
 2664.5000   -36.3130     6.8800     6.3670     8.2490  1178.9139     0.1940    78.4110     7.8300     2.4960    -0.0190  1670.9010
 2665.0000   -35.9970     6.9010     6.4300     8.3550  1179.3750     0.1910    81.0980     7.8340     2.5040    -0.0260  1678.8800
 2665.5000   -35.6950     6.9280     6.4930     8.4290  1179.8361     0.1900    79.7420     7.8370     2.5080    -0.0360  1686.8600
 2666.0000   -35.3950     6.8730     6.5500     7.7570  1180.2970     0.1910    78.7080     7.8400     2.5020    -0.0330  1694.8400
 2666.5000   -35.1940     6.7950     6.4580     7.2250  1180.7581     0.1910    78.6240     7.8430     2.5030    -0.0470  1702.8199
 2667.0000   -35.2670     6.7170     6.3550     7.0250  1181.2190     0.1890    76.8010     7.8470     2.5010    -0.0450  1707.8660
 2667.5000   -35.3330     6.6390     6.2530     6.9930  1181.6801     0.1880    79.4890     7.8440     2.5140    -0.0380  1698.0240
 2668.0000   -35.3980     6.5610     6.1500     7.3270  1182.1410     0.1860    77.0800     7.8390     2.5270    -0.0310  1688.1820
 2668.5000   -35.4640     6.4830     6.0780     7.8220  1182.6021     0.1840    77.0590     7.8330     2.5400    -0.0090  1678.3400
 2669.0000   -35.5300     6.4290     6.1200     8.1960  1183.0630     0.1800    75.7250     7.8280     2.5440    -0.0170  1668.4980
 2669.5000   -35.5960     6.8030     6.1930     8.1960  1183.5240     0.1780    74.6130     7.8220     2.5350    -0.0150  1658.6560
 2670.0000   -35.6620     7.0920     6.3680     8.0440  1183.9850     0.1770    71.9360     7.8170     2.5300    -0.0220  1651.4180
