~VERSION INFORMATION
 VERS.                2.0:   CWLS LOG ASCII STANDARD - VERSION 2.0
 WRAP.                 NO:   ONE LINE PER DEPTH STEP
~WELL INFORMATION
#MNEM.UNIT      DATA TYPE    INFORMATION
#----------   ------------   ------------------------------
 STRT.F          220.0000:   START DEPTH
 STOP.F         3284.5000:   STOP DEPTH
 STEP.F            0.5000:   STEP LENGTH
 NULL.          -999.2500:   NO VALUE
 COMP.    FENIX & SCISSON:   COMPANY
 WELL. FENIX HARPEL "A" #85-28:   WELL
 FLD .              NPR-3:   FIELD
 LOC .      S28 T39N R78W:   LOCATION
 CNTY.            NATRONA:   COUNTY
 STAT.            WYOMING:   STATE
 CTRY. UNITED STATES OF AMERICA:   COUNTRY
 SRVC.      DRESSER ATLAS:   SERVICE COMPANY
 DATE.        07-AUG-1977:   LOGDATE
 API .     49025104040000:   API NUMBER
~CURVE INFORMATION
#MNEM.UNIT       API CODE    CURVE DESCRIPTION
#----------   ------------   ------------------------------
 DEPT.F                  :   
 GRD .GAPI   45 310 01 00:   GAMMA RAY FROM DENSITY LOG
 CALD.IN     45 280 60 00:   CALIPER FROM DENSITY LOG
 CORR.G/C3   45 356 01 00:   DENSITY CORRECTION
 RHOB.G/C3   45 350 01 00:   BULK DENSITY
 TEND.LBS    45 635 01 00:   TENSION FORM DENSITY LOG
 NPHI.DEC    42 890 03 00:   NEUTRON POROSITY SANDSTONE
 SPR .MV     11 010 01 00:   SPONTANEOUS POTENTIAL FROM RES.
 TENR.LBS    11 635 01 00:   TENSION FROM RES.
 LLD .OHMM   11 220 10 00:   LATEROLOG LOG DEEP
 LLS .OHMM   11 220 09 00:   LATEROLOG SHALLOW
 RXO .OHMM   11 270 04 00:   FLUSHED ZONE RESISTIVITY
~PARAMETER INFORMATION
#MNEM.UNIT          VALUE    DESCRIPTION
#----------   ------------   ------------------------------
 EKB .F         5059.0000:   Kelly bushing
 EGL .F         5049.0000:   Ground level
 EDF .F            0.0000:   Drilling floor
 EPD .F            0.0000:   Permanent datum
 TD  .F         3240.0000:   Total depth
 CLNT.            A2DTECH:   Client Code
 SL  . 2310' FSL & 330' FEL:   Surface Location
 PD  .                 GL:   Permanent Datum
 DAPD.F                10:   Feet Above Permanent Datum
 DATE.        07-AUG-1977:   Date Logged [DD-MMM-YYYY]
 DD  .F              3240:   Depth driller
 DL  .F              3267:   Depth logger
 BLI .F              3265:   Bottom log interval
 TLI .F               224:   Top log interval
 CS1 .IN            8.625:   Casing size
 CBD1.      8.625" @ 254':   Casing driller 1
 CBL1.F               224:   Casing logger 1
 BS1 .IN            7.875:   Bit size
 BSD1.F              3240:   Depth drilled with bit1
 DFT .                KCL:   Type fluid in hole
 DFD .                8.8:   Density
 DFV .                 36:   Viscosity
 DFPH.               10.5:   pH
 DFL .                9.6:   Fluid loss
 MSS .         CIRCULATED:   Source of sample
 RMS .OHMM           0.22:   Rm
 MST .F                78:   Rm Meas. temp.
 RMF .OHMM           0.16:   Rmf
 MFST.F                78:   Rmf Meas. temp.
 MFSS.               MEAS:   Source Rmf.
 RMC .OHMM           0.28:   Rmc
 MCST.F                78:   Rmc Meas. temp.
 MCSS.               MEAS:   Source Rmc.
 RMB .OHMM           0.14:   Rm. at BHT
 BHT .F               125:   BHT.
 TCS .HRS               7:   Time Circ. stopped
 MRT .F               125:   Maximum recorded temp.
 LUN .               6134:   Logging unit number
 LUL .              GLTTE:   Logging unit location
 ENGI.              GOULD:   Recorded By
 WITN.         HARRINGTON:   Witnessed by
 ORIG.      2.5" 5" PRINT:   Origin of data
 UWI .     49025104040000:   Unique Well ID
 DICO. A2D TECHNOLOGIES, INC.:   Digitizing Company
~OTHER INFORMATION
~A   DEPT      GRD       CALD       CORR       RHOB       TEND         NPHI      SPR       TENR        LLD        LLS        RXO   
# ...
 1836.5000    73.1079     8.5340     0.0622     2.4089  1075.7881     0.3859   -74.9078   697.3287     8.7273     6.8161     7.2070
 1837.0000    77.4097     8.5358     0.0578     2.3738  1086.5164     0.3820   -75.2157   698.6028     8.5492     6.1541     7.9376
 1837.5000    80.4136     8.5373     0.0807     2.4339  1098.1593     0.3666   -75.2246   699.8766     8.0249     5.9024     4.7529
 1838.0000    88.6413     8.5392     0.0612     2.4895  1095.5148     0.3339   -75.2335   701.1975     4.5937     5.9005     4.3121
 1838.5000    88.0631     8.5405     0.0340     2.5023  1092.8702     0.3269   -75.2425   702.5450     4.7789     6.4276     5.9575
 1839.0000    85.3953     8.5422     0.0388     2.4799  1090.2257     0.3374   -75.2515   733.8323     8.2377     7.7549     7.9216
 1839.5000    84.1796     8.5438     0.0482     2.4523  1087.5819     0.3550   -75.2605   735.1796    10.7041    10.9934    10.6722
 1840.0000    86.6269     8.5456     0.0546     2.4321  1084.9374     0.3769   -75.5703   736.5270    11.1518    11.4335    11.6693
 1840.5000    88.7756     8.5471     0.0605     2.4585  1082.2928     0.3855   -75.5788   738.0981     5.9880     9.6882    11.0351
 1841.0000    89.6542     8.5489     0.0516     2.4803  1079.6490     0.3669   -75.5872   709.4321     4.7987     5.7276     4.4836
 1841.5000    89.2205     8.5504     0.0351     2.4895  1077.0045     0.3494   -75.5958   710.7063     5.2627     4.8514     5.2194
 1842.0000    92.8261     8.5520     0.0171     2.4835  1074.3600     0.3386   -75.6048   711.9801     7.0721     5.4163     7.3960
 1842.5000    92.2478     8.5537     0.0126     2.4528  1071.7162     0.3331   -75.6138   713.3234     8.6124     7.2440     9.1532
 1843.0000    91.5203     8.5554     0.0174     2.4709  1069.0585     0.3301   -75.6227   714.6705    10.0944     8.8411    10.1112
 1843.5000    90.6436     8.5474     0.0236     2.4718  1066.3680     0.3390   -75.6317   716.0180    26.1622    10.0483    10.6187
 1844.0000    89.7669     8.5437     0.0238     2.4591  1063.6770     0.3432   -75.6424   717.3651    30.5661    18.5626    11.0038
 1844.5000    91.8799     8.5304     0.0194     2.4487  1060.4779     0.3467   -75.9503   735.7308    19.2906    16.0643    10.9984
 1845.0000    94.2867     8.5320     0.0180     2.4481  1058.2959     0.3653   -75.9588   750.2015    18.7562    14.2094    10.9941
 1845.5000   104.9496     8.5188     0.0182     2.4489  1055.1888     0.3743   -76.2667   751.4757    17.8611    14.2048    10.9898
 1846.0000   110.4405     8.5204     0.0215     2.4512  1052.9149     0.3643   -76.2755   738.3737    15.6602    13.0711    10.9855
 1846.5000   105.9864     8.5221     0.0280     2.4618  1050.2244     0.3603   -76.3394   724.0839    16.3014    12.8844    10.8096
 1847.0000   102.4231     8.5090     0.0354     2.4844  1047.2560     0.3612   -76.5928   725.4492    16.9936    13.2631    10.3476
 1847.5000    95.5762     8.5106     0.0356     2.4640  1044.6115     0.3509   -76.6018   726.7963    16.7529    13.4240     9.7026
 1848.0000    87.5353     8.4969     0.0312     2.4528  1041.9677     0.3404   -76.6108   697.9659    15.8455    11.9583    10.6051
 1848.5000    83.3749     8.4988     0.0253     2.4435  1039.3231     0.3308   -76.6212   699.5509    15.6210    12.9385    11.0765
 1849.0000    80.0309     8.4856     0.0224     2.4368  1036.7712     0.3161   -76.6297   731.0911    17.4796    14.5670    10.9576
 1849.5000    76.8500     8.4872     0.0135     2.4332  1034.0348     0.3042   -76.9376   732.3649    18.4195    14.7654    10.6541
 1850.0000    75.4477     8.4888     0.0106     2.4280  1031.3903     0.3162   -76.9461   703.6990    18.4098    14.5575    10.6499
 1850.5000    73.4547     8.4905     0.0138     2.4423  1028.6997     0.3237   -76.9551   704.9731    18.6362    14.5528     9.4057
 1851.0000    72.5257     8.4921     0.0170     2.4447  1026.0093     0.3378   -76.6637   706.2874    19.7048    14.9712     7.7418
 1851.5000    77.1234     8.4940     0.0202     2.4402  1022.7964     0.3390   -76.6737   707.5211    19.4257    15.1998     6.5678
 1852.0000    79.7840     8.4956     0.0204     2.4486  1020.1520     0.3359   -76.6826   686.0955    18.6289    15.3642     5.7434
 1852.5000    77.4212     8.4954     0.0205     2.4575  1033.1161     0.3243   -76.6934   680.3893    18.1133    14.4708     4.9612
 1853.0000    75.0533     8.4951     0.0207     2.4638  1019.9969     0.3119   -76.7019   681.7366    17.8384    13.8306     4.8237
 1853.5000    71.4915     8.4949     0.0179     2.4616  1047.9933     0.2993   -76.4102   653.3741    16.7982    13.3673     5.0264
 1854.0000    67.5050     8.4946     0.0165     2.4580  1061.0419     0.2998   -76.7188   654.6480    15.4702    12.4715     6.2709
 1854.5000    63.4755     8.4943     0.0167     2.4686  1058.6686     0.2975   -76.7275   655.9221    16.2652    12.2845    10.9420
 1855.0000    58.4211     8.4940     0.0168     2.4829  1056.7697     0.2926   -76.6866   657.1963    16.8643    13.0085    11.0562
 1855.5000    51.8742     8.4938     0.0173     2.4980  1054.8578     0.2857   -76.4461   658.5330    15.9492    13.1669    10.4981
 1856.0000    58.0154     8.4935     0.0175     2.4996  1037.9670     0.2593   -76.4551   659.8802    14.6743    11.3727     9.3611
 1856.5000    57.2894     8.4932     0.0207     2.5057  1035.6508     0.2665   -76.7635   661.2276    14.0725    11.3040     9.3504
 1857.0000    53.5782     8.4929     0.0226     2.5216  1033.7517     0.2751   -76.4746   662.5748    14.9021    11.7773     9.2182
 1857.5000    47.4790     8.4942     0.0274     2.5472  1031.8527     0.2800   -76.4831   663.9222    14.7834    11.9369     8.7180
 1858.0000    51.5291     8.4955     0.0289     2.5660  1029.9536     0.2430   -76.4916   665.4776    14.0533    11.8968     8.2449
 1858.5000    53.7896     8.4967     0.0307     2.5744  1028.0551     0.2562   -76.5001   666.7518    18.9964    13.5070     8.9799
 1859.0000    55.1161     8.4981     0.0308     2.5627  1026.1560     0.2977   -76.2092   668.0256    19.5549    14.8777     9.6532
 1859.5000    60.6992     8.4994     0.0310     2.5209  1039.6797     0.3195   -76.5180   669.3113    19.8172    14.0688    10.2837
 1860.0000    58.9234     8.5156     0.0312     2.5071  1037.3060     0.3351   -76.5269   670.6587    19.0030    14.9383     8.0780
 1860.5000    59.3964     8.5170     0.0299     2.4982  1050.3738     0.3372   -76.5359   672.0059    17.2443    15.9205     5.1654
 1861.0000    60.0136     8.5183     0.0286     2.4976  1033.4828     0.3314   -76.5449   673.3534    16.0559    14.9522     7.0618
 1861.5000    60.7801     8.5199     0.0257     2.5044  1001.6443     0.3278   -76.5552   674.7006    13.5964    13.4784     8.9331
 1862.0000    61.3973     8.5212     0.0213     2.4955   984.3927     0.3343   -76.5637   676.3069    12.3630    10.6549     9.4383
 1862.5000    62.0399     8.5261     0.0183     2.4738   982.4937     0.3427   -76.5719   677.5811    13.8007    10.7995     9.1557
 1863.0000    62.9353     8.5386     0.0142     2.4784  1010.4901     0.3366   -76.5808   678.8552    13.4036    10.5019     8.7745
 1863.5000    63.7018     8.5549     0.0129     2.4943  1024.0138     0.3276   -76.5898   680.1290    12.8654    10.0723     8.2100
 1864.0000    64.3190     8.5562     0.0192     2.5086  1037.0625     0.3260   -76.5988   681.4371    13.5898    10.4920     7.1641
 1864.5000    63.2944     8.5575     0.0239     2.5140  1034.6888     0.3377   -76.6078   712.7247    14.5546    11.2417     6.9769
 1865.0000    61.5185     8.5589     0.0241     2.5080  1032.7903     0.3395   -76.6168   714.0718    12.8418    10.4247     7.6482
 1865.5000    63.0397     8.5498     0.0212     2.5012  1030.8912     0.3352   -76.6274   715.4192    12.8978    10.2840     7.5401
 1866.0000    64.1047     8.5466     0.0215     2.4933  1014.0444     0.3298   -76.6359   716.7665    13.8064    10.9230     7.4335
 1866.5000    65.0204     8.5480     0.0186     2.4844  1027.0931     0.3405   -76.6444   718.3505    13.9386    10.7697     7.5414
