~VERSION INFORMATION
 VERS.                2.0:   CWLS LOG ASCII STANDARD - VERSION 2.0
 WRAP.                 NO:   ONE LINE PER DEPTH STEP
~WELL INFORMATION
#MNEM.UNIT      DATA TYPE    INFORMATION
#----------   ------------   ------------------------------
 STRT.F            2.0000:   START DEPTH
 STOP.F         3008.0000:   STOP DEPTH
 STEP.F            0.5000:   STEP LENGTH
 NULL.          -999.2500:   NO VALUE
 COMP.       FLUOR DANIEL:   COMPANY
 WELL.   FLUOR "X" #25-23:   WELL
 FLD .          N.P.R. #3:   FIELD
 LOC .      S23 T38N R78W:   LOCATION
 CNTY.            NATRONA:   COUNTY
 STAT.            WYOMING:   STATE
 CTRY. UNITED STATES OF AMERICA:   COUNTRY
 SRVC.      WESTERN ATLAS:   SERVICE COMPANY
 DATE.        21-APR-1995:   LOGDATE
 API .     49025227090000:   API NUMBER
~CURVE INFORMATION
#MNEM.UNIT       API CODE    CURVE DESCRIPTION
#----------   ------------   ------------------------------
 DEPT.F                  :   
 GRR .GAPI   07 310 01 00:   GAMMA RAY FROM RESISTIVITY
 TENR.LBS    07 635 01 00:   TENSION FROM RESISTIVITY
 RILD.OHMM   07 120 46 00:   RESISTIVITY INDUCTION LOG DEEP
 RILM.OHMM   07 120 44 00:   RESISTIVITY INDUCTION LOG MEDIUM
~PARAMETER INFORMATION
#MNEM.UNIT          VALUE    DESCRIPTION
#----------   ------------   ------------------------------
 EKB .F         5285.0000:   Kelly bushing
 EGL .F         5275.0000:   Ground level
 EDF .F         5284.0000:   Drilling floor
 TD  .F         3000.0000:   Total depth
 CLNT.            A2DTECH:   Client Code
 SL  . 2343' FSL & 1264' FWL:   Surface Location
 PD  .                 GL:   Permanent Datum
 EPD .F              5275:   Elevation Permanent Datum
 DMF .                 KB:   Drilling Measured From
 DAPD.                 10:   Feet Above Permanent Datum
 DATE.        21-APR-1995:   Date Logged [DD-MMM-YYYY]
 DD  .F              3000:   Depth driller
 DL  .F              3000:   Depth logger
 BLI .F              2999:   Bottom log interval
 TLI .F                 0:   Top log interval
 CS1 .IN            9.625:   Casing size
 CBD1.       9.625" @ 53':   Casing driller 1
 CBL1.F                53:   Casing logger 1
 BS1 .IN             6.25:   Bit size
 BSD1.F              3000:   Depth drilled with bit1
 DFT .                OIL:   Type fluid in hole
 MRT .F               114:   Maximum recorded temp.
 LUN .            HL 6530:   Logging unit number
 LUL .             CASPER:   Logging unit location
 ENGI.        VERN RAUTIO:   Recorded By
 WITN.        GARY STRONG:   Witnessed by
 ORIG.         2.5" PRINT:   Origin of data
 UWI .     49025227090000:   Unique Well ID
 DICO. A2D TECHNOLOGIES,INC.:   Digitizing Company
 LMF .                 KB:   Log Measured From
~OTHER INFORMATION
~A    DEPT      GRR      TENR       RILD       RILM   
# ...
 1024.0000   138.2419   -17.2514     4.5706     4.7349
 1024.5000   138.2177   -16.6666     4.3303     4.5648
 1025.0000   138.1981   -16.0818     4.1557     4.2698
 1025.5000   138.1785   -15.4971     4.1536     4.1535
 1026.0000   134.0292   -14.9123     4.2081     4.1514
 1026.5000   127.3419   -14.3275     4.3848     4.1493
 1027.0000   125.1386   -13.7427     4.5208     4.2663
 1027.5000   129.1974   -13.1579     4.7840     4.5457
 1028.0000   139.9644   -12.5731     4.9670     4.9147
 1028.5000   140.4159   -11.9883     5.2139     5.2005
 1029.0000   140.3915   -11.4035     5.4250     5.4640
 1029.5000   140.3719   -10.8187     5.6471     5.7239
 1030.0000   142.7122   -12.7989     5.8782     5.8781
 1030.5000   145.6425   -15.4458     5.8752     6.0364
 1031.0000   151.0205   -18.0927     6.0334     6.1990
 1031.5000   153.2729   -20.7396     6.0301     6.1957
 1032.0000   149.9467   -23.3864     6.0268     6.1923
 1032.5000   142.6847   -26.0333     6.0236     6.1890
 1033.0000   137.9097   -28.6802     6.0203     6.1856
 1033.5000   135.4857   -31.3271     6.0164     6.1823
 1034.0000   135.4661   -33.9740     6.0133     6.1783
 1034.5000   137.8064   -17.6348     6.0102     6.1751
 1035.0000   141.3266    24.9466     6.0071     6.1719
 1035.5000   143.7250    25.5036     6.0040     6.1687
 1036.0000   148.6017    11.4406     6.0008     6.1655
 1036.5000   149.5275    -2.6223     5.9975     6.1622
 1037.0000   143.9583    -2.0653     5.9943     6.1589
 1037.5000   139.7739   -16.3996     5.9910     6.1555
 1038.0000   143.7207   -16.3869     5.9878     6.1522
 1038.5000   148.2594   -16.3742     5.9840     6.1489
 1039.0000   148.2398   -16.3615     5.9810     6.1450
 1039.5000   144.6804   -16.3488     5.9779     6.1418
 1040.0000   143.4808   -16.3361     5.9748     6.1387
 1040.5000   143.5878   -16.3234     5.9716     6.1355
 1041.0000   146.7729   -16.3107     5.9683     6.1322
 1041.5000   151.0739   -16.2980     5.9651     6.1289
 1042.0000   152.8378   -16.2853     5.9619     6.1256
 1042.5000   152.1779   -16.2725     5.9586     6.1223
 1043.0000   145.7134   -16.2598     5.9549     6.1190
 1043.5000   140.9740   -16.2471     5.9518     6.1150
 1044.0000   145.6742   -16.2344     5.7898     5.9485
 1044.5000   148.0145   -16.2217     5.5564     5.7087
 1045.0000   150.3548   -16.2090     5.3323     5.4786
 1045.5000   150.3333   -16.1963     5.2441     5.3237
 1046.0000   150.6663   -16.1836     5.1632     5.1841
 1046.5000   152.7849   -16.1709     5.0429     5.0942
 1047.0000   157.3905   -16.1582     4.9054     5.0401
 1047.5000   162.0465   -16.1454     4.7713     4.9028
 1048.0000   158.4871   -16.1327     4.6414     4.8623
 1048.5000   154.9277   -16.1200     4.6390     4.7662
 1049.0000   153.7281   -16.1073     4.5127     4.6996
 1049.5000   152.5280   -16.0946     4.5103     4.6340
 1050.0000   151.3274   -16.0819     4.5797     4.6317
 1050.5000   150.5546   -16.6068     4.6641     4.7564
 1051.0000   150.1062   -17.1317     4.8037     4.7815
 1051.5000   149.2055   -17.6566     4.9475     4.9245
 1052.0000   146.5211   -18.1815     5.2914     5.1505
 1052.5000   142.9617   -18.7064     5.4339     5.3276
 1053.0000   141.0659   -19.2313     5.5803     5.4314
 1053.5000   142.9226   -19.7562     5.7306     5.6532
 1054.0000   144.0829   -20.2812     5.7276     5.7276
 1054.5000   145.2433   -20.8061     5.5608     5.7244
 1055.0000   145.2212   -21.3310     5.3111     5.7162
 1055.5000   144.7777   -21.8559     4.9461     5.4527
 1056.0000   141.0896   -22.3808     4.6402     5.0029
 1056.5000   144.1561   -22.9057     4.2896     4.6291
 1057.0000   148.6754   -23.4306     4.0141     4.2968
 1057.5000   149.8378   -23.9555     3.9580     4.1220
 1058.0000   150.9971   -24.4804     4.0099     4.0097
 1058.5000   150.9764   -25.0053     4.1179     4.0623
 1059.0000   149.6385   -25.5302     4.2288     4.1157
 1059.5000   145.6846   -26.0551     4.3693     4.2279
 1060.0000   141.4749   -26.5800     4.5001     4.3560
 1060.5000   143.1555   -27.1049     4.7050     4.5324
 1061.0000   145.9468   -27.6299     4.8678     4.7472
 1061.5000   148.4893   -28.1548     5.0974     4.9251
 1062.0000   149.0620   -28.6797     5.2346     5.0649
 1062.5000   149.0401   -29.2046     5.3758     5.3030
 1063.0000   147.2506   -29.7295     5.5957     5.5201
 1063.5000   142.9381   -29.5322     5.8319     5.8244
 1064.0000   140.1317   -28.9474     5.9976     6.1455
 1064.5000   142.0609   -28.3626     6.1680     6.3189
 1065.0000   143.8741   -27.6850     6.3081     6.4810
 1065.5000   144.7876   -27.1280     6.4357     6.5929
 1066.0000   147.1233     2.6687     6.4736     6.6521
 1066.5000   146.5137     3.2257     6.5584     6.6478
 1067.0000   143.5443     1.8529     6.5545     6.6435
 1067.5000   142.3447   -24.9002     6.5512     6.6401
 1068.0000   147.1232   -24.2690     6.5477     6.6367
 1068.5000   147.6153   -23.6842     6.5442     6.6333
 1069.0000   140.2678   -23.0994     6.5406     6.6298
 1069.5000   135.0797   -22.5146     6.6269     6.6262
 1070.0000   133.0974   -21.9298     6.6226     6.6467
 1070.5000   135.1378   -21.3450     6.8001     6.8014
 1071.0000   136.2981   -20.7602     6.7966     6.8416
 1071.5000   137.4602   -20.1754     6.9797     6.9800
 1072.0000   138.6195   -19.5906     6.9761     6.9756
 1072.5000   136.2389   -19.0058     6.7861     6.8783
 1073.0000   136.3956   -18.4210     6.7824     6.8747
 1073.5000   139.2999   -17.8363     6.8026     6.9649
 1074.0000   140.9003   -17.8361     6.9617     7.1525
 1074.5000   140.0059   -19.8829     7.2416     7.3904
 1075.0000   139.6714   -21.9297     7.5414     7.6798
 1075.5000   138.4719   -23.9765     7.8501     8.0056
 1076.0000   134.9125   -26.0233     7.7406     8.1719
 1076.5000   130.1731   -28.0701     6.9421     7.7361
 1077.0000   123.0640   -30.1168     5.8923     6.9381
 1077.5000   121.8732   -32.1636     5.0975     5.8942
 1078.0000   126.2180   -34.2104     4.3916     4.3143
 1078.5000   134.0643   -36.2572     4.1403     3.5116
 1079.0000   149.7762   -38.3040     4.0274     3.4234
 1079.5000   160.5370   -40.1234     3.9652     3.7057
 1080.0000   161.1015   -39.4737     4.0227     4.0898
 1080.5000   144.1659   -38.8889     4.4808     4.4843
 1081.0000   132.3469   -38.3041     4.7923     5.2686
 1081.5000   125.2477   -37.7193     5.0565     5.7896
 1082.0000   124.0482   -37.1345     5.6036     6.9007
 1082.5000   127.8123   -36.5497     6.4516     8.1144
 1083.0000   128.7288   -35.9649     7.2727     8.5711
 1083.5000   127.0235   -35.3801     8.1376     8.7924
 1084.0000   123.6500   -34.7954     8.5524     8.7873
 1084.5000   123.9404   -34.2106     8.5470     8.6980
 1085.0000   129.8206   -33.6258     8.5426     8.4366
 1085.5000   132.7508   -33.0410     8.4233     8.1830
 1086.0000   129.7814   -32.4562     8.3058     8.5332
 1086.5000   129.7611   -31.8714     8.0795     8.5288
 1087.0000   132.3165   -31.2122     8.0751     8.5244
 1087.5000   136.5538   -30.6003     8.0707     8.5200
 1088.0000   137.9626   -29.8992     8.1104     8.5154
 1088.5000   136.4583   -29.1980     8.2834     8.5108
 1089.0000   133.1939   -28.4969     8.5062     8.5433
 1089.5000   129.0445   -27.7958     8.7350     8.7350
 1090.0000   125.4851   -27.0947     9.0920     9.1014
 1090.5000   120.1558   -26.3936     9.4642     9.4634
 1091.0000   116.4780   -25.6924     9.7323     9.9852
 1091.5000   106.4503   -24.9913    10.2766    10.6793
 1092.0000    89.4557   -24.2902    10.6074    11.4217
 1092.5000    81.1357   -23.5891    11.2833    12.0733
 1093.0000    79.9351   -22.8880    12.2045    12.7757
 1093.5000    78.7305   -22.1869    12.7083    13.4168
 1094.0000    76.3510   -21.4857    12.8747    13.7781
 1094.5000    75.1515   -20.7846    12.8671    13.7693
 1095.0000    73.9520   -20.0835    12.8604    13.5753
 1095.5000    70.3328   -19.3824    12.6808    13.3858
 1096.0000    62.2302   -18.6813    12.4810    13.1989
 1096.5000    58.5516   -17.9801    12.3286    13.0147
