~VERSION INFORMATION
 VERS.                2.0:   CWLS LOG ASCII STANDARD - VERSION 2.0
 WRAP.                 NO:   ONE LINE PER DEPTH STEP
~WELL INFORMATION
#MNEM.UNIT      DATA TYPE    INFORMATION
#----------   ------------   ------------------------------
 STRT.F           31.5000:   START DEPTH
 STOP.F         3370.0000:   STOP DEPTH
 STEP.F            0.5000:   STEP LENGTH
 NULL.          -999.2500:   NO VALUE
 COMP. LAWRENCE ALLISON & ASSOC - WEST:   COMPANY
 WELL. LAWRENCE "AX" #46-34:   WELL
 FLD .             NPR #3:   FIELD
 LOC .      S34 T39N R78W:   LOCATION
 CNTY.            NATRONA:   COUNTY
 STAT.            WYOMING:   STATE
 CTRY. UNITED STATES OF AMERICA:   COUNTRY
 SRVC.       SCHLUMBERGER:   SERVICE COMPANY
 DATE.        30-APR-1986:   LOGDATE
 API .     49025111380000:   API NUMBER
~CURVE INFORMATION
#MNEM.UNIT       API CODE    CURVE DESCRIPTION
#----------   ------------   ------------------------------
 DEPT.F                  :   
 TENR.LBS    07 635 01 00:   TENSION FROM RESISTIVITY
 GRR .GAPI   07 310 01 00:   GAMMA RAY FROM RESISTIVITY
 CALR.IN     07 280 01 00:   CALIPER FROM RESISTIVITY
 SPR .MV     07 010 01 00:   SPONTANEOUS POTENTIAL
 TEND.LBS    45 635 01 00:   TENSION FROM DENSITY LOG
 DEN .G/C3   45 350 01 00:   BULK DENSITY
 CORR.G/C3   45 356 01 00:   DENSITY CORRECTION
 CNC .DEC    42 890 03 00:   NEUTRON PORISITY SANDSTONE
 RFOC.OHMM   07 220 04 00:   RESISTIVITY FOCUSED LOG
 RILD.OHMM   07 120 46 00:   RESISTIVITY INDUCTION LOG DEEP
 RILM.OHMM   07 120 44 00:   RESISTIVITY INDUCTION LOG MEDIUM
~PARAMETER INFORMATION
#MNEM.UNIT          VALUE    DESCRIPTION
#----------   ------------   ------------------------------
 EKB .F         5094.0000:   Kelly bushing
 EGL .F         5082.0000:   Ground level
 EDF .F            0.0000:   Drilling floor
 TD  .F         3370.0000:   Total depth
 DATE.        30-APR-1986:   Date logged
 CLNT.            A2DTECH:   Client Code
 SL  . 2462' FWL & 1545' FSL:   Surface Location
 PD  .                 GL:   Permanent Datum
 EPD .F              5082:   Elevation Permanent Datum
 LMF .                 KB:   Log Measured From
 DMF .                 KB:   Drilling Measured From
 DAPD.F                12:   Feet Above Permanent Datum
 DD  .F              3370:   Depth driller
 DL  .F              3369:   Depth logger
 BLI .F              3367:   Bottom log interval
 CS1 .IN            8.625:   Casing size
 CBD1.      8.625" @ 642':   Casing driller 1
 CBL1.F               642:   Casing logger 1
 BS1 .IN            7.875:   Bit size
 BSD1.F              3370:   Depth drilled with bit1
 DFT .        POLYMER/KCL:   Type fluid in hole
 DFD .                8.9:   Density
 DFV .                 36:   Viscosity
 DFPH.                8.5:   pH
 DFL .               10.2:   Fluid loss
 MSS .           FLOWLINE:   Source of sample
 RMS .OHMM           .319:   Rm
 MST .F                79:   Rm Meas. temp.
 RMF .OHMM            .24:   Rmf
 MFST.F                79:   Rmf Meas. temp.
 RMC .OHMM            .40:   Rmc
 MCST.F                79:   Rmc Meas. temp.
 MFSS.               CALC:   Source Rmf.
 MCSS.               CALC:   Source Rmc.
 RMB .OHMM            .21:   Rm. at BHT
 BHT .F               117:   BHT.
 TCS .HRS               4:   Time Circ. stopped
 MRT .F               117:   Maximum recorded temp.
 LUN .            HL-6264:   Logging unit number
 LUL .           GILLETTE:   Logging unit location
 ENGI.     P. M. FAHLSING:   Recorded By
 WITN.             STRONG:   Witnessed by
 ORIG.        2" 5" PRINT:   Origin of data
 UWI .     49025111380000:   Unique Well ID
 DICO. A2D TECHNOLOGIES, INC.:   Digitizing Company
 TLI .                  0:   Top log interval
~OTHER INFORMATION
~A   DEPT     TENR        GRR       CALR        SPR       TEND        DEN       CORR        CNC       RFOC       RILD       RILM   
# ...
 1709.0000   -59.3520   103.4490     9.1500   -83.3910  -999.2500  -999.2500  -999.2500  -999.2500     6.9600     6.1160     5.9680
 1709.5000   -59.5980    99.1580     9.1500   -82.9870  -999.2500  -999.2500  -999.2500  -999.2500     7.0180     6.1490     6.0000
 1710.0000   -59.8450    94.8190     9.1500   -82.5410  -999.2500  -999.2500  -999.2500  -999.2500     7.0760     6.1820     6.0320
 1710.5000   -60.0910    95.3360     9.1500   -82.1180  -999.2500  -999.2500  -999.2500  -999.2500     7.1320     6.2150     6.0640
 1711.0000   -60.3370    98.0900     9.1500   -82.3260  -999.2500  -999.2500  -999.2500  -999.2500     7.1320     6.2490     6.0950
 1711.5000   -60.5830    99.9970     9.1520   -82.6600  -999.2500  -999.2500  -999.2500  -999.2500     7.1320     6.2550     6.0760
 1712.0000   -60.8290   102.6810     9.1550   -82.9430  -999.2500  -999.2500  -999.2500  -999.2500     7.1320     6.2320     6.0570
 1712.5000   -61.0750   104.0560     9.1590   -83.2570  -999.2500  -999.2500  -999.2500  -999.2500     7.1320     6.2080     6.0390
 1713.0000   -61.3220   104.1040     9.1620   -83.5630  -999.2500  -999.2500  -999.2500  -999.2500     7.1320     6.1850     6.0200
 1713.5000   -61.5680   103.6970     9.1660   -83.8920  -999.2500  -999.2500  -999.2500  -999.2500     7.1320     6.1610     6.0020
 1714.0000   -61.8140    99.9200     9.1700   -83.9540  -999.2500  -999.2500  -999.2500  -999.2500     7.1320     6.1380     5.9830
 1714.5000   -62.0600    96.6100     9.1740   -83.9940  -999.2500  -999.2500  -999.2500  -999.2500     7.1320     6.1140     5.9650
 1715.0000   -62.3060    97.3440     9.1770   -84.0820  -999.2500  -999.2500  -999.2500  -999.2500     7.1320     6.0900     5.9460
 1715.5000   -62.5520    98.8860     9.1810   -84.1230  -999.2500  -999.2500  -999.2500  -999.2500     7.1140     6.0670     5.9280
 1716.0000   -62.7990   103.7190     9.1850   -84.2050  -999.2500  -999.2500  -999.2500  -999.2500     7.0900     6.0430     5.9100
 1716.5000   -63.0450   108.4650     9.1880   -84.2540  -999.2500  -999.2500  -999.2500  -999.2500     7.0670     6.0200     5.8910
 1717.0000   -63.2910   107.6160     9.1920   -84.2110  -999.2500  -999.2500  -999.2500  -999.2500     7.0670     5.9960     5.8740
 1717.5000   -63.5370   105.8980     9.1950   -84.0940  -999.2500  -999.2500  -999.2500  -999.2500     7.0480     5.9830     5.8740
 1718.0000   -63.7830   104.6630     9.1990   -83.9070  -999.2500  -999.2500  -999.2500  -999.2500     7.0330     6.0010     5.8740
 1718.5000   -64.0290   103.0340     9.2030   -83.6870  -999.2500  -999.2500  -999.2500  -999.2500     7.0180     6.0150     5.8740
 1719.0000   -64.2760   101.4290     9.2070   -83.5060  -999.2500  -999.2500  -999.2500  -999.2500     7.0020     6.0290     5.8740
 1719.5000   -63.4280   102.2130     9.2100   -83.2760  -999.2500  -999.2500  -999.2500  -999.2500     6.9840     6.0430     5.8850
 1720.0000   -60.2430   105.8610     9.2060   -83.1040  -999.2500  -999.2500  -999.2500  -999.2500     6.9650     6.0560     5.8980
 1720.5000   -57.0590   108.1550     9.2010   -82.8690  -999.2500  -999.2500  -999.2500  -999.2500     6.9460     6.0690     5.9100
 1721.0000   -54.4130   108.5840     9.1970   -82.7160  -999.2500  -999.2500  -999.2500  -999.2500     6.9370     6.0820     5.9230
 1721.5000   -54.4130   109.3620     9.1920   -83.1370  -999.2500  -999.2500  -999.2500  -999.2500     6.9370     6.0950     5.9690
 1722.0000   -54.4130   109.7220     9.1880   -83.5760  -999.2500  -999.2500  -999.2500  -999.2500     6.9370     6.1670     6.0410
 1722.5000   -54.4130   107.7670     9.1840   -83.9740  -999.2500  -999.2500  -999.2500  -999.2500     7.1930     6.2410     6.1120
 1723.0000   -54.4130   105.8200     9.1800   -84.5030  -999.2500  -999.2500  -999.2500  -999.2500     7.4480     6.3140     6.1830
 1723.5000   -54.4130   105.3060     9.1760   -84.6910  -999.2500  -999.2500  -999.2500  -999.2500     7.4780     6.3830     6.3020
 1724.0000   -54.4130   105.9500     9.1720   -84.6650  -999.2500  -999.2500  -999.2500  -999.2500     7.3830     6.5830     6.4470
 1724.5000   -54.4130   106.5090     9.1700   -84.6420  -999.2500  -999.2500  -999.2500  -999.2500     7.3330     6.7740     6.5930
 1725.0000   -54.4130   105.3950     9.1750   -84.6180  -999.2500  -999.2500  -999.2500  -999.2500     7.5760     6.9640     6.7380
 1725.5000   -54.4130   104.4360     9.1800   -84.5890  -999.2500  -999.2500  -999.2500  -999.2500     7.7670     7.1540     6.8830
 1726.0000   -54.4130   105.6320     9.1850   -84.5730  -999.2500  -999.2500  -999.2500  -999.2500     7.9700     7.3450     7.0670
 1726.5000   -54.4130   106.7820     9.1900   -84.5350  -999.2500  -999.2500  -999.2500  -999.2500     7.8140     7.4480     7.0670
 1727.0000   -54.4130   104.6070     9.1950   -84.5260  -999.2500  -999.2500  -999.2500  -999.2500     7.6090     7.3830     7.0670
 1727.5000   -57.1110   101.1710     9.2000   -84.2940  -999.2500  -999.2500  -999.2500  -999.2500     7.8620     7.3180     7.0670
 1728.0000   -60.6250   102.0100     9.2050   -83.5700  -999.2500  -999.2500  -999.2500  -999.2500     8.3040     7.1990     6.6980
 1728.5000   -64.1390   105.6290     9.2100   -82.7340  -999.2500  -999.2500  -999.2500  -999.2500     8.7420     7.1990     5.9280
 1729.0000   -67.6530   106.4760     9.2150   -81.8780  -999.2500  -999.2500  -999.2500  -999.2500     8.5000     7.1990     5.8190
 1729.5000   -71.1670   106.9400     9.2190   -81.0710  -999.2500  -999.2500  -999.2500  -999.2500     8.2620     7.3670     6.9020
 1730.0000   -74.4730   106.6050     9.2260   -80.1860  -999.2500  -999.2500  -999.2500  -999.2500     8.0230     7.5310     8.2060
 1730.5000   -70.7070   104.4530     9.2290   -79.5310  -999.2500  -999.2500  -999.2500  -999.2500     7.8960     7.6950     9.3260
 1731.0000   -65.0450   101.9150     9.2310   -79.4680  -999.2500  -999.2500  -999.2500  -999.2500     8.0720     7.8590     9.5000
 1731.5000   -59.3840   100.3940     9.1940   -79.5310  -999.2500  -999.2500  -999.2500  -999.2500     8.4360     8.0220     9.1220
 1732.0000   -54.4130   100.8620     9.1070   -79.9490  -999.2500  -999.2500  -999.2500  -999.2500     8.7990     8.1860     8.5790
 1732.5000   -58.8330   102.0000     9.0690   -80.4850  -999.2500  -999.2500  -999.2500  -999.2500     9.1620     8.3500     8.0360
 1733.0000   -63.6100   106.2130     9.0710   -80.9280  -999.2500  -999.2500  -999.2500  -999.2500     9.5260     8.4240     7.4700
 1733.5000   -68.3860   108.3450     9.0690   -81.4450  -999.2500  -999.2500  -999.2500  -999.2500     9.8890     8.4550     7.3380
 1734.0000   -73.1630   105.9770     9.0710   -81.6890  -999.2500  -999.2500  -999.2500  -999.2500     9.8390     8.4810     7.1990
 1734.5000   -77.9400   102.6880     9.0690   -81.7520  -999.2500  -999.2500  -999.2500  -999.2500     9.4870     8.5020     7.3300
 1735.0000   -82.7170    97.9770     9.0710   -81.7670  -999.2500  -999.2500  -999.2500  -999.2500     9.1350     8.1770     7.8250
 1735.5000   -74.4730    97.1490     9.0690   -81.8190  -999.2500  -999.2500  -999.2500  -999.2500     8.7840     7.8530     8.3210
 1736.0000   -72.9650   100.0570     9.0710   -81.8340  -999.2500  -999.2500  -999.2500  -999.2500     8.4320     7.6800     8.8170
 1736.5000   -71.1670   100.9940     9.0890   -81.8870  -999.2500  -999.2500  -999.2500  -999.2500     8.0800     7.6400     9.3130
 1737.0000   -69.3690   100.6860     9.0910   -82.2920  -999.2500  -999.2500  -999.2500  -999.2500     8.0830     7.5940     9.7680
 1737.5000   -67.5700   100.6810     9.0890   -82.8170  -999.2500  -999.2500  -999.2500  -999.2500     8.4750     7.5480     9.0940
 1738.0000   -65.7720   102.2350     9.0910   -83.3550  -999.2500  -999.2500  -999.2500  -999.2500     8.9050     7.5010     8.3330
 1738.5000   -63.9740   103.8730     9.0890   -83.7000  -999.2500  -999.2500  -999.2500  -999.2500     8.8400     7.4590     7.5730
 1739.0000   -62.1750   102.7390     9.0910   -83.7020  -999.2500  -999.2500  -999.2500  -999.2500     8.5580     7.4260     6.6240
