~VERSION INFORMATION
 VERS.                2.0:   CWLS LOG ASCII STANDARD - VERSION 2.0
 WRAP.                 NO:   ONE LINE PER DEPTH STEP
~WELL INFORMATION
#MNEM.UNIT      DATA TYPE    INFORMATION
#----------   ------------   ------------------------------
 STRT.F           80.0000:   START DEPTH
 STOP.F         2730.0000:   STOP DEPTH
 STEP.F            0.5000:   STEP LENGTH
 NULL.          -999.2500:   NO VALUE
 COMP.          U.S. NAVY:   COMPANY
 WELL. US NPR 3 "AX" #57-20:   WELL
 FLD .             TEAPOT:   FIELD
 LOC .      S20 T39N R78W:   LOCATION
 CNTY.            NATRONA:   COUNTY
 STAT.            WYOMING:   STATE
 CTRY. UNITED STATES OF AMERICA:   COUNTRY
 SRVC.       SCHLUMBERGER:   SERVICE COMPANY
 DATE.        31-JUL-1964:   LOGDATE
 API .     49025066320000:   API NUMBER
~CURVE INFORMATION
#MNEM.UNIT       API CODE    CURVE DESCRIPTION
#----------   ------------   ------------------------------
 DEPT.F                  :   
 SPR .MV     01 010 01 00:   SPONTANEOUS POTENTIAL FROM RES.
 LN  .OHMM   01 060 39 00:   LONG NORMAL 39"
 ASN .OHMM   01 041 16 00:   AMPLIFIED SHORT NORMAL 16"
 LAT .OHMM   01 070 00 00:   LATERAL
 GRN .GAPI   35 310 30 00:   GAMMA RAY
 NEUT.NAPI   35 330 01 00:   NEUTRON
~PARAMETER INFORMATION
#MNEM.UNIT          VALUE    DESCRIPTION
#----------   ------------   ------------------------------
 EKB .F         5019.0000:   Kelly bushing
 EGL .F         5011.0000:   Ground level
 TD  .F         2696.0000:   Total depth
 DATE.        31-JUL-1964:   Date logged
 CLNT.            A2DTECH:   Client Code
 PD  .                 GL:   Permanent Datum
 EPD .F              5011:   Elevation Permanent Datum
 LMF .                 KB:   Log Measured From
 DMF .                 KB:   Drilling Measured From
 DAPD.F                 8:   Feet Above Permanent Datum
 DD  .F              2690:   Depth driller
 DL  .F              2696:   Depth logger
 BLI .F              2695:   Bottom log interval
 TLI .F                82:   Top log interval
 CS1 .IN            12.25:   Casing size
 CBD1.       12.25" @ 15':   Casing driller 1
 BS1 .IN               11:   Bit size
 BSD1.F              2690:   Depth drilled with bit1
 DFT .                GEL:   Type fluid in hole
 MSS .           FLOWLINE:   Source of sample
 RMS .OHMM           2.48:   Rm
 MST .F                83:   Rm Meas. temp.
 RMF .OHMM           1.87:   Rmf
 MFST.F                83:   Rmf Meas. temp.
 MFSS.                 FP:   Source Rmf.
 MCSS.                 FP:   Source Rmc.
 TCS .HRS               4:   Time Circ. stopped
 LUN .               3527:   Logging unit number
 LUL .               CSPR:   Logging unit location
 ENGI.            WINKLER:   Recorded By
 WITN.          GORGENSEN:   Witnessed by
 ORIG.         2.5" PRINT:   Origin of data
 UWI .     49025066320000:   Unique Well ID
 DICO.   A2D TECHNOLOGIES:   Digitizing Company
~OTHER INFORMATION
~A   DEPT      SPR         LN        ASN        LAT        GRN       NEUT   
# ...
 1640.0000   -33.9160     7.2000     6.9620     6.0310  -999.2500  -999.2500
 1640.5000   -33.8850     7.2340     6.8870     5.9880  -999.2500  -999.2500
 1641.0000   -33.8510     7.2680     6.6340     5.9430  -999.2500  -999.2500
 1641.5000   -33.8190     7.3020     6.7420     5.9040  -999.2500  -999.2500
 1642.0000   -33.8010     7.3360     7.2550     5.8510  -999.2500  -999.2500
 1642.5000   -33.9170     7.3690     7.8340     5.9040  -999.2500  -999.2500
 1643.0000   -34.0310     7.4030     8.3600     6.0260  -999.2500  -999.2500
 1643.5000   -34.1500     7.4370     8.7990     6.1310  -999.2500  -999.2500
 1644.0000   -34.2640     7.4710     9.1840     6.2400  -999.2500  -999.2500
 1644.5000   -34.3810     7.5050     9.4050     6.3490  -999.2500  -999.2500
 1645.0000   -34.4980     7.5390     9.5300     6.4580  -999.2500  -999.2500
 1645.5000   -34.6130     7.5720     9.6510     6.5660  -999.2500  -999.2500
 1646.0000   -34.7320     7.6070     9.7960     6.6780  -999.2500  -999.2500
 1646.5000   -34.8470     7.6390     9.7740     6.7780  -999.2500  -999.2500
 1647.0000   -34.9450     7.6760     9.6720     6.9360  -999.2500  -999.2500
 1647.5000   -34.8450     7.7030     9.3360     7.1410  -999.2500  -999.2500
 1648.0000   -34.7380     7.7850     8.7730     7.3340  -999.2500  -999.2500
 1648.5000   -34.6220     7.9140     8.2540     7.5310  -999.2500  -999.2500
 1649.0000   -34.5170     8.0340     7.7320     7.7270  -999.2500  -999.2500
 1649.5000   -34.4000     8.1580     7.2050     7.9230  -999.2500  -999.2500
 1650.0000   -34.2940     8.2800     7.3660     8.1190  -999.2500  -999.2500
 1650.5000   -34.2060     8.4030     7.8880     8.3160  -999.2500  -999.2500
 1651.0000   -34.4400     8.5250     8.3570     8.5090  -999.2500  -999.2500
 1651.5000   -34.6950     8.6490     8.8290     8.7420  -999.2500  -999.2500
 1652.0000   -34.9590     8.7640     9.4330     9.0190  -999.2500  -999.2500
 1652.5000   -35.2130     8.8500    10.1860     9.2940  -999.2500  -999.2500
 1653.0000   -35.4760     9.0460    11.0330     9.5610  -999.2500  -999.2500
 1653.5000   -35.7300     9.3680    12.0050     9.8570  -999.2500  -999.2500
 1654.0000   -35.9940     9.6780    12.9990    10.0120  -999.2500  -999.2500
 1654.5000   -36.2480     9.9890    14.0050     9.9930  -999.2500  -999.2500
 1655.0000   -36.5030    10.3210    14.6710    10.0010  -999.2500  -999.2500
 1655.5000   -36.5220    10.5580    14.9070     9.9980  -999.2500  -999.2500
 1656.0000   -36.5260    10.6830    15.2500     9.9990  -999.2500  -999.2500
 1656.5000   -36.5200    10.7810    15.4310    10.0000  -999.2500  -999.2500
 1657.0000   -36.5260    11.2240    15.5450     9.9990  -999.2500  -999.2500
 1657.5000   -36.5360    11.8200    15.6270     9.9990  -999.2500  -999.2500
 1658.0000   -36.7600    12.0040    15.8970     9.9990  -999.2500  -999.2500
 1658.5000   -37.0230    12.2840    16.1670     9.9990  -999.2500  -999.2500
 1659.0000   -37.2770    12.5250    16.4240    10.0000  -999.2500  -999.2500
 1659.5000   -37.5440    12.7810    16.5510     9.9930  -999.2500  -999.2500
 1660.0000   -37.7940    13.0260    16.3720    10.0150  -999.2500  -999.2500
 1660.5000   -38.0420    13.3030    15.8570     9.8010  -999.2500  -999.2500
 1661.0000   -37.7430    13.5060    15.3500     9.0910  -999.2500  -999.2500
 1661.5000   -37.3460    13.5870    14.8330     8.6110  -999.2500  -999.2500
 1662.0000   -36.9620    13.6360    14.3200     8.5630  -999.2500  -999.2500
 1662.5000   -36.5590    13.5350    13.8090     8.5130  -999.2500  -999.2500
 1663.0000   -36.4610    13.4410    13.2940     8.4740  -999.2500  -999.2500
 1663.5000   -36.3890    13.3440    12.7750     8.4290  -999.2500  -999.2500
 1664.0000   -36.3230    13.2120    12.3860     8.3850  -999.2500  -999.2500
 1664.5000   -36.2490    12.9780    12.3820     8.3450  -999.2500  -999.2500
 1665.0000   -36.1810    12.7450    12.4300     8.2960  -999.2500  -999.2500
 1665.5000   -36.1090    12.5100    12.9780     8.2530  -999.2500  -999.2500
 1666.0000   -36.0380    12.2720    13.4460     8.2530  -999.2500  -999.2500
 1666.5000   -35.9680    12.0790    13.9550     8.5960  -999.2500  -999.2500
 1667.0000   -35.8960    11.9940    14.3390     8.8970  -999.2500  -999.2500
 1667.5000   -35.8270    11.9200    14.3300     9.2180  -999.2500  -999.2500
 1668.0000   -35.7490    11.8460    14.1210     9.5310  -999.2500  -999.2500
 1668.5000   -35.7290    11.7730    13.6710     9.7910  -999.2500  -999.2500
 1669.0000   -35.7110    11.6980    13.2610     9.7840  -999.2500  -999.2500
 1669.5000   -35.6950    11.6260    12.8330     9.6390  -999.2500  -999.2500
 1670.0000   -35.6770    11.5510    12.4220     9.4880  -999.2500  -999.2500
 1670.5000   -35.6610    11.4740    11.9960     9.3430  -999.2500  -999.2500
 1671.0000   -35.6440    11.3050    11.5780     9.2390  -999.2500  -999.2500
 1671.5000   -35.6270    11.1450    11.2110     9.5040  -999.2500  -999.2500
 1672.0000   -35.6100    10.9790    11.1830     9.7660  -999.2500  -999.2500
 1672.5000   -35.5930    10.8170    11.1060    10.0430  -999.2500  -999.2500
 1673.0000   -35.5760    10.6530    11.0230    10.3070  -999.2500  -999.2500
 1673.5000   -35.5590    10.4940    10.9560    10.5790  -999.2500  -999.2500
 1674.0000   -35.5420    10.3440    10.8640    10.8470  -999.2500  -999.2500
 1674.5000   -35.5260    10.1970    10.7450    11.1170  -999.2500  -999.2500
 1675.0000   -35.5090    10.0500    10.0430    11.3860  -999.2500  -999.2500
 1675.5000   -35.4920     9.9020     9.9140    11.6550  -999.2500  -999.2500
 1676.0000   -35.4750     9.7580     9.8020    11.9250  -999.2500  -999.2500
 1676.5000   -35.4580     9.6080     9.7270    12.1930  -999.2500  -999.2500
 1677.0000   -35.4410     9.4640     9.6190    12.4650  -999.2500  -999.2500
 1677.5000   -35.4240     9.3220     9.5220    12.7280  -999.2500  -999.2500
 1678.0000   -35.4070     9.3600     9.3010    13.0060  -999.2500  -999.2500
 1678.5000   -35.3900     9.4130     9.1750    13.2660  -999.2500  -999.2500
 1679.0000   -35.3740     9.4700     9.0770    13.5260  -999.2500  -999.2500
 1679.5000   -35.3570     9.5220     8.9810    13.3060  -999.2500  -999.2500
 1680.0000   -35.3510     9.5770     8.8820    13.0280  -999.2500  -999.2500
 1680.5000   -35.3520     9.6310     8.7830    12.7410  -999.2500  -999.2500
 1681.0000   -35.3520     9.6860     8.7790    12.4710  -999.2500  -999.2500
 1681.5000   -35.3520     9.7400     8.8900    12.1820  -999.2500  -999.2500
 1682.0000   -35.3520     9.7940     9.0270    11.9120  -999.2500  -999.2500
 1682.5000   -35.3520     9.8490     9.1620    11.6130  -999.2500  -999.2500
 1683.0000   -35.3520     9.9030     9.2960    11.5850  -999.2500  -999.2500
 1683.5000   -35.3510     9.9580     9.4320    11.5830  -999.2500  -999.2500
 1684.0000   -35.3550    10.0120     9.5650    11.5870  -999.2500  -999.2500
 1684.5000   -35.3460    10.0660     9.7030    11.5840  -999.2500  -999.2500
 1685.0000   -35.4160    10.1200     9.8330    11.5850  -999.2500  -999.2500
 1685.5000   -35.5380    10.1760     9.9860    11.5840  -999.2500  -999.2500
 1686.0000   -35.6460    10.2280    10.0320    11.5840  -999.2500  -999.2500
 1686.5000   -35.7580    10.2820    10.1050    11.5840  -999.2500  -999.2500
 1687.0000   -35.8690    10.2440    10.2020    11.5840  -999.2500  -999.2500
 1687.5000   -35.9790    10.1700    10.2670    11.5840  -999.2500  -999.2500
 1688.0000   -36.0910    10.0990    10.4020    11.5580  -999.2500  -999.2500
 1688.5000   -36.2010    10.0280    10.3650    11.5220  -999.2500  -999.2500
 1689.0000   -36.3120     9.9570    11.2550    11.4860  -999.2500  -999.2500
 1689.5000   -36.4230     9.8860    10.8280    11.4510  -999.2500  -999.2500
 1690.0000   -36.5320     9.8150    10.0890    11.4150  -999.2500  -999.2500
 1690.5000   -36.6480     9.7440     9.8330    11.3790  -999.2500  -999.2500
 1691.0000   -36.7460     9.6720     9.7800    11.3440  -999.2500  -999.2500
 1691.5000   -36.8850     9.6030     9.8960    11.3080  -999.2500  -999.2500
