~VERSION INFORMATION
 VERS.                2.0:   CWLS LOG ASCII STANDARD - VERSION 2.0
 WRAP.                 NO:   ONE LINE PER DEPTH STEP
~WELL INFORMATION
#MNEM.UNIT      DATA TYPE    INFORMATION
#----------   ------------   ------------------------------
 STRT.F          186.0000:   START DEPTH
 STOP.F         3060.0000:   STOP DEPTH
 STEP.F            0.5000:   STEP LENGTH
 NULL.          -999.2500:   NO VALUE
 COMP.    FENIX & SCISSON:   COMPANY
 WELL. FENIX NPR 3 "AX" #63-29:   WELL
 FLD .              N P R:   FIELD
 LOC .      S29 T39N R78W:   LOCATION
 CNTY.            NATRONA:   COUNTY
 STAT.            WYOMING:   STATE
 CTRY. UNITED STATES OF AMERICA:   COUNTRY
 SRVC.           BIRDWELL:   SERVICE COMPANY
 DATE.        28-FEB-1978:   LOGDATE
 API .     49025105960000:   API NUMBER
~CURVE INFORMATION
#MNEM.UNIT       API CODE    CURVE DESCRIPTION
#----------   ------------   ------------------------------
 DEPT.F                  :   
 CALD.IN     45 280 60 00:   CALIPER FROM DENSITY LOG
 GRD .GAPI   45 310 01 00:   GAMMA RAY FROM DENSITY LOG
 DEN .LBS    07 635 01 00:   
 CORR.G/C3   45 356 01 00:   DENSITY CORRECTION
 SPR .MV     05 010 01 00:   SPONTANEOUS POTENTIAL
 SN  .OHMM   05 040 00 00:   SHORT NORMAL
 ILD .OHMM   05 120 46 00:   DEEP INDUCTION RESISTIVITY
~PARAMETER INFORMATION
#MNEM.UNIT          VALUE    DESCRIPTION
#----------   ------------   ------------------------------
 EKB .F         4993.0000:   Kelly bushing
 EGL .F         4983.0000:   Ground level
 EDF .F            0.0000:   Drilling floor
 TD  .F         3060.0000:   Total depth
 DATE.        28-FEB-1978:   Date logged
 CLNT.            A2DTECH:   Client Code
 SL  . 1300' FNL & 1050' FEL:   Surface Location
 PD  .                 GL:   Permanent Datum
 DD  .F              3060:   Depth driller
 DL  .F              3056:   Depth logger
 BLI .F              5050:   Bottom log interval
 CS1 .IN            8.625:   Casing size
 CBD1.      8.625" @ 214':   Casing driller 1
 CBL1.F               218:   Casing logger 1
 BS1 .IN            7.875:   Bit size
 DFT .     LIGNOSULFONATE:   Type fluid in hole
 DFD .                  9:   Density
 DFV .                 34:   Viscosity
 DFPH.               10.5:   pH
 DFL .                  9:   Fluid loss
 MSS .           FLOWLINE:   Source of sample
 RMS .OHMM            1.8:   Rm
 MST .F                58:   Rm Meas. temp.
 RMF .OHMM             .9:   Rmf
 MFST.F                65:   Rmf Meas. temp.
 RMC .OHMM            2.5:   Rmc
 MCST.F                70:   Rmc Meas. temp.
 MFSS.               MEAS:   Source Rmf.
 RMB .OHMM             88:   Rm. at BHT
 BHT .F               118:   BHT.
 TCS .HRS               8:   Time Circ. stopped
 MRT .F               118:   Maximum recorded temp.
 LUN .               2959:   Logging unit number
 LUL .               CASP:   Logging unit location
 ENGI.             MILLER:   Recorded By
 WITN.         HARRINGTON:   Witnessed by
 ORIG.           5" PRINT:   Origin of data
 UWI .     49025105960000:   Unique Well ID
 DICO. A2D TECHNOLOGIES, INC.:   Digitizing Company
 BSD1.F              3060:   Depth drilled with bit1
 EPD .F              4983:   Elevation Permanent Datum
 LMF .                 KB:   Log Measured From
 DMF .                 KB:   Drilling Measured From
 TLI .F               800:   Top log interval
~OTHER INFORMATION
~A   DEPT     CALD         GRD       DEN       CORR        SPR         SN        ILD   
# ...
 2643.0000    10.1790   100.7400     2.5210     0.0270   -29.2420     7.7680     6.0150
 2643.5000    10.1590   101.1110     2.5210     0.0290   -29.2970     7.7970     5.9800
 2644.0000    10.1380   101.3820     2.5210     0.0260   -29.3530     7.8260     5.9440
 2644.5000    10.1180   101.3420     2.5210     0.0250   -29.4090     7.8550     5.9080
 2645.0000    10.0970   101.4890     2.5210     0.0240   -29.4630     7.8890     5.8730
 2645.5000    10.0770   101.5880     2.5210     0.0230   -29.5150     7.7380     5.8370
 2646.0000    10.0560   102.0840     2.5200     0.0220   -29.5050     7.5500     5.8020
 2646.5000    10.0360   103.0830     2.5170     0.0210   -29.4950     7.3630     5.7660
 2647.0000    10.0150   102.8230     2.5140     0.0200   -29.4820     7.1760     5.7290
 2647.5000     9.9970   102.0020     2.5120     0.0200   -29.4700     6.9880     5.6740
 2648.0000     9.9860   101.3820     2.5090     0.0190   -29.4570     6.8080     5.6150
 2648.5000     9.9750   103.0020     2.5060     0.0180   -29.4450     6.6840     5.5570
 2649.0000     9.9630   105.7240     2.5040     0.0200   -29.4330     6.7110     5.4990
 2649.5000     9.9520   107.9830     2.5010     0.0220   -29.4210     6.7650     5.4410
 2650.0000     9.9410   109.4340     2.5010     0.0260   -29.4090     6.8080     5.3830
 2650.5000     9.9300   104.4810     2.5020     0.0260   -29.3960     6.6970     5.3250
 2651.0000     9.9180    99.8500     2.5060     0.0260   -29.3840     6.4370     5.2670
 2651.5000     9.9070    97.7980     2.5090     0.0260   -29.3720     6.2090     5.2080
 2652.0000     9.8960    95.7390     2.5130     0.0260   -29.3600     6.2090     5.1500
 2652.5000     9.8850    98.2630     2.5130     0.0260   -29.3480     6.2090     5.0920
 2653.0000     9.8730   100.8470     2.5130     0.0260   -29.3360     6.2090     5.0380
 2653.5000     9.8620   102.8100     2.5140     0.0260   -29.3240     6.2090     5.0520
 2654.0000     9.8510   103.1440     2.5160     0.0260   -29.3110     6.2090     5.0740
 2654.5000     9.8400   104.4160     2.5180     0.0260   -29.2990     6.2090     5.0950
 2655.0000     9.8280   106.2510     2.5190     0.0260   -29.2870     6.2720     5.1160
 2655.5000     9.8170   108.0380     2.5170     0.0300   -29.2750     6.3760     5.1380
 2656.0000     9.8050   109.0310     2.5180     0.0350   -29.2630     6.4790     5.1590
 2656.5000     9.8010   104.9070     2.5200     0.0380   -29.2510     6.5820     5.1810
 2657.0000     9.8030   100.5060     2.5230     0.0350   -29.2380     6.6840     5.2020
 2657.5000     9.8040    95.6050     2.5260     0.0320   -29.2260     6.6840     5.2270
 2658.0000     9.8060    94.5250     2.5290     0.0280   -29.2140     6.8080     5.2260
 2658.5000     9.8070    97.4150     2.5270     0.0260   -29.2020     6.7830     5.2200
 2659.0000     9.8080    99.9320     2.5250     0.0260   -29.1900     6.7600     5.2150
 2659.5000     9.8100   102.4740     2.5230     0.0260   -29.1780     6.7360     5.2100
 2660.0000     9.8110   104.3530     2.5210     0.0260   -29.1660     6.7130     5.2040
 2660.5000     9.8120   104.1570     2.5190     0.0260   -29.1530     6.6850     5.1990
 2661.0000     9.8140   103.8300     2.5170     0.0260   -29.1410     6.6890     5.1930
 2661.5000     9.8150   103.4500     2.5170     0.0250   -29.1290     6.6950     5.1880
 2662.0000     9.8170   103.2280     2.5170     0.0300   -29.1170     6.7010     5.1830
 2662.5000     9.8180   102.8840     2.5170     0.0350   -29.1170     6.7070     5.1770
 2663.0000     9.8190   104.5000     2.5170     0.0380   -29.1160     6.7140     5.1720
 2663.5000     9.8210   106.4190     2.5170     0.0370   -29.1160     6.7200     5.1660
 2664.0000     9.8220   107.9460     2.5170     0.0360   -29.1160     6.7270     5.1610
 2664.5000     9.8230   107.8700     2.5170     0.0340   -29.1160     6.7330     5.1560
 2665.0000     9.8250   107.9660     2.5170     0.0350   -29.1160     6.7390     5.1500
 2665.5000     9.8260   108.2030     2.5170     0.0400   -29.1160     6.7460     5.1450
 2666.0000     9.8280   111.6960     2.5160     0.0410   -29.1160     6.7520     5.1390
 2666.5000     9.8290   113.2650     2.5150     0.0390   -29.1160     6.7590     5.1340
 2667.0000     9.8300   110.9310     2.5150     0.0340   -29.1160     6.7650     5.1320
 2667.5000     9.8320   108.4970     2.5150     0.0300   -29.1160     6.7710     5.1430
 2668.0000     9.8330   106.6550     2.5150     0.0300   -29.1160     6.7780     5.1540
 2668.5000     9.8340   106.0690     2.5150     0.0300   -29.1160     6.7840     5.1650
 2669.0000     9.8360   105.3420     2.5080     0.0300   -29.1160     6.7910     5.1750
 2669.5000     9.8370   104.7960     2.5000     0.0300   -29.1160     6.7960     5.1860
 2670.0000     9.8380   104.4400     2.4910     0.0300   -29.1160     6.8020     5.1970
 2670.5000     9.8400   104.7730     2.4910     0.0300   -29.1160     6.8070     5.2080
 2671.0000     9.8360   105.2400     2.4900     0.0300   -29.1160     6.7470     5.2230
 2671.5000     9.8240   105.7020     2.4900     0.0300   -29.1160     6.6730     5.2110
 2672.0000     9.8130   105.9100     2.4900     0.0300   -29.1160     6.5990     5.1560
 2672.5000     9.8010   105.1980     2.4900     0.0300   -29.1160     6.5250     5.1010
 2673.0000     9.7890   106.0920     2.4890     0.0300   -29.1160     6.4500     5.0460
 2673.5000     9.7780   106.9510     2.4890     0.0300   -29.1160     6.3760     4.9910
 2674.0000     9.7660   107.9770     2.4890     0.0300   -29.1160     6.3020     4.9360
 2674.5000     9.7600   108.7730     2.4890     0.0300   -29.1160     6.2270     4.8820
 2675.0000     9.7610   110.9510     2.4880     0.0300   -29.1160     6.1530     4.8270
 2675.5000     9.7610   115.0060     2.4880     0.0230   -29.1160     6.0960     4.7720
 2676.0000     9.7610   113.6170     2.4880     0.0170   -29.1160     6.0550     4.7170
 2676.5000     9.7610   109.8240     2.4880     0.0110   -29.1160     6.0070     4.6620
 2677.0000     9.7610   108.1830     2.4870     0.0160   -29.1160     5.9590     4.6070
 2677.5000     9.7610   108.3640     2.4870     0.0220   -29.1160     5.9110     4.5950
 2678.0000     9.7610   108.7940     2.4870     0.0280   -29.1160     5.8750     4.5950
 2678.5000     9.7610   109.5940     2.4900     0.0340   -29.1160     5.9000     4.5950
 2679.0000     9.7610   110.2910     2.4940     0.0340   -29.1160     5.9510     4.5950
 2679.5000     9.7610   106.5760     2.4980     0.0340   -29.1160     6.0020     4.5950
 2680.0000     9.7610    99.6320     2.5020     0.0330   -29.1160     6.0530     4.5950
 2680.5000     9.7610    95.9410     2.5050     0.0280   -29.1160     6.1040     4.6290
 2681.0000     9.7610    98.7830     2.5060     0.0240   -29.1160     6.1550     4.6790
 2681.5000     9.7610   101.3590     2.5070     0.0200   -29.1160     6.2060     4.7300
 2682.0000     9.7610   101.7650     2.5080     0.0190   -29.1160     6.2570     4.7810
 2682.5000     9.7610   102.0850     2.5170     0.0230   -29.1160     6.3080     4.8320
 2683.0000     9.7610   102.3460     2.5210     0.0250   -29.1160     6.3590     4.8830
 2683.5000     9.7610   101.9240     2.5170     0.0290   -29.1160     6.4100     4.9440
 2684.0000     9.7610   101.0890     2.5150     0.0320   -29.1160     6.5620     4.9400
 2684.5000     9.7610   100.2960     2.5150     0.0360   -29.1160     6.5660     4.9320
 2685.0000     9.7610    99.2430     2.5130     0.0380   -29.1160     6.5590     4.9240
 2685.5000     9.7610   100.9860     2.5150     0.0350   -29.1160     6.5610     4.9160
 2686.0000     9.7610   104.2430     2.5190     0.0310   -29.1160     6.5620     4.9080
 2686.5000     9.7610   107.2760     2.5230     0.0300   -29.1160     6.5620     4.9010
 2687.0000     9.7610   108.2930     2.5220     0.0330   -29.1160     6.5610     4.8930
 2687.5000     9.7610   106.0580     2.5210     0.0370   -29.1160     6.5610     4.8850
 2688.0000     9.7610   103.2310     2.5190     0.0370   -29.1160     6.5620     4.8770
