~VERSION INFORMATION
 VERS.                2.0:   CWLS LOG ASCII STANDARD - VERSION 2.0
 WRAP.                 NO:   ONE LINE PER DEPTH STEP
~WELL INFORMATION
#MNEM.UNIT      DATA TYPE    INFORMATION
#----------   ------------   ------------------------------
 STRT.F          297.0000:   START DEPTH
 STOP.F         2946.0000:   STOP DEPTH
 STEP.F            0.5000:   STEP LENGTH
 NULL.          -999.2500:   NO VALUE
 COMP.    FENIX & SCISSON:   COMPANY
 WELL. FENIX & SCISSON SH "X" #17-10:   WELL
 FLD .             NPR #3:   FIELD
 LOC .      S10 T38N R78W:   LOCATION
 CNTY.            NATRONA:   COUNTY
 STAT.            WYOMING:   STATE
 CTRY. UNITED STATES OF AMERICA:   COUNTRY
 SRVC.       SCHLUMBERGER:   SERVICE COMPANY
 DATE.        05-APR-1977:   LOGDATE
 API .     49025103310000:   API NUMBER
~CURVE INFORMATION
#MNEM.UNIT       API CODE    CURVE DESCRIPTION
#----------   ------------   ------------------------------
 DEPT.F                  :   
 SPR .MV     07 010 01 00:   SPONTANEOUS POTENTIAL
 ILD .OHMM   07 120 46 00:   DEEP INDUCTION RESISTIVITY
 ILM .OHMM   07 120 44 00:   INDUCTION LOG MEDIUM RESISTIVITY
 LL8 .OHMM   07 220 08 00:   LATEROLOG-8 RES.
 CALD.IN     45 280 60 00:   CALIPER FROM DENSITY LOG
 GRD .GAPI   45 310 01 00:   GAMMA RAY FROM DENSITY LOG
 CORR.G/C3   45 356 01 00:   DENSITY CORRECTION
 RHOB.G/C3   45 350 01 00:   BULK DENSITY
~PARAMETER INFORMATION
#MNEM.UNIT          VALUE    DESCRIPTION
#----------   ------------   ------------------------------
 EKB .F         5270.0000:   Kelly bushing
 EGL .F         5260.0000:   Ground level
 TD  .F         2950.0000:   Total depth
 CLNT.            A2DTECH:   Client Code
 SL  . 205' FWL & 1115' FSL:   Surface Location
 DATE.        05-APR-1977:   Date Logged [DD-MMM-YYYY]
 DD  .F              2950:   Depth driller
 DL  .F              2948:   Depth logger
 BLI .F              2946:   Bottom log interval
 TLI .F               310:   Top log interval
 CS1 .              10.75:   Casing size
 CBD1.      10.75" @ 300':   Casing driller 1
 CBL1.IN              310:   Casing logger 1
 BS1 .IN            8.625:   Bit size
 BSD1.F              2950:   Depth drilled with bit1
 DFT .                KCL:   Type fluid in hole
 DFD .                9.0:   Density
 DFV .                 33:   Viscosity
 DFL .                  9:   Fluid loss
 MSS .            MUD PIT:   Source of sample
 RMS .OHMM          0.153:   Rm
 MST .F                60:   Rm Meas. temp.
 RMF .OHMM          0.130:   Rmf
 MFST.F                60:   Rmf Meas. temp.
 MFSS.               MEAS:   Source Rmf.
 RMC .OHMM          0.229:   Rmc
 MCST.F                60:   Rmc Meas. temp.
 MCSS.               CALC:   Source Rmc.
 RMB .OHMM           0.08:   Rm. at BHT
 BHT .F               115:   BHT.
 TCS .HRS               6:   Time Circ. stopped
 MRT .F               115:   Maximum recorded temp.
 LUN .               7689:   Logging unit number
 LUL .               CODY:   Logging unit location
 ENGI.             RASMUS:   Recorded By
 WITN.              LYONS:   Witnessed by
 ORIG.         2.5" PRINT:   Origin of data
 UWI .     49025103310000:   Unique Well ID
 DICO. A2D TECHNOLOGIES, INC.:   Digitizing Company
 PD  .                 GL:   Permanent Datum
 EPD .               5260:   Elevation Permanent Datum
 LMF .                 KB:   Log Measured From
 DMF .                 KB:   Drilling Measured From
 DAPD.                 10:   Feet Above Permanent Datum
~OTHER INFORMATION
~A   DEPT      SPR        ILD        ILM        LL8       CALD        GRD       CORR       RHOB   
# ...
 2524.5000   -50.2997     5.8547     6.1117    15.7712     9.2845   130.9884     0.0359     2.4961
 2525.0000   -50.2939     5.8560     6.0292    13.4388     9.3138   126.9006     0.0388     2.5031
 2525.5000   -50.2880     5.8572     6.0296    12.5430     9.3138   123.6670     0.0388     2.5041
 2526.0000   -49.9881     5.9391     6.1130    15.0895     9.3138   120.9950     0.0315     2.5035
 2526.5000   -49.9823     5.9652     6.1134    17.0719     9.2845   117.4910     0.0255     2.4970
 2527.0000   -49.6823     6.0502     6.1979    17.9877     9.2850   115.2047     0.0196     2.4909
 2527.5000   -49.6765     6.1076     6.2836    18.1802     9.3138   114.9412     0.0182     2.4931
 2528.0000   -49.6706     6.1089     6.2818    17.7418     9.3138   116.7260     0.0241     2.4975
 2528.5000   -49.6647     6.1101     6.1954    16.7848     9.3431   122.0060     0.0404     2.5035
 2529.0000   -49.6588     6.0785     6.1103    16.0083     9.3431   125.9648     0.0448     2.5041
 2529.5000   -49.6530     5.9141     6.0329    15.7886     9.3724   127.6956     0.0448     2.4996
 2530.0000   -49.6178     5.8334     6.0416    15.6428     9.3773   129.0053     0.0387     2.4969
 2530.5000   -49.3471     5.7894     6.1267    15.2858     9.4018   126.0583     0.0235     2.4969
 2531.0000   -49.3412     5.7119     6.2985    14.1973     9.4018   123.9767     0.0078     2.4970
 2531.5000   -49.3807     5.7515     6.4750    13.8306     9.4089   122.5909     0.0081     2.4984
 2532.0000   -49.6240     5.7930     6.5506    14.2598     9.4311   120.2575     0.0127     2.5029
 2532.5000   -49.6176     5.7942     6.5510    15.4066     9.4219   119.3861     0.0173     2.5044
 2533.0000   -49.6118     5.7953     6.6416    15.9675     9.4138   118.2223     0.0197     2.5103
 2533.5000   -49.6058     5.7965     6.6119    15.9953     9.4057   117.0545     0.0212     2.5118
 2534.0000   -49.6000     5.7977     6.5627    15.5607     9.3976   115.8792     0.0208     2.5074
 2534.5000   -49.5941     5.7992     6.4639    14.8339     9.3895   114.3979     0.0174     2.5030
 2535.0000   -49.5883     5.6992     6.3766    14.2309     9.3814   112.6708     0.0153     2.4986
 2535.5000   -49.5823     5.5226     6.2905    13.7486     9.3724   111.7934     0.0183     2.4971
 2536.0000   -49.5765     5.2990     6.2055    13.3750     9.3724   112.5028     0.0198     2.4972
 2536.5000   -49.5706     5.0843     6.1218    13.1100     9.3724   113.9511     0.0198     2.4987
 2537.0000   -49.5647     4.9256     6.1222    13.1118     9.3431   114.7598     0.0177     2.5046
 2537.5000   -49.5588     4.9268     6.0395    13.0093     9.3431   113.2553     0.0175     2.5105
 2538.0000   -49.5530     4.9278     5.9579    12.4150     9.3138   113.7660     0.0308     2.5151
 2538.5000   -49.5471     4.9288     5.8774    12.2472     9.3138   114.8985     0.0344     2.5195
 2539.0000   -49.5412     4.9590     5.8779    11.9174     9.2845   115.9533     0.0205     2.5224
 2539.5000   -49.5353     4.9987     5.7985    11.7566     9.2551   116.3236     0.0183     2.5159
 2540.0000   -49.5294     5.0686     5.7989    11.9207     9.2551   116.9200     0.0198     2.5058
 2540.5000   -49.8176     5.0697     5.7993    11.9223     9.2551   116.6801     0.0213     2.5013
 2541.0000   -49.8117     5.0708     5.7997    11.7612     9.2258   115.2124     0.0154     2.4974
 2541.5000   -49.8059     5.1082     5.8001    11.7630     9.2258   113.7446     0.0110     2.4974
 2542.0000   -49.8000     5.1427     5.8005    11.7646     9.2258   112.3782     0.0169     2.5015
 2542.5000   -49.7941     5.1438     5.8009    11.7662     9.2258   112.9923     0.0228     2.5093
 2543.0000   -49.7882     5.2157     5.8013    11.7678     9.2258   115.5093     0.0140     2.5006
 2543.5000   -49.7823     5.2168     5.8017    12.0969     9.2258   116.8187     0.0066     2.4902
 2544.0000   -49.6942     5.2900     5.8021    13.1372     9.2258   114.9275     0.0021     2.4842
 2544.5000   -49.4764     5.3640     5.8025    13.1390     9.2258   112.9941     0.0007     2.4894
 2545.0000   -49.4706     5.3651     5.8029    13.1408     9.2258   112.2223     0.0095     2.4994
 2545.5000   -49.3662     5.4401     5.8032    13.1426     9.2258   114.4016     0.0214     2.5077
 2546.0000   -49.1647     5.4412     5.8036    13.1443     9.2258   116.1833     0.0155     2.5109
 2546.5000   -49.1588     5.4423     5.8040    12.7901     9.2258   114.9778     0.0081     2.5095
 2547.0000   -49.1530     5.3693     5.8044    12.7919     9.2258   111.9148     0.0022     2.5020
 2547.5000   -49.1470     5.3705     5.8048    12.9704     9.2258   109.6168    -0.0008     2.4961
 2548.0000   -49.1412     5.3716     5.8052    13.3333     9.2258   114.5305    -0.0008     2.4955
 2548.5000   -49.1353     5.3727     5.8056    13.5194     9.2258   117.5537     0.0007     2.5018
 2549.0000   -49.1294     5.3738     5.8060    13.5212     9.1965   119.3723     0.0007     2.5066
 2549.5000   -49.1235     5.3017     5.8064    13.3387     9.1965   119.0173     0.0007     2.5071
 2550.0000   -49.4118     5.2308     5.8068    12.9793     9.1965   116.2768     0.0007     2.5022
 2550.5000   -49.4059     5.2319     5.8072    12.6295     9.1965   113.3352     0.0007     2.4993
 2551.0000   -49.4000     5.1617     5.8076    12.6371     9.1965   112.3666     0.0022     2.4993
 2551.5000   -49.3941     5.2340     5.8080    12.8076     9.1965   111.3683     0.0052     2.5052
 2552.0000   -49.3882     5.2351     5.8084    12.8094     9.1672   108.3620     0.0082     2.5097
 2552.5000   -49.5562     5.3083     5.8088    12.8260     9.1672   105.6237     0.0111     2.5097
 2553.0000   -49.6706     5.4567     5.8092    13.1695     9.1672   105.8559     0.0126     2.5082
 2553.5000   -49.6636     5.5330     5.8896    13.3965     9.1672   107.0429     0.0097     2.5038
 2554.0000   -49.9519     5.6104     5.8900    13.9422     9.1672   106.2059     0.0067     2.4994
 2554.5000   -50.2402     5.6889     5.9714    14.5036     9.1378   102.8719     0.0086     2.5054
 2555.0000   -50.2344     5.7684     5.9718    14.5057     9.1378   100.3974     0.0191     2.5157
 2555.5000   -50.5227     5.7696     5.9722    14.5443     9.1378    98.2784     0.0247     2.5261
 2556.0000   -50.5168     5.7667     5.9726    14.7509     9.1378    97.9417     0.0263     2.5305
 2556.5000   -50.5110     5.5344     5.9730    14.9153     9.1378   101.3449     0.0361     2.5335
 2557.0000   -50.5052     5.3848     5.9734    14.4219     9.1378   104.7614     0.0378     2.5300
 2557.5000   -50.4993     5.2468     5.9738    13.8826     9.1219   103.5975     0.0245     2.5309
 2558.0000   -50.4935     5.1766     5.8711    13.0457     9.1085   100.0946     0.0372     2.5413
 2558.5000   -50.4877     5.1777     5.8136    12.0534     9.1085    98.0536     0.0413     2.5518
 2559.0000   -50.4819     5.1083     5.8140    11.4523     9.0792    99.5214     0.0423     2.5601
 2559.5000   -50.7706     5.1094     5.7355    11.0934     9.0792   101.8663     0.0307     2.5646
 2560.0000   -50.7643     5.1104     5.6580    10.6907     9.0792    98.6557     0.0059     2.5676
 2560.5000   -50.7585     5.1115     5.5816    10.5943     9.0792    98.3684     0.0024     2.5635
 2561.0000   -50.7527     5.1125     5.5820    10.9080     9.0792    97.2053     0.0024     2.5354
 2561.5000   -50.7468     5.1136     5.5824    11.7281     9.0792    93.4100     0.0024     2.5204
 2562.0000   -50.7410     5.0451     5.6595    11.8288     9.1085    95.1701     0.0016     2.5234
 2562.5000   -50.7352     5.0464     5.7378    11.6694     9.1085    96.6379     0.0024     2.5293
 2563.0000   -50.4352     5.0474     5.8171    11.6710     9.1085    98.3981     0.0079     2.5264
 2563.5000   -50.4294     4.9796     5.8175    11.6727     9.1085   100.1583     0.0157     2.5279
 2564.0000   -50.4236     4.9808     5.8179    11.6743     9.1085   101.3336     0.0217     2.5353
 2564.5000   -50.4176     4.9818     5.8158    11.2110     9.1378   103.3862     0.0261     2.5383
