~VERSION INFORMATION
 VERS.                2.0:   CWLS LOG ASCII STANDARD - VERSION 2.0
 WRAP.                 NO:   ONE LINE PER DEPTH STEP
~WELL INFORMATION
#MNEM.UNIT      DATA TYPE    INFORMATION
#----------   ------------   ------------------------------
 STRT.F          211.0000:   START DEPTH
 STOP.F         3244.0000:   STOP DEPTH
 STEP.F            0.5000:   STEP LENGTH
 NULL.          -999.2500:   NO VALUE
 COMP.    FENIX & SCISSON:   COMPANY
 WELL.  FENIX "AX" #84-15:   WELL
 FLD .  TEAPOT DOME NPR-3:   FIELD
 LOC .      S15 T38N R78W:   LOCATION
 CNTY.            NATRONA:   COUNTY
 STAT.            WYOMING:   STATE
 CTRY. UNITED STATES OF AMERICA:   COUNTRY
 SRVC.           BIRDWELL:   SERVICE COMPANY
 DATE.        17-MAR-1978:   LOGDATE
 API .     49025106050000:   API NUMBER
~CURVE INFORMATION
#MNEM.UNIT       API CODE    CURVE DESCRIPTION
#----------   ------------   ------------------------------
 DEPT.F                  :   
 SPR .MV     05 010 01 00:   SPONTANEOUS POTENTIAL
 SN  .OHMM   05 040 16 00:   SHORT NORMAL
 ILD .OHMM   05 120 46 00:   INDUCTION LOG DEEP
 CALD.IN     45 280 60 00:   CALIPER FROM DENSITY LOG
 GRD .GAPI   45 310 01 00:   GAMMA RAY FROM DENSITY LOG
 RHOB.G/C3   45 350 01 00:   BULK DENSITY
 CORR.G/C3   45 356 01 00:   DENSITY CORRECTION
~PARAMETER INFORMATION
#MNEM.UNIT          VALUE    DESCRIPTION
#----------   ------------   ------------------------------
 EKB .F         5251.0000:   Kelly bushing
 EGL .F         5241.0000:   Ground level
 TD  .F         3250.0000:   Total depth
 CLNT.            A2DTECH:   Client Code
 SL  . 359' FEL & 2310' FNL:   Surface Location
 PD  .                 GL:   Permanent Datum
 LMF .                 KB:   Log Measured From
 DMF .                 KB:   Drilling Measured From
 DATE.        17-MAR-1978:   Date Logged [DD-MMM-YYYY]
 DD  .F              3250:   Depth driller
 DL  .F              3250:   Depth logger
 BLI .F              3244:   Bottom log interval
 TLI .F               224:   Top log interval
 CS1 .IN            8.625:   Casing size
 CBD1.             8.625":   Casing driller 1
 CBL1.F               224:   Casing logger 1
 BS1 .IN            7.875:   Bit size
 BSD1.F              3250:   Depth drilled with bit1
 MSS .           FLOWLINE:   Source of sample
 RMS .OHMM            1.3:   Rm
 MST .F                70:   Rm Meas. temp.
 RMF .OHMM            1.1:   Rmf
 MFST.F                70:   Rmf Meas. temp.
 MFSS.               MEAS:   Source Rmf.
 RMC .OHMM            1.4:   Rmc
 MCST.F                70:   Rmc Meas. temp.
 RMB .OHMM           0.77:   Rm. at BHT
 BHT .F               118:   BHT.
 TCS .HRS               6:   Time Circ. stopped
 MRT .F               118:   Maximum recorded temp.
 LUN .               2958:   Logging unit number
 LUL .               CASP:   Logging unit location
 ENGI.             MILLER:   Recorded By
 WITN.           MCGINLEY:   Witnessed by
 ORIG.           5" PRINT:   Origin of data
 UWI .     49025106050000:   Unique Well ID
 DICO. A2D TECHNOLOGIES, INC.:   Digitizing Company
~OTHER INFORMATION
~A   DEPT      SPR         SN        ILD       CALD         GRD      RHOB       CORR   
# ...
  802.5000   -32.3920     7.8604     8.8133    11.5293    82.1231     2.5138     0.0124
  803.0000   -32.3827     7.8620     8.8160    11.5294    82.1434     2.4995     0.0094
  803.5000   -32.3753     7.8637     8.8184    11.5294    82.1596     2.4905     0.0079
  804.0000   -32.3679     7.8653     8.8822    11.5294    82.9266     2.4898     0.0095
  804.5000   -32.3605     7.8670     8.8847    11.5295    84.0886     2.4929     0.0096
  805.0000   -32.5039     7.8689     8.8872    11.5295    83.7982     2.4974     0.0096
  805.5000   -32.4965     7.9254     8.9517    11.5296    83.2104     2.4990     0.0127
  806.0000   -32.5704     7.9270     8.9542    11.5296    82.0195     2.5005     0.0158
  806.5000   -32.6415     7.9840     8.9567    11.5296    83.3812     2.5090     0.0158
  807.0000   -32.7125     7.9856     8.9596    11.5297    83.6917     2.5120     0.0129
  807.5000   -32.7836     8.0429     8.9620    11.5297    83.7020     2.5060     0.0068
  808.0000   -32.8547     8.0446     8.9642    11.5298    82.9615     2.5022     0.0069
  808.5000   -32.8788     8.0462     8.9667    11.5298    80.8694     2.5023     0.0089
  809.0000   -32.8677     8.1040     9.0320    11.5298    81.4806     2.5174     0.0089
  809.5000   -32.8589     8.1057     9.0587    11.5299    83.4690     2.5484     0.0136
  810.0000   -32.6992     8.1074     9.1000    11.5299    85.5756     2.5417     0.0167
  810.5000   -32.5395     8.1094     9.1024    11.5300    84.3669     2.5161     0.0183
  811.0000   -32.5306     8.1676     9.1685    11.5300    83.6264     2.5116     0.0183
  811.5000   -32.3709     8.1693     9.2351    11.5301    82.7358     2.5109     0.0184
  812.0000   -32.2112     8.2279     9.3021    11.5301    79.8981     2.5132     0.0185
  812.5000   -32.1833     8.2296     9.3701    11.5301    77.7997     2.5155     0.0186
  813.0000   -32.0405     8.3465     9.3723    11.5302    78.4131     2.5163     0.0171
  813.5000   -32.0316     8.3482     9.3749    11.5302    79.7747     2.5163     0.0142
  814.0000   -32.1758     8.3499     9.3775    11.5303    82.0373     2.5134     0.0105
  814.5000   -32.1647     8.3573     9.3803    11.5303    82.1977     2.5013     0.0057
  815.0000   -32.3077     8.3670     9.3829    11.5303    82.0578     2.4998    -0.0008
  815.5000   -32.4509     8.3768     9.3853    11.5304    81.4675     2.5097    -0.0052
  816.0000   -32.7415     8.3865     9.3880    11.5304    78.3246     2.5083    -0.0097
  816.5000   -33.0343     8.3963     9.3906    11.5305    77.1336     2.5045    -0.0081
  817.0000   -33.0254     8.4060     9.3932    11.5305    77.9489     2.5174    -0.0049
  817.5000   -33.1674     8.4158     9.4619    11.5305    81.0434     2.5280     0.0011
  818.0000   -33.0075     8.4255     9.6640    11.5306    84.3726     2.5341    -0.0048
  818.5000   -32.8258     8.4898     9.8021    11.5306    84.5330     2.5165    -0.0139
  819.0000   -32.6861     8.5525     9.9421    11.5307    84.3804     2.5357    -0.0017
  819.5000   -32.5264     8.5671    10.0142    11.5307    83.2202     2.5244     0.0075
  820.0000   -32.5175     8.6188    10.0471    11.5307    80.9628     2.5215     0.0106
  820.5000   -32.5098     8.6829    10.0896    11.5308    80.9731     2.5056     0.0137
  821.0000   -32.5437     8.6865    10.0923    11.5308    80.9834     2.5042     0.0138
  821.5000   -32.6425     8.6898    10.1308    11.5309    80.9937     2.5110     0.0123
  822.0000   -32.7843     8.6936    10.1684    11.5309    81.0040     2.5239     0.0109
  822.5000   -32.7753     8.6971    10.1713    11.5309    81.0142     2.5164     0.0096
  823.0000   -32.7660     8.7006    10.1746    11.5310    81.1747     2.5104     0.0080
  823.5000   -32.7572     8.7650    10.1769    11.5310    81.1850     2.5097     0.0047
  824.0000   -32.7481     8.7686    10.1095    11.5311    81.6457     2.5127     0.0021
  824.5000   -32.7391     8.7723    10.1123    11.5311    81.9565     2.5144    -0.0025
  825.0000   -32.7300     8.7152    10.1148    11.5311    82.1167     2.5143    -0.0050
  825.5000   -32.7195     8.7188    10.1176    11.5312    78.9764     2.5121    -0.0083
  826.0000   -32.7119     8.7224    10.1205    11.5312    78.6838     2.5084    -0.0097
  826.5000   -32.7029     8.7265    10.1233    11.5313    79.8978     2.5047    -0.0096
  827.0000   -32.6929     8.7297    10.1261    11.5469    82.1604     2.5032    -0.0065
  827.5000   -32.6833     8.7334    10.1996    11.5929    82.7713     2.5010    -0.0034
  828.0000   -32.6757     8.7372    10.2024    11.6088    82.3311     2.4988    -0.0003
  828.5000   -32.6663     8.7406    10.2770    11.5950    78.5885     2.5071     0.0028
  829.0000   -32.6575     8.7444    10.2798    11.5965    78.1483     2.4943     0.0029
  829.5000   -32.6486     8.7486    10.3004    11.5976    77.5580     2.4966     0.0030
  830.0000   -32.6395     8.8126    10.3572    11.5988    76.8175     2.5020     0.0009
  830.5000   -32.6287     8.8168    10.3600    11.6000    78.7797     2.5043     0.0001
  831.0000   -32.6198     8.8200    10.3628    11.6012    79.2405     2.5028    -0.0014
  831.5000   -32.6124     8.8237    10.3655    11.6024    79.2507     2.5066    -0.0013
  832.0000   -32.6033     8.8279    10.4408    11.6036    79.1109     2.5029    -0.0027
  832.5000   -32.5932     8.8180    10.4437    11.6048    79.1237     2.4924    -0.0026
  833.0000   -32.5852     8.7735    10.4466    11.6060    80.1851     2.4985    -0.0026
  833.5000   -32.5755     8.7775    10.4501    11.6072    81.6968     2.5068    -0.0010
  834.0000   -32.7175     8.7808    10.4529    11.6084    82.3077     2.5031     0.0008
  834.5000   -32.7079     8.7847    10.3106    11.6096    82.7684     2.5016     0.0032
  835.0000   -32.6998     8.7882    10.2426    11.6108    83.0790     2.5039     0.0053
  835.5000   -32.9184     8.7918    10.0338    11.6120    83.0893     2.5093     0.0069
  836.0000   -32.9837     8.7955     9.8978    11.6132    82.7993     2.5123     0.0085
  836.5000   -33.1234     8.6776     9.6960    11.6144    79.6564     2.5116     0.0086
  837.0000   -33.1168     8.4945     9.4325    11.6156    79.0661     2.5079     0.0086
  837.5000   -33.2588     8.2158     9.1762    11.6168    79.4269     2.5185     0.0072
  838.0000   -33.3985     8.0495     9.1150    11.6180    83.4217     2.5035     0.0042
  838.5000   -33.5405     7.9962     9.1181    11.6192    86.0064     2.5020     0.0043
  839.0000   -33.5324     7.9449     9.1843    11.6204    86.7674     2.5073     0.0029
  839.5000   -33.5227     7.9482     9.1868    11.6216    86.6276     2.5240     0.0136
  840.0000   -33.5139     7.8955     9.1893    11.6228    86.1874     2.5323     0.0197
  840.5000   -33.3545     7.8996     9.1274    11.6240    84.3959     2.5203     0.0198
  841.0000   -33.1946     7.9028     9.0672    11.6551    82.6043     2.5143     0.0199
  841.5000   -33.1855     7.8510     9.0062    11.6713    81.5636     2.5121     0.0169
  842.0000   -33.0256     7.6921     8.8232    11.6874    82.0243     2.5083     0.0139
  842.5000   -32.8640     7.5372     8.5834    11.6736    83.3859     2.5065     0.0140
  843.0000   -32.7059     7.3839     8.2923    11.6598    85.8318     2.5109     0.0141
  843.5000   -32.5460     7.2352     8.1165    11.6460    86.8604     2.5145     0.0142
  844.0000   -32.5370     7.1383     7.9030    11.6477    86.2722     2.5115     0.0142
  844.5000   -32.5269     7.0320     7.8498    11.6492    85.8295     2.5086     0.0162
  845.0000   -32.5189     6.9965     7.7434    11.6508    85.6896     2.5109     0.0174
  845.5000   -32.5092     6.9221     7.6918    11.6523    86.7535     2.5155     0.0190
  846.0000   -32.5004     6.9056     7.6406    11.6539    89.6166     2.5208     0.0221
  846.5000   -32.4915     6.9085     7.6432    11.6554    90.9782     2.5261     0.0237
  847.0000   -32.4826     6.9114     7.6453    11.6570    90.6882     2.5299     0.0238
  847.5000   -32.7754     6.8877     7.6474    11.6585    87.2450     2.5285     0.0193
