~VERSION INFORMATION
 VERS.                2.0:   CWLS LOG ASCII STANDARD - VERSION 2.0
 WRAP.                 NO:   ONE LINE PER DEPTH STEP
~WELL INFORMATION
#MNEM.UNIT      DATA TYPE    INFORMATION
#----------   ------------   ------------------------------
 STRT.F          216.0000:   START DEPTH
 STOP.F         3184.0000:   STOP DEPTH
 STEP.F            0.5000:   STEP LENGTH
 NULL.          -999.2500:   NO VALUE
 COMP.    FENIX & SCISSON:   COMPANY
 WELL. FENIX & SCISSON INCNRP "A" #311-14:   WELL
 FLD .                NPR:   FIELD
 LOC .      S14 T38N R78W:   LOCATION
 CNTY.            NATRONA:   COUNTY
 STAT.            WYOMING:   STATE
 CTRY. UNITED STATES OF AMERICA:   COUNTRY
 SRVC.              WELEX:   SERVICE COMPANY
 DATE.        22-JUN-1977:   LOGDATE
 API .     49025103810000:   API NUMBER
~CURVE INFORMATION
#MNEM.UNIT       API CODE    CURVE DESCRIPTION
#----------   ------------   ------------------------------
 DEPT.F                  :   
 CALD.IN     45 280 60 00:   CALIPER FROM DENSITY LOG
 GRD .GAPI   45 310 01 00:   GAMMA RAY FROM DENSITY LOG
 DPHI.DEC    45 890 12 00:   DENSITY POROSITY SANDSTONE
 RHOB.G/C3   45 350 01 00:   BULK DENSITY
 CORR.G/C3   45 356 01 00:   DENSITY CORRECTION
 SPR .MV     07 010 01 00:   SPONTANEOUS POTENTIAL
 SFLU.OHMM   07 220 01 00:   SPHERICALLY FOCUSED LOG UNAVERAGED RESISTIVITY
 ILD .OHMM   07 120 46 00:   DEEP INDUCTION RESISTIVITY
 ILM .OHMM   07 120 44 00:   INDUCTION LOG MEDIUM RESISTIVITY
~PARAMETER INFORMATION
#MNEM.UNIT          VALUE    DESCRIPTION
#----------   ------------   ------------------------------
 EKB .F         5225.0000:   Kelly bushing
 EGL .F         5215.0000:   Ground level
 TD  .F         3183.0000:   Total depth
 DATE.        22-JUN-1977:   Date logged
 CLNT.            A2DTECH:   Client Code
 CTRY.                USA:   Country
 SL  . 330' FNL & 330' FWL:   Surface Location
 PD  .                 GL:   Permanent Datum
 EPD .F              5215:   Elevation Permanent Datum
 LMF .                 KB:   Log Measured From
 DMF .                 KB:   Drilling Measured From
 DAPD.F                10:   Feet Above Permanent Datum
 DD  .F              3178:   Depth driller
 DL  .F              3183:   Depth logger
 BLI .F              3181:   Bottom log interval
 TLI .F                20:   Top log interval
 CS1 .IN            8.625:   Casing size
 CBD1.      8.625" @ 217':   Casing driller 1
 BS1 .IN            7.875:   Bit size
 BSD1.F              3178:   Depth drilled with bit1
 DFT .            KCL MUD:   Type fluid in hole
 DFD .                9.5:   Density
 DFV .                 40:   Viscosity
 DFPH.                7.5:   pH
 DFL .               13.6:   Fluid loss
 MSS .           FLOWLINE:   Source of sample
 RMS .OHMM            .36:   Rm
 MST .F                80:   Rm Meas. temp.
 RMF .OHMM            .30:   Rmf
 MFST.F                80:   Rmf Meas. temp.
 RMC .OHMM            .86:   Rmc
 MCST.F                80:   Rmc Meas. temp.
 MFSS.               FANN:   Source Rmf.
 MCSS.                KIT:   Source Rmc.
 RMB .OHMM            .25:   Rm. at BHT
 BHT .F               114:   BHT.
 TCS .HRS             2.5:   Time Circ. stopped
 MRT .F               114:   Maximum recorded temp.
 LUN .               8766:   Logging unit number
 LUL .             CASPER:   Logging unit location
 ENGI.          T. TOYNER:   Recorded By
 WITN.      B. HARRINGTON:   Witnessed by
 PWI .                  -:   Primary Well Identifier
 ORIG.           5" PRINT:   Origin of data
 UWI .     49025103810000:   Unique Well ID
 DICO. A2D TECHNOLOGIES, INC.:   Digitizing Company
~OTHER INFORMATION
~A   DEPT       CALD       GRD        DPHI       RHOB       CORR      SPR         SFLU      ILD        ILM   
# ...
 1968.0000     8.9388   184.9542     0.1336     2.4311     0.0106   -60.4482    10.3025     5.8239     6.8612
 1968.5000     8.8594   185.3550     0.1344     2.4301     0.0106   -60.4509    10.3986     6.4447     7.3867
 1969.0000     8.8594   181.7860     0.1344     2.4291     0.0126   -60.4548    10.4957     6.8741     8.0260
 1969.5000     8.8396   180.2010     0.1336     2.4311     0.0146   -60.4574    11.2984     7.2648     8.4051
 1970.0000     8.8000   179.0130     0.1332     2.4321     0.0166   -60.4614    11.8314     7.8927     8.7214
 1970.5000     8.7603   177.8252     0.1328     2.4321     0.0186   -60.4640    12.5041     8.4185     8.9665
 1971.0000     8.7604   176.2400     0.1360     2.4281     0.0186   -60.4680    12.3907     8.7349     9.2190
 1971.5000     8.7406   174.6548     0.1396     2.4221     0.0146   -60.4706    12.0545     8.8164     9.2195
 1972.0000     8.7406   174.2610     0.1400     2.4201     0.0166   -60.4746    11.9452     8.8169     9.4786
 1972.5000     8.7407   173.4702     0.1408     2.4191     0.0126   -60.4772    12.1681     8.8852     9.5674
 1973.0000     8.7209   172.2820     0.1416     2.4171     0.0086   -60.0852    12.3952     8.9540     9.4804
 1973.5000     8.7209   172.2854     0.1428     2.4131     0.0086   -60.0878    12.5110     9.0234     9.5690
 1974.0000     8.7210   171.8916     0.1456     2.4101     0.0066   -60.0918    12.5121     9.0933     9.5699
 1974.5000     8.7012   172.6894     0.1452     2.4111     0.0066   -60.0944    12.1726     9.1638     9.5708
 1975.0000     8.7211   172.6928     0.1451     2.4111     0.0066   -60.0983    11.8423     9.2348     9.6602
 1975.5000     8.7211   171.5046     0.1447     2.4121     0.0087   -60.1023    11.8434     9.3063     9.6611
 1976.0000     8.7212   171.1106     0.1463     2.4102     0.0087   -60.1049    12.6324     9.3784     9.7514
 1976.5000     8.7212   169.9224     0.1475     2.4082     0.0107   -60.1089    13.3506     9.4511     9.8425
 1977.0000     8.7213   168.7338     0.1494     2.4052     0.0107   -59.7154    13.5998     9.4994    10.0264
 1977.5000     8.7412   166.3536     0.1513     2.4012     0.0067   -59.7194    13.6010     9.5003    10.1201
 1978.0000     8.7810   162.3848     0.1527     2.3992     0.0067   -59.7220    13.4777     9.6871    10.1210
 1978.5000     8.8009   160.4016     0.1509     2.4002     0.0067   -59.7260    13.2332     9.8776    10.3101
 1979.0000     8.7811   158.0210     0.1503     2.4022     0.0067   -59.7286    13.3567    10.0719    10.6980
 1979.5000     8.7812   155.2430     0.1475     2.4072     0.0067   -59.7325    13.9868    10.3246    10.8979
 1980.0000     8.7812   152.4650     0.1467     2.4102     0.0067   -59.7351    14.5125    10.2303    10.7990
 1980.5000     8.7813   149.6868     0.1459     2.4102     0.0067   -59.7391    14.2492    10.1006    10.7010
 1981.0000     8.7813   146.5112     0.1459     2.4102     0.0067   -59.7417    13.9907     9.9727    10.5066
 1981.5000     8.8012   144.5274     0.1451     2.4112     0.0067   -59.7456    13.4864     9.8463    10.2213
 1982.0000     8.8410   142.9410     0.1443     2.4132     0.0067   -59.7483    12.8812     9.7216    10.1285
 1982.5000     8.7815   141.7518     0.1411     2.4172     0.0067   -59.7522    12.0789     9.5984     9.8534
 1983.0000     8.8014   139.7684     0.1391     2.4222     0.0067   -59.7548    11.4312     9.4768     9.9455
 1983.5000     8.8015   136.9896     0.1371     2.4262     0.0087   -59.7588    11.2240     9.3567    10.3196
 1984.0000     8.8214   134.2106     0.1347     2.4302     0.0107   -59.7614    13.0051     9.2382    10.5124
 1984.5000     8.8016   131.4316     0.1307     2.4353     0.0127   -60.1615    13.3702     9.1211    10.4170
 1985.0000     8.8016   131.0368     0.1251     2.4383     0.0107   -60.1642    13.0074     9.0026    10.2278
 1985.5000     8.8017   129.4500     0.1203     2.4503     0.0107   -60.5643    12.4238     9.0030    10.2288
 1986.0000     8.8017   127.0680     0.1163     2.4593     0.0107   -60.5669    11.8663     9.0555    10.2297
 1986.5000     8.7819   124.2888     0.1147     2.4633     0.0108   -60.5709    11.6510     9.1084    10.3253
 1987.0000     8.7820   121.9066     0.1139     2.4653     0.0108   -60.5735    11.4396     9.1616    10.4218
 1987.5000     8.8019   120.3194     0.1123     2.4723     0.0128   -60.5775    11.5464     9.2151    10.5192
 1988.0000     8.8020   118.3352     0.1103     2.4823     0.0128   -60.5802    12.3156     9.2595    10.3282
 1988.5000     8.7623   117.5416     0.1087     2.4783     0.0128   -60.5841    13.3801     9.2597    10.2344
 1989.0000     8.7425   116.3520     0.1087     2.4763     0.0128   -60.5868    14.2715     9.1549    10.0486
 1989.5000     8.7226   115.5594     0.1099     2.4723     0.0128   -60.5907    14.4047     9.0513     9.6860
 1990.0000     8.7227   114.7674     0.1139     2.4653     0.0148   -60.5934    13.8855     8.9489     9.3365
 1990.5000     8.7227   114.7692     0.1179     2.4583     0.0148   -60.5973    12.3213     8.8477     9.0829
 1991.0000     8.7427   115.5664     0.1207     2.4503     0.0128   -60.9962    11.2393     8.7670     8.8361
 1991.5000     8.7626   116.7616     0.1215     2.4493     0.0108   -61.0002    10.9343     8.7674     8.5963
 1992.0000     8.7825   119.1488     0.1187     2.4533     0.0108   -61.0029    10.7748     8.5178     8.3627
 1992.5000     8.7826   120.3438     0.1151     2.4553     0.0088   -61.0068    10.7752     8.2753     8.2868
 1993.0000     8.8025   121.5382     0.1159     2.4554     0.0068   -61.0095    10.7762     8.0397     8.1363
 1993.5000     8.8224   123.1306     0.1163     2.4554     0.0068   -61.0135    10.5804     7.8109     7.9885
 1994.0000     8.8026   125.1206     0.1159     2.4564     0.0068   -61.0161    10.4844     7.5885     7.9160
 1994.5000     8.8226   126.3158     0.1159     2.4564     0.0068   -61.0201     9.9787     7.2986     7.7007
 1995.0000     8.8226   126.3182     0.1167     2.4544     0.0068   -61.0227     9.7976     7.3665     7.6879
 1995.5000     8.8028   126.3208     0.1182     2.4524     0.0068   -61.0267     9.5318     7.1669     7.6752
 1996.0000     8.8227   126.3232     0.1206     2.4514     0.0068   -61.0294     9.5327     7.1670     7.6624
 1996.5000     8.8228   126.3258     0.1194     2.4534     0.0068   -61.0333    10.1677     7.1764     7.6497
 1997.0000     8.8228   126.7258     0.1186     2.4534     0.0068   -61.0360    10.2627     7.1859     7.6370
 1997.5000     8.8229   126.3308     0.1174     2.4524     0.0068   -61.0400    10.1696     7.1954     7.6243
 1998.0000     8.8428   125.9356     0.1174     2.4534     0.0068   -61.0439    10.0774     7.2049     7.6116
 1998.5000     8.8429   125.5406     0.1178     2.4534     0.0068   -61.0466     9.9860     7.2144     7.5990
 1999.0000     8.8429   123.1580     0.1186     2.4504     0.0068   -61.0506     9.8955     7.2239     7.5864
 1999.5000     8.8430   122.3652     0.1218     2.4474     0.0068   -61.0532     9.9878     7.2335     7.5738
 2000.0000     8.8431   121.1746     0.1218     2.4474     0.0069   -61.0572    10.1743     7.1724     7.5612
 2000.5000     8.8431   122.5280     0.1210     2.4494     0.0085   -61.0606     9.7220     7.1470     7.5486
 2001.0000     8.8431   122.3676     0.1210     2.4494     0.0088   -61.0520     9.4525     7.1163     7.5179
 2001.5000     8.8431   122.3676     0.1218     2.4474     0.0088   -61.0499     9.5398     7.0856     7.4873
 2002.0000     8.9226   121.9700     0.1230     2.4504     0.0088   -61.0467     9.5398     7.0552     7.4568
 2002.5000     8.8629   122.7652     0.1186     2.4554     0.0168   -61.0445     9.6280     7.0248     7.4298
 2003.0000     8.8629   122.7652     0.1162     2.4634     0.0168   -61.0414     9.6280     6.9946     7.4298
 2003.5000     8.8629   122.7652     0.1134     2.4714     0.0168   -61.0393     9.5398     6.9645     7.3340
 2004.0000     8.8629   122.7652     0.1142     2.4694     0.0167   -60.6397     9.5398     6.9346     7.2394
