~VERSION INFORMATION
 VERS.                2.0:   CWLS LOG ASCII STANDARD - VERSION 2.0
 WRAP.                 NO:   ONE LINE PER DEPTH STEP
~WELL INFORMATION
#MNEM.UNIT      DATA TYPE    INFORMATION
#----------   ------------   ------------------------------
 STRT.F          200.0000:   START DEPTH
 STOP.F         3248.0000:   STOP DEPTH
 STEP.F            0.5000:   STEP LENGTH
 NULL.          -999.2500:   NO VALUE
 COMP.    FENIX & SCISSON:   COMPANY
 WELL.   FENIX "AX" #28-3:   WELL
 FLD .              NPR-3:   FIELD
 LOC .       S3 T38N R78W:   LOCATION
 CNTY.            NATRONA:   COUNTY
 STAT.            WYOMING:   STATE
 CTRY. UNITED STATES OF AMERICA:   COUNTRY
 SRVC.              WELEX:   SERVICE COMPANY
 DATE.        30-JUN-1977:   LOGDATE
 API .     49025104200000:   API NUMBER
~CURVE INFORMATION
#MNEM.UNIT       API CODE    CURVE DESCRIPTION
#----------   ------------   ------------------------------
 DEPT.F                  :   
 CALD.IN     45 280 60 00:   CALIPER FROM DENSITY LOG
 GRD .GAPI   45 310 01 00:   GAMMA RAY FROM DENSITY LOG
 RHOB.G/C3   45 350 01 00:   BULK DENSITY
 CORR.G/C3   45 356 01 00:   DENSITY CORRECTION
 SPR .MV     07 010 01 00:   SPONTANEOUS POTENTIAL
 ILD .OHMM   07 120 46 00:   DEEP INDUCTION RESISTIVITY
 ILM .OHMM   07 120 44 00:   INDUCTION LOG MEDIUM RESISTIVITY
 SGRD.OHMM   07 220 05 00:   SHALLOW SHORT GUARD RESISTIVITY
~PARAMETER INFORMATION
#MNEM.UNIT          VALUE    DESCRIPTION
#----------   ------------   ------------------------------
 EKB .F         4969.0000:   Kelly bushing
 EGL .F         4959.0000:   Ground level
 TD  .F         3250.0000:   Total depth
 CLNT.            A2DTECH:   Client Code
 SL  . 500' FSL & 800' FWL:   Surface Location
 PD  .                 GL:   Permanent Datum
 EPD .F              4959:   Elevation Permanent Datum
 LMF .                 KB:   Log Measured From
 DMF .                 KB:   Drilling Measured From
 DAPD.F                10:   Feet Above Permanent Datum
 DATE.        30-JUN-1977:   Date Logged [DD-MMM-YYYY]
 DD  .F              3250:   Depth driller
 DL  .F              3250:   Depth logger
 BLI .F              3248:   Bottom log interval
 TLI .F               200:   Top log interval
 CS1 .IN            8.625:   Casing size
 CBD1.      8.625" @ 217':   Casing driller 1
 CBL1.F               225:   Casing logger 1
 BS1 .IN            7.875:   Bit size
 BSD1.F              3250:   Depth drilled with bit1
 DFT .                KCL:   Type fluid in hole
 DFD .                8.9:   Density
 RMS .OHMM           1.76:   Rm
 MST .F                63:   Rm Meas. temp.
 TCS .HRS             2.5:   Time Circ. stopped
 MRT .F                68:   Maximum recorded temp.
 LUN .               8611:   Logging unit number
 ENGI.         G. BENTSEN:   Recorded By
 WITN.         PETTINGILL:   Witnessed by
 ORIG.         2.5" PRINT:   Origin of data
 UWI .     49025104200000:   Unique Well ID
 DICO. A2D TECHNOLOGIES, INC.:   Digitizing Company
 DFV .                 30:   Viscosity
 DFPH.                  7:   pH
 DFL .                 10:   Fluid loss
 MSS .                PIT:   Source of sample
 RMF .OHMM           1.09:   Rmf
 MFST.F                68:   Rmf Meas. temp.
 MFSS.               MEAS:   Source Rmf.
 RMC .OHMM           2.01:   Rmc
 MCST.F                68:   Rmc Meas. temp.
 MCSS.               MEAS:   Source Rmc.
 RMB .OHMM           1.01:   Rm. at BHT
 BHT .F               118:   BHT.
 LUL .             CASPER:   Logging unit location
~OTHER INFORMATION
~A   DEPT       CALD       GRD        RHOB      CORR       SPR        ILD        ILM       SGRD   
# ...
 1982.0000     8.1264   129.9518     2.4676     0.0146   -55.7208     6.1938     7.1399     8.2144
 1982.5000     8.1281   130.5414     2.4923     0.0155   -55.5089     6.2816     8.3903     7.8374
 1983.0000     8.1298   130.5296     2.5014     0.0176   -55.5074     6.2837     9.2711     9.5857
 1983.5000     8.1315   130.5178     2.5063     0.0191   -55.2109     6.2858     8.8288    10.3019
 1984.0000     8.1332   130.5060     2.5182     0.0206   -55.2094     6.2020     8.1232    10.7465
 1984.5000     8.1349   131.1213     2.5378     0.0251   -54.9130     6.0362     7.7212    10.7480
 1985.0000     8.1367   131.7369     2.5460     0.0266   -54.7592     6.0383     7.2434    11.0485
 1985.5000     8.1384   132.2778     2.5502     0.0296   -54.6150     5.7944     6.4237     9.9024
 1986.0000     8.1401   132.1645     2.5460     0.0326   -54.6133     5.5646     5.9015     6.9685
 1986.5000     8.1418   130.9227     2.5379     0.0341   -54.3168     5.6528     5.7428     5.3598
 1987.0000     8.1435   129.8313     2.5170     0.0310   -54.3154     5.8157     6.2371     5.9809
 1987.5000     8.1452   129.8193     2.4835     0.0278   -54.3139     6.0486     7.0587     9.0428
 1988.0000     8.1470   128.8034     2.4315     0.0246   -54.3125     6.0719     7.7721    12.6814
 1988.5000     8.1487   126.5571     2.4720     0.0214   -54.3111     6.2469     8.3406     8.3534
 1989.0000     8.1504   125.5663     2.5026     0.0186   -54.3096     6.4577     8.9399     6.6693
 1989.5000     8.1521   127.6374     2.5041     0.0205   -54.3082     6.8330     9.4409     7.3799
 1990.0000     8.1522   129.1566     2.4904     0.0231   -54.0117     7.1867     9.3841    11.0457
 1990.5000     8.1512   130.3494     2.4827     0.0230   -53.7153     7.4431     8.5173    12.2383
 1991.0000     8.1503   131.2912     2.4811     0.0230   -53.7138     7.6069     7.5197    12.6920
 1991.5000     8.1494   132.7327     2.4964     0.0230   -53.4174     7.8261     7.2382    12.6143
 1992.0000     8.1314   134.5282     2.5102     0.0237   -53.4159     7.9845     7.1692    12.6955
 1992.5000     8.1183   135.7212     2.5132     0.0244   -53.1195     7.8783     7.2458    10.4806
 1993.0000     8.1174   136.9142     2.5101     0.0268   -53.1180     7.5630     7.7100     8.8923
 1993.5000     8.1165   137.5048     2.5007     0.0297   -53.1165     7.3607     8.7913     7.5448
 1994.0000     8.1157   139.3002     2.4897     0.0326   -53.4102     6.9698    10.4032     6.5793
 1994.5000     8.1148   139.8908     2.4816     0.0334   -53.4086     6.0784    11.7056     6.2291
 1995.0000     8.1140   141.0838     2.4623     0.0341   -53.4071     5.6693    12.0934     5.7382
 1995.5000     8.1131   142.8793     2.4416     0.0348   -53.4056     5.4494    11.1401     5.1086
 1996.0000     8.1123   144.0723     2.3912     0.0348   -53.4041     5.3037     7.3814     5.0044
 1996.5000     8.1114   145.2903     2.3374     0.0332   -53.4027     5.3058     6.2617     5.3601
 1997.0000     8.1090   146.5080     2.3093     0.0301   -53.4012     5.3809     5.9282     5.6537
 1997.5000     8.0804   148.4032     2.2915     0.0255   -53.6947     5.4571     5.9295     8.3533
 1998.0000     8.0795   150.2494     2.3300     0.0224   -54.1397     5.4589     5.9307    13.2725
 1998.5000     8.0494   154.0272     2.4508     0.0192   -54.4445     5.5363     6.1813    14.5706
 1999.0000     8.0485   157.8557     2.4860     0.0177   -54.7493     5.6922     6.6218    10.3940
 1999.5000     8.0184   163.2900     2.5008     0.0161   -55.1637     6.0155     7.3918     7.6613
 2000.0000     8.0175   172.5439     2.4889     0.0130   -55.4572     6.6244     8.3701     7.2536
 2000.5000     8.0167   181.4056     2.4711     0.0129   -55.4555     7.9210     9.5141    10.0917
 2001.0000     8.0158   185.6104     2.4655     0.0083   -55.4541     8.8427    10.6581    17.4434
 2001.5000     8.0149   187.3825     2.4833     0.0083   -55.7476     9.6044    11.7029    18.9411
 2002.0000     8.0140   188.5069     2.4913     0.0083   -55.7462    10.4317    12.5602    19.4701
 2002.5000     8.0132   188.3785     2.4945     0.0082   -55.4498    11.1758    13.4334    19.4727
 2003.0000     8.0121   187.8795     2.4915     0.0082   -55.4483    11.6487    14.3475    19.4753
 2003.5000     8.0113   187.8675     2.4876     0.0081   -55.4469    11.9762    15.0339    20.3054
 2004.0000     8.0104   187.8554     2.4790     0.0084   -55.4454    12.1450    15.6006    23.6006
 2004.5000     8.0095   187.8434     2.4776     0.0096   -55.4440    12.1265    15.7293    22.0009
 2005.0000     8.0087   188.4360     2.4800     0.0100   -55.3389    11.9857    15.7293    20.5840
 2005.5000     8.0078   188.4217     2.4806     0.0111   -55.1541    11.9893    16.0679    21.0241
 2006.0000     8.0070   189.0121     2.4745     0.0110   -55.1534    11.9926    16.8467    21.4539
 2006.5000     8.0061   189.3002     2.4637     0.0110   -55.1527    11.9959    18.5457    21.1653
 2007.0000     8.0053   191.1629     2.4576     0.0109   -55.1519    11.9354    20.6982    20.8795
 2007.5000     8.0044   195.8739     2.4529     0.0109   -54.8562    11.8389    22.4750    20.5981
 2008.0000     8.0035   204.6282     2.4545     0.0109   -54.8555    11.8421    23.7435    21.1738
 2008.5000     8.0026   205.7923     2.4636     0.0115   -54.8547    11.8454    25.0836    22.3700
 2009.0000     8.0018   207.2271     2.4758     0.0123   -54.5590    12.0130    26.8656    23.3121
 2009.5000     8.0009   208.8096     2.4835     0.0123   -54.3950    12.1823    28.7742    22.9978
 2010.0000     8.0000   205.9438     2.4865     0.0122   -54.2624    12.3540    30.8184    20.8967
 2010.5000     7.9991   203.3956     2.4712     0.0113   -53.9667    12.7012    32.1586    23.0285
 2011.0000     7.9982   201.5302     2.4604     0.0082   -53.6710    13.0582    33.0534    25.3461
 2011.5000     7.9974   196.4518     2.4466     0.0060   -53.3753    13.0617    33.9264    25.6769
 2012.0000     7.9965   193.8313     2.4435     0.0060   -53.0796    13.2458    33.9264    25.6244
 2012.5000     7.9956   189.3780     2.4497     0.0059   -53.0788    13.0687    32.7842    25.3339
 2013.0000     7.9947   180.3866     2.4573     0.0044   -53.3732    13.0722    29.2293    24.7345
 2013.5000     7.9937   171.3953     2.4680     0.0043   -53.3724    12.8867    22.6304    21.4399
 2014.0000     7.9928   165.7947     2.4774     0.0058   -53.6667    12.7251    20.1950    20.0764
 2014.5000     7.9920   162.7021     2.4896     0.0054   -53.9668    12.7001    18.9745    21.5187
 2015.0000     7.9911   158.9151     2.4924     0.0057   -54.2552    12.5215    17.6795    23.6423
 2015.5000     7.9903   155.4234     2.4859     0.0057   -54.2879    12.3009    16.4728    24.1687
 2016.0000     7.9894   153.8327     2.4799     0.0057   -54.5960    12.0060    15.7293    22.6981
 2016.5000     7.9885   156.3887     2.4735     0.0056   -54.8430    11.8372    15.7293    22.6029
 2017.0000     8.0170   157.6043     2.4724     0.0056   -55.1373    11.7385    15.9466    23.0456
 2017.5000     8.0161   158.6165     2.4758     0.0071   -55.1364    11.7418    16.6170    20.0966
 2018.0000     8.0152   155.6497     2.4800     0.0070   -55.2380    11.7450    17.5549    19.8257
 2018.5000     8.0143   150.6058     2.4823     0.0085   -55.4301    11.7482    19.5924    20.1020
 2019.0000     8.0427   145.4293     2.4920     0.0100   -55.4292    11.7520    21.8664    20.6634
 2019.5000     8.0418   140.5060     2.5059     0.0100   -55.4285    11.7552    23.7435    21.8308
 2020.0000     8.0409   136.5065     2.5147     0.0099   -55.5851    11.7583    25.0836    22.1350
 2020.5000     8.0694   133.0676     2.5182     0.0099   -55.7220    11.7615    25.0836    22.1380
 2021.0000     8.0684   130.2146     2.5136     0.0100   -55.7211    11.6042    24.6100    20.3684
 2021.5000     8.0675   129.6003     2.5200     0.0114   -56.0155    11.4489    21.3535    19.2668
 2022.0000     8.0667   127.7813     2.5342     0.0113   -56.3096    11.1420    19.4863    18.2487
