~VERSION INFORMATION
 VERS.                2.0:   CWLS LOG ASCII STANDARD - VERSION 2.0
 WRAP.                 NO:   ONE LINE PER DEPTH STEP
~WELL INFORMATION
#MNEM.UNIT      DATA TYPE    INFORMATION
#----------   ------------   ------------------------------
 STRT.F          208.0000:   START DEPTH
 STOP.F         2980.0000:   STOP DEPTH
 STEP.F            0.5000:   STEP LENGTH
 NULL.          -999.2500:   NO VALUE
 COMP. FENIX & SCISSON INC:   COMPANY
 WELL. FENIX  32AX #28-28:   WELL
 FLD .        TEAPOT DOME:   FIELD
 LOC .      S28 T39N R78W:   LOCATION
 CNTY.            NATRONA:   COUNTY
 STAT.            WYOMING:   STATE
 CTRY. UNITED STATES OF AMERICA:   COUNTRY
 SRVC.           BIRDWELL:   SERVICE COMPANY
 DATE.        09-OCT-1977:   LOGDATE
 API .     49025104430000:   API NUMBER
~CURVE INFORMATION
#MNEM.UNIT       API CODE    CURVE DESCRIPTION
#----------   ------------   ------------------------------
 DEPT.F                  :   
 SPR .MV     05 010 01 00:   SPONTANEOUS POTENTIAL
 ILD .OHMM   05 120 46 00:   DEEP INDUCTION RESISTIVITY
 SN  .OHMM   05 040 16 00:   SHORT NORMAL
 GRD .GAPI   45 310 01 00:   GAMMA RAY FROM DENSITY LOG
 CALD.IN     45 280 60 00:   CALIPER FROM DENSITY LOG
 CORR.G/C3   45 356 01 00:   DENSITY CORRECTION
 DEN .G/C3   45 350 01 00:   BULK DENSITY
~PARAMETER INFORMATION
#MNEM.UNIT          VALUE    DESCRIPTION
#----------   ------------   ------------------------------
 EKB .F         5005.0000:   Kelly bushing
 EGL .F         4995.0000:   Ground level
 EDF .F            0.0000:   Drilling floor
 EPD .F         4995.0000:   Permanent datum
 TD  .F         2980.0000:   Total depth
 DATE.        09-OCT-1977:   Date logged
 CLNT.            A2DTECH:   Client Code
 SL  . 990' FNL & 1650' FWL:   Surface Location
 PD  .                 GL:   Permanent Datum
 DAPD.F                10:   Feet Above Permanent Datum
 DD  .F              2980:   Depth driller
 DL  .F              2979:   Depth logger
 BLI .F              2974:   Bottom log interval
 TLI .F               221:   Top log interval
 CS1 .IN            8.625:   Casing size
 CBD1.      8.625" @ 211':   Casing driller 1
 CBL1.F               221:   Casing logger 1
 BS1 .IN            7.875:   Bit size
 BSD1.F              2980:   Depth drilled with bit1
 DFT .            KCL GEL:   Type fluid in hole
 DFD .                8.8:   Density
 DFV .                 33:   Viscosity
 DFPH.                 11:   pH
 DFL .                6.4:   Fluid loss
 MSS .           FLOWLINE:   Source of sample
 RMS .OHMM            .52:   Rm
 MST .F                59:   Rm Meas. temp.
 RMF .OHMM            .67:   Rmf
 MFST.F                54:   Rmf Meas. temp.
 RMC .OHMM            .45:   Rmc
 MCST.F                56:   Rmc Meas. temp.
 MFSS.               MEAS:   Source Rmf.
 MCSS.               MEAS:   Source Rmc.
 RMB .OHMM            .35:   Rm. at BHT
 BHT .F                91:   BHT.
 TCS .HRS               3:   Time Circ. stopped
 MRT .F                91:   Maximum recorded temp.
 LUN .               2958:   Logging unit number
 LUL .             CASPER:   Logging unit location
 ENGI.                LAW:   Recorded By
 WITN.       W. PENINGELL:   Witnessed by
 ORIG.           5" PRINT:   Origin of data
 UWI .     49025104430000:   Unique Well ID
 DICO. A2D TECHNOLOGIES, INC.:   Digitizing Company
~OTHER INFORMATION
~A   DEPT      SPR        ILD         SN         GRD      CALD       CORR        DEN   
# ...
 2574.0000   -46.7920     8.2670     8.8620   133.1270     8.0450     0.0270     2.5260
 2574.5000   -47.1310     8.2400     8.8490   134.6250     8.0450     0.0240     2.5240
 2575.0000   -47.4310     8.2130     8.8360   130.1890     8.0450     0.0260     2.5370
 2575.5000   -47.6570     8.1130     8.7510   134.3680     8.0450     0.0290     2.5390
 2576.0000   -47.9420     7.9570     8.6500   138.2240     8.0450     0.0280     2.5420
 2576.5000   -48.1780     7.8390     8.5130   132.4050     8.0450     0.0170     2.5230
 2577.0000   -48.1750     7.6850     8.3290   130.9330     8.0450     0.0150     2.5260
 2577.5000   -48.2170     7.5360     8.1450   126.5930     8.0450     0.0160     2.5220
 2578.0000   -48.3670     7.3880     7.9610   129.2430     8.0450     0.0240     2.5320
 2578.5000   -48.2650     7.2840     7.7770   133.6920     8.0450     0.0220     2.5380
 2579.0000   -48.0050     7.0470     7.5930   134.9980     8.0450     0.0180     2.5300
 2579.5000   -48.7040     6.8310     7.4090   134.2930     8.0450     0.0180     2.5260
 2580.0000   -49.4640     6.6150     7.2250   133.0230     8.0450     0.0190     2.5310
 2580.5000   -49.1930     6.3990     7.0410   136.3530     8.0450     0.0060     2.5310
 2581.0000   -49.1340     6.0880     6.8570   134.5060     8.0450     0.0080     2.5250
 2581.5000   -49.0270     5.9180     6.6620   130.9320     8.0450     0.0110     2.5310
 2582.0000   -49.5220     5.6840     6.4170   131.4270     8.0450     0.0140     2.5360
 2582.5000   -49.5370     5.4720     6.1740   141.4020     8.0450     0.0110     2.5110
 2583.0000   -49.9750     5.2910     6.1740   140.1150     8.0450     0.0110     2.5140
 2583.5000   -50.5730     5.1090     6.1740   139.7740     8.0450     0.0130     2.5160
 2584.0000   -50.5640     5.0450     6.1740   142.2560     8.0450     0.0140     2.5170
 2584.5000   -50.6350     5.1440     6.1540   142.1550     8.0450     0.0120     2.5100
 2585.0000   -50.8990     5.1850     6.1300   145.4310     8.0450     0.0130     2.5130
 2585.5000   -51.1500     5.0450     6.1060   142.7070     8.0450     0.0140     2.5210
 2586.0000   -51.1190     5.1600     6.0820   140.1630     8.0450     0.0150     2.5210
 2586.5000   -51.0740     5.2820     6.0590   138.0740     8.0450     0.0160     2.5190
 2587.0000   -51.0300     5.1460     6.0330   145.1220     8.0450     0.0150     2.5250
 2587.5000   -50.9860     4.9810     6.0060   136.0980     8.0450     0.0100     2.5120
 2588.0000   -50.9630     4.8630     5.9970   138.9440     8.0450     0.0100     2.5190
 2588.5000   -51.0620     4.9530     5.9840   142.6920     8.0450     0.0100     2.5270
 2589.0000   -51.1650     4.9080     5.9710   143.3620     8.0450     0.0100     2.5220
 2589.5000   -50.7900     4.7870     5.9590   143.7850     8.0440     0.0100     2.5230
 2590.0000   -50.4220     4.6440     5.9510   145.8730     8.0380     0.0110     2.5300
 2590.5000   -50.6570     4.7740     5.9790   147.7270     8.0320     0.0150     2.5380
 2591.0000   -50.4890     4.7620     6.0030   148.5350     8.0250     0.0190     2.5390
 2591.5000   -50.2960     4.7310     6.1090   144.8090     8.0190     0.0170     2.5350
 2592.0000   -50.0400     4.9870     6.2650   141.6070     8.0130     0.0160     2.5320
 2592.5000   -49.5880     4.9230     6.4220   139.1650     8.0060     0.0150     2.5340
 2593.0000   -49.6630     4.8630     6.5790   136.5520     8.0050     0.0190     2.5430
 2593.5000   -49.7740     5.1220     6.7360   136.3040     8.0050     0.0250     2.5480
 2594.0000   -49.8770     5.4290     6.8930   136.4300     8.0040     0.0290     2.5410
 2594.5000   -49.8640     5.8030     7.0500   138.2260     8.0040     0.0280     2.5160
 2595.0000   -49.1970     6.1170     7.1510   140.0700     8.0040     0.0300     2.4980
 2595.5000   -48.7360     6.1170     7.1250   140.2150     8.0030     0.0440     2.5060
 2596.0000   -48.5480     6.0210     7.0970   130.1600     8.0030     0.0570     2.5220
 2596.5000   -48.1150     5.8550     7.0060   120.4420     8.0020     0.0400     2.5370
 2597.0000   -47.8020     5.6890     6.8030   120.8730     8.0020     0.0260     2.5340
 2597.5000   -48.7980     5.5230     6.6010   127.6710     8.0020     0.0250     2.5360
 2598.0000   -49.6110     5.3570     6.3990   135.4760     8.0010     0.0210     2.5340
 2598.5000   -50.1320     5.1910     6.2880   142.3940     8.0010     0.0150     2.5290
 2599.0000   -50.6720     5.0240     6.4140   140.5970     8.0010     0.0150     2.5260
 2599.5000   -50.5670     4.7740     6.5240   138.6520     8.0000     0.0170     2.5320
 2600.0000   -49.8890     4.8570     6.7190   134.8100     8.0000     0.0180     2.5370
 2600.5000   -49.2020     5.1310     6.9380   132.6670     7.9990     0.0150     2.5340
 2601.0000   -49.2210     5.4480     7.1580   129.8460     7.9990     0.0120     2.5310
 2601.5000   -49.2840     5.7650     7.3830   130.2180     7.9990     0.0090     2.5310
 2602.0000   -49.3420     6.0820     7.6940   131.5080     7.9980     0.0110     2.5300
 2602.5000   -49.0940     6.3990     8.0050   131.2180     7.9980     0.0140     2.5260
 2603.0000   -48.2970     6.7160     8.3170   136.8460     7.9970     0.0170     2.5210
 2603.5000   -47.9320     7.0330     8.6280   133.0030     7.9970     0.0170     2.5190
 2604.0000   -47.8070     7.3080     8.9960   136.1410     7.9970     0.0170     2.5260
 2604.5000   -47.0070     7.4240     8.9070   130.6620     7.9960     0.0260     2.5330
 2605.0000   -46.9220     7.5400     8.7970   135.0760     7.9960     0.0270     2.5260
 2605.5000   -46.8730     7.6570     8.6720   129.1830     7.9950     0.0180     2.5090
 2606.0000   -46.8170     7.6960     8.7610   126.7280     7.9950     0.0210     2.5030
 2606.5000   -46.7470     7.4770     8.8330   126.7550     7.9950     0.0250     2.5000
 2607.0000   -46.6610     7.3030     8.4280   123.2110     7.9940     0.0290     2.5030
 2607.5000   -46.6090     7.1720     8.1290   124.7540     7.9940     0.0250     2.5040
 2608.0000   -47.0020     7.0260     7.9840   120.7270     7.9930     0.0230     2.5000
 2608.5000   -48.7640     6.9570     7.9840   130.3940     7.9930     0.0250     2.5010
 2609.0000   -49.0390     7.0860     7.9840   137.6750     7.9930     0.0230     2.5040
 2609.5000   -48.9880     6.7690     7.9840   138.1700     7.9920     0.0220     2.5080
 2610.0000   -49.0090     6.5480     7.8950   135.5760     7.9920     0.0260     2.5150
 2610.5000   -49.0310     6.0060     7.6590   134.5740     7.9920     0.0250     2.5210
 2611.0000   -49.0560     6.2310     7.4220   137.2850     7.9910     0.0260     2.5290
 2611.5000   -49.0810     5.9770     7.1850   137.7950     7.9910     0.0300     2.5360
 2612.0000   -49.1050     5.7370     6.9570   146.0980     7.9900     0.0340     2.5340
 2612.5000   -49.1300     6.0060     7.0130   141.2450     7.9900     0.0330     2.5320
 2613.0000   -49.1540     5.7900     7.0860   139.4370     7.9900     0.0270     2.5320
 2613.5000   -49.1730     5.9510     7.0130   140.2080     7.9890     0.0200     2.5290
 2614.0000   -49.1720     5.7370     6.9570   146.7870     7.9890     0.0150     2.5240
 2614.5000   -49.1720     5.8430     7.1210   144.9850     7.9880     0.0180     2.5300
 2615.0000   -49.1700     5.7790     7.2480   148.7020     7.9880     0.0210     2.5390
 2615.5000   -49.1800     5.7370     7.2840   149.0190     7.9880     0.0230     2.5370
 2616.0000   -49.5880     5.8290     7.2650   154.0690     7.9870     0.0260     2.5440
 2616.5000   -49.9790     5.9280     7.2510   150.6350     7.9870     0.0240     2.5450
 2617.0000   -49.8780     6.0060     7.2370   153.0790     7.9860     0.0170     2.5430
 2617.5000   -49.7840     6.0060     7.2170   154.0660     7.9860     0.0110     2.5380
 2618.0000   -49.5640     6.0620     7.4520   151.3820     7.9860     0.0140     2.5330
 2618.5000   -49.2260     6.1170     7.8470   152.3990     7.9880     0.0200     2.5400
 2619.0000   -49.3580     6.4580     8.2410   142.8670     7.9920     0.0160     2.5470
