~VERSION INFORMATION
 VERS.                2.0:   CWLS LOG ASCII STANDARD - VERSION 2.0
 WRAP.                 NO:   ONE LINE PER DEPTH STEP
~WELL INFORMATION
#MNEM.UNIT      DATA TYPE    INFORMATION
#----------   ------------   ------------------------------
 STRT.F         3288.0000:   START DEPTH
 STOP.F         4421.0000:   STOP DEPTH
 STEP.F            0.5000:   STEP LENGTH
 NULL.          -999.2500:   NO VALUE
 COMP.       FLUOR DANIEL:   COMPANY
 WELL. FLUOR 22 "X" #2-10:   WELL
 FLD . TEA POT DOME NAVAL PETROLEUM DO:   FIELD
 LOC .      S10 T38N R78W:   LOCATION
 CNTY.            NATRONA:   COUNTY
 STAT.            WYOMING:   STATE
 CTRY. UNITED STATES OF AMERICA:   COUNTRY
 SRVC.        HALLIBURTON:   SERVICE COMPANY
 DATE.        13-DEC-1996:   LOGDATE
 API .     49025228330000:   API NUMBER
~CURVE INFORMATION
#MNEM.UNIT       API CODE    CURVE DESCRIPTION
#----------   ------------   ------------------------------
 DEPT.F                  :   
 NPHI.DEC    42 890 03 00:   NEUTRON POROSITY SANDSTONE
 GRD .GAPI   45 310 01 00:   GAMMA RAY FROM DENSITY LOG
 CALD.IN     45 280 60 00:   CALIPER FROM DENSITY LOG
 PE  .B/E    45 358 01 00:   PHOTOELECTRIC FACTOR
 CORR.G/C3   45 356 01 00:   DENSITY CORRECTION
 TEND.LBS    45 635 01 00:   TENSION FORM DENSITY LOG
 RHOB.G/C3   45 350 01 00:   BULK DENSITY
 TENR.LBS    07 635 01 00:   TENSION FROM RESISTIVITY
 ILD .OHMM   07 120 46 00:   DEEP INDUCTION RESISTIVITY
 ILM .OHMM   07 120 44 00:   INDUCTION LOG MEDIUM RESISTIVITY
 SFL .OHMM   07 220 01 00:   SHALLOW FOCUSED LOG RESISTIVITY
~PARAMETER INFORMATION
#MNEM.UNIT          VALUE    DESCRIPTION
#----------   ------------   ------------------------------
 EKB .F         5268.0000:   Kelly bushing
 EGL .F         5258.0000:   Ground level
 EDF .F         5267.0000:   Drilling floor
 TD  .F         4435.0000:   Total depth
 CLNT.            A2DTECH:   Client Code
 SL  . 569' FNL & 1440' FWL:   Surface Location
 PD  .                 GL:   Permanent Datum
 EPD .F              5258:   Elevation Permanent Datum
 LMF .                 KB:   Log Measured From
 DMF .                 KB:   Drilling Measured From
 DAPD.F                10:   Feet Above Permanent Datum
 DATE.        13-DEC-1996:   Date Logged [DD-MMM-YYYY]
 DD  .F              4435:   Depth driller
 DL  .F              4412:   Depth logger
 BLI .F              4403:   Bottom log interval
 TLI .F              3308:   Top log interval
 CS1 .IN            9.625:   Casing size
 CBD1.     9.625" @ 3307':   Casing driller 1
 CBL1.F              3308:   Casing logger 1
 BS1 .IN              8.5:   Bit size
 BSD1.F              4435:   Depth drilled with bit1
 DFT .           POLY-KCL:   Type fluid in hole
 DFD .                  9:   Density
 DFV .                 50:   Viscosity
 DFPH.                  9:   pH
 DFL .                  7:   Fluid loss
 MSS .           MUD TANK:   Source of sample
 RMS .OHMM           0.47:   Rm
 MST .F                56:   Rm Meas. temp.
 RMF .OHMM           0.36:   Rmf
 MFST.F                61:   Rmf Meas. temp.
 MFSS.               MEAS:   Source Rmf.
 RMC .OHMM           0.48:   Rmc
 MCST.F                68:   Rmc Meas. temp.
 MCSS.               MEAS:   Source Rmc.
 RMB .OHMM           0.20:   Rm. at BHT
 BHT .F               138:   BHT.
 TCS .HRS              20:   Time Circ. stopped
 TLAB.HRS            0108:   Time logger at bottom
 MRT .F               138:   Maximum recorded temp.
 LUN .              52546:   Logging unit number
 LUL .              VERNI:   Logging unit location
 ENGI.        JOHN SAVAGE:   Recorded By
 WITN.          STEBBINGS:   Witnessed by
 ORIG.         2.5" PRINT:   Origin of data
 UWI .     49025228330000:   Unique Well ID
 DICO. A2D TECHNOLOGIES, INC.:   Digitizing Company
~OTHER INFORMATION
~A  DEPT        NPHI       GRD      CALD         PE       CORR       TEND       RHOB       TENR        ILD        ILM        SFL   
# ...
 4294.5000     0.2279   116.6495     9.2088     3.1705     0.0440  3388.6709     2.5807  3365.8894     7.1705     8.1946     7.9021
 4295.0000     0.2285   113.0211     9.2085     3.0891     0.0440  3388.2175     2.5733  3338.4465     7.2146     8.0602    10.3350
 4295.5000     0.2309   112.4140     9.2082     2.9645     0.0471  3357.5527     2.5645  3339.8320     7.0170     7.3920    11.0481
 4296.0000     0.2358   113.6999     9.2079     2.8399     0.0471  3357.0996     2.5582  3341.2190     6.5546     6.6741    11.1919
 4296.5000     0.2432   115.6702     9.2076     2.7152     0.0487  3326.4351     2.5535  3342.6045     5.7229     5.7895    10.9954
 4297.0000     0.2601   118.1669     9.2073     2.5671     0.0507  3325.9026     2.5483  3284.3940     4.9847     5.1946    10.1944
 4297.5000     0.2861   120.0546     9.2069     2.5574     0.0559  3234.8286     2.5468  3190.9678     4.3470     4.4758     7.3071
 4298.0000     0.3066   121.4628     9.2066     2.6278     0.0639  3143.7537     2.5423  3077.1401     4.1039     4.1819     5.5514
 4298.5000     0.3160   120.2910     9.1904     2.7186     0.0756  3203.7366     2.5363  3056.6042     3.8745     3.9581     4.9810
 4299.0000     0.3297   117.7905     9.2060     2.8396     0.0907  3414.7771     2.5045  3244.3940     3.5656     3.7317     4.6548
 4299.5000     0.3492   116.0145     9.2057     2.9908     0.1198  3444.5620     2.4607  3431.4717     3.2471     3.4362     4.4685
 4300.0000     0.3658   113.3471     9.2182     3.1017     0.1631  3383.6377     2.3776  3236.3823     2.7903     2.9827     4.2323
 4300.5000     0.3674   108.8244     9.2575     3.1424     0.1509  3247.5547     2.2816  3325.2329     2.5096     2.3457     3.7534
 4301.0000     0.3665   101.2648     9.2968     3.1429     0.1022  3388.0039     2.2047  3317.4817     1.8294     1.7937     3.0544
 4301.5000     0.3012    84.5931     9.2907     3.1434     0.1083  3171.2876     2.2673  3211.3872     1.8447     1.5760     2.9783
 4302.0000     0.2295    62.2199     9.1132     3.0835     0.1053  3170.9978     2.4155  3215.1628     2.0127     1.6155     2.8949
 4302.5000     0.1253    49.5275     9.0222     3.0235     0.0962  3327.2903     2.5484  3283.3491     3.0928     2.8804     4.6311
 4303.0000     0.1230    48.9196     8.9917     2.9635     0.1335  3300.2839     2.5922  3265.7139     8.0586     5.7495     8.2020
 4303.5000     0.1272    51.9371     8.9913     2.9035     0.1785  3200.3401     2.6028  3194.4521    16.7996    14.9892    18.8757
 4304.0000     0.1535    58.5800     9.0514     2.8435     0.2009  3441.7419     2.5545  3246.5564    14.4378    15.2343    21.6884
 4304.5000     0.2813    74.3022     9.2105     2.8456     0.2212  3298.5774     2.4390  3366.3691     6.1387     7.4171     8.0763
 4305.0000     0.3591   105.2431     9.5225     2.9048     0.2449  3169.1841     2.3720  3163.4739     4.0363     2.8300     2.6310
 4305.5000     0.5062   114.7719     9.8362     2.9355     0.2487  3229.2473     2.3219  3223.1685     1.8681     2.2201     1.9754
 4306.0000     0.5082   119.5927    10.0252     2.8275     0.2305  3259.2144     2.2762  3341.1721     1.4444     1.5149     1.7966
 4306.5000     0.5019   117.0683    10.0465     2.6722     0.1969  3228.6677     2.1923  3283.6584     1.4669     1.4716     1.7242
 4307.0000     0.4949   110.1265     9.9589     2.5469     0.1909  3198.1667     2.1558  3198.1721     1.6036     1.6383     1.7462
 4307.5000     0.4867   100.7269     9.8946     2.4680     0.1878  3197.8770     2.1612  3213.8408     1.8126     1.9663     1.9452
 4308.0000     0.4808    95.4071     9.5619     2.3940     0.1696  3228.5945     2.1437  3189.3574     1.9128     1.9387     2.0268
 4308.5000     0.4771    95.2104     9.4407     2.3341     0.1460  3291.2993     2.1403  3178.3457     1.8210     1.8356     2.0750
 4309.0000     0.4694    96.6083     9.3497     2.3042     0.1246  3317.8533     2.1604  3192.9985     1.5810     1.6465     1.9310
 4309.5000     0.4526    99.0216     9.2587     2.2443     0.1060  3317.5227     2.2495  3269.1050     1.4182     1.4699     1.7104
 4310.0000     0.4344    99.0685     9.1979     2.2447     0.0945  3328.2961     2.3039  3228.4004     1.3247     1.3538     1.5000
 4310.5000     0.4163    95.3890     9.1673     2.2452     0.0833  3347.1301     2.3677  3185.4221     1.3419     1.3240     1.4002
 4311.0000     0.4066    92.9229     9.1367     2.2456     0.0714  3316.6165     2.3769  3245.7166     1.4350     1.4016     1.4373
 4311.5000     0.3999    91.7560     9.1363     2.2513     0.0612  3286.0479     2.3813  3305.6743     1.6860     1.6222     1.7359
 4312.0000     0.3921    91.6113     9.1360     2.2844     0.0570  3285.7581     2.3830  3219.8577     1.6554     1.6561     1.8528
 4312.5000     0.3822    91.1443     9.1356     2.3074     0.0539  3255.2568     2.3877  3257.9875     1.6168     1.6167     1.8575
 4313.0000     0.3748    91.1405     9.1424     2.3203     0.0539  3194.5439     2.3930  3427.2351     1.6390     1.6376     1.8750
 4313.5000     0.3721    91.1367     9.1528     2.3534     0.0540  3164.0427     2.3993  3293.2217     1.6812     1.6588     1.9110
 4314.0000     0.3754    91.1329     9.1632     2.3865     0.0525  3196.7881     2.4022  3210.8530     1.7496     1.7263     2.0016
 4314.5000     0.3782    92.3369     9.1736     2.4301     0.0510  3288.2893     2.4053  3287.2285     1.7484     1.7251     2.0273
 4315.0000     0.3777    94.7502     9.1840     2.4608     0.0492  3314.2310     2.4068  3318.0317     1.7008     1.7239     2.0256
 4315.5000     0.3749    97.7677     9.1938     2.4914     0.0461  3274.5791     2.4113  3319.6787     1.6510     1.7133     1.7224
 4316.0000     0.3680   100.7853     9.1571     2.5221     0.0429  3253.2280     2.4159  3350.4819     1.6311     1.6310     1.5877
 4316.5000     0.3534   103.1985     9.1326     2.5527     0.0413  3462.6890     2.4190  3410.4380     1.6588     1.6298     1.6327
 4317.0000     0.3425   103.7991     9.1020     2.5532     0.0396  3430.3296     2.4223  3284.2795     1.7151     1.6961     2.0253
 4317.5000     0.3437   102.5242     9.0714     2.5536     0.0374  3312.6370     2.4265  3238.8064     1.7537     1.7414     2.1823
 4318.0000     0.3474   101.9792     9.0710     2.5541     0.0359  3251.9241     2.4203  3328.2793     1.8120     1.8122     2.2449
 4318.5000     0.3504   103.9459     9.0705     2.5155     0.0329  3312.0574     2.4078  3268.0903     1.7626     1.8076     2.0140
 4319.0000     0.3510   106.0109     9.1005     2.4833     0.0344  3311.7676     2.3982  3215.1599     1.7378     1.7338     1.8565
 4319.5000     0.3503   106.8014     9.1302     2.4648     0.0405  3190.6318     2.3910  3129.6033     1.7367     1.7135     1.8059
 4320.0000     0.3424   107.4018     9.1601     2.4814     0.0451  3160.1306     2.3979  3131.2502     1.8369     1.7642     1.7566
 4320.5000     0.3218   108.3528     9.1597     2.4960     0.0450  3380.4058     2.4070  3343.7871     2.0320     1.9340     1.9277
 4321.0000     0.3147   109.2063     9.1292     2.5267     0.0419  3431.4541     2.4176  3426.0911     2.1977     2.1803     2.2652
 4321.5000     0.3176   109.2027     9.1266     2.5573     0.0391  3351.2512     2.4266  3264.4700     2.2390     2.2387     2.4429
 4322.0000     0.3248   107.9906     9.0982     2.5879     0.0391  3255.1460     2.4268  3192.1458     2.2072     2.2371     2.5332
 4322.5000     0.3265   107.3827     9.0978     2.5884     0.0398  3188.8218     2.4221  3285.7139     2.1467     2.2057     2.4813
 4323.0000     0.3262   107.3791     9.0974     2.6190     0.0430  3283.7688     2.4191  3229.4243     2.0881     2.1150     2.3496
 4323.5000     0.3216   107.3754     9.0971     2.6195     0.0462  3218.3799     2.4222  3260.2258     2.0588     2.0589     2.1369
 4324.0000     0.3063   107.3716     9.0967     2.6199     0.0484  3248.3018     2.4157  3407.6455     2.0855     2.0575     2.1068
 4324.5000     0.3069   107.3678     9.0963     2.6204     0.0484  3429.2808     2.4172  3234.3669     2.1412     2.0561     2.2230
