~VERSION INFORMATION
 VERS.                2.0:   CWLS LOG ASCII STANDARD - VERSION 2.0
 WRAP.                 NO:   ONE LINE PER DEPTH STEP
~WELL INFORMATION
#MNEM.UNIT      DATA TYPE    INFORMATION
#----------   ------------   ------------------------------
 STRT.F          482.0000:   START DEPTH
 STOP.F         4000.0000:   STOP DEPTH
 STEP.F            0.5000:   STEP LENGTH
 NULL.          -999.2500:   NO VALUE
 COMP.    FENIX & SCISSON:   COMPANY
 WELL. FENIX  NPR 3 "LX" #56-10:   WELL
 FLD .              N P R:   FIELD
 LOC .      S10 T38N R78W:   LOCATION
 CNTY.            NATRONA:   COUNTY
 STAT.            WYOMING:   STATE
 CTRY. UNITED STATES OF AMERICA:   COUNTRY
 SRVC.       SCHLUMBERGER:   SERVICE COMPANY
 DATE.        11-JUL-1978:   LOGDATE
 API .     49025107100000:   API NUMBER
~CURVE INFORMATION
#MNEM.UNIT       API CODE    CURVE DESCRIPTION
#----------   ------------   ------------------------------
 DEPT.F                  :   
 GRD .GAPI   45 310 01 00:   GAMMA RAY FROM DENSITY LOG
 CALD.IN     45 280 60 00:   CALIPER FROM DENSITY LOG
 RHOB.G/C3   45 350 01 00:   BULK DENSITY
 NPHI.DEC    42 890 03 00:   NEUTRON POROSITY SANDSTONE
 DRHO.G/C3   45 356 01 00:   DENSITY CORRECTION
 TEND.LBS    45 635 01 00:   TENSION FROM DENSITY LOG
 SPR .MV     07 010 01 00:   SPONTANEOUS POTENTIAL
 TENR.LBS    07 635 01 00:   TENSION FROM RESISTIVITY
 ILD .OHMM   07 120 46 00:   DEEP INDUCTION RESISTIVITY
 ILM .OHMM   07 120 44 00:   INDUCTION LOG MEDIUM RESISTIVITY
 SFLU.OHMM   07 220 01 00:   SPHERICALLY FOCUSED LOG UNAVERAGED RESISTIVITY
~PARAMETER INFORMATION
#MNEM.UNIT          VALUE    DESCRIPTION
#----------   ------------   ------------------------------
 EKB .F         5212.0000:   Kelly bushing
 EGL .F         5202.0000:   Ground level
 EDF .F            0.0000:   Drilling floor
 TD  .F         4000.0000:   Total depth
 DATE.        11-JUL-1978:   Date logged
 CLNT.            A2DTECH:   Client Code
 SL  . 1144' FSL & 2183' FEL:   Surface Location
 PD  .                 GL:   Permanent Datum
 EPD .F              5202:   Elevation Permanent Datum
 LMF .                 KB:   Log Measured From
 DMF .                 KB:   Drilling Measured From
 DD  .F              4000:   Depth driller
 DL  .F              3990:   Depth logger
 BLI .F              3985:   Bottom log interval
 TLI .F               501:   Top log interval
 CS1 .IN            9.625:   Casing size
 CBD1.      9.625" @ 500':   Casing driller 1
 CBL1.F               501:   Casing logger 1
 BS1 .IN            7.875:   Bit size
 DFT .                FGM:   Type fluid in hole
 DFD .                9.1:   Density
 DFV .                 50:   Viscosity
 DFPH.                 12:   pH
 DFL .                4.4:   Fluid loss
 MSS .           MUD/TANK:   Source of sample
 RMS .OHMM           .714:   Rm
 MST .F                83:   Rm Meas. temp.
 RMF .OHMM           .585:   Rmf
 MFST.F                83:   Rmf Meas. temp.
 MFSS.               MEAS:   Source Rmf.
 RMB .OHMM            .42:   Rm. at BHT
 BHT .F               140:   BHT.
 TCS .HRS            1000:   Time Circ. stopped
 MRT .F               140:   Maximum recorded temp.
 LUN .               8035:   Logging unit number
 LUL .       ROCK SPRINGS:   Logging unit location
 ENGI.             MARTIN:   Recorded By
 WITN.           MCCINLEY:   Witnessed by
 ORIG.           5" PRINT:   Origin of data
 UWI .     49025107100000:   Unique Well ID
 DICO. A2D TECHNOLOGIES, INC.:   Digitizing Company
 DAPD.F                10:   Feet Above Permanent Datum
 BSD1.F              4000:   Depth drilled with bit1
 TLAB.HRS            1300:   Time logger at bottom
~OTHER INFORMATION
~A   DEPT       GRD      CALD       RHOB         NPHI     DRHO       TEND        SPR       TENR        ILD        ILM       SFLU   
# ...
 3257.5000   141.0750    10.4940     2.4530     0.3200     0.1580  1280.9180    -7.8900  1105.2830     4.3890     4.4770     5.3890
 3258.0000   143.4150    10.5550     2.4290     0.3200     0.1150  1281.1470    -7.9490  1106.1790     4.3360     4.3770     5.0710
 3258.5000   141.1880    10.3980     2.4650     0.3400     0.0910  1281.3770    -8.0090  1107.0750     4.2820     4.2690     4.7530
 3259.0000   130.4860    10.1880     2.5030     0.3670     0.0730  1281.6060    -8.0660  1107.9709     4.1920     4.2690     4.4350
 3259.5000   114.7480    10.1700     2.5540     0.3750     0.0250  1281.8350    -8.1250  1108.8669     4.2690     4.4940     4.3490
 3260.0000    95.9560    10.1670     2.6780     0.3530    -0.0070  1282.0649    -8.1840  1109.7629     4.5290     4.6920     4.6800
 3260.5000    86.2560    10.1780     2.8740     0.3130     0.0230  1282.2939    -8.2420  1110.6591     4.9460     4.8910     7.2410
 3261.0000    95.3510    10.2120     2.8420     0.2940     0.0700  1282.5240    -8.3010  1111.5551     4.6680     5.0890    11.1060
 3261.5000   116.6630    10.2100     2.7430     0.2940     0.0620  1282.7531    -8.3600  1112.4510     4.1260     5.2260    10.6030
 3262.0000   135.3510    10.2040     2.6340     0.2970     0.0530  1282.9821    -8.4170  1113.3470     3.5850     4.9460     8.9780
 3262.5000   153.9440    10.2170     2.3310     0.3100     0.0600  1283.2120    -8.4800  1114.2430     3.0430     4.2940     7.3530
 3263.0000   163.9480    10.2310     2.0930     0.3460     0.0800  1283.4410    -8.5320  1115.1400     2.5020     3.6220     5.7280
 3263.5000   170.3090    10.8200     1.9160     0.3930     0.1040  1283.6700    -8.5890  1116.0360     1.9010     2.9490     4.1030
 3264.0000   167.2330    11.4670     1.8180     0.4670     0.0880  1283.9000    -8.4100  1116.9320     1.8760     2.2760     2.4780
 3264.5000   157.3250    11.9880     1.8020     0.5030     0.0210  1284.1290    -8.1980  1117.8280     1.7990     1.5250     1.3160
 3265.0000   146.7910    11.7090     2.0760     0.4430    -0.0160  1284.3580    -7.9820  1118.7240     1.7990     1.7660     1.4700
 3265.5000   138.0300    10.7720     2.2110     0.3830    -0.0040  1284.5880    -7.7700  1119.6200     1.8730     2.0880     2.6390
 3266.0000   133.4230    10.1980     2.3330     0.3230     0.0070  1284.8170    -7.5510  1120.5160     1.9370     2.4090     3.7210
 3266.5000   131.6900    10.2650     2.4540     0.3030     0.0190  1285.0460    -7.4170  1121.4120     2.3240     2.7300     4.9460
 3267.0000   134.3310    10.2470     2.4960     0.3070     0.0310  1285.2760    -7.4820  1122.3080     2.6850     3.0510     5.0380
 3267.5000   137.1040    10.2520     2.5220     0.3070     0.0420  1285.5050    -7.5400  1123.2040     3.0460     3.3720     5.0380
 3268.0000   139.9420    10.2730     2.5090     0.3020     0.0590  1285.7350    -7.6030  1124.1000     3.4070     3.6940     5.0380
 3268.5000   142.8230    10.2820     2.4900     0.2990     0.0550  1285.9640    -7.6690  1124.9960     3.7680     4.0150     5.0380
 3269.0000   145.6950    10.2970     2.4630     0.2980     0.0390  1286.1930    -7.7240  1125.8920     3.9670     4.1920     5.1310
 3269.5000   146.5040    10.3100     2.4740     0.2950     0.0320  1286.4230    -7.7900  1126.7880     4.0400     4.1780     5.1310
 3270.0000   145.3970    10.3240     2.4980     0.2970     0.0800  1286.6520    -7.6210  1127.6840     4.0400     4.1570     5.1310
 3270.5000   144.3540    10.3370     2.5330     0.3010     0.1250  1286.8810    -7.4070  1128.5800     4.0350     4.1360     5.1310
 3271.0000   143.2540    10.3510     2.5230     0.3120     0.1540  1287.1110    -7.1960  1129.4760     4.0100     4.1150     4.9920
 3271.5000   142.2220    10.3650     2.4980     0.3220     0.1500  1287.3400    -6.9740  1130.3730     3.9860     4.0940     4.8250
 3272.0000   141.1300    10.3780     2.4820     0.3150     0.1610  1287.5690    -6.7640  1131.2690     3.9620     4.0730     4.6580
 3272.5000   141.5510    10.3920     2.5010     0.3090     0.1760  1287.7990    -6.7490  1132.1650     3.9380     4.0530     4.5950
 3273.0000   142.2780    10.4050     2.4950     0.3020     0.1520  1288.0280    -7.3690  1133.0610     3.9140     4.0400     4.5950
 3273.5000   143.7540    10.4190     2.4470     0.3080     0.1180  1288.2581    -7.2670  1133.9570     3.8980     4.0400     4.7270
 3274.0000   145.8740    10.4320     2.4280     0.3140     0.0690  1288.4871    -7.1730  1134.8530     3.9140     4.0430     4.8560
 3274.5000   147.8050    10.4460     2.4400     0.3200     0.0810  1288.7159    -7.0420  1135.7490     3.9310     4.0490     4.9860
 3275.0000   149.6370    10.4590     2.4730     0.3260     0.1150  1288.9460    -6.9310  1136.6450     3.9470     4.0550     5.1150
 3275.5000   149.1440    10.4730     2.5070     0.3340     0.1470  1289.1750    -6.8100  1137.5410     3.9630     4.0610     5.3230
 3276.0000   148.5020    10.4870     2.4960     0.3300     0.1670  1289.4041    -6.6940  1138.0690     3.9850     4.0670     5.2770
 3276.5000   147.7320    10.5100     2.4850     0.3220     0.1710  1289.6340    -6.6140  1138.5020     4.0080     4.0730     5.1580
 3277.0000   147.5950    10.5340     2.4880     0.3130     0.1790  1288.3640    -6.7620  1138.9351     4.0310     4.0790     5.0380
 3277.5000   145.4550    10.5580     2.5000     0.3090     0.1890  1286.6899    -6.8860  1139.3680     4.0410     4.0850     5.0380
 3278.0000   142.9580    10.5820     2.5110     0.3100     0.2000  1285.0150    -7.0270  1139.8010     4.0410     4.0910     5.0380
 3278.5000   141.8290    10.6050     2.5230     0.3100     0.2010  1283.3400    -7.1500  1140.2340     4.0410     4.0970     5.0380
 3279.0000   141.8150    10.6290     2.5210     0.3160     0.1980  1281.6650    -7.2940  1140.6670     4.0280     4.1030     5.0380
 3279.5000   144.1080    10.6520     2.5180     0.3310     0.2040  1279.9910    -7.4320  1141.1000     3.9940     4.1080     5.0380
 3280.0000   144.5190    10.6780     2.5160     0.3460     0.2130  1278.3160    -7.8710  1141.5330     3.9610     4.1140     5.0380
 3280.5000   144.9980    10.7000     2.5120     0.3360     0.2210  1276.6410    -8.2620  1141.9659     3.9270     4.0970     4.9820
 3281.0000   143.9280    10.7170     2.5180     0.3260     0.2290  1274.9659    -8.6640  1142.3990     3.8930     4.0790     4.9240
 3281.5000   141.8280    10.6390     2.5240     0.3160     0.2370  1273.2920    -8.9770  1142.8320     3.8600     4.0610     4.8660
 3282.0000   141.6020    10.5700     2.5280     0.3090     0.2450  1271.6169    -8.7960  1143.2650     3.8240     4.0420     4.8080
 3282.5000   141.3430    10.5780     2.5010     0.3170     0.2380  1269.9420    -8.6410  1143.6980     3.8240     4.0240     4.7500
 3283.0000   141.1610    10.6300     2.4750     0.3250     0.2000  1268.2670    -8.4610  1144.1310     3.8600     4.0060     4.6920
 3283.5000   141.8130    10.6760     2.4360     0.3330     0.1620  1266.5930    -8.2930  1144.5640     3.8920     3.9880     4.5950
 3284.0000   142.4890    10.7110     2.4500     0.3380     0.1250  1264.9180    -8.1220  1144.9969     3.9230     3.9680     4.6410
 3284.5000   142.4090    10.5260     2.4940     0.3300     0.1340  1263.2430    -7.9500  1145.4301     3.9550     4.0030     4.7780
 3285.0000   141.8530    10.4420     2.5470     0.3200     0.1620  1261.5680    -7.7800  1145.8630     3.9870     4.0400     4.9160
 3285.5000   141.3380    10.4470     2.5340     0.3110     0.1710  1259.8940    -7.6090  1146.2960     4.0400     4.0770     5.0380
 3286.0000   140.8910    10.4460     2.5030     0.3080     0.1340  1258.2190    -7.4370  1146.7290     4.0330     4.1150     5.1310
 3286.5000   140.3770    10.4530     2.4750     0.3080     0.0980  1256.5439    -7.2660  1147.1620     4.0100     4.1520     5.2260
 3287.0000   141.2270    10.4780     2.4520     0.3120     0.0610  1254.8700    -7.0970  1147.5950     3.9870     4.1900     5.2260
 3287.5000   142.6640    10.5010     2.4630     0.3110     0.0470  1253.1949    -6.9220  1148.0280     3.9630     4.2280     5.2260
