~VERSION INFORMATION
 VERS.                2.0:   CWLS LOG ASCII STANDARD - VERSION 2.0
 WRAP.                 NO:   ONE LINE PER DEPTH STEP
~WELL INFORMATION
#MNEM.UNIT      DATA TYPE    INFORMATION
#----------   ------------   ------------------------------
 STRT.F            0.0000:   START DEPTH
 STOP.F         1064.0000:   STOP DEPTH
 STEP.F            0.5000:   STEP LENGTH
 NULL.          -999.2500:   NO VALUE
 COMP.  JOHN BROWN E. & C:   COMPANY
 WELL. JOHN BROWN NPR 3-1 "X" #68-2:   WELL
 FLD .                NPR:   FIELD
 LOC .       S2 T38N R78W:   LOCATION
 CNTY.            NATRONA:   COUNTY
 STAT.            WYOMING:   STATE
 CTRY. UNITED STATES OF AMERICA:   COUNTRY
 SRVC.     ATLAS WIRELINE:   SERVICE COMPANY
 DATE.        25-JAN-1992:   LOGDATE
 API .     49025224850000:   API NUMBER
~CURVE INFORMATION
#MNEM.UNIT       API CODE    CURVE DESCRIPTION
#----------   ------------   ------------------------------
 DEPT.F                  :   
 GRR .GAPI   07 310 01 00:   GAMMA RAY FROM RESISTIVITY
 TENR.LBS    07 635 01 00:   TENSION
 RILD.OHMM   07 120 46 00:   INDUCTION LOG DEEP RESISTIVITY
 RILM.OHMM   07 120 44 00:   INDUCTION LOG MEDIUM RESISTIVITY
~PARAMETER INFORMATION
#MNEM.UNIT          VALUE    DESCRIPTION
#----------   ------------   ------------------------------
 EKB .F         5197.0000:   Kelly bushing
 EGL .F         5187.0000:   Ground level
 TD  .F         1060.0000:   Total depth
 DATE.        25-JAN-1992:   Date logged
 CLNT.            A2DTECH:   Client Code
 PD  .                 GL:   Permanent Datum
 EPD .F               518:   Elevation Permanent Datum
 LMF .                 KB:   Log Measured From
 DMF .                 KB:   Drilling Measured From
 DAPD.F                10:   Feet Above Permanent Datum
 DD  .F              1060:   Depth driller
 DL  .F              1057:   Depth logger
 BLI .F              1055:   Bottom log interval
 CS1 .IN            10.75:   Casing size
 CBD1.       10.75" @ 50':   Casing driller 1
 CBL1.F                50:   Casing logger 1
 BS1 .IN             8.75:   Bit size
 BSD1.F              1060:   Depth drilled with bit1
 DFT .                AIR:   Type fluid in hole
 LUN .            HL-6307:   Logging unit number
 LUL .             CASPER:   Logging unit location
 ENGI.             ZIEGER:   Recorded By
 WITN.             STRONG:   Witnessed by
 ORIG.           5" PRINT:   Origin of data
 UWI .     49025224850000:   Unique Well ID
 DICO. A2D TECHNOLOGIES, INC.:   Digitizing Company
~OTHER INFORMATION
~A    DEPT      GRR      TENR       RILD       RILM   
# ...
   73.0000   125.4280   -35.9770     5.9080     5.8540
   73.5000   121.3270   -36.1030     5.9400     5.9630
   74.0000   118.0000   -36.2290     5.9720     5.9520
   74.5000   117.1780   -36.3550     6.0180     5.9340
   75.0000   119.4090   -36.4810     5.9810     5.9150
   75.5000   122.4830   -36.6070     5.9200     5.7740
   76.0000   125.5620   -36.7330     5.6950     5.5510
   76.5000   127.6980   -36.8590     5.4370     5.3280
   77.0000   127.2900   -36.9850     5.4370     5.1910
   77.5000   124.5040   -37.1110     5.3870     5.1440
   78.0000   121.3920   -37.2370     5.3170     5.1440
   78.5000   121.0290   -37.3630     5.2390     5.1440
   79.0000   120.7000   -37.4890     5.2710     5.1960
   79.5000   119.6270   -37.6150     5.3090     5.2580
   80.0000   118.5430   -37.7410     5.3530     5.3200
   80.5000   117.5850   -37.8660     5.4130     5.3820
   81.0000   117.3260   -37.9920     5.4740     5.4440
   81.5000   117.7730   -38.1180     5.5340     5.5060
   82.0000   118.8850   -38.2440     5.5890     5.5380
   82.5000   122.7110   -38.3700     5.5760     5.4990
   83.0000   126.7290   -38.4960     5.5640     5.4630
   83.5000   130.2960   -38.6220     5.5510     5.4260
   84.0000   128.0770   -38.7480     5.5380     5.3870
   84.5000   125.2410   -38.8740     5.4550     5.3740
   85.0000   122.5820   -39.0000     5.3370     5.3560
   85.5000   121.3720   -39.1260     5.3560     5.3370
   86.0000   120.8280   -39.2520     5.3920     5.3480
   86.5000   122.0570   -39.3780     5.4280     5.3690
   87.0000   123.5340   -39.5040     5.4640     5.3870
   87.5000   124.2780   -39.6300     5.4870     5.3490
   88.0000   122.4570   -39.7550     5.3810     5.2810
   88.5000   119.8050   -39.8810     5.3030     5.2130
   89.0000   119.3600   -40.0070     5.2250     5.1440
   89.5000   123.3450   -40.1330     5.1460     5.0760
   90.0000   126.4810   -40.2590     5.0680     5.0080
   90.5000   125.6280   -40.3850     4.9570     4.9390
   91.0000   123.7090   -40.5110     4.9860     4.9110
   91.5000   123.0610   -40.6370     5.0350     4.9570
   92.0000   122.4090   -40.7630     5.0850     5.0030
   92.5000   120.3700   -40.8890     5.1340     5.0490
   93.0000   118.3230   -41.0150     5.2340     5.1620
   93.5000   118.1980   -41.1410     5.3470     5.2740
   94.0000   118.4390   -41.2670     5.4590     5.3860
   94.5000   117.0170   -41.3930     5.5890     5.4970
   95.0000   114.6800   -41.5190     5.5790     5.5650
   95.5000   112.3490   -41.6440     5.5670     5.5890
   96.0000   111.0940   -41.7700     5.5550     5.5380
   96.5000   111.2390   -41.8960     5.5420     5.4780
   97.0000   113.5150   -42.0220     5.5010     5.4170
   97.5000   116.5360   -42.1480     5.4450     5.3570
   98.0000   119.5980   -42.2740     5.3880     5.2960
   98.5000   120.8320   -42.4000     5.3320     5.2360
   99.0000   121.5080   -42.5260     5.2760     5.1750
   99.5000   120.8000   -42.6520     5.1910     5.1150
  100.0000   119.5880   -42.7780     5.2410     5.0960
  100.5000   118.3200   -42.9040     5.3410     5.2470
  101.0000   118.6920   -43.0300     5.4400     5.3850
  101.5000   119.6010   -43.1560     5.5430     5.5220
  102.0000   119.8010   -43.2820     5.6480     5.6600
  102.5000   120.7910   -43.4080     5.7530     5.7970
  103.0000   120.0630   -43.5330     5.8580     5.9340
  103.5000   119.2690   -43.6590     5.9630     6.0740
  104.0000   120.0860   -43.7850     6.0680     6.0740
  104.5000   123.5560   -43.9110     6.1300     6.0180
  105.0000   125.4790   -44.0370     6.0830     5.8560
  105.5000   122.2920   -44.1630     5.8670     5.6950
  106.0000   118.0750   -44.2890     5.6510     5.5340
  106.5000   117.3050   -44.3830     5.4350     5.3730
  107.0000   117.9020   -44.3830     5.2190     5.2120
  107.5000   117.2740   -44.3830     5.1350     5.0510
  108.0000   114.2390   -44.3830     5.0690     4.8900
  108.5000   112.4920   -44.3830     5.0030     4.7770
  109.0000   114.3100   -44.3830     5.0030     4.7960
  109.5000   118.5010   -44.3830     5.0030     4.8580
  110.0000   120.7220   -44.3830     5.0130     4.9270
  110.5000   117.2680   -44.3830     5.0840     5.0440
  111.0000   112.9560   -44.3830     5.1660     5.1610
  111.5000   112.9220   -44.3830     5.3040     5.2780
  112.0000   120.3700   -44.3830     5.4420     5.3940
  112.5000   126.8610   -44.3830     5.5800     5.5110
  113.0000   128.0890   -44.3830     5.7190     5.6280
  113.5000   125.6710   -44.3830     5.8570     5.7440
  114.0000   122.2050   -44.3830     5.9620     5.8610
  114.5000   123.6030   -44.3830     6.0490     5.9780
  115.0000   124.1170   -44.3830     6.1300     6.0310
  115.5000   121.9070   -44.3830     6.1560     6.0520
  116.0000   119.2780   -44.3830     6.1800     6.0720
  116.5000   120.5050   -44.3830     6.1870     6.0740
  117.0000   121.9950   -44.3830     6.1050     5.8980
  117.5000   121.9430   -44.3830     5.9910     5.7380
  118.0000   121.7540   -44.3830     5.8290     5.6090
  118.5000   121.3130   -44.3830     5.6670     5.4930
  119.0000   116.8610   -44.3830     5.5040     5.3760
  119.5000   112.2060   -44.3830     5.3370     5.2600
  120.0000   113.7720   -44.3830     5.2410     5.1430
  120.5000   116.2520   -44.3830     5.1410     5.0270
  121.0000   117.2380   -44.3830     5.0420     4.9510
  121.5000   115.8170   -44.3830     4.9960     4.9370
  122.0000   114.1450   -44.3830     4.9790     4.9220
  122.5000   113.1880   -44.3830     4.9590     4.9110
  123.0000   113.7050   -44.3830     5.0430     4.9870
  123.5000   116.0910   -44.3830     5.1770     5.1040
  124.0000   119.8230   -44.3830     5.3110     5.2220
  124.5000   123.7510   -44.3830     5.4450     5.3390
  125.0000   126.7940   -44.3830     5.5790     5.4570
  125.5000   124.5530   -44.3830     5.7130     5.5740
  126.0000   118.0080   -44.3830     5.8470     5.6910
  126.5000   113.4980   -44.3830     5.9620     5.8000
  127.0000   114.3840   -44.3830     5.9560     5.7880
  127.5000   117.0340   -44.3830     5.9510     5.7750
  128.0000   119.7340   -44.3830     5.9450     5.7620
  128.5000   120.3420   -44.3830     5.9390     5.7490
  129.0000   116.8080   -44.3830     5.9340     5.7370
  129.5000   113.5840   -44.3830     5.9280     5.7240
  130.0000   115.2440   -44.3830     5.9220     5.7110
  130.5000   118.6160   -44.3830     5.9170     5.6950
  131.0000   117.9670   -44.3830     5.9080     5.7330
  131.5000   114.4390   -44.3830     5.9330     5.7960
  132.0000   115.7260   -44.3830     5.9890     5.8540
  132.5000   118.8130   -44.3830     6.0860     6.0110
  133.0000   119.2800   -44.3830     6.2290     6.1580
  133.5000   118.8450   -44.3830     6.3720     6.3060
  134.0000   120.1350   -44.3830     6.5140     6.4530
  134.5000   120.3760   -44.3830     6.6570     6.6010
  135.0000   115.8100   -44.3830     6.7860     6.7860
  135.5000   110.1020   -44.3830     6.7890     6.7400
  136.0000   104.9340   -44.3830     6.8050     6.6780
  136.5000   104.3690   -44.3830     6.8220     6.6160
  137.0000   111.2750   -44.3830     6.8390     6.5540
  137.5000   118.1140   -44.3830     6.8480     6.4800
  138.0000   121.2410   -44.3830     6.8360     6.4960
  138.5000   120.2170   -44.3830     6.8270     6.5150
  139.0000   119.0220   -44.3830     6.8180     6.5350
  139.5000   117.7950   -44.3830     6.8090     6.5550
  140.0000   116.5710   -44.3830     6.8000     6.5750
  140.5000   116.5900   -44.3830     6.7910     6.6010
  141.0000   116.8380   -44.3830     6.7410     6.4870
  141.5000   117.8910   -44.3830     6.5800     6.3180
  142.0000   117.8230   -44.3830     6.4190     6.1490
  142.5000   116.8440   -44.3830     6.2450     5.9800
  143.0000   117.2000   -44.3830     6.1690     5.8000
  143.5000   117.8340   -44.3830     6.0870     5.8000
  144.0000   118.1530   -44.3830     6.0150     5.8420
  144.5000   116.2640   -44.3830     5.9930     5.8780
  145.0000   114.4410   -44.3830     5.9630     5.9080
  145.5000   114.7290   -44.3830     6.0050     5.9360
