~VERSION INFORMATION
 VERS.                2.0:   CWLS LOG ASCII STANDARD - VERSION 2.0
 WRAP.                 NO:   ONE LINE PER DEPTH STEP
~WELL INFORMATION
#MNEM.UNIT      DATA TYPE    INFORMATION
#----------   ------------   ------------------------------
 STRT.F          448.5000:   START DEPTH
 STOP.F         4490.5000:   STOP DEPTH
 STEP.F            0.5000:   STEP LENGTH
 NULL.          -999.2500:   NO VALUE
 COMP.  FENIX AND SCISSON:   COMPANY
 WELL. FENIX AND SCISSON NPR 3 #11-10:   WELL
 FLD .              NPR-3:   FIELD
 LOC .      S10 T38N R78W:   LOCATION
 CNTY.            NATRONA:   COUNTY
 STAT.            WYOMING:   STATE
 CTRY. UNITED STATES OF AMERICA:   COUNTRY
 SRVC.              WELEX:   SERVICE COMPANY
 DATE.        22-DEC-1978:   LOGDATE
 API .     49025107450000:   API NUMBER
~CURVE INFORMATION
#MNEM.UNIT       API CODE    CURVE DESCRIPTION
#----------   ------------   ------------------------------
 DEPT.F                  :   
 SPR .MV     07 010 01 00:   SPONTANEOUS POTENTIAL
 ILM .OHMM   07 120 44 00:   INDUCTION LOG MEDIUM
 ILD .OHMM   07 120 46 00:   DEEP RESISTIVITY
 SGRD.OHMM   07 220 01 00:   SHALLOW SHORT GUARD RESISTIVITY
 TENR.LBS    07 635 01 00:   TENSION FROM RESISTIVITY
 NPHI.DEC    42 890 03 00:   NEUTRON POROSITY SANDSTONE
 CALD.IN     45 280 60 00:   CALIPER FROM DENSITY LOG
 GRD .GAPI   45 310 01 00:   GAMMA RAY FROM DENSITY LOG
 RHOB.G/C3   45 350 01 00:   BULK DENSITY
 DRHO.G/C3   45 356 01 00:   DENSITY CORRECTION
 TEND.LBS    45 635 01 00:   TENSION FROM DENSITY
~PARAMETER INFORMATION
#MNEM.UNIT          VALUE    DESCRIPTION
#----------   ------------   ------------------------------
 EKB .F         5275.0000:   Kelly bushing
 EGL .F         5265.0000:   Ground level
 EDF .F            0.0000:   Drilling floor
 EPD .F         5265.0000:   Permanent datum
 TD  .F         4500.0000:   Total depth
 DATE.        22-DEC-1978:   Date logged
 CLNT.            A2DTECH:   Client Code
 SL  . 300' FNL & 500' FWL:   Surface Location
 DD  .F              4500:   Depth driller
 DL  .F              4481:   Depth logger
 BLI .F              4479:   Bottom log interval
 TLI .F               450:   Top log interval
 CS1 .IN            8.625:   Casing size
 CBD1.      8.625" @ 500':   Casing driller 1
 CBL1.F               473:   Casing logger 1
 BS1 .IN            7.875:   Bit size
 BSD1.F              4500:   Depth drilled with bit1
 DFT .               LSND:   Type fluid in hole
 DFD .                8.7:   Density
 DFV .                 49:   Viscosity
 DFPH.               11.0:   pH
 DFL .                7.6:   Fluid loss
 MSS .           FLOWLINE:   Source of sample
 RMS .OHMM            1.1:   Rm
 MST .F                86:   Rm Meas. temp.
 RMF .OHMM           0.73:   Rmf
 MFST.F                86:   Rmf Meas. temp.
 RMC .OHMM           1.68:   Rmc
 MCST.F                86:   Rmc Meas. temp.
 MFSS.               CALC:   Source Rmf.
 MCSS.               CALC:   Source Rmc.
 RMB .OHMM           0.72:   Rm. at BHT
 BHT .F               130:   BHT.
 TCS .HRS             3.5:   Time Circ. stopped
 MRT .F               130:   Maximum recorded temp.
 LUN .               9685:   Logging unit number
 LUL .             CASPER:   Logging unit location
 ENGI.            BENTSEN:   Recorded By
 WITN.           DINSMORE:   Witnessed by
 ORIG.           5" PRINT:   Origin of data
 UWI .     49025107450000:   Unique Well ID
 DICO. A2D TECHNOLOGIES, INC.:   Digitizing Company
~OTHER INFORMATION
~A  DEPTH      SPR        ILM        ILD       SGRD       TENR       NPHI       CALD        GRD       RHOB       DRHO       TEND
# ...
 2583.5000   -62.5644     8.7625     8.7774    10.7352  1124.6943     0.3146    10.6922    96.6378     2.4479     0.0453  1441.2719
 2584.0000   -62.5541     8.7076     8.7120    12.0188  1124.8470     0.3158    10.7250    96.1387     2.4419     0.0319  1440.6152
 2584.5000   -62.5437     8.6531     8.5964    13.6560  1124.9999     0.3165    10.7578    95.7645     2.4413     0.0215  1439.9585
 2585.0000   -62.5333     8.5989     8.5145    12.9328  1125.1526     0.3160    10.7906    95.5514     2.4557     0.0172  1439.3018
 2585.5000   -62.5213     8.5450     8.5048    12.0795  1125.3054     0.3147    10.8146    95.5238     2.4693     0.0174  1438.6451
 2586.0000   -62.5113     8.4532     8.4734    11.2826  1125.4583     0.3130    10.8315    95.7744     2.4777     0.0197  1437.9884
 2586.5000   -62.5013     8.3800     8.4822    10.6851  1125.6110     0.3119    10.8592    95.7976     2.4800     0.0238  1436.9572
 2587.0000   -62.4913     8.3275     8.5168    10.4032  1125.7638     0.3118    10.8688    96.0491     2.4794     0.0285  1413.2932
 2587.5000   -62.4813     8.2753     8.5305    11.3147  1125.9165     0.3130    10.8846    96.3114     2.4825     0.0331  1403.4459
 2588.0000   -62.4711     8.1573     8.5086     9.3100  1126.0693     0.3148    10.9005    96.5376     2.4909     0.0378  1405.4204
 2588.5000   -62.4607     8.0521     8.4845     9.0844  1126.2222     0.3168    10.9015    93.8612     2.5000     0.0444  1407.3950
 2589.0000   -62.4504     7.9483     8.4675    11.3327  1126.3749     0.3184    10.9025    91.3251     2.5023     0.0533  1409.3696
 2589.5000   -62.4400     7.8458     8.3645    12.4267  1126.5277     0.3198    10.9036    88.3342     2.4942     0.0565  1411.3442
 2590.0000   -62.4296     7.7447     8.1559    10.6564  1126.6804     0.3208    10.9019    85.3285     2.4792     0.0521  1413.3188
 2590.5000   -62.4193     7.5912     7.8934     9.8321  1126.8333     0.3217    10.8870    82.4388     2.4673     0.0433  1415.2933
 2591.0000   -62.3731     7.4314     7.6624     9.7404  1126.9860     0.3225    10.8769    80.6750     2.4614     0.0299  1417.2679
 2591.5000   -62.2504     7.1792     7.4137     9.7300  1127.1388     0.3234    10.8552    79.9069     2.4705     0.0225  1419.2426
 2592.0000   -62.2400     6.9761     7.1195     9.4324  1127.2916     0.3242    10.8061    79.7481     2.4804     0.0197  1421.2172
 2592.5000   -62.2296     6.7283     6.7898     9.9220  1127.4443     0.3247    10.7753    79.6125     2.4827     0.0184  1423.1917
 2593.0000   -62.2193     6.4585     6.5656     9.9389  1127.5972     0.3238    10.7446    79.3994     2.4783     0.0155  1425.1663
 2593.5000   -62.2089     6.2461     6.3051     8.5913  1127.7499     0.3204    10.7331    79.3748     2.4694     0.0082  1427.1409
 2594.0000   -62.1985     6.0860     6.1810     7.1562  1127.9027     0.3156    10.7553    78.9545     2.4612    -0.0006  1429.1155
 2594.5000   -62.1881     5.9876     6.1012     6.3103  1128.0554     0.3112    10.7997    78.9776     2.4583    -0.0065  1431.0901
 2595.0000   -62.1778     6.0402     6.0670     5.9793  1128.2083     0.3079    10.8258    78.7629     2.4561    -0.0094  1433.0646
 2595.5000   -62.1674     6.2852     6.0794     7.3295  1128.3611     0.3064    10.8268    78.2907     2.4570    -0.0122  1435.0392
 2596.0000   -62.1570     6.5284     6.1297    10.0886  1128.5138     0.3064    10.8277    77.5305     2.4624    -0.0120  1437.0138
 2596.5000   -62.1467     6.7029     6.1896    10.1944  1128.6666     0.3067    10.8138    76.3163     2.4707    -0.0118  1438.9884
 2597.0000   -62.1363     6.8310     6.3085     9.2405  1128.8193     0.3070    10.8165    74.9792     2.4731    -0.0116  1440.9629
 2597.5000   -62.1259     6.9097     6.4995     8.7512  1128.9722     0.3070    10.8385    73.7370     2.4717    -0.0114  1442.9375
 2598.0000   -62.1156     6.9948     6.7123     8.2877  1129.1250     0.3052    10.8943    72.5201     2.4702    -0.0113  1444.9121
 2598.5000   -62.1032     7.1343     6.9469     8.0134  1129.2777     0.3030    10.9702    71.7005     2.4726    -0.0080  1446.8867
 2599.0000   -62.0932     7.3311     7.1573     8.4776  1129.4305     0.3011    11.0238    71.3741     2.4788    -0.0034  1448.8613
 2599.5000   -62.0832     7.5522     7.3503     9.4631  1129.5833     0.2997    11.0372    72.3428     2.4743     0.0043  1450.8358
 2600.0000   -62.2214     7.6495     7.5192    12.0882  1129.7358     0.2973    11.0122    73.6970     2.4606     0.0091  1452.8104
 2600.5000   -62.2552     7.6983     7.6908    11.8668  1129.8864     0.2972    10.9756    74.8524     2.4542     0.0199  1452.6178
 2601.0000   -62.2919     7.7471     7.8785    10.6748  1130.0369     0.3014    10.9391    76.0078     2.4686     0.0248  1451.4377
 2601.5000   -62.3286     7.7666     7.9400     9.7529  1130.1873     0.3020    10.9188    76.1177     2.4694     0.0250  1450.2577
 2602.0000   -62.3653     7.8527     8.0576     9.1387  1130.3378     0.3000    10.9025    76.3502     2.4597     0.0238  1449.0776
 2602.5000   -62.4020     8.0156     8.1215     8.9310  1130.4883     0.2964    10.9040    76.7149     2.4523     0.0242  1447.8977
 2603.0000   -62.4119     8.2272     8.2436     9.2885  1130.6387     0.2922    10.9355    77.4128     2.4456     0.0276  1446.7177
 2603.5000   -62.3941     8.4639     8.3148    10.1581  1130.7892     0.2858    10.9374    78.3343     2.4426     0.0339  1445.5376
 2604.0000   -62.4657     8.5877     8.4356    11.4548  1130.9397     0.2805    10.9549    79.7299     2.4518     0.0417  1444.3575
 2604.5000   -62.5067     8.6532     8.4951    12.9477  1131.0902     0.2764    10.9724    81.1500     2.4646     0.0466  1443.1775
 2605.0000   -62.4889     8.7192     8.5027    13.7551  1131.2406     0.2736    10.9899    82.1979     2.4632     0.0439  1441.9976
 2605.5000   -62.4711     8.6040     8.4722    12.5361  1131.3911     0.2733    11.0118    83.7036     2.4505     0.0322  1440.8175
 2606.0000   -62.5689     8.5447     8.2854    10.4047  1131.5416     0.2747    11.0398    85.5875     2.4460     0.0263  1439.6375
 2606.5000   -62.5837     8.4227     8.0589     9.4984  1131.6920     0.2788    11.0698    88.3048     2.4574     0.0373  1438.4574
 2607.0000   -62.5637     8.2567     7.8386    10.5054  1131.8425     0.2852    11.1118    91.5760     2.4643     0.0572  1437.2773
 2607.5000   -62.3985     8.1242     7.6616    12.7138  1131.9930     0.2912    11.1533    94.3816     2.4576     0.0635  1436.0973
 2608.0000   -62.3815     7.9113     7.5596    12.1010  1132.1434     0.2960    11.2025    96.0669     2.4494     0.0729  1434.9174
 2608.5000   -62.3644     7.7619     7.4370     9.0885  1132.2939     0.2972    11.2618    96.7780     2.4412     0.0762  1433.7373
 2609.0000   -62.3467     7.6724     7.2856     7.2643  1132.4445     0.2956    11.3049    97.4329     2.4338     0.0780  1432.5573
 2609.5000   -62.3289     7.6408     7.1617     8.7407  1132.5948     0.2937    11.3593    97.8476     2.4271     0.0814  1431.3772
 2610.0000   -62.2913     7.6666     7.0922    10.9362  1132.7454     0.2923    11.4056   100.8475     2.4249     0.0847  1430.1971
 2610.5000   -62.1482     7.7275     7.0480    11.0642  1132.8959     0.2914    11.4369   104.2280     2.4250     0.0910  1429.0172
 2611.0000   -62.2756     7.7888     7.0333    11.2827  1133.0464     0.2906    11.4534   107.8320     2.4243     0.1004  1427.8372
 2611.5000   -62.2578     7.8233     7.0396    12.2679  1133.1968     0.2895    11.4715   111.4361     2.4236     0.1097  1426.6571
 2612.0000   -62.2400     7.8561     7.0788    12.7085  1133.3473     0.2882    11.5026   114.5449     2.4155     0.1191  1425.4771
 2612.5000   -62.2222     7.8888     7.1012    10.0511  1133.4978     0.2869    11.5384   117.6412     2.3915     0.1254  1439.4690
 2613.0000   -62.2044     7.8944     7.1076     8.0045  1133.6482     0.2854    11.5717   120.4857     2.3690     0.1272  1453.3622
 2613.5000   -62.2522     7.8280     7.0570     7.8999  1133.7987     0.2853    11.6098   122.8477     2.3645     0.1200  1452.5837
