~VERSION INFORMATION
 VERS.                2.0:   CWLS LOG ASCII STANDARD - VERSION 2.0
 WRAP.                 NO:   ONE LINE PER DEPTH STEP
~WELL INFORMATION
#MNEM.UNIT      DATA TYPE    INFORMATION
#----------   ------------   ------------------------------
 STRT.F           10.0000:   START DEPTH
 STOP.F         3180.0000:   STOP DEPTH
 STEP.F            0.5000:   STEP LENGTH
 NULL.          -999.2500:   NO VALUE
 COMP. LAWRENCE - ALLISON WEST:   COMPANY
 WELL. LAWRENCE ALLISON NPR 3 "AX" #17-2:   WELL
 FLD .                NPR:   FIELD
 LOC .       S2 T38N R78W:   LOCATION
 CNTY.            NATRONA:   COUNTY
 STAT.            WYOMING:   STATE
 CTRY. UNITED STATES OF AMERICA:   COUNTRY
 SRVC.      DRESSER ATLAS:   SERVICE COMPANY
 DATE.        16-FEB-1987:   LOGDATE
 API .     49025111210000:   API NUMBER
~CURVE INFORMATION
#MNEM.UNIT       API CODE    CURVE DESCRIPTION
#----------   ------------   ------------------------------
 DEPT.F                  :   
 DEN .LBS    45 350 01 00:   BULK DENSITY
 CORR.G/C3   45 356 01 00:   DENSITY CORRECTION
 TEND.LBS    45 635 01 00:   TENSION FROM DENSITY LOG
 CNC .DEC    42 890 01 00:   NEUTRON PORISITY LIMESTONE
 CALR.IN     07 280 01 00:   CALIPER FROM RESISTIVITY
 SPR .MV     07 010 01 00:   SPONTANEOUS POTENTIAL
 GRR .GAPI   07 310 01 00:   GAMMA RAY FROM RESISTIVITY
 RFOC.OHMM   07 220 04 00:   RESISTIVITY FOCUSED LOG RES.
 ILD .OHMM   07 120 46 00:   DEEP INDUCTION RESISTIVITY
 ILM .OHMM   07 120 44 00:   INDUCTION LOG MEDIUM RESISTIVITY
 TENR.LBS    07 635 01 00:   TENSION FROM RESISTIVITY
~PARAMETER INFORMATION
#MNEM.UNIT          VALUE    DESCRIPTION
#----------   ------------   ------------------------------
 EKB .F         5141.0000:   Kelly bushing
 EGL .F         5129.0000:   Ground level
 EDF .F            0.0000:   Drilling floor
 EPD .F            0.0000:   Permanent datum
 TD  .F         3161.0000:   Total depth
 DATE.        16-FEB-1987:   Date logged
 CLNT.            A2DTECH:   Client Code
 SL  . 1125' FSL & 220' FWL:   Surface Location
 PD  .                 GL:   Permanent Datum
 DAPD.F                12:   Feet Above Permanent Datum
 DD  .F              3161:   Depth driller
 DL  .F              3158:   Depth logger
 BLI .F              3156:   Bottom log interval
 TLI .F                12:   Top log interval
 CS1 .IN            8.625:   Casing size
 CBD1.      8.625" @ 626':   Casing driller 1
 CBL1.F               626:   Casing logger 1
 BS1 .IN            7.875:   Bit size
 BSD1.F              3161:   Depth drilled with bit1
 DFT .        KCL/POLYMER:   Type fluid in hole
 DFD .                8.8:   Density
 DFV .                 39:   Viscosity
 DFPH.                 10:   pH
 DFL .                8.4:   Fluid loss
 MSS .           FLOWLINE:   Source of sample
 RMS .OHMM           .292:   Rm
 MST .F                82:   Rm Meas. temp.
 RMF .OHMM           .231:   Rmf
 MFST.F                82:   Rmf Meas. temp.
 RMC .OHMM           .365:   Rmc
 MCST.F                82:   Rmc Meas. temp.
 MFSS.               MEAS:   Source Rmf.
 MCSS.               CALC:   Source Rmc.
 RMB .OHMM           .203:   Rm. at BHT
 BHT .F               118:   BHT.
 TCS .HRS               3:   Time Circ. stopped
 MRT .F               118:   Maximum recorded temp.
 LUN .            HL-6274:   Logging unit number
 LUL .           GALLETTE:   Logging unit location
 ENGI.            PANASUK:   Recorded By
 WITN.             STRONG:   Witnessed by
 ORIG.           5" PRINT:   Origin of data
 UWI .     49025111210000:   Unique Well ID
 DICO. A2D TECHNOLOGIES, INC.:   Digitizing Company
~OTHER INFORMATION
~A   DEPT      DEN       CORR       TEND        CNC       CALR        SPR          GRR     RFOC        ILD        ILM       TENR   
# ...
 3121.0000     2.4818     0.0011   136.4006     0.2515     7.9590    -8.5576   106.4544     4.8737     3.6856     3.9212   285.0000
 3121.5000     2.4758     0.0231   136.3298     0.2511     7.9591    -8.7565   108.0486     4.6119     3.7197     3.9212   289.3529
 3122.0000     2.4718     0.0371   136.2449     0.2451     7.9792    -9.3534   109.2453     4.5278     3.7197     3.8853   293.6275
 3122.5000     2.4748     0.0431   146.1500     0.2347     7.9993    -9.3532   110.4406     4.4864     3.7197     3.8497   297.9020
 3123.0000     2.4828     0.0451   146.1075     0.2327     8.0193    -9.3531   111.2384     4.4864     3.7197     3.8145   302.1765
 3123.5000     2.4978     0.0391   146.0085     0.2371     8.0394    -9.1538   112.0362     4.4864     3.6184     3.7795   306.4510
 3124.0000     2.4968     0.0252   155.9277     0.2435     8.0595    -8.7556   113.2328     4.5278     3.5852     3.8497   310.7255
 3124.5000     2.4899     0.0172   165.8469     0.2459     8.0795    -8.5565   107.2646     4.6119     3.5524     3.6767   305.0000
 3125.0000     2.4869     0.0152   175.7803     0.2479     8.0996    -8.3572   106.8673     4.6976     3.5198     3.5767   305.0000
 3125.5000     2.4849     0.0172   175.6954     0.2495  -999.2500    -8.1581   107.2672     4.6119     3.3926     3.5439   305.0000
 3126.0000     2.4839     0.0192   185.6146     0.2506  -999.2500    -8.1579   110.4530     4.3642     3.3307     3.5115   315.0000
 3126.5000     2.4819     0.0212   185.5297     0.2550  -999.2500    -8.9547   114.8327     4.2454     3.2699     3.4793   325.0000
 3127.0000     2.4819     0.0212   195.4489     0.2630  -999.2500    -8.7555   114.8344     4.2065     3.1809     3.3847   325.0000
 3127.5000     2.4819     0.0153   195.3782     0.2678  -999.2500    -8.6922   114.8358     4.2065     3.1517     3.2926   325.0000
 3128.0000     2.4819     0.0073   195.3357     0.2670  -999.2500    -8.6288   115.6333     4.0920     3.0659     3.2624   325.0000
 3128.5000     2.4819     0.0033   195.2367     0.2658  -999.2500    -8.5655   116.4313     4.0920     3.0378     3.2030   325.0000
 3129.0000     2.4819     0.0053   195.1801     0.2634  -999.2500    -8.5021   116.4329     4.0174     2.9824     3.1446   335.0000
 3129.5000     2.4769     0.0133   215.0892     0.2586  -999.2500    -8.4387   115.6387     3.9442     2.9280     3.0873   345.0000
 3130.0000     2.4760     0.0233   215.0043     0.2566  -999.2500    -8.3754   113.2532     3.9080     2.8746     3.0591   345.0000
 3130.5000     2.4690     0.0273   214.9336     0.2566  -999.2500    -8.3120   111.2653     3.9442     2.8746     3.0311   335.0000
 3131.0000     2.4670     0.0214   224.8528     0.2622  -999.2500    -8.2486   110.0733     3.9442     2.7963     3.0311   345.0000
 3131.5000     2.4640     0.0134   224.7821     0.2719  -999.2500    -8.1853   110.8709     3.8723     2.7706     2.9758   345.0000
 3132.0000     2.4630     0.0034   234.7013     0.2814  -999.2500    -8.1219   114.4538     3.7668     2.7452     2.8949   345.0000
 3132.5000     2.4620     0.0034   254.6105     0.2822  -999.2500    -8.0586   121.2197     3.5975     2.7201     2.8684   355.0000
 3133.0000     2.4650     0.0174   264.5297     0.2790  -999.2500    -7.9952   121.2212     3.5319     2.6705     2.8161   355.0000
 3133.5000     2.4670     0.0234   264.4589     0.2750  -999.2500    -7.9318   120.8249     3.5319     2.6460     2.8161   355.0000
 3134.0000     2.4670     0.0115   274.3781     0.2742  -999.2500    -7.8685  -999.2500     3.7668     2.5977     2.8161   365.0000
 3134.5000     2.4620     0.0055   274.3074     0.2778  -999.2500    -7.8051  -999.2500     3.7323     2.5739     2.7395   355.0000
 3135.0000     2.4540     0.0035   274.2791     0.2798  -999.2500    -7.7581  -999.2500     3.6643     2.5503     2.7144   365.0000
 3135.5000     2.4531     0.0055   294.1034     0.2810  -999.2500    -7.1612  -999.2500     3.5319     2.5270     2.6895   365.0000
 3136.0000     2.4531     0.0115   294.0892     0.2814  -999.2500    -7.1611  -999.2500     3.4995     2.5270     2.6649   375.0000
 3136.5000     2.4521     0.0155   294.0326     0.2826  -999.2500    -7.3598  -999.2500     3.5319     2.5270     2.6895   375.0000
 3137.0000     2.4481     0.0155   293.9619     0.2846  -999.2500    -7.3597  -999.2500     3.5975     2.5038     2.6895   375.0000
 3137.5000     2.4431     0.0156   313.8852     0.2858  -999.2500    -7.7573  -999.2500     3.5975     2.4581     2.6405   375.0000
 3138.0000     2.4421     0.0156   320.4718     0.2894  -999.2500    -7.7572  -999.2500     3.5319     2.3912     2.5924   385.0000
 3138.5000     2.4471     0.0176   327.0585     0.2949  -999.2500    -7.7571  -999.2500     3.4357     2.3476     2.5219   385.0000
 3139.0000     2.4481     0.0216   333.6451     0.2977  -999.2500    -7.3580  -999.2500     3.2813     2.3261     2.4988   385.0000
 3139.5000     2.4461     0.0256   340.2318     0.2981  -999.2500    -7.3578  -999.2500     3.2512     2.3261     2.4988   385.0000
 3140.0000     2.4411     0.0256   346.8184     0.2941  -999.2500    -6.9599  -999.2500     3.3116     2.3047     2.4988   395.0000
 3140.5000     2.4232     0.0116   353.4051     0.2781  -999.2500    -6.3632  -999.2500     3.3731     2.2836     2.4988   395.0000
 3141.0000     2.4152    -0.0063   359.9917     0.2693  -999.2500    -5.9652  -999.2500     3.4675     2.2420     2.4759   395.0000
 3141.5000     2.4102    -0.0243   366.5783     0.2653  -999.2500    -5.9651  -999.2500     3.4357     2.2011     2.4308   405.0000
 3142.0000     2.4132    -0.0023   373.1650     0.2657  -999.2500    -5.9650  -999.2500     3.2813     2.2011     2.3647   415.0000
 3142.5000     2.4242     0.0257   379.7516     0.2669  -999.2500    -5.9649  -999.2500     3.1919     2.2011     2.3647   415.0000
 3143.0000     2.4312     0.0317   386.3383     0.2705  -999.2500    -5.9648  -999.2500     3.0205     2.2011     2.3647   415.0000
 3143.5000     2.4342     0.0117   392.9249     0.2737  -999.2500    -5.9647  -999.2500     3.0484     2.2214     2.4086   415.0000
 3144.0000     2.4322    -0.0142   402.7761     0.2781  -999.2500    -5.9645  -999.2500     3.1337     2.2420     2.4308   425.0000
 3144.5000     2.4312    -0.0282   402.7478     0.2725  -999.2500    -5.9644  -999.2500     3.3422     2.2836     2.4988   425.0000
 3145.0000     2.4322    -0.0082   412.7095     0.2645  -999.2500    -5.9643  -999.2500     3.4043     2.3476     2.5452   425.0000
 3145.5000     2.4382     0.0178   412.6387     0.2625  -999.2500    -5.9641  -999.2500     3.3731     2.4356     2.6405   435.0000
 3146.0000     2.4522     0.0258   412.5680     0.2673  -999.2500    -5.7652  -999.2500     3.3422     2.5977     2.7144   445.0000
 3146.5000     2.4662     0.0298   422.4589     0.2793  -999.2500    -5.5662  -999.2500     3.3116     2.7201     2.9216   445.0000
 3147.0000     2.4846     0.0338   422.3740     0.2813  -999.2500    -5.5661  -999.2500     3.3116     2.9011     3.2624   445.0000
 3147.5000     2.5042     0.0078   442.2832     0.2781  -999.2500  -999.2500  -999.2500     3.8017     2.9550     3.7107   455.0000
 3148.0000     2.5042    -0.0081   452.2024     0.2749  -999.2500  -999.2500  -999.2500     5.0101     2.9550     3.8853   455.0000
 3148.5000     2.4842    -0.0001   462.1216     0.2689  -999.2500  -999.2500  -999.2500     5.8583     2.9550     4.0681   455.0000
 3149.0000     2.4732     0.0239   482.0308     0.2705  -999.2500  -999.2500  -999.2500     6.1341     2.9280     4.0681   475.0000
 3149.5000     2.4742     0.0439   501.9400     0.2729  -999.2500  -999.2500  -999.2500     5.7515     2.9011     4.0681   475.0000
 3150.0000     2.4832     0.0439   521.8492     0.2753  -999.2500  -999.2500  -999.2500     4.7848  -999.2500     4.0308   475.0000
 3150.5000     2.5042     0.0259   501.8126     0.2785  -999.2500  -999.2500  -999.2500     3.9656  -999.2500     4.0970   462.8181
 3151.0000     2.5132     0.0099   521.7077     0.2785  -999.2500  -999.2500  -999.2500     4.8769  -999.2500     4.2233   462.4533
