~VERSION INFORMATION
 VERS.                2.0:   CWLS LOG ASCII STANDARD - VERSION 2.0
 WRAP.                 NO:   ONE LINE PER DEPTH STEP
~WELL INFORMATION
#MNEM.UNIT      DATA TYPE    INFORMATION
#----------   ------------   ------------------------------
 STRT.F           11.0000:   START DEPTH
 STOP.F         4154.0000:   STOP DEPTH
 STEP.F            0.5000:   STEP LENGTH
 NULL.          -999.2500:   NO VALUE
 COMP.   LAWRENCE ALLISON:   COMPANY
 WELL. ALLISON NPR 3 "LX" #14-22:   WELL
 FLD .                NPR:   FIELD
 LOC .      S22 T38N R78W:   LOCATION
 CNTY.            NATRONA:   COUNTY
 STAT.            WYOMING:   STATE
 CTRY. UNITED STATES OF AMERICA:   COUNTRY
 SRVC.       DRESER ATLAS:   SERVICE COMPANY
 DATE.        14-APR-1985:   LOGDATE
 API .     49025110230000:   API NUMBER
~CURVE INFORMATION
#MNEM.UNIT       API CODE    CURVE DESCRIPTION
#----------   ------------   ------------------------------
 DEPT.F                  :   
 TEND.LBS    45 635 01 00:   TENSION FROM DENSITY LOG
 RHOB.G/C3   45 350 01 00:   BULK DENSITY
 DRHO.G/C3   45 356 01 00:   DENSITY CORRECTION
 CALD.IN     45 280 60 00:   CALIPER FROM DENSITY LOG
 NPHI.DEC    42 890 03 00:   NEUTRON POROSITY SANDSTONE
 TENR.LBS    07 635 01 00:   TENSION FROM RESISTIVITY
 SPR .MV     07 010 01 00:   SPONTANEOUS POTENTIAL
 GRR .GAPI   07 310 01 00:   GAMMA RAY FROM RESISTIVITY
 RFOC.OHMM   07 220 01 00:   RESISTIVITY FOCUSED LOG RES.
 RILD.OHMM   07 120 46 00:   DEEP INDUCTION RESISTIVITY
 RILM.OHMM   07 120 44 00:   INDUCTION LOG MEDIUM RESISTIVITY
~PARAMETER INFORMATION
#MNEM.UNIT          VALUE    DESCRIPTION
#----------   ------------   ------------------------------
 EKB .F         5230.4000:   Kelly bushing
 EGL .F         5220.4000:   Ground level
 EDF .F            0.0000:   Drilling floor
 TD  .F         4150.0000:   Total depth
 DATE.        14-APR-1985:   Date logged
 CLNT.            A2DTECH:   Client Code
 SL  . 905' FNL & 824' FWL:   Surface Location
 PD  .                 GL:   Permanent Datum
 EPD .F            5220.4:   Elevation Permanent Datum
 LMF .                 KB:   Log Measured From
 DMF .                 KB:   Drilling Measured From
 DAPD.F                10:   Feet Above Permanent Datum
 DD  .F              4150:   Depth driller
 DL  .F              4140:   Depth logger
 BLI .F              4138:   Bottom log interval
 CS1 .IN            8.625:   Casing size
 CBD1.      8.625" @ 738':   Casing driller 1
 CBL1.F               738:   Casing logger 1
 BS1 .IN            7.875:   Bit size
 BSD1.F              4150:   Depth drilled with bit1
 DFT .            KCL/GEL:   Type fluid in hole
 DFD .                9.1:   Density
 DFV .                 48:   Viscosity
 DFPH.                8.5:   pH
 DFL .                 10:   Fluid loss
 MSS .           FLOWLINE:   Source of sample
 RMS .OHMM            .35:   Rm
 MST .F                62:   Rm Meas. temp.
 RMF .OHMM            .26:   Rmf
 MFST.F                62:   Rmf Meas. temp.
 RMC .OHMM            .43:   Rmc
 MCST.F                62:   Rmc Meas. temp.
 MFSS.               CALC:   Source Rmf.
 MCSS.               CALC:   Source Rmc.
 RMB .OHMM            .16:   Rm. at BHT
 BHT .F               140:   BHT.
 TCS .HRS               6:   Time Circ. stopped
 MRT .F               140:   Maximum recorded temp.
 LUN .               6274:   Logging unit number
 LUL .               GLTE:   Logging unit location
 ENGI.               MACK:   Recorded By
 WITN.             STRONG:   Witnessed by
 ORIG.           5" PRINT:   Origin of data
 UWI .     49025110230000:   Unique Well ID
 DICO. A2D TECHNOLOGIES, INC.:   Digitizing Company
~OTHER INFORMATION
~A   DEPT     TEND       RHOB       DRHO       CALD       NPHI       TENR        SPR        GRR       RFOC       RILD       RILM   
# ...
 2969.5000   -16.6340     2.5200     0.0000     9.4440     0.2290   -74.1810   -69.7250    95.4940     8.3430     7.8820     8.0280
 2970.0000   -16.6340     2.5220    -0.0140     9.4450     0.2240   -80.7870   -69.2330    97.0930     8.5150     7.8360     8.0280
 2970.5000   -16.6340     2.5240    -0.0250     9.4460     0.2240   -80.6310   -68.5100    98.8580     8.6880     7.6170     8.0280
 2971.0000   -16.6340     2.5210    -0.0240     9.4470     0.2260   -69.7770   -68.2470   100.5710     8.7230     7.3050     7.6770
 2971.5000    -6.7030     2.5130    -0.0170     9.4480     0.2320   -58.9230   -68.0210   101.2830     8.4850     6.8410     7.3220
 2972.0000    -3.3000     2.5110    -0.0090     9.4490     0.2450   -65.5160   -68.0270   101.9110     8.2240     6.1580     6.7070
 2972.5000     0.0500     2.5090    -0.0010     9.4500     0.2500   -80.8310   -68.0280   105.2180     7.9290     5.5010     5.9310
 2973.0000     3.4000     2.5020     0.0070     9.4510     0.2480   -63.9470   -68.0270   109.9310     6.8840     5.2830     5.5400
 2973.5000     6.7490     2.4860     0.0090     9.4520     0.2520   -47.0640   -67.9950   113.7970     5.6990     5.0240     5.3600
 2974.0000    10.0990     2.4710     0.0030     9.4530     0.2550   -44.7950   -67.9230   115.1380     4.3690     4.8350     5.1580
 2974.5000    13.1580     2.4710    -0.0100     9.4540     0.2460   -55.6860   -67.8480   111.3890     4.9210     4.9750     5.2010
 2975.0000     5.9710     2.4890    -0.0220     9.4550     0.2350   -65.8160   -67.8570   106.1850     5.7320     5.1340     5.2900
 2975.5000    -0.6400     2.5070    -0.0280     9.4550     0.2310   -74.8940   -67.8970   100.8230     6.5440     5.2930     5.4940
 2976.0000    -7.2520     2.5240    -0.0240     9.4510     0.2380   -75.5190   -67.9370   100.9070     7.3560     5.5280     5.9570
 2976.5000   -13.8630     2.5280    -0.0080     9.4480     0.2530   -76.1450   -67.9770   101.4390     7.7380     5.9260     6.4200
 2977.0000   -20.4750     2.5180     0.0020     9.4450     0.2630   -76.7700   -68.0180   105.1460     7.3520     6.3250     6.8830
 2977.5000   -27.0870     2.5070     0.0070     9.4420     0.2640   -77.3950   -67.9520   107.6950     7.0120     6.7380     7.3450
 2978.0000   -33.6980     2.5010    -0.0090     9.4380     0.2570   -78.0210   -67.8180   105.8640     6.8640     6.6770     7.8080
 2978.5000   -36.2540     2.5110    -0.0110     9.4360     0.2430   -78.6460   -67.6830   101.9040     7.6150     6.7560     8.2710
 2979.0000   -34.9320     2.5300     0.0020     9.4370     0.2300   -79.2710   -67.4670    96.1940     8.2560     7.3930     8.7340
 2979.5000   -33.6090     2.5460     0.0090     9.4390     0.2190   -79.8970   -67.1990    92.3020     8.8980     8.1450     9.1970
 2980.0000   -32.2870     2.5580     0.0050     9.4400     0.2110   -80.5220   -66.9300    94.7090     9.6540     8.8980     9.6600
 2980.5000   -30.9650     2.5610     0.0020     9.4410     0.2080   -81.1470   -66.6590    97.6640     9.3790     9.4780    10.2030
 2981.0000   -29.6430     2.5590     0.0030     9.4430     0.2160   -81.7730   -66.3890   100.1480     9.1350     9.3050    10.3930
 2981.5000   -28.3200     2.5430     0.0060     9.4440     0.2210   -82.3980   -66.1180   101.9060     9.3600     9.3580    10.2190
 2982.0000   -26.9980     2.5270     0.0080     9.4450     0.2270   -83.0230   -65.8470   103.6550     9.5660     9.4080     9.8330
 2982.5000   -25.6760     2.5130    -0.0030     9.4470     0.2350   -83.6480   -65.5750   104.5890     9.1020     9.4590     9.4780
 2983.0000   -24.3530     2.5160    -0.0090     9.4480     0.2350   -84.2740   -65.2780   104.5550     8.2950     9.5100     9.5850
 2983.5000   -23.0310     2.5300    -0.0080     9.4490     0.2250   -84.6350   -65.4180   102.0020     8.2540     9.5660     9.8060
 2984.0000   -21.7090     2.5500     0.0010     9.4510     0.2160   -82.6870   -65.6200    97.9360     9.0090     9.5660    10.0260
 2984.5000   -20.3860     2.5550    -0.0100     9.4520     0.2060   -80.7380   -65.8230    92.9210     9.8430     9.5660    10.2470
 2985.0000   -19.0640     2.5470    -0.0240     9.4540     0.1960   -78.7900   -66.0300    89.2240    10.6780     9.6760    10.3930
 2985.5000   -17.7420     2.5370    -0.0250     9.4550     0.1980   -76.8420   -66.1030    89.0320    11.5120     9.8340    10.3450
 2986.0000   -16.6340     2.5310    -0.0110     9.4670     0.2120   -74.8250   -66.3220    91.0510    11.7160     9.3750    10.0170
 2986.5000    -8.9820     2.5280    -0.0100     9.4880     0.2310   -58.9890   -66.5360    95.7360    11.1730     8.7670     9.5100
 2987.0000    -1.0480     2.5150    -0.0160     9.5080     0.2500   -51.3910   -66.7490   105.4650    10.2440     8.1590     8.8800
 2987.5000     6.8860     2.5010    -0.0120     9.5290     0.2690   -43.7940   -67.1180   116.2330     8.9710     7.5510     8.2500
 2988.0000    12.2010     2.4990     0.0020     9.5500     0.2810   -36.1960   -67.5870   124.6670     7.6970     6.9420     7.6200
 2988.5000     7.6330     2.5040     0.0090     9.5710     0.2760   -37.9880   -68.0570   128.3740     6.1450     6.3340     6.9910
 2989.0000     3.0650     2.5060    -0.0030     9.5740     0.2700   -43.1830   -68.5310   125.9840     6.1680     5.8160     6.3610
 2989.5000    -1.5030     2.5030    -0.0150     9.5740     0.2640   -48.3780   -69.0040   123.5920     6.2230     5.5920     5.7610
 2990.0000    -6.0710     2.5000    -0.0290     9.5740     0.2620   -53.5730   -69.4730   125.2310     6.2770     5.3690     5.6510
 2990.5000   -10.6390     2.4960    -0.0390     9.5740     0.2700   -58.7680   -69.8310   127.2400     6.3170     5.2050     5.5260
 2991.0000   -15.2070     2.4920    -0.0290     9.5740     0.2780   -63.9630   -69.7500   127.0970     6.1100     5.1060     5.4000
 2991.5000   -17.1650     2.4880    -0.0140     9.5740     0.2730   -69.1580   -69.6460   126.9240     5.9160     5.0130     5.2750
 2992.0000   -17.9380     2.4860    -0.0030     9.5740     0.2770   -74.8250   -69.5420   128.2180     5.7230     4.9200     5.1490
 2992.5000   -18.7110     2.4870     0.0010     9.5730     0.2840   -77.3830   -69.4370   129.7150     5.5520     4.8280     5.0630
 2993.0000   -19.4840     2.4810     0.0000     9.5720     0.2960   -80.1970   -69.3320   131.2120     5.5520     4.7470     5.0810
 2993.5000   -20.2570     2.4710    -0.0010     9.5720     0.3080   -83.0110   -69.2340   130.5010     5.5520     4.7260     5.1010
 2994.0000   -21.0300     2.4670    -0.0100     9.5710     0.3190   -85.8250   -68.9600   127.7590     5.5520     4.7030     5.1200
 2994.5000   -21.8040     2.4730    -0.0180     9.5700     0.3310   -88.6390   -68.6140   125.0340     5.5520     4.7920     5.1390
 2995.0000   -22.5770     2.4800    -0.0230     9.5690     0.3380   -91.4530   -68.2640   123.2920     5.5520     4.8730     5.1590
 2995.5000   -23.3500     2.4800    -0.0290     9.5690     0.3240   -94.2660   -67.9180   124.5150     5.5520     4.9530     5.1780
 2996.0000   -24.1230     2.4750    -0.0190     9.5680     0.3020   -92.6090   -67.5850   126.5110     5.5520     5.0330     5.1980
 2996.5000   -24.8960     2.4760    -0.0140     9.5670     0.2590   -89.7950   -67.2150   128.5090     5.6140     5.1140     5.2340
 2997.0000   -25.6690     2.4830    -0.0110     9.5660     0.2660   -86.9810   -67.1280   129.5270     5.7630     5.1940     5.2810
 2997.5000   -26.4420     2.4870    -0.0130     9.5660     0.2770   -85.7140   -67.0370   130.3140     5.9130     5.2750     5.3280
 2998.0000   -29.3790     2.4890    -0.0160     9.5650     0.2880   -89.4200   -66.9490   131.0900     6.0620     5.3510     5.3750
 2998.5000   -33.7490     2.4850    -0.0180     9.5640     0.2940   -93.1260   -66.8590   131.5980     6.2020     5.4800     5.4010
 2999.0000   -38.1180     2.4820    -0.0180     9.5630     0.2900   -96.8320   -66.8900   131.1890     6.2020     5.7080     5.4010
 2999.5000   -42.4870     2.4820    -0.0180     9.5630     0.2770  -100.5380   -67.0100   130.8040     6.1340     5.6320     5.4010
