~VERSION INFORMATION
 VERS.                2.0:   CWLS LOG ASCII STANDARD - VERSION 2.0
 WRAP.                 NO:   ONE LINE PER DEPTH STEP
~WELL INFORMATION
#MNEM.UNIT      DATA TYPE    INFORMATION
#----------   ------------   ------------------------------
 STRT.F          450.0000:   START DEPTH
 STOP.F         3070.0000:   STOP DEPTH
 STEP.F            0.5000:   STEP LENGTH
 NULL.          -999.2500:   NO VALUE
 COMP. LAWRENCE ALLISON & ASSOCIATES:   COMPANY
 WELL. LAWRENCE "X" #86-28:   WELL
 FLD .             NPR #3:   FIELD
 LOC .      S28 T39N R78W:   LOCATION
 CNTY.            NATRONA:   COUNTY
 STAT.            WYOMING:   STATE
 CTRY. UNITED STATES OF AMERICA:   COUNTRY
 SRVC.      WESTERN ATLAS:   SERVICE COMPANY
 DATE.        03-JAN-1988:   LOGDATE
 API .     49025111920000:   API NUMBER
~CURVE INFORMATION
#MNEM.UNIT       API CODE    CURVE DESCRIPTION
#----------   ------------   ------------------------------
 DEPT.F                  :   
 TEND.LBS    45 635 01 00:   TENSION FROM DENSITY LOG
 CALD.IN     45 280 60 00:   CALIPER FROM DENSITY LOG
 NPHI.DEC    42 890 03 00:   NEUTRON POROSITY SANDSTONE
 DEN .G/C3   45 350 01 00:   BULK DENSITY
 CORR.G/C3   45 356 01 00:   DENSITY CORRECTION
 TENR.LBS    07 635 01 00:   TENSION FROM RESISTIVITY
 RFOC.OHMM   07 220 04 00:   RESISTIVITY FOCUSED LOG RES.
 RILD.OHMM   07 120 46 00:   DEEP INDUCTION RESISTIVITY
 RILM.OHMM   07 120 44 00:   INDUCTION LOG MEDIUM RESISTIVITY
 SPR .MV     07 010 01 00:   SPONTANEOUS POTENTIAL
 GRR .GAPI   07 310 01 00:   GAMMA RAY FROM RESISTIVITY
~PARAMETER INFORMATION
#MNEM.UNIT          VALUE    DESCRIPTION
#----------   ------------   ------------------------------
 EKB .F         5072.0000:   Kelly bushing
 EGL .F         5061.0000:   Ground level
 EDF .F         5071.0000:   Drilling floor
 TD  .F         3062.0000:   Total depth
 DATE.        03-JAN-1988:   Date logged
 CLNT.            A2DTECH:   Client Code
 SL  . 1721' FSL & 556' FEL:   Surface Location
 PD  .                 GL:   Permanent Datum
 DD  .F              3060:   Depth driller
 DL  .F              3062:   Depth logger
 BLI .F              3060:   Bottom log interval
 CS1 .IN            8.625:   Casing size
 CBD1.      8.625" @ 480':   Casing driller 1
 CBL1.F               480:   Casing logger 1
 BS1 .IN            7.875:   Bit size
 DFT .        KCL-POLYMER:   Type fluid in hole
 DFD .                8.9:   Density
 DFV .                 36:   Viscosity
 DFPH.                9.5:   pH
 DFL .                8.4:   Fluid loss
 MSS .               TANK:   Source of sample
 RMS .OHMM           0.45:   Rm
 MST .F                80:   Rm Meas. temp.
 RMF .OHMM           0.41:   Rmf
 MFST.F                60:   Rmf Meas. temp.
 RMC .OHMM           0.65:   Rmc
 MCST.F                60:   Rmc Meas. temp.
 MFSS.               MEAS:   Source Rmf.
 RMB .OHMM           0.31:   Rm. at BHT
 BHT .F               110:   BHT.
 TCS .HRS               4:   Time Circ. stopped
 MRT .F               110:   Maximum recorded temp.
 LUN .            HL 6343:   Logging unit number
 LUL .               CODY:   Logging unit location
 ENGI.               RALL:   Recorded By
 WITN.              FIVRS:   Witnessed by
 ORIG.     2.5", 5" PRINT:   Origin of data
 UWI .     49025111920000:   Unique Well ID
 DICO. A2D TECHNOLOGIES, INC.:   Digitizing Company
 DAPD.                 11:   Feet Above Permanent Datum
 BSD1.               3060:   Depth drilled with bit1
 MCSS.               CALC:   Source Rmc.
 EPD .               5061:   Elevation Permanent Datum
 LMF .                 KB:   Log Measured From
 DMF .                 KB:   Drilling Measured From
 TLI .                480:   Top log interval
~OTHER INFORMATION
~A   DEPT     TEND       CALD       NPHI        DEN       CORR       TENR       RFOC       RILD       RILM        SPR         GRR  
# ...
 1334.5000  -999.2500  -999.2500  -999.2500  -999.2500  -999.2500   -75.5950     7.8100     6.8240     6.9710   -17.4730   108.6720
 1335.0000  -999.2500  -999.2500  -999.2500  -999.2500  -999.2500   -75.0860     7.7230     6.8090     6.9460   -17.3380   109.5450
 1335.5000  -999.2500  -999.2500  -999.2500  -999.2500  -999.2500   -74.5770     7.6350     6.7940     6.9200   -17.3240   110.4780
 1336.0000  -999.2500  -999.2500  -999.2500  -999.2500  -999.2500   -74.0680     7.5910     6.7790     6.9130   -17.6780   109.1170
 1336.5000  -999.2500  -999.2500  -999.2500  -999.2500  -999.2500   -73.5590     7.6750     6.7630     6.9020   -18.0190   104.8570
 1337.0000  -999.2500  -999.2500  -999.2500  -999.2500  -999.2500   -73.0490     7.7400     6.7480     6.8910   -18.3590    99.6770
 1337.5000  -999.2500  -999.2500  -999.2500  -999.2500  -999.2500   -72.5150     7.8070     6.7330     6.8800   -18.7010    99.4810
 1338.0000  -999.2500  -999.2500  -999.2500  -999.2500  -999.2500   -72.9940     7.7170     6.7180     6.8690   -18.9430   104.2720
 1338.5000  -999.2500  -999.2500  -999.2500  -999.2500  -999.2500   -73.4990     7.6210     6.7020     6.8570   -19.1070   109.2800
 1339.0000  -999.2500  -999.2500  -999.2500  -999.2500  -999.2500   -74.0030     7.5260     6.6870     6.8480   -19.2720   108.1040
 1339.5000  -999.2500  -999.2500  -999.2500  -999.2500  -999.2500   -74.5070     7.4500     6.6720     6.8480   -19.4370   106.6170
 1340.0000  -999.2500  -999.2500  -999.2500  -999.2500  -999.2500   -75.0110     7.5950     6.6570     6.8480   -19.6020   105.1520
 1340.5000  -999.2500  -999.2500  -999.2500  -999.2500  -999.2500   -75.5150     7.7340     6.6410     6.8480   -19.7660   103.7280
 1341.0000  -999.2500  -999.2500  -999.2500  -999.2500  -999.2500   -76.0190     7.6720     6.6260     6.8480   -19.8620   103.0500
 1341.5000  -999.2500  -999.2500  -999.2500  -999.2500  -999.2500   -76.5230     7.5750     6.6110     6.8480   -19.8420   106.4450
 1342.0000  -999.2500  -999.2500  -999.2500  -999.2500  -999.2500   -77.0270     7.4780     6.5970     6.8480   -19.3860   111.2940
 1342.5000  -999.2500  -999.2500  -999.2500  -999.2500  -999.2500   -77.5320     7.3800     6.6140     6.8480   -18.9320   114.1920
 1343.0000  -999.2500  -999.2500  -999.2500  -999.2500  -999.2500   -78.0360     7.3120     6.6490     6.8480   -18.4810   115.5610
 1343.5000  -999.2500  -999.2500  -999.2500  -999.2500  -999.2500   -78.5400     7.4510     6.6850     6.8490   -18.0310   113.7730
 1344.0000  -999.2500  -999.2500  -999.2500  -999.2500  -999.2500   -79.0440     7.5580     6.7210     6.8590   -17.6780   111.2980
 1344.5000  -999.2500  -999.2500  -999.2500  -999.2500  -999.2500   -79.5480     7.6650     6.7560     6.8920   -17.9480   109.5420
 1345.0000  -999.2500  -999.2500  -999.2500  -999.2500  -999.2500   -80.0520     7.7520     6.7920     6.9260   -18.2210   109.6100
 1345.5000  -999.2500  -999.2500  -999.2500  -999.2500  -999.2500   -80.5560     7.8010     6.8280     6.9590   -18.4330   109.7760
 1346.0000  -999.2500  -999.2500  -999.2500  -999.2500  -999.2500   -81.0600     7.8510     6.8630     6.9920   -18.2880   109.6240
 1346.5000  -999.2500  -999.2500  -999.2500  -999.2500  -999.2500   -81.5640     7.8770     6.8990     7.0260   -18.1520   108.6730
 1347.0000  -999.2500  -999.2500  -999.2500  -999.2500  -999.2500   -82.0690     7.8480     6.9130     7.0590   -18.0420   106.6010
 1347.5000  -999.2500  -999.2500  -999.2500  -999.2500  -999.2500   -82.5730     7.8250     6.8860     7.0920   -18.0420   106.2810
 1348.0000  -999.2500  -999.2500  -999.2500  -999.2500  -999.2500   -82.2420     7.8070     6.8630     7.1250   -18.0240   106.9500
 1348.5000  -999.2500  -999.2500  -999.2500  -999.2500  -999.2500   -81.7420     7.8850     6.8410     7.1760   -18.2930   107.6350
 1349.0000  -999.2500  -999.2500  -999.2500  -999.2500  -999.2500   -81.2430     7.9550     6.8180     7.1330   -18.4990   109.0210
 1349.5000  -999.2500  -999.2500  -999.2500  -999.2500  -999.2500   -80.7440     7.8550     6.7960     7.0390   -18.7060   110.7740
 1350.0000  -999.2500  -999.2500  -999.2500  -999.2500  -999.2500   -80.2450     7.7410     6.7520     6.9450   -18.8550   112.1380
 1350.5000  -999.2500  -999.2500  -999.2500  -999.2500  -999.2500   -79.7460     7.5830     6.6850     6.8520   -18.9650   108.7230
 1351.0000  -999.2500  -999.2500  -999.2500  -999.2500  -999.2500   -79.2460     7.5120     6.6180     6.7580   -19.0930   105.3800
 1351.5000  -999.2500  -999.2500  -999.2500  -999.2500  -999.2500   -78.7470     7.4420     6.5510     6.6590   -19.2210   103.8660
 1352.0000  -999.2500  -999.2500  -999.2500  -999.2500  -999.2500   -78.2480     7.3710     6.4840     6.5910   -19.3490   104.8210
 1352.5000  -999.2500  -999.2500  -999.2500  -999.2500  -999.2500   -77.7490     7.3120     6.4170     6.5190   -19.4750   108.3650
 1353.0000  -999.2500  -999.2500  -999.2500  -999.2500  -999.2500   -77.2490     7.7340     6.3510     6.4470   -19.6030   107.6190
 1353.5000  -999.2500  -999.2500  -999.2500  -999.2500  -999.2500   -76.7500     7.5510     6.2840     6.3750   -19.5160   106.8110
 1354.0000  -999.2500  -999.2500  -999.2500  -999.2500  -999.2500   -76.2510     7.3170     6.2170     6.3040   -19.2810   107.5920
 1354.5000  -999.2500  -999.2500  -999.2500  -999.2500  -999.2500   -75.7520     7.0830     6.1630     6.2320   -19.0440   108.7610
 1355.0000  -999.2500  -999.2500  -999.2500  -999.2500  -999.2500   -75.2530     6.9780     6.0950     6.1600   -18.8060   109.9520
 1355.5000  -999.2500  -999.2500  -999.2500  -999.2500  -999.2500   -74.7530     7.0090     6.0260     6.0640   -18.5680   111.0430
 1356.0000  -999.2500  -999.2500  -999.2500  -999.2500  -999.2500   -74.2540     7.0350     5.9580     6.0810   -18.3290   110.4560
 1356.5000  -999.2500  -999.2500  -999.2500  -999.2500  -999.2500   -73.7550     7.0430     5.8890     6.1070   -18.1240   108.5620
 1357.0000  -999.2500  -999.2500  -999.2500  -999.2500  -999.2500   -73.2560     6.7740     5.8410     6.1210   -17.9350   107.1300
 1357.5000  -999.2500  -999.2500  -999.2500  -999.2500  -999.2500   -72.7560     6.5240     5.8670     6.2010   -17.7450   107.6260
 1358.0000  -999.2500  -999.2500  -999.2500  -999.2500  -999.2500   -72.7760     6.3540     5.8870     6.3150   -17.5550   107.5770
 1358.5000  -999.2500  -999.2500  -999.2500  -999.2500  -999.2500   -73.2800     6.7510     5.9070     6.4140   -17.3710   106.9660
 1359.0000  -999.2500  -999.2500  -999.2500  -999.2500  -999.2500   -73.7840     7.0520     5.9270     6.4320   -17.3370   106.1490
 1359.5000  -999.2500  -999.2500  -999.2500  -999.2500  -999.2500   -74.2880     7.2520     5.9470     6.4510   -17.7200   105.4680
 1360.0000  -999.2500  -999.2500  -999.2500  -999.2500  -999.2500   -74.7920     7.2750     6.0260     6.4700   -18.0880   107.0870
 1360.5000  -999.2500  -999.2500  -999.2500  -999.2500  -999.2500   -75.2960     7.3120     6.1230     6.4900   -18.4540   108.3860
 1361.0000  -999.2500  -999.2500  -999.2500  -999.2500  -999.2500   -75.8000     7.2760     6.2190     6.5090   -18.8210   108.7150
 1361.5000  -999.2500  -999.2500  -999.2500  -999.2500  -999.2500   -76.3050     7.1870     6.2950     6.5280   -19.0870   109.1360
 1362.0000  -999.2500  -999.2500  -999.2500  -999.2500  -999.2500   -76.8090     7.0980     6.3140     6.5710   -19.1690   111.3970
 1362.5000  -999.2500  -999.2500  -999.2500  -999.2500  -999.2500   -77.3130     6.9780     6.3600     6.6290   -19.2540   110.7710
 1363.0000  -999.2500  -999.2500  -999.2500  -999.2500  -999.2500   -77.8170     7.0850     6.4050     6.6860   -19.3390   110.5830
 1363.5000  -999.2500  -999.2500  -999.2500  -999.2500  -999.2500   -78.3210     7.2490     6.4500     6.7440   -19.4240   111.3290
 1364.0000  -999.2500  -999.2500  -999.2500  -999.2500  -999.2500   -78.8250     7.4120     6.4950     6.7860   -19.5090   112.0830
 1364.5000  -999.2500  -999.2500  -999.2500  -999.2500  -999.2500   -79.3290     7.5910     6.5320     6.7930   -19.5940   106.8220
