~VERSION INFORMATION
 VERS.                2.0:   CWLS LOG ASCII STANDARD - VERSION 2.0
 WRAP.                 NO:   ONE LINE PER DEPTH STEP
~WELL INFORMATION
#MNEM.UNIT      DATA TYPE    INFORMATION
#----------   ------------   ------------------------------
 STRT.F           85.5000:   START DEPTH
 STOP.F         3267.0000:   STOP DEPTH
 STEP.F            0.5000:   STEP LENGTH
 NULL.          -999.2500:   NO VALUE
 COMP. LAWRENCE ALLISON & ASSOCIATES:   COMPANY
 WELL. LAWRENCE "X" #78-33:   WELL
 FLD .           N P R #3:   FIELD
 LOC .      S33 T39N R78W:   LOCATION
 CNTY.            NATRONA:   COUNTY
 STAT.            WYOMING:   STATE
 CTRY. UNITED STATES OF AMERICA:   COUNTRY
 SRVC.      DRESSER ATLAS:   SERVICE COMPANY
 DATE.        04-FEB-1986:   LOGDATE
 API .     49025110630000:   API NUMBER
~CURVE INFORMATION
#MNEM.UNIT       API CODE    CURVE DESCRIPTION
#----------   ------------   ------------------------------
 DEPT.F                  :   
 CNC .DEC    42 890 03 00:   NEUTRON PORISITY SANDSTONE
 DEN .G/C3   45 350 01 00:   BULK DENSITY
 DCOR.G/C3   45 356 01 00:   DENSITY CORRECTION
 TEND.LBS    45 635 01 00:   TENSION FROM DENSITY LOG
 GRR .GAPI   07 310 01 00:   GAMMA RAY FROM RESISTIVITY
 CALR.IN     07 280 01 00:   CALIPER FROM RESISTIVITY
 RILM.OHMM   07 120 44 00:   INDUCTION LOG MEDIUM RESISTIVITY
 RILD.OHMM   07 120 46 00:   DEEP INDUCTION RESISTIVITY
 RFOC.OHMM   07 220 04 00:   RESISTIVITY FOCUSED LOG RES.
 TENR.LBS    07 635 01 00:   TENSION FROM RESISTIVITY
 DT  .US/F   60 520 00 00:   DELTA TIME
 TENS.LBS    60 635 01 00:   TENSION FROM SONIC
 SPR .MV     07 010 01 00:   SPONTANEOUS POTENTIAL
~PARAMETER INFORMATION
#MNEM.UNIT          VALUE    DESCRIPTION
#----------   ------------   ------------------------------
 EKB .F            0.0000:   Kelly bushing
 EGL .F         5150.0000:   Ground level
 EDF .F         5161.0000:   Drilling floor
 TD  .F         3260.0000:   Total depth
 DATE.        04-FEB-1986:   Date logged
 CLNT.            A2DTECH:   Client Code
 SL  . 1200' FEL & 650' FEL:   Surface Location
 PD  .                 GL:   Permanent Datum
 DD  .F              3260:   Depth driller
 DL  .F              3260:   Depth logger
 BLI .F              3258:   Bottom log interval
 CS1 .IN            8.625:   Casing size
 CBD1.      8.625" @ 566':   Casing driller 1
 CBL1.F               566:   Casing logger 1
 BS1 .IN            7.875:   Bit size
 DFT .        POLYMER-KCL:   Type fluid in hole
 DFD .                9.0:   Density
 DFV .                 36:   Viscosity
 DFPH.                8.5:   pH
 DFL .                 14:   Fluid loss
 MSS .           FLOWLINE:   Source of sample
 RMS .OHMM          0.367:   Rm
 MST .F                65:   Rm Meas. temp.
 RMF .OHMM          0.275:   Rmf
 MFST.F                65:   Rmf Meas. temp.
 RMC .OHMM          0.459:   Rmc
 MCST.F                65:   Rmc Meas. temp.
 MFSS.               CALC:   Source Rmf.
 RMB .OHMM          0.227:   Rm. at BHT
 BHT .F               105:   BHT.
 TCS .HRS               6:   Time Circ. stopped
 MRT .F               105:   Maximum recorded temp.
 LUN .               6274:   Logging unit number
 LUL .           GILLETTE:   Logging unit location
 ENGI.             MILLER:   Recorded By
 WITN.             STRONG:   Witnessed by
 ORIG.           5" PRINT:   Origin of data
 UWI .     49025110630000:   Unique Well ID
 DICO. A2D TECHNOLOGIES, INC.:   Digitizing Company
 DAPD.                 11:   Feet Above Permanent Datum
 BSD1.               3260:   Depth drilled with bit1
 MCSS.               CALC:   Source Rmc.
 EPD .F              5150:   Elevation Permanent Datum
 LMF .                 KB:   Log Measured From
 DMF .                 KB:   Drilling Measured From
 TLI .                566:   Top log interval
~OTHER INFORMATION
~A   DEPT      CNC        DEN       DCOR       TEND         GRR      CALR       RILM       RILD       RFOC       TENR         DT       TENS        SPR   
# ...
 2685.5000     0.2110     2.4410     0.0510  -121.7960    84.8750     9.3060    11.5620    11.8570    12.1080   -77.1400    77.8520   -77.7130   -65.4570
 2686.0000     0.2140     2.4320     0.0470  -121.2560    86.2430     9.2990    11.6180    11.8860    12.2190   -69.7300    76.6610   -75.7750   -65.0600
 2686.5000     0.2160     2.4370     0.0420  -114.1270    87.2220     9.2990    11.6690    12.2050    14.0290   -62.3200    75.7910   -81.9750   -64.3650
 2687.0000     0.2150     2.4570     0.0390  -106.9990    86.7040     9.2960    11.5480    12.5610    14.8260   -55.0000    75.6050   -88.1750   -64.1530
 2687.5000     0.2100     2.4770     0.0380  -107.4470    86.0270     9.2930    11.4500    12.3830    14.1140   -57.7780    75.9000   -95.0000   -64.0670
 2688.0000     0.1940     2.4980     0.0370  -113.9550    86.0760     9.2900    11.3510    12.2060    13.1530   -60.5220    76.5980   -65.0000   -63.9060
 2688.5000     0.1870     2.4950     0.0350  -120.4640    85.3920     9.2800    11.2200    12.0300    13.2480   -63.2670    77.3830   -74.8550   -64.0860
 2689.0000     0.1980     2.4860     0.0180  -126.9720    84.2250     9.2680    11.0870    11.8540    13.3440   -66.0110    78.0880   -83.8730   -64.2310
 2689.5000     0.2070     2.4680    -0.0050  -134.0730    83.4300     9.2550    10.9540    11.6690    13.4390   -68.7560    78.3170   -83.8270   -64.3540
 2690.0000     0.2040     2.4580    -0.0280  -126.9100    84.8920     9.2420    10.8400    11.6690    13.5220   -71.5000    78.4160   -82.4860   -64.5200
 2690.5000     0.1980     2.4630    -0.0260  -119.0310    86.9400     9.2300    10.8400    11.6690    12.9070   -75.0000    78.3520   -81.1460   -64.6260
 2691.0000     0.1950     2.4720     0.0170  -111.1520    87.8360     9.2170    10.8400    11.7220    12.3680   -71.2970    78.2030   -79.8050   -64.6910
 2691.5000     0.1980     2.4810     0.0410  -103.8310    88.6330     9.2050    10.9400    11.8880    11.8860   -66.1860    78.0550   -78.4650   -64.5440
 2692.0000     0.2000     2.4820     0.0380  -105.9680    87.8640     9.1910    11.3240    12.0540    11.7500   -61.0760    77.9060   -77.1240   -64.5530
 2692.5000     0.1980     2.4740     0.0190  -107.9640    85.4010     9.1620    11.4050    12.2200    11.6270   -55.9660    77.4780   -75.7840   -64.6680
 2693.0000     0.1970     2.4650    -0.0020  -109.9600    82.2240     9.1290    11.3510    12.3860    11.7650   -50.8550    76.7040   -80.8860   -64.3620
 2693.5000     0.1990     2.4560    -0.0250  -111.9560    80.7980     9.1120    12.0320    12.5520    13.0020   -45.0000    75.8180   -95.0000   -63.9730
 2694.0000     0.1990     2.4470    -0.0300  -113.9110    83.9650     9.1110    12.2820    12.6770    15.1810   -43.8590    74.7500   -81.1670   -63.7490
 2694.5000     0.1940     2.4420    -0.0550  -105.4270    88.2610     9.1120    11.8860    12.8230    16.7120   -42.5240    75.1250   -67.3890   -63.6550
 2695.0000     0.1940     2.4470    -0.0560   -97.1100    90.3100     9.1110    12.0720    12.9130    16.4020   -41.1890    75.3500   -53.6110   -63.6370
 2695.5000     0.1970     2.4520    -0.0400   -88.7940    89.7320     9.1120    12.1070    12.7660    16.1080   -39.8540    76.3220   -45.5030   -63.5690
 2696.0000     0.1970     2.4570    -0.0240   -85.1430    87.4080     9.1110    12.1070    12.6220    13.9180   -38.5190    77.0320   -46.8430   -63.5270
 2696.5000     0.2020     2.4550    -0.0100   -88.9810    85.1990     9.1120    11.8860    12.4460    12.4460   -37.1840    77.2670   -48.1840   -63.4710
 2697.0000     0.2080     2.4520     0.0000   -92.8190    82.5890     9.1110    11.8530    12.4460    13.1810   -35.8490    77.0350   -49.5240   -63.4270
 2697.5000     0.2130     2.4480     0.0050   -93.7500    82.7560     9.1060    11.8190    12.4460    15.2420   -35.0000    76.8040   -50.8650   -63.3690
 2698.0000     0.2080     2.4440    -0.0010   -93.7500    87.6970     9.0980    11.7770    12.4460    14.8260   -39.2030    76.7650   -52.2050   -63.3230
 2698.5000     0.1980     2.4410    -0.0020   -93.7500    90.5320     9.0900    11.8110    12.4460    13.9620   -42.8210    77.1080   -53.5460   -63.5010
 2699.0000     0.1980     2.4430     0.0030   -93.7500    88.9770     9.0820    11.8750    12.5760    12.7950   -46.4380    77.4520   -55.0000   -63.7460
 2699.5000     0.1990     2.4490     0.0040  -101.3940    85.0880     9.0750    11.9390    12.7530    13.1280   -50.0550    77.5890   -51.9300   -63.9960
 2700.0000     0.2080     2.4520    -0.0050  -103.8310    82.5000     9.0670    11.9960    12.9310    13.9970   -53.6730    77.6500   -47.6280   -64.2320
 2700.5000     0.2060     2.4440    -0.0200  -103.8310    85.3180     9.0590    12.1940    13.1080    14.9630   -57.2900    77.4770   -43.3250   -64.1910
 2701.0000     0.2020     2.4380    -0.0210  -103.8310    88.7510     9.0520    12.4770    13.2850    14.8260   -60.9080    77.2850   -39.0230   -63.9970
 2701.5000     0.1990     2.4350    -0.0150  -103.8310    88.0870     9.0440    12.7610    13.4630    14.0270   -65.0000    77.0930   -35.0000   -63.8220
 2702.0000     0.1990     2.4440     0.0000   -99.6880    82.9170     9.0360    12.8010    13.4480    13.2870   -61.6050    76.5720   -37.2870   -63.6020
 2702.5000     0.2030     2.4590     0.0070   -90.6340    78.0740     9.0340    12.5580    13.2890    14.0700   -57.6970    75.0900   -39.4350   -63.3530
 2703.0000     0.2050     2.4670     0.0050   -83.6690    78.9370     9.0390    12.3160    13.1310    15.6490   -53.7890    74.2360   -41.5830   -63.0960
 2703.5000     0.2010     2.4820     0.0100   -83.6690    82.3690     9.0440    12.0740    12.9720    17.5000   -49.8820    74.4200   -43.7300   -62.8490
 2704.0000     0.1930     2.4910     0.0100   -83.6690    85.3020     9.0500    11.5620    12.7950    17.8250   -45.9740    75.5960   -45.0000   -62.5870
 2704.5000     0.1950     2.4950    -0.0030   -83.6690    86.2610     9.0550    11.6010    12.7950    15.9030   -42.0660    78.7500   -45.0000   -62.3340
 2705.0000     0.1990     2.4890     0.0000   -83.6690    86.0850     9.0600    11.6490    12.7950    14.3310   -38.1580    80.7100   -45.0000   -62.1750
 2705.5000     0.2030     2.4760     0.0030   -83.6690    86.7440     9.0650    11.7220    12.8410    12.7580   -35.0000    81.3640   -45.0000   -62.0370
 2706.0000     0.1980     2.4490     0.0170   -83.6690    86.2960     9.0710    11.6240    12.9600    11.9480   -15.0000    80.9500   -46.1580   -61.8710
 2706.5000     0.1950     2.4320     0.0230   -86.1460    84.3770     9.0870    11.5750    13.0780    11.6690   -35.0000    79.7880   -48.2170   -61.7300
 2707.0000     0.1980     2.4370     0.0000   -93.2600    82.7140     9.1060    12.1820    13.1530    12.3520   -42.3850    78.5720   -50.2750   -61.5710
 2707.5000     0.2000     2.4500    -0.0070  -100.3740    80.5910     9.1280    13.0050    13.7540    13.2420   -50.0000    77.6300   -52.3330   -61.4180
 2708.0000     0.2020     2.4540     0.0050  -107.4880    79.4670     9.1500    13.3980    14.2700    15.3830   -50.5260    77.4220   -54.3920   -61.3650
 2708.5000     0.2030     2.4420     0.0340  -113.9110    81.8190     9.1520    13.4920    14.7870    16.1080   -37.5000    77.3670   -48.6730   -61.3870
 2709.0000     0.1970     2.4310     0.0320  -102.9840    84.6800     9.1500    13.5740    15.2420    15.1640   -24.4740    77.2080   -39.6910   -61.4650
 2709.5000     0.1900     2.4230     0.0290   -93.0240    86.9470     9.1520    13.6470    14.5620    14.4220   -11.4470    77.0020   -30.7090   -61.4660
 2710.0000     0.1850     2.4230     0.0190   -83.0650    88.3140     9.1510    13.1780    13.7730    16.3180    -5.0000    76.6940   -21.7270   -61.5590
 2710.5000     0.1840     2.4340     0.0090   -73.5890    87.3160     9.1510    12.7950    13.6920    17.3760   -25.0000    76.1010   -16.0940   -62.0920
 2711.0000     0.1840     2.4410    -0.0010   -77.2320    86.6440     9.1510    12.6370    13.5760    17.5000   -25.0000    75.6500   -20.4530   -62.7320
