~VERSION INFORMATION
 VERS.                2.0:   CWLS LOG ASCII STANDARD - VERSION 2.0
 WRAP.                 NO:   ONE LINE PER DEPTH STEP
~WELL INFORMATION
#MNEM.UNIT      DATA TYPE    INFORMATION
#----------   ------------   ------------------------------
 STRT.F           76.0000:   START DEPTH
 STOP.F         4972.0000:   STOP DEPTH
 STEP.F            0.5000:   STEP LENGTH
 NULL.          -999.2500:   NO VALUE
 COMP.    PENIX & SCISSON:   COMPANY
 WELL. FENIX NPR 3 "LX" #85-9:   WELL
 FLD .                NPR:   FIELD
 LOC .       S9 T38N R78W:   LOCATION
 CNTY.            NATRONA:   COUNTY
 STAT.            WYOMING:   STATE
 CTRY. UNITED STATES OF AMERICA:   COUNTRY
 SRVC.       SCHLUMBERGER:   SERVICE COMPANY
 DATE.        10-OCT-1978:   LOGDATE
 API .     49025107250000:   API NUMBER
~CURVE INFORMATION
#MNEM.UNIT       API CODE    CURVE DESCRIPTION
#----------   ------------   ------------------------------
 DEPT.F                  :   
 TENR.LBS    07 635 01 00:   TENSION FROM RESISTIVITY
 SPR .MV     07 010 01 00:   SPONTANEOUS POTENTIAL
 SFL .OHMM   07 220 01 00:   SHALLOW FOCUSED LOG RESISTIVITY
 ILD .OHMM   07 120 46 00:   DEEP INDUCTION RESISTIVITY
 ILM .OHMM   07 120 44 00:   INDUCTION LOG MEDIUM RESISTIVITY
 CALD.IN     45 280 60 00:   CALIPER FROM DENSITY LOG
 GRD .GAPI   45 310 01 00:   GAMMA RAY FROM DENSITY LOG
 CORR.G/C3   45 356 01 00:   DENSITY CORRECTION
 TEND.LBS    45 635 01 00:   TENSION FROM DENSITY LOG
 RHOB.G/C3   45 350 01 00:   BULK DENSITY
 NPHI.DEC    42 890 03 00:   NEUTRON POROSITY SANDSTONE
~PARAMETER INFORMATION
#MNEM.UNIT          VALUE    DESCRIPTION
#----------   ------------   ------------------------------
 EKB .F         5288.0000:   Kelly bushing
 EGL .F         5278.0000:   Ground level
 EDF .F            0.0000:   Drilling floor
 TD  .F         4950.0000:   Total depth
 DATE.        10-OCT-1978:   Date logged
 CLNT.            A2DTECH:   Client Code
 SL  . 2310' FSL & 230' FEL:   Surface Location
 PD  .                 GL:   Permanent Datum
 EPD .F              5278:   Elevation Permanent Datum
 LMF .                 KB:   Log Measured From
 DMF .                 KB:   Drilling Measured From
 DAPD.F                10:   Feet Above Permanent Datum
 DD  .F              4950:   Depth driller
 DL  .F              4950:   Depth logger
 BLI .F              4947:   Bottom log interval
 TLI .F               499:   Top log interval
 CS1 .IN            8.625:   Casing size
 CBD1.      8.625" @ 489':   Casing driller 1
 CBL1.F               499:   Casing logger 1
 BS1 .IN            7.875:   Bit size
 BSD1.F              4950:   Depth drilled with bit1
 DFT .            GEL/MUD:   Type fluid in hole
 DFD .                9.3:   Density
 DFV .                175:   Viscosity
 DFPH.                 12:   pH
 DFL .                  4:   Fluid loss
 MSS .               TANK:   Source of sample
 RMS .OHMM           .600:   Rm
 MST .F                71:   Rm Meas. temp.
 RMF .OHMM           .804:   Rmf
 MFST.F                71:   Rmf Meas. temp.
 MFSS.               MEAS:   Source Rmf.
 RMB .OHMM           .308:   Rm. at BHT
 BHT .F               138:   BHT.
 TCS .HRS            1200:   Time Circ. stopped
 TLAB.HRS            0330:   Time logger at bottom
 MRT .F               138:   Maximum recorded temp.
 LUN .               8035:   Logging unit number
 LUL .               CSPR:   Logging unit location
 ENGI.        CRAIG/DFARR:   Recorded By
 WITN.              AMEND:   Witnessed by
 ORIG.           5" PRINT:   Origin of data
 UWI .     49025107250000:   Unique Well ID
 DICO. A2D TECHNOLOGIES, INC.:   Digitizing Company
~OTHER INFORMATION
~A   DEPT     TENR        SPR        SFL        ILD        ILM       CALD         GRD      CORR       TEND       RHOB         NPHI 
# ...
 4346.0000  2020.7070   -19.6100    15.8090     5.2300     6.1220     8.6020   189.6880     0.2190  2159.4910     2.4530     0.3460
 4346.5000  2021.4189   -19.8620    11.5080     4.5400     5.2260     8.6650   198.8920     0.1540  2159.6750     2.3900     0.3320
 4347.0000  2022.1310   -20.1420     7.2060     3.8490     4.3300     8.7310   198.2980     0.0640  2159.8601     2.3630     0.3060
 4347.5000  2022.8430   -20.4010     2.9040     3.3540     3.4340     8.7950   201.1100     0.0690  2160.0439     2.4080     0.2630
 4348.0000  2023.5540   -20.6960     2.6360     3.1530     3.3110     8.8430   211.7840     0.0930  2160.2280     2.4350     0.2980
 4348.5000  2024.2660   -20.8140     2.2790     2.9510     3.1060     8.7830   217.8270     0.1140  2160.4131     2.4220     0.3510
 4349.0000  2024.9780   -20.7020     2.2790     2.7500     2.9000     8.7310   183.8320     0.1300  2160.5969     2.3990     0.3770
 4349.5000  2025.6899   -20.6200     2.2790     2.5490     2.6450     8.6770   147.4280     0.0890  2160.7820     2.3760     0.3500
 4350.0000  2026.4020   -20.5280     3.2200     2.7040     3.0920     8.6150   155.6210     0.0470  2160.9661     2.4010     0.2980
 4350.5000  2027.1140   -20.4240     4.1610     2.9620     3.8370     8.6100   118.0720     0.0440  2161.1509     2.4540     0.2380
 4351.0000  2027.8260   -20.1470     5.2730     3.2210     4.5810     8.6090   120.0240     0.0400  2161.3350     2.4550     0.2390
 4351.5000  2028.5380   -19.8770     9.0470     3.8250     5.3260     8.6100   116.0730     0.0420  2161.5190     2.4500     0.2420
 4352.0000  2029.2500   -19.4050    14.4320     4.9050     6.0700     8.6080   111.8160     0.0440  2161.7041     2.4430     0.2470
 4352.5000  2029.9620   -18.3930    16.1400     5.9850     6.8150     8.5790   110.8970     0.0470  2161.8879     2.4350     0.2500
 4353.0000  2030.6730   -17.5850    15.6750     7.0650     7.4810     8.5340   110.9180     0.0490  2162.0730     2.4270     0.2510
 4353.5000  2031.3850   -17.2740    14.9510     7.9410     7.9080     8.5460   119.6950     0.0510  2162.2571     2.4200     0.2650
 4354.0000  2032.0970   -17.1390    13.9040     8.4040     8.3360     8.5650   128.2980     0.0530  2162.4409     2.4080     0.2820
 4354.5000  2032.8090   -17.0340    12.5750     8.1650     8.6590     8.5860   131.7320     0.0490  2162.6260     2.4020     0.2990
 4355.0000  2033.5210   -16.9180     9.3990     7.8880     8.8880     8.6060   132.2400     0.0340  2162.8101     2.3920     0.2860
 4355.5000  2034.2330   -16.8440     9.0550     7.6110     8.8380     8.6250   132.8280     0.0190  2162.9951     2.3920     0.2680
 4356.0000  2034.9449   -17.0440     9.4780     7.3330     8.7240     8.6480   133.3040     0.0170  2163.1790     2.3980     0.2770
 4356.5000  2035.6570   -17.6440    10.0890     6.9750     8.2410     8.6450   136.4870     0.0410  2163.3630     2.4170     0.2930
 4357.0000  2036.3690   -18.2320    10.5120     7.0380     7.6560     8.6410   141.8870     0.0730  2163.5481     2.4370     0.3020
 4357.5000  2037.0800   -18.8830     9.9540     7.2420     7.5150     8.6350   141.7650     0.0680  2163.7319     2.4460     0.3000
 4358.0000  2037.7920   -19.3280     9.1430     7.4470     7.9970     8.6310   133.1810     0.0560  2163.9170     2.4420     0.2820
 4358.5000  2038.5040   -19.4260     8.7240     7.6510     8.4280     8.6260   117.6170     0.0390  2164.1011     2.4480     0.2070
 4359.0000  2039.2159   -19.5790     9.9220     7.9470     8.8600     8.6200    98.4910     0.0480  2164.2849     2.5170     0.1640
 4359.5000  2039.9280   -19.7250    12.9050     7.7780     9.2260     8.6160   107.6880     0.0900  2164.4700     2.5640     0.1760
 4360.0000  2040.6400   -19.8620    21.7500     7.4700     8.6210     8.6100   127.6610     0.1320  2164.6541     2.6440     0.2060
 4360.5000  2041.3521   -20.0070    20.9540     7.1620     7.5880     8.6000   155.6790     0.1720  2164.8391     2.6120     0.2360
 4361.0000  2042.0640   -20.0420    15.5890     6.8460     6.5560     8.5870   169.9330     0.2170  2165.0229     2.5150     0.2660
 4361.5000  2042.7760   -20.0420    10.9900     6.8690     6.0080     8.5740   157.5280     0.1790  2165.2070     2.4270     0.2850
 4362.0000  2043.4871   -20.0400     6.3540     6.8920     6.0080     8.5760   147.2300     0.1350  2165.3921     2.3870     0.2870
 4362.5000  2044.1990   -20.0370     6.1220     6.9150     6.3890     8.5900   140.6260     0.0910  2165.5759     2.3730     0.2750
 4363.0000  2044.9110   -20.0520     8.5200     6.9380     7.0290     8.6020   111.5690     0.0430  2165.7610     2.3720     0.2650
 4363.5000  2045.6230   -19.9140    10.5210     6.9610     7.6690     8.6140   113.2010     0.0400  2165.9451     2.3880     0.2540
 4364.0000  2046.3350   -19.6650    12.5220     7.2790     8.3090     8.6270   112.4510     0.0390  2166.1299     2.4150     0.2440
 4364.5000  2047.0470   -19.4370    14.5230     8.0030     9.0550     8.6390   120.6550     0.0550  2166.3140     2.4480     0.2380
 4365.0000  2047.7590   -19.2090    16.4440     8.7270     9.6130     8.6520   127.7410     0.0730  2166.4980     2.4420     0.2450
 4365.5000  2048.4709   -18.9640    16.7170     9.4510    10.2820     8.6640   135.2250     0.0590  2166.6831     2.4230     0.2550
 4366.0000  2049.1831   -18.8440    17.0690    10.1750    10.9520     8.6770   137.3240     0.0470  2166.8669     2.4030     0.2670
 4366.5000  2049.8950   -18.9430    15.5500    10.7490    11.6210     8.6890   137.6180     0.0420  2167.0520     2.4120     0.2600
 4367.0000  2050.6060   -19.0240    15.7220    10.8980    12.0370     8.6940   139.0390     0.0550  2167.2361     2.4270     0.2470
 4367.5000  2051.3181   -19.1100    16.8070    11.0470    12.1640     8.6990   149.7590     0.0500  2167.4199     2.4340     0.2500
 4368.0000  2052.0300   -19.1970    18.2370    11.1970    12.2920     8.7030   154.4260     0.0360  2167.6050     2.4240     0.2580
 4368.5000  2052.7419   -19.2820    19.8140    11.3460    12.4320     8.7080   154.3330     0.0230  2167.7891     2.4180     0.2660
 4369.0000  2053.4541   -19.3680    19.0130    11.5340    12.3910     8.7130   152.9110     0.0210  2167.9741     2.4140     0.2730
 4369.5000  2054.1660   -19.4540    17.7030    11.5210    12.3450     8.7180   147.2430     0.0250  2168.1580     2.4110     0.2660
 4370.0000  2054.8779   -19.5400    16.6740    11.4950    12.2990     8.7230   143.2710     0.0290  2168.3420     2.4120     0.2600
 4370.5000  2055.5901   -19.6250    15.5500    11.4700    12.2540     8.7260   139.6060     0.0540  2168.5271     2.4210     0.2560
 4371.0000  2056.3020   -19.7110    15.6820    11.4440    12.2080     8.7390   136.3150     0.0930  2168.7109     2.4310     0.2540
 4371.5000  2057.0129   -19.7970    15.9300    11.4190    12.1620     8.7590   132.8430     0.0870  2168.8960     2.4380     0.2520
 4372.0000  2057.7251   -19.8840    16.1400    11.3930    12.1160     8.7780   130.7110     0.0700  2169.0801     2.4290     0.2510
 4372.5000  2058.4370   -19.9680    15.8420    11.3670    12.0700     8.7960   144.2310     0.0540  2169.2639     2.4500     0.2330
 4373.0000  2059.1489   -20.0400    16.2340    11.3420    12.0240     8.8160   152.7830     0.0880  2169.4490     2.4890     0.2260
 4373.5000  2059.8611   -20.0400    16.9300    10.8090    11.9770     8.8330   166.6340     0.1420  2169.6331     2.4940     0.2280
 4374.0000  2060.5730   -20.0370    18.0510     9.4240    10.9380     8.8420   186.9760     0.1800  2169.8181     2.4440     0.2420
 4374.5000  2061.2849   -20.0550    16.8690     8.0390     9.2810     8.7590   207.6080     0.1830  2170.0020     2.3830     0.3900
 4375.0000  2061.9971   -19.8760    14.4320     6.6550     7.4630     8.6890   188.2180     0.1590  2170.1870     2.3210     0.4730
 4375.5000  2062.7090   -19.5450     9.9590     5.2700     5.6450     8.6150   168.4890     0.1110  2170.3711     2.2860     0.4590
 4376.0000  2063.4199   -19.2400     4.0620     3.6320     3.9070     8.5410   151.4900     0.0560  2170.5549     2.2970     0.3000
