~VERSION INFORMATION
 VERS.                2.0:   CWLS LOG ASCII STANDARD - VERSION 2.0
 WRAP.                 NO:   ONE LINE PER DEPTH STEP
~WELL INFORMATION
#MNEM.UNIT      DATA TYPE    INFORMATION
#----------   ------------   ------------------------------
 STRT.F           85.5000:   START DEPTH
 STOP.F         3267.0000:   STOP DEPTH
 STEP.F            0.5000:   STEP LENGTH
 NULL.          -999.2500:   NO VALUE
 COMP. LAWRENCE ALLISON & ASSOCIATES:   COMPANY
 WELL. LAWRENCE "X" #78-33:   WELL
 FLD .           N P R #3:   FIELD
 LOC .      S33 T39N R78W:   LOCATION
 CNTY.            NATRONA:   COUNTY
 STAT.            WYOMING:   STATE
 CTRY. UNITED STATES OF AMERICA:   COUNTRY
 SRVC.      DRESSER ATLAS:   SERVICE COMPANY
 DATE.        04-FEB-1986:   LOGDATE
 API .     49025110630000:   API NUMBER
~CURVE INFORMATION
#MNEM.UNIT       API CODE    CURVE DESCRIPTION
#----------   ------------   ------------------------------
 DEPT.F                  :   
 CNC .DEC    42 890 03 00:   NEUTRON PORISITY SANDSTONE
 DEN .G/C3   45 350 01 00:   BULK DENSITY
 DCOR.G/C3   45 356 01 00:   DENSITY CORRECTION
 TEND.LBS    45 635 01 00:   TENSION FROM DENSITY LOG
 GRR .GAPI   07 310 01 00:   GAMMA RAY FROM RESISTIVITY
 CALR.IN     07 280 01 00:   CALIPER FROM RESISTIVITY
 RILM.OHMM   07 120 44 00:   INDUCTION LOG MEDIUM RESISTIVITY
 RILD.OHMM   07 120 46 00:   DEEP INDUCTION RESISTIVITY
 RFOC.OHMM   07 220 04 00:   RESISTIVITY FOCUSED LOG RES.
 TENR.LBS    07 635 01 00:   TENSION FROM RESISTIVITY
 DT  .US/F   60 520 00 00:   DELTA TIME
 TENS.LBS    60 635 01 00:   TENSION FROM SONIC
 SPR .MV     07 010 01 00:   SPONTANEOUS POTENTIAL
~PARAMETER INFORMATION
#MNEM.UNIT          VALUE    DESCRIPTION
#----------   ------------   ------------------------------
 EKB .F            0.0000:   Kelly bushing
 EGL .F         5150.0000:   Ground level
 EDF .F         5161.0000:   Drilling floor
 TD  .F         3260.0000:   Total depth
 DATE.        04-FEB-1986:   Date logged
 CLNT.            A2DTECH:   Client Code
 SL  . 1200' FEL & 650' FEL:   Surface Location
 PD  .                 GL:   Permanent Datum
 DD  .F              3260:   Depth driller
 DL  .F              3260:   Depth logger
 BLI .F              3258:   Bottom log interval
 CS1 .IN            8.625:   Casing size
 CBD1.      8.625" @ 566':   Casing driller 1
 CBL1.F               566:   Casing logger 1
 BS1 .IN            7.875:   Bit size
 DFT .        POLYMER-KCL:   Type fluid in hole
 DFD .                9.0:   Density
 DFV .                 36:   Viscosity
 DFPH.                8.5:   pH
 DFL .                 14:   Fluid loss
 MSS .           FLOWLINE:   Source of sample
 RMS .OHMM          0.367:   Rm
 MST .F                65:   Rm Meas. temp.
 RMF .OHMM          0.275:   Rmf
 MFST.F                65:   Rmf Meas. temp.
 RMC .OHMM          0.459:   Rmc
 MCST.F                65:   Rmc Meas. temp.
 MFSS.               CALC:   Source Rmf.
 RMB .OHMM          0.227:   Rm. at BHT
 BHT .F               105:   BHT.
 TCS .HRS               6:   Time Circ. stopped
 MRT .F               105:   Maximum recorded temp.
 LUN .               6274:   Logging unit number
 LUL .           GILLETTE:   Logging unit location
 ENGI.             MILLER:   Recorded By
 WITN.             STRONG:   Witnessed by
 ORIG.           5" PRINT:   Origin of data
 UWI .     49025110630000:   Unique Well ID
 DICO. A2D TECHNOLOGIES, INC.:   Digitizing Company
 DAPD.                 11:   Feet Above Permanent Datum
 BSD1.               3260:   Depth drilled with bit1
 MCSS.               CALC:   Source Rmc.
 EPD .F              5150:   Elevation Permanent Datum
 LMF .                 KB:   Log Measured From
 DMF .                 KB:   Drilling Measured From
 TLI .                566:   Top log interval
~OTHER INFORMATION
~A   DEPT      CNC        DEN       DCOR       TEND         GRR      CALR       RILM       RILD       RFOC       TENR         DT       TENS        SPR   
# ...
 1983.5000  -999.2500  -999.2500  -999.2500  -999.2500   121.5540     8.8970     8.9840     9.5300    10.7410   -39.9550  -999.2500  -999.2500   -74.7670
 1984.0000  -999.2500  -999.2500  -999.2500  -999.2500   124.1140     8.9140     8.7810     9.3000    10.9100   -36.7550  -999.2500  -999.2500   -74.7950
 1984.5000  -999.2500  -999.2500  -999.2500  -999.2500   124.8440     8.9430     8.6900     9.1490    11.1440   -33.5550  -999.2500  -999.2500   -74.8340
 1985.0000  -999.2500  -999.2500  -999.2500  -999.2500   125.1630     8.9580     8.6900     8.9980    11.1440   -30.3550  -999.2500  -999.2500   -74.9430
 1985.5000  -999.2500  -999.2500  -999.2500  -999.2500   126.6910     8.9690     8.9340     8.8470    10.8450   -27.1550  -999.2500  -999.2500   -75.1330
 1986.0000  -999.2500  -999.2500  -999.2500  -999.2500   128.1380     8.9830     8.1480     8.6960    10.4390   -27.8590  -999.2500  -999.2500   -75.3280
 1986.5000  -999.2500  -999.2500  -999.2500  -999.2500   126.6860     8.9960     8.1480     8.5320    10.2010   -36.6120  -999.2500  -999.2500   -75.5120
 1987.0000  -999.2500  -999.2500  -999.2500  -999.2500   121.3450     9.0090     8.1480     8.4220    10.3190   -45.3650  -999.2500  -999.2500   -75.7150
 1987.5000  -999.2500  -999.2500  -999.2500  -999.2500   117.5470     9.0220     8.1480     8.3020    10.4370   -55.0000  -999.2500  -999.2500   -75.8890
 1988.0000  -999.2500  -999.2500  -999.2500  -999.2500   119.9460     9.0320     8.1480     8.1830    10.5450   -53.0180  -999.2500  -999.2500   -76.0550
 1988.5000  -999.2500  -999.2500  -999.2500  -999.2500   124.5330     9.0380     7.7970     8.0730     9.9210   -50.8130  -999.2500  -999.2500   -76.2360
 1989.0000  -999.2500  -999.2500  -999.2500  -999.2500   127.8560     9.0430     8.0260     8.1400     9.3500   -48.6090  -999.2500  -999.2500   -76.4230
 1989.5000  -999.2500  -999.2500  -999.2500  -999.2500   129.4390     9.0490     8.1040     8.2020     8.9340   -46.4040  -999.2500  -999.2500   -76.5750
 1990.0000  -999.2500  -999.2500  -999.2500  -999.2500   125.8670     9.0540     7.9990     8.2590     8.9340   -44.2000  -999.2500  -999.2500   -76.7340
 1990.5000  -999.2500  -999.2500  -999.2500  -999.2500   119.8420     9.0590     8.0470     8.3130     9.4350   -41.9960  -999.2500  -999.2500   -76.9120
 1991.0000  -999.2500  -999.2500  -999.2500  -999.2500   118.7830     9.0640     8.1020     8.3670     9.8860   -39.7910  -999.2500  -999.2500   -76.9770
 1991.5000  -999.2500  -999.2500  -999.2500  -999.2500   119.4400     9.0700     8.1580     8.4210    10.1060   -37.5870  -999.2500  -999.2500   -77.1840
 1992.0000  -999.2500  -999.2500  -999.2500  -999.2500   116.7290     9.0700     8.2230     8.4740    10.3520   -35.0000  -999.2500  -999.2500   -77.1800
 1992.5000  -999.2500  -999.2500  -999.2500  -999.2500   112.9120     9.0680     8.1200     8.5280    10.3750   -31.8460  -999.2500  -999.2500   -76.6940
 1993.0000  -999.2500  -999.2500  -999.2500  -999.2500   111.7800     9.0650     8.1040     8.5820    10.4120   -28.0310  -999.2500  -999.2500   -76.5910
 1993.5000  -999.2500  -999.2500  -999.2500  -999.2500   114.1060     9.0630     8.1530     8.6360    10.4480   -24.2150  -999.2500  -999.2500   -76.7920
 1994.0000  -999.2500  -999.2500  -999.2500  -999.2500   116.8700     9.0610     8.2030     8.6900    10.2900   -20.4000  -999.2500  -999.2500   -76.9280
 1994.5000  -999.2500  -999.2500  -999.2500  -999.2500   119.2490     9.0570     8.2130     8.6310    10.1630   -16.5850  -999.2500  -999.2500   -77.1200
 1995.0000  -999.2500  -999.2500  -999.2500  -999.2500   121.1430     9.0580     8.1960     8.5570    10.2290   -18.4550  -999.2500  -999.2500   -77.2350
 1995.5000  -999.2500  -999.2500  -999.2500  -999.2500   121.2750     9.0510     8.1790     8.4830    10.2960   -27.4730  -999.2500  -999.2500   -77.3600
 1996.0000  -999.2500  -999.2500  -999.2500  -999.2500   121.2750     9.0550     8.1620     8.4090    10.3520   -35.0000  -999.2500  -999.2500   -77.4990
 1996.5000  -999.2500  -999.2500  -999.2500  -999.2500   121.5960     9.0880     8.1480     8.3910    10.1120   -38.9860  -999.2500  -999.2500   -77.6120
 1997.0000  -999.2500  -999.2500  -999.2500  -999.2500   120.5180     9.0950     8.1480     8.4320    10.0200   -42.4070  -999.2500  -999.2500   -77.7530
 1997.5000  -999.2500  -999.2500  -999.2500  -999.2500   120.0160     9.0890     8.1480     8.4740     9.9290   -45.8280  -999.2500  -999.2500   -77.8030
 1998.0000  -999.2500  -999.2500  -999.2500  -999.2500   121.8690     9.0930     8.1480     8.5150     9.9480   -49.2480  -999.2500  -999.2500   -77.7440
 1998.5000  -999.2500  -999.2500  -999.2500  -999.2500   123.0220     9.0910     8.1480     8.5570    10.1320   -52.6690  -999.2500  -999.2500   -77.6630
 1999.0000  -999.2500  -999.2500  -999.2500  -999.2500   122.7340     9.0910     8.1480     8.6110    10.2570   -55.0000  -999.2500  -999.2500   -77.5780
 1999.5000  -999.2500  -999.2500  -999.2500  -999.2500   123.4100     9.0920     8.2360     8.5520    10.1160   -29.8270  -999.2500  -999.2500   -77.4550
 2000.0000  -999.2500  -999.2500  -999.2500  -999.2500   125.9810     9.0910     8.4090     8.4380     9.9780    -5.0000  -999.2500  -999.2500   -77.3350
 2000.5000  -999.2500  -999.2500  -999.2500  -999.2500   128.1420     9.0920     8.5320     8.3240    10.1840   -16.5300  -999.2500  -999.2500   -77.2300
 2001.0000  -999.2500  -999.2500  -999.2500  -999.2500   126.7310     9.0910     8.0530     8.2090    10.8020   -29.3650  -999.2500  -999.2500   -77.0860
 2001.5000  -999.2500  -999.2500  -999.2500  -999.2500   123.3100     9.0920     7.9720     8.1560    11.5620   -42.2000  -999.2500  -999.2500   -76.9000
 2002.0000  -999.2500  -999.2500  -999.2500  -999.2500   121.2630     9.0920     8.2230     8.1750    11.4960   -55.0350  -999.2500  -999.2500   -76.5020
 2002.5000  -999.2500  -999.2500  -999.2500  -999.2500   120.7250     9.0850     7.7460     8.1930    10.8200   -65.0000  -999.2500  -999.2500   -76.2640
 2003.0000  -999.2500  -999.2500  -999.2500  -999.2500   119.6430     9.0760     7.7880     8.2120     9.9770   -50.8350  -999.2500  -999.2500   -76.6040
 2003.5000  -999.2500  -999.2500  -999.2500  -999.2500   118.4470     9.0630     8.2230     8.2310     9.1350   -39.2590  -999.2500  -999.2500   -76.9300
 2004.0000  -999.2500  -999.2500  -999.2500  -999.2500   119.3610     9.0530     8.2110     8.2490     8.2920   -25.0000  -999.2500  -999.2500   -77.2420
 2004.5000  -999.2500  -999.2500  -999.2500  -999.2500   120.8950     9.0640     8.1970     8.2680     8.5320   -35.3090  -999.2500  -999.2500   -77.6220
 2005.0000  -999.2500  -999.2500  -999.2500  -999.2500   119.4150     9.0840     8.1820     8.2870     9.8420   -48.7270  -999.2500  -999.2500   -77.7240
 2005.5000  -999.2500  -999.2500  -999.2500  -999.2500   116.1620     9.1020     8.1670     8.2990    11.0420   -55.5140  -999.2500  -999.2500   -77.8260
 2006.0000  -999.2500  -999.2500  -999.2500  -999.2500   116.4470     9.1080     8.1480     8.5320    11.2560   -56.4780  -999.2500  -999.2500   -77.9600
 2006.5000  -999.2500  -999.2500  -999.2500  -999.2500   119.5600     9.1050     8.3480     8.4880    10.7370   -57.4430  -999.2500  -999.2500   -78.1370
 2007.0000  -999.2500  -999.2500  -999.2500  -999.2500   121.4350     9.0950     8.6110     8.4400    10.3980   -58.4080  -999.2500  -999.2500   -78.2040
 2007.5000  -999.2500  -999.2500  -999.2500  -999.2500   122.6030     9.0940     8.0610     8.3920    10.4480   -59.3730  -999.2500  -999.2500   -77.8880
 2008.0000  -999.2500  -999.2500  -999.2500  -999.2500   121.5910     9.1150     7.8790     8.3760    10.3520   -60.3370  -999.2500  -999.2500   -77.5200
 2008.5000  -999.2500  -999.2500  -999.2500  -999.2500   117.7540     9.1310     8.0970     8.4530     9.7950   -61.3020  -999.2500  -999.2500   -77.2640
 2009.0000  -999.2500  -999.2500  -999.2500  -999.2500   116.4890     9.1380     8.1710     8.3560     9.2690   -62.2670  -999.2500  -999.2500   -77.1460
