~VERSION INFORMATION
 VERS.                2.0:   CWLS LOG ASCII STANDARD - VERSION 2.0
 WRAP.                 NO:   ONE LINE PER DEPTH STEP
~WELL INFORMATION
#MNEM.UNIT      DATA TYPE    INFORMATION
#----------   ------------   ------------------------------
 STRT.F          670.0000:   START DEPTH
 STOP.F         3440.0000:   STOP DEPTH
 STEP.F            0.5000:   STEP LENGTH
 NULL.          -999.2500:   NO VALUE
 COMP.    FENIX & SCISSON:   COMPANY
 WELL.   FENIX "A" #57-33:   WELL
 FLD .             NPR #3:   FIELD
 LOC .      S33 T39N R78W:   LOCATION
 CNTY.            NATRONA:   COUNTY
 STAT.            WYOMING:   STATE
 CTRY. UNITED STATES OF AMERICA:   COUNTRY
 SRVC.       SCHLUMBERGER:   SERVICE COMPANY
 DATE.        27-APR-1977:   LOGDATE
 API .     49025103600000:   API NUMBER
~CURVE INFORMATION
#MNEM.UNIT       API CODE    CURVE DESCRIPTION
#----------   ------------   ------------------------------
 DEPT.F                  :   
 SPR .MV     11 010 01 00:   SPONTANEOUS POTENTIAL FROM RES.
 MSFL.OHMM   11 270 04 00:   MICRO SPHERICALLY FOCUSED
 LLD .OHMM   11 220 10 00:   LATEROLOG LOG DEEP
 LLS .OHMM   11 220 09 00:   LATEROLOG LOG SHALLOW
 CALD.IN     45 280 60 00:   CALIPER FROM DENSITY LOG
 DRHO.G/C3   45 356 01 00:   DENSITY CORRECTION
 NPHI.DEC    42 890 03 00:   NEUTRON POROSITY SANDSTONE
 RHOB.G/C3   45 350 01 00:   BULK DENSITY
 GRD .GAPI   45 310 01 00:   GAMMA RAY FROM RESISTIVITY
~PARAMETER INFORMATION
#MNEM.UNIT          VALUE    DESCRIPTION
#----------   ------------   ------------------------------
 EKB .F         5183.0000:   Kelly bushing
 EGL .F         5172.0000:   Ground level
 EDF .F            0.0000:   Drilling floor
 TD  .F         3424.0000:   Total depth
 DATE.        27-APR-1977:   Date logged
 CLNT.            A2DTECH:   Client Code
 SL  . 990' FSL & 2310' FEL:   Surface Location
 PD  .                 GL:   Permanent Datum
 EPD .F              5172:   Elevation Permanent Datum
 LMF .                 KB:   Log Measured From
 DMF .                 KB:   Drilling Measured From
 DAPD.F                11:   Feet Above Permanent Datum
 DD  .F              3421:   Depth driller
 DL  .F              3424:   Depth logger
 BLI .F              3423:   Bottom log interval
 TLI .F               764:   Top log interval
 CS1 .IN            8.625:   Casing size
 CBD1.      8.625" @ 711':   Casing driller 1
 BS1 .IN            7.875:   Bit size
 BSD1.F              3421:   Depth drilled with bit1
 DFT .            KCL MUD:   Type fluid in hole
 DFD .                9.5:   Density
 DFV .                 41:   Viscosity
 DFPH.                  8:   pH
 DFL .               10.8:   Fluid loss
 MSS .            MUD PIT:   Source of sample
 RMS .OHMM           0.26:   Rm
 MST .F                74:   Rm Meas. temp.
 RMF .OHMM           0.21:   Rmf
 MFST.F                74:   Rmf Meas. temp.
 RMC .OHMM            .09:   Rmc
 MCST.F                74:   Rmc Meas. temp.
 MFSS.               MEAS:   Source Rmf.
 MCSS.               CALC:   Source Rmc.
 RMB .OHMM           0.15:   Rm. at BHT
 BHT .F               126:   BHT.
 TCS .HRS            0900:   Time Circ. stopped
 TLAB.HRS            1430:   Time logger at bottom
 MRT .F               126:   Maximum recorded temp.
 LUN .               7711:   Logging unit number
 LUL .               CSPR:   Logging unit location
 ENGI.             SAYLER:   Recorded By
 WITN.         PETTINGILL:   Witnessed by
 ORIG.           5" PRINT:   Origin of data
 UWI .     49025103600000:   Unique Well ID
 DICO. A2D TECHNOLOGIES, INC.:   Digitizing Company
~OTHER INFORMATION
~A   DEPT      SPR       MSFL        LLD        LLS         CALD      DRHO        NPHI       RHOB      GRD   
# ...
 2860.0000   -80.8490    12.9010     9.0160     9.7030     8.8260     0.0240     0.2150     2.5930   128.3880
 2860.5000   -80.7530    13.4870     9.0160     9.4640     8.8200     0.0250     0.2210     2.6040   130.1180
 2861.0000   -80.6490    14.2730     8.7600     9.4290     8.8210     0.0220     0.2250     2.6040   132.4960
 2861.5000   -80.9500    13.3110     8.5620     9.3940     8.8240     0.0170     0.2260     2.5970   135.0230
 2862.0000   -81.3210    11.8900     8.3770     9.3580     8.8280     0.0110     0.2300     2.5860   135.3110
 2862.5000   -81.6920    10.4680     7.8880     8.7900     8.8310     0.0080     0.2390     2.5740   135.9970
 2863.0000   -82.0640    10.2530     7.3180     8.1100     8.8350     0.0120     0.2440     2.5730   136.6750
 2863.5000   -82.0530    10.3670     6.7490     8.0010     8.8390     0.0170     0.2470     2.5900   136.5790
 2864.0000   -81.7060    10.5400     6.5360     8.0140     8.8420     0.0230     0.2490     2.6000   137.3330
 2864.5000   -81.3470    10.4740     6.5360     8.0760     8.8460     0.0150     0.2510     2.5730   137.3970
 2865.0000   -81.2530    10.3170     6.6030     8.1370     8.8490     0.0100     0.2460     2.5630   136.2420
 2865.5000   -81.2500    10.1820     6.7660     8.1990     8.8530     0.0190     0.2450     2.5870   135.1500
 2866.0000   -81.2540    10.3780     6.9300     8.3770     8.8560     0.0230     0.2460     2.6010   138.0160
 2866.5000   -81.2300    10.5400     7.0940     8.5660     8.8570     0.0120     0.2490     2.5970   142.0070
 2867.0000   -80.6720    10.2470     7.2310     8.6900     8.8540     0.0170     0.2470     2.5900   142.8700
 2867.5000   -80.1150     9.7070     7.0040     8.7880     8.8510     0.0230     0.2480     2.5820   137.2190
 2868.0000   -79.6410     9.3530     6.7670     8.8360     8.8480     0.0290     0.2510     2.5890   135.9060
 2868.5000   -79.4040     9.5950     6.5300     8.8850     8.8450     0.0300     0.2480     2.5990   136.2110
 2869.0000   -79.1440     9.8070     6.4170     8.9330     8.8420     0.0230     0.2470     2.5900   132.3580
 2869.5000   -78.8640    10.0200     6.7720     8.9820     8.8390     0.0190     0.2460     2.5810   128.3380
 2870.0000   -78.1830    10.2530     7.0350     9.0990     8.8360     0.0210     0.2550     2.5720   124.3080
 2870.5000   -77.8070    10.6640     7.2980     9.4110     8.8330     0.0230     0.2560     2.5790   120.3020
 2871.0000   -77.6840    11.4940     7.4340     9.6140     8.8300     0.0260     0.2500     2.5770   118.6300
 2871.5000   -77.4980    12.0970     7.2150     9.5890     8.8270     0.0300     0.2440     2.5840   119.3930
 2872.0000   -76.9380    10.3930     7.0450     9.5350     8.8240     0.0390     0.2430     2.5930   117.6640
 2872.5000   -76.3330     8.8510     6.7810     9.4800     8.8210     0.0410     0.2380     2.5990   115.5510
 2873.0000   -75.7270    10.5960     6.8440     9.4390     8.8190     0.0290     0.2230     2.5730   114.6690
 2873.5000   -75.1150    12.6520     7.7610    10.6560     8.8230     0.0210     0.2090     2.5580   115.9950
 2874.0000   -74.8690    15.0820     9.0030    11.6350     8.8280     0.0190     0.2080     2.5490   118.8220
 2874.5000   -74.7840    14.6870    10.6910    12.3210     8.8320     0.0300     0.2120     2.5730   121.1460
 2875.0000   -74.7020    14.0460    10.4840    12.4350     8.8370     0.0360     0.2120     2.5730   121.6150
 2875.5000   -74.6220    13.1400    10.0660    12.4980     8.8410     0.0240     0.2130     2.5640   122.7110
 2876.0000   -74.5390    14.0880    10.0010    12.5760     8.8460     0.0210     0.2130     2.5510   124.5720
 2876.5000   -74.4360    16.0830    10.2510    12.6540     8.8510     0.0200     0.2130     2.5590   126.4430
 2877.0000   -73.9960    15.7540    10.5400    12.7710     8.8550     0.0270     0.2080     2.5750   128.1500
 2877.5000   -73.5570    14.8470    10.4150    12.6660     8.8600     0.0250     0.2040     2.5640   129.3450
 2878.0000   -73.1180    13.8850    10.2290    12.3080     8.8640     0.0220     0.2120     2.5610   130.1220
 2878.5000   -72.6790    14.0770    10.0420    11.9310     8.8690     0.0170     0.2160     2.5460   129.3300
 2879.0000   -72.2430    14.2820     9.8560    11.4480     8.8740     0.0120     0.2150     2.5300   129.1690
 2879.5000   -71.9170    14.4870     9.6140    11.5540     8.8780     0.0130     0.2190     2.5350   128.6730
 2880.0000   -71.9250    14.6720     9.6680    11.6200     8.8830     0.0150     0.2200     2.5460   127.4220
 2880.5000   -71.9260    14.0370     9.7750    11.6930     8.8870     0.0170     0.2180     2.5570   127.7020
 2881.0000   -71.9420    13.5070     9.8810    11.7650     8.8920     0.0190     0.2150     2.5610   124.9740
 2881.5000   -71.9590    14.8070     9.9880    11.8380     8.8970     0.0210     0.2130     2.5590   122.6960
 2882.0000   -71.9760    14.4530    10.0660    11.8770     8.8770     0.0220     0.2150     2.5620   121.8250
 2882.5000   -71.9930    13.8850     9.5180    11.8430     8.8790     0.0200     0.2140     2.5590   123.1030
 2883.0000   -72.0100    14.4330     9.4390    11.8120     8.8800     0.0170     0.2120     2.5530   125.2260
 2883.5000   -72.0270    14.9550     9.4390    11.7800     8.8810     0.0140     0.2100     2.5470   126.7920
 2884.0000   -72.0430    15.3610     9.4390    11.6610     8.8810     0.0110     0.2060     2.5500   127.8680
 2884.5000   -72.0600    14.4530     9.4010    11.4410     8.8820     0.0090     0.2040     2.5540   130.6830
 2885.0000   -72.0770    13.3840     9.2190    11.2260     8.8830     0.0080     0.2090     2.5590   129.7960
 2885.5000   -72.0950    13.6400     9.0370    11.0100     8.8830     0.0060     0.2110     2.5530   132.2300
 2886.0000   -72.1090    14.2890     8.8510    10.8340     8.8840     0.0050     0.2090     2.5370   134.2210
 2886.5000   -72.0550    14.9390     9.0440    11.0860     8.8850     0.0040     0.2060     2.5460   130.8660
 2887.0000   -71.7810    15.2210     9.2410    11.4100     8.8850     0.0050     0.2040     2.5570   129.7320
 2887.5000   -71.5140    13.8870     9.4370    11.6610     8.8860     0.0030     0.2030     2.5530   129.4810
 2888.0000   -71.2470    12.9010     9.5270    11.6610     8.8860     0.0040     0.2060     2.5580   128.2740
 2888.5000   -70.9790    13.3990     9.2130    11.3070     8.8870     0.0030     0.2060     2.5510   126.6270
 2889.0000   -70.9330    14.0740     8.9500    11.0440     8.8880     0.0040     0.2050     2.5420   126.9390
 2889.5000   -70.9320    14.5370     8.6880    10.7810     8.8880     0.0050     0.2030     2.5470   126.3240
 2890.0000   -70.9340    13.2460     8.4040    10.5180     8.8890     0.0060     0.2040     2.5680   126.5380
 2890.5000   -70.9270    11.8770     8.1110    10.2550     8.8900     0.0060     0.2070     2.5660   130.0930
 2891.0000   -70.6870    12.2390     7.7830    10.0660     8.8900     0.0060     0.2100     2.5780   131.8560
 2891.5000   -70.4310    12.7660     7.9560    10.1780     8.8910     0.0060     0.2100     2.5910   133.5870
 2892.0000   -70.1770    13.2610     8.2110    10.2820     8.8920     0.0060     0.2090     2.6000   136.5350
 2892.5000   -69.9260    12.7710     8.4540    10.3860     8.8920     0.0060     0.2120     2.5920   140.2080
 2893.0000   -69.7000    12.3090     7.9540    10.4430     8.8930     0.0060     0.2180     2.5880   143.8900
 2893.5000   -69.5510    11.8480     7.5360    10.0340     8.8940     0.0190     0.2240     2.5970   147.5310
 2894.0000   -69.5440    10.4810     7.1190     9.6400     8.8940     0.0230     0.2300     2.6160   150.7220
 2894.5000   -69.9660    11.0550     6.7010     9.2470     8.8950     0.0120     0.2370     2.6080   148.2600
 2895.0000   -70.4550    12.4350     6.5360     8.9330     8.8960     0.0170     0.2380     2.6050   144.9280
 2895.5000   -70.9470    12.2600     6.8130     9.0870     8.8960     0.0260     0.2310     2.6120   142.9820
 2896.0000   -71.3030    11.8150     7.3050     9.2800     8.8970     0.0230     0.2220     2.6010   143.6500
