~VERSION INFORMATION
 VERS.                2.0:   CWLS LOG ASCII STANDARD - VERSION 2.0
 WRAP.                 NO:   ONE LINE PER DEPTH STEP
~WELL INFORMATION
#MNEM.UNIT      DATA TYPE    INFORMATION
#----------   ------------   ------------------------------
 STRT.F           36.0000:   START DEPTH
 STOP.F         4960.0000:   STOP DEPTH
 STEP.F            0.5000:   STEP LENGTH
 NULL.          -999.2500:   NO VALUE
 COMP.   TESORO PETROLEUM:   COMPANY
 WELL. TESORO NPR 3 "DX" #55-23:   WELL
 FLD .        TEAPOT DOME:   FIELD
 LOC .      S23 T38N R78W:   LOCATION
 CNTY.            NATRONA:   COUNTY
 STAT.            WYOMING:   STATE
 CTRY. UNITED STATES OF AMERICA:   COUNTRY
 SRVC.           BIRDWELL:   SERVICE COMPANY
 DATE.        17-AUG-1975:   LOGDATE
 API .     49025102510000:   API NUMBER
~CURVE INFORMATION
#MNEM.UNIT       API CODE    CURVE DESCRIPTION
#----------   ------------   ------------------------------
 DEPT.F                  :   
 TEND.LBS    45 635 01 00:   TENSION FROM DENSITY LOG
 CALD.IN     45 280 60 00:   CALIPER FROM DENSITY LOG
 CORR.G/C3   45 356 01 00:   DENSITY CORRECTION
 GRD .GAPI   45 310 01 00:   GAMMA RAY FROM DENSITY LOG
 RHOB.G/C3   45 350 01 00:   BULK DENSITY
 SPR .MV     07 010 01 00:   SPONTANEOUS POTENTIAL
 ILM .OHMM   07 120 44 00:   INDUCTION LOG MEDIUM RESISTIVITY
 ILD .OHMM   07 120 46 00:   DEEP INDUCTION RESISTIVITY
 SFL .OHMM   07 220 01 00:   SHALLOW FOCUSED LOG RESISTIVITY
~PARAMETER INFORMATION
#MNEM.UNIT          VALUE    DESCRIPTION
#----------   ------------   ------------------------------
 EKB .F         5371.0000:   Kelly bushing
 EGL .F         5360.0000:   Ground level
 EDF .F            0.0000:   Drilling floor
 TD  .F         4955.0000:   Total depth
 DATE.        17-AUG-1975:   Date logged
 CLNT.            A2DTECH:   Client Code
 SL  . 1980' FSL & 2030' FEL:   Surface Location
 PD  .                 GL:   Permanent Datum
 DD  .F              4955:   Depth driller
 DL  .F              4945:   Depth logger
 BLI .F              4943:   Bottom log interval
 CS1 .IN            8.625:   Casing size
 CBD1.     8.625" @ 1450':   Casing driller 1
 CBL1.F              1457:   Casing logger 1
 BS1 .IN            7.875:   Bit size
 DFT .            KCL/GEL:   Type fluid in hole
 DFD .                9.5:   Density
 DFV .                 53:   Viscosity
 DFPH.                8.5:   pH
 DFL .                7.4:   Fluid loss
 MSS .           FLOWLINE:   Source of sample
 RMS .OHMM            1.2:   Rm
 MST .F                72:   Rm Meas. temp.
 RMF .OHMM            .94:   Rmf
 MFST.F                74:   Rmf Meas. temp.
 MFSS.               MEAS:   Source Rmf.
 RMB .OHMM            .71:   Rm. at BHT
 BHT .F               121:   BHT.
 TCS .HRS               4:   Time Circ. stopped
 MRT .F               121:   Maximum recorded temp.
 LUN .               6078:   Logging unit number
 LUL .              GLTTE:   Logging unit location
 ENGI.      NORDEN/SUTTON:   Recorded By
 WITN.          UNDERWOOD:   Witnessed by
 ORIG.           5" PRINT:   Origin of data
 UWI .     49025102510000:   Unique Well ID
 DICO. A2D TECHNOLOGIES, INC.:   Digitizing Company
 DAPD.F                11:   Feet Above Permanent Datum
 BSD1.F              5360:   Depth drilled with bit1
 EPD .F              5360:   Elevation Permanent Datum
 LMF .                 KB:   Log Measured From
 DMF .                 KB:   Drilling Measured From
 TLI .F              1457:   Top log interval
~OTHER INFORMATION
~A   DEPT     TEND       CALD       CORR        GRD       RHOB        SPR        ILM        ILD          SFL 
# ...
 4014.5000  2595.1899     8.6460     0.0230    48.2820     2.4680   -31.1590     3.9340     4.1330     4.2470
 4015.0000  2595.1899     8.6460     0.0270    48.1660     2.4900   -31.4350     3.9700     4.2220     4.4230
 4015.5000  2590.7041     8.6460     0.0350    47.8390     2.5120   -31.7420     4.0240     4.3120     4.6350
 4016.0000  2582.8269     8.6430     0.0260    48.7190     2.5060   -31.9550     4.1090     4.3820     4.8490
 4016.5000  2575.1499     8.6220     0.0170    49.9690     2.5000   -31.8550     4.0910     4.3440     4.8750
 4017.0000  2580.4609     8.6000     0.0170    49.3150     2.4940   -31.7620     4.0480     4.3130     4.8940
 4017.5000  2586.8611     8.5790     0.0230    48.6160     2.4900   -31.6710     4.0040     4.2720     4.6450
 4018.0000  2593.2620     8.5580     0.0290    49.9720     2.4860   -31.5780     3.9610     4.2250     4.4450
 4018.5000  2580.8821     8.5470     0.0350    51.3720     2.4850   -31.4860     3.9180     4.1780     4.2630
 4019.0000  2560.4009     8.5530     0.0420    52.8120     2.4850   -31.3940     3.8820     4.1310     4.2750
 4019.5000  2539.9199     8.5580     0.0490    53.2720     2.4840   -31.3020     3.8220     4.0840     4.3010
 4020.0000  2519.4390     8.5640     0.0580    53.4000     2.4830   -31.2100     3.7780     4.0370     4.3260
 4020.5000  2526.5100     8.5600     0.0740    53.0120     2.4780   -31.1190     3.7660     3.9900     4.3420
 4021.0000  2538.1050     8.5530     0.0910    52.4460     2.4730   -31.0270     3.7530     3.9270     4.2550
 4021.5000  2545.4189     8.5460     0.1080    51.8840     2.4650   -31.1220     3.6830     3.8200     4.1910
 4022.0000  2552.7339     8.5380     0.1250    51.4200     2.4440   -31.4380     3.5710     3.7030     4.1260
 4022.5000  2551.0430     8.5310     0.1420    52.2120     2.4120   -31.7580     3.4590     3.5860     4.0620
 4023.0000  2545.0190     8.5310     0.1540    52.9420     2.3740   -31.6960     3.3480     3.4690     3.9980
 4023.5000  2538.9961     8.5590     0.1540    51.7680     2.3220   -31.6070     3.2360     3.3560     3.9330
 4024.0000  2541.9299     8.5860     0.1480    50.6530     2.2670   -31.5200     3.1640     3.3010     3.8230
 4024.5000  2561.6230     8.6140     0.1580    50.9970     2.2610   -31.4330     3.1380     3.2370     3.7050
 4025.0000  2581.3159     8.6410     0.1600    51.3800     2.2670   -31.3450     3.1120     3.1950     3.6390
 4025.5000  2601.0100     8.6630     0.1550    51.1320     2.2730   -31.2610     3.0860     3.1750     3.6180
 4026.0000  2620.7029     8.6400     0.1510    50.8490     2.2850   -31.2040     3.0600     3.1540     3.5970
 4026.5000  2628.9250     8.6160     0.1480    51.4900     2.3340   -30.4280     3.0340     3.1340     3.5790
 4027.0000  2604.5420     8.6240     0.1640    53.0980     2.3770   -30.2710     3.0080     3.1140     3.6270
 4027.5000  2580.1599     8.6570     0.1660    53.3230     2.3770   -30.3800     2.9820     3.0940     3.7130
 4028.0000  2555.7781     8.6890     0.1690    52.8850     2.3660   -30.5020     2.9560     3.0730     3.6510
 4028.5000  2538.3191     8.7220     0.1600    53.2560     2.3430   -30.6230     2.9300     3.0530     3.5140
 4029.0000  2559.8779     8.7420     0.1510    53.9420     2.3090   -30.7470     2.9040     3.0330     3.5610
 4029.5000  2581.4370     8.7170     0.1410    53.4910     2.2710   -30.5100     2.8780     3.0130     3.6790
 4030.0000  2602.9951     8.6940     0.1330    52.7120     2.2610   -30.0420     2.8520     2.9920     3.6290
 4030.5000  2588.6570     8.6700     0.1300    52.1150     2.2520   -29.5670     2.8260     2.9720     3.4820
 4031.0000  2527.2141     8.6470     0.1270    52.8490     2.2550   -29.3880     2.8000     2.9520     3.5140
 4031.5000  2465.7720     8.6620     0.1240    53.5680     2.2640   -29.4020     2.7740     2.9320     3.6120
 4032.0000  2404.3291     8.6790     0.1170    52.5870     2.2680   -29.4180     2.7410     2.9110     3.4960
 4032.5000  2420.2690     8.7190     0.1080    52.9060     2.2330   -29.4340     2.7920     2.8910     3.3680
 4033.0000  2508.0449     8.7750     0.0990    52.2460     2.2320   -29.4500     2.8630     2.8700     3.2350
 4033.5000  2595.8201     8.8300     0.0880    50.9980     2.2580   -29.4660     2.9340     3.0180     3.5680
 4034.0000  2600.7290     8.7060     0.0700    49.7480     2.3250   -29.4820     3.0040     3.1730     3.8530
 4034.5000  2582.1101     8.5660     0.0530    50.1050     2.3180   -29.4990     3.2190     3.3740     3.6790
 4035.0000  2590.2390     8.4590     0.0470    50.1090     2.3130   -29.5150     3.6790     3.5870     3.8440
 4035.5000  2614.3350     8.4500     0.0460    48.9270     2.3410   -29.5310     3.9240     3.8000     4.1130
 4036.0000  2638.4299     8.4630     0.0620    48.6390     2.4170   -29.5470     4.3820     3.9820     4.7670
 4036.5000  2650.5930     8.4970     0.0980    49.1080     2.4760   -29.5630     4.2920     4.0670     5.9000
 4037.0000  2634.8391     8.5310     0.0990    49.7690     2.4640   -29.5830     4.0950     4.1520     6.0470
 4037.5000  2619.0840     8.5600     0.0990    50.8180     2.3970   -29.4650     3.9970     4.2380     5.4040
 4038.0000  2537.8760     8.4610     0.0870    52.4580     2.3100   -29.3280     4.2020     4.4350     4.7610
 4038.5000  2434.8701     8.4970     0.0390    53.1900     2.0990   -29.1910     3.8980     4.6790     4.8450
 4039.0000  2473.4609     8.5580     0.0030    52.2260     2.1140   -29.0540     3.7130     4.9220     5.0060
 4039.5000  2561.2371     8.6170    -0.0100    49.6780     2.1950   -29.2020     4.0270     5.1660     5.1670
 4040.0000  2532.0640     8.5090     0.0330    46.1170     2.4400   -29.6190     4.6660     5.4150     6.0540
 4040.5000  2499.6990     8.4360     0.0670    42.3710     2.5380   -30.0310     5.5670     5.6850     7.2320
 4041.0000  2516.7671     8.4180     0.0760    41.7200     2.5310   -30.3900     5.8090     5.9600     6.2980
 4041.5000  2535.0701     8.4010     0.0790    41.7390     2.5210   -30.3790     6.0520     6.2350     6.1030
 4042.0000  2516.0720     8.3830     0.0780    41.7470     2.5200   -30.3780     6.3320     6.4490     6.7060
 4042.5000  2495.5911     8.3660     0.0750    41.7080     2.5150   -30.3790     6.2820     6.6800     6.9080
 4043.0000  2475.1101     8.3480     0.0670    41.5620     2.5100   -30.3780     6.2040     6.6080     6.9420
 4043.5000  2454.6289     8.3310     0.0600    41.6340     2.5070   -30.4230     6.1270     6.5120     6.8720
 4044.0000  2434.8701     8.3130     0.0550    42.3810     2.5300   -30.4900     6.0490     6.4150     6.8160
 4044.5000  2470.2070     8.3040     0.0490    43.2130     2.5420   -30.5630     5.9720     6.3190     6.7610
 4045.0000  2504.3420     8.3040     0.0430    43.9470     2.5430   -30.4460     5.8940     6.2220     6.7050
 4045.5000  2538.4771     8.3040     0.0380    44.6920     2.5410   -30.2630     5.8290     6.1590     6.6910
 4046.0000  2575.1499     8.3030     0.0320    45.4440     2.5410   -30.0790     6.3410     6.7430     7.0430
 4046.5000  2565.6709     8.3190     0.0330    45.7750     2.5480   -29.8970     6.7850     7.1760     7.3490
 4047.0000  2555.4309     8.3400     0.0350    45.7070     2.5550   -29.9080     7.2300     7.6080     7.6490
 4047.5000  2545.1899     8.3600     0.0370    44.0510     2.5580   -30.2490     7.6740     8.0410     8.8680
 4048.0000  2535.0701     8.3810     0.0390    44.7450     2.5560   -30.5820     7.7520     8.1930    11.3050
 4048.5000  2530.5630     8.4010     0.0370    45.9080     2.5410   -30.7040     7.4600     7.7830    10.0490
 4049.0000  2526.1069     8.3980     0.0350    47.0910     2.5230   -30.3780     7.0370     7.3870     8.8360
 4049.5000  2521.6521     8.3910     0.0350    48.2610     2.5030   -30.0600     6.4100     6.7420     7.6220
 4050.0000  2517.1970     8.3840     0.0710    49.9700     2.5100   -29.7400     5.7220     5.9920     6.7790
 4050.5000  2522.5879     8.3770     0.1010    50.6860     2.5300   -29.6110     5.5320     5.8390     6.3170
