~VERSION INFORMATION
 VERS.                2.0:   CWLS LOG ASCII STANDARD - VERSION 2.0
 WRAP.                 NO:   ONE LINE PER DEPTH STEP
~WELL INFORMATION
#MNEM.UNIT      DATA TYPE    INFORMATION
#----------   ------------   ------------------------------
 STRT.F           30.0000:   START DEPTH
 STOP.F         5698.0000:   STOP DEPTH
 STEP.F            0.5000:   STEP LENGTH
 NULL.          -999.2500:   NO VALUE
 COMP. LAWRRENCE-ALLISON & ASSOCIATES:   COMPANY
 WELL. LAWERNCE "X" #41-3:   WELL
 FLD .           N P R #3:   FIELD
 LOC .       S3 T38N R78W:   LOCATION
 CNTY.            NATRONA:   COUNTY
 STAT.            WYOMING:   STATE
 CTRY. UNITED STATES OF AMERICA:   COUNTRY
 SRVC.      DRESSER ATLAS:   SERVICE COMPANY
 DATE.        04-JUN-1983:   LOGDATE
 API .     49025109200000:   API NUMBER
~CURVE INFORMATION
#MNEM.UNIT       API CODE    CURVE DESCRIPTION
#----------   ------------   ------------------------------
 DEPT.F                  :   
 TENS.LBS    60 635 01 00:   TENSION FROM SONIC
 DT  .US/F   60 520 00 00:   DELTA TIME
 SPR .MV     11 010 01 00:   SPONTANEOUS POTENTIAL FROM RES.
 TENR.LBS    11 635 01 00:   TENSION FROM RES. LOG
 GRR .GAPI   11 310 01 00:   GAMMA RAY FROM RES.
 CALR.IN     11 280 01 00:   CALIPER FROM RES.
 RMLL.OHMM   11 270 04 00:   MICRO LATEROLOG
 RD  .OHMM   11 220 10 00:   RESISTIVITY DEEP
 RS  .OHMM   11 220 09 00:   RESISTIVITY SHALLOW
 TEND.LBS    45 635 01 00:   TENSION FROM DENSITY LOG
 CORR.G/C3   45 356 01 00:   DENSITY CORRECTION
 RHOB.G/C3   45 350 01 00:   BULK DENSITY
 NPHI.DEC    42 890 03 00:   NEUTRON POROSITY SANDSTONE
~PARAMETER INFORMATION
#MNEM.UNIT          VALUE    DESCRIPTION
#----------   ------------   ------------------------------
 EKB .F         5157.5000:   Kelly bushing
 EGL .F         5147.5000:   Ground level
 EDF .F            0.0000:   Drilling floor
 TD  .F         5690.0000:   Total depth
 DATE.        04-JUN-1983:   Date logged
 CLNT.            A2DTECH:   Client Code
 SL  . 2218' FWL & 287' FNL:   Surface Location
 PD  .                 GL:   Permanent Datum
 EPD .F            5147.5:   Elevation Permanent Datum
 LMF .                 KB:   Log Measured From
 DMF .                 KB:   Drilling Measured From
 DD  .F              5690:   Depth driller
 DL  .F              5685:   Depth logger
 BLI .F              5682:   Bottom log interval
 CS1 .IN            9.625:   Casing size
 CBD1.       9.625 @ 568':   Casing driller 1
 CBL1.F               568:   Casing logger 1
 BS1 .IN             8.75:   Bit size
 DFT .        KCL-DRISPAC:   Type fluid in hole
 DFD .                9.1:   Density
 DFV .                 37:   Viscosity
 DFPH.                  8:   pH
 DFL .                3.8:   Fluid loss
 MSS .               TANK:   Source of sample
 RMS .OHMM           0.41:   Rm
 MST .F                75:   Rm Meas. temp.
 RMF .OHMM           0.28:   Rmf
 MFST.F                70:   Rmf Meas. temp.
 RMC .OHMM           0.53:   Rmc
 MCST.F                75:   Rmc Meas. temp.
 MFSS.               MEAS:   Source Rmf.
 RMB .OHMM           0.18:   Rm. at BHT
 BHT .F               160:   BHT.
 TCS .HRS               5:   Time Circ. stopped
 MRT .F               166:   Maximum recorded temp.
 LUN .               6274:   Logging unit number
 LUL .               GLTE:   Logging unit location
 ENGI.             RAUTIO:   Recorded By
 WITN.             STRONG:   Witnessed by
 ORIG.     2.5", 5" PRINT:   Origin of data
 UWI .     49025109200000:   Unique Well ID
 DICO. A2D TECHNOLOGIES, INC.:   Digitizing Company
 MCSS.               CALC:   Source Rmc.
 DAPD.                 10:   Feet Above Permanent Datum
 BSD1.               5690:   Depth drilled with bit1
~OTHER INFORMATION
~A   DEPT     TENS         DT        SPR       TENR         GRR      CALR       RMLL         RD         RS       TEND       CORR       RHOB       NPHI   
# ...
 3956.0000   -10.0800   103.3710   -91.9550   -64.8860   102.9210     9.8900     7.7200     7.3210     6.9250   -14.8690     0.1400     2.4750     0.2800
 3956.5000   -34.8040   104.8450   -92.0060   -69.9880   105.8180     9.8960     5.5820     5.9590     5.7890   -35.3760     0.2170     2.3800     0.3330
 3957.0000   -50.4400   104.3600   -91.6320   -46.9000   104.1770     9.9020     3.8010     4.5960     4.6530   -58.8240     0.2520     2.3040     0.3320
 3957.5000   -45.6850   103.6410   -91.2750    -3.5100   102.9140     9.9100     2.0190     3.2340     3.5170   -69.3630     0.2480     2.2730     0.3210
 3958.0000   -40.9300    98.0130   -90.9060     8.3930   102.8160     9.8960     1.3060     2.8940     3.0070   -62.2550     0.2540     2.2890     0.2960
 3958.5000   -36.1760    88.3880   -90.5420   -28.9590   102.5640     9.8720     1.3540     2.5550     2.5090    -0.7350     0.2650     2.3480     0.2700
 3959.0000   -31.4210    76.5750   -90.1610   -64.1900   101.2670     9.8630     1.3300     2.5270     2.4260    68.6270     0.2690     2.3960     0.2540
 3959.5000   -26.8300    67.3320   -89.8430   -67.7160    96.8550     9.8550     1.0650     2.4640     2.3760    55.2080     0.1720     2.4050     0.2370
 3960.0000   -40.4340    68.3850   -89.3650   -68.1460    91.9260     9.8470     0.8010     2.5330     2.5090    39.8280     0.0560     2.4200     0.1850
 3960.5000   -61.9360    69.0340   -89.3030   -62.4240    76.3180     9.8380     1.0060     3.8570     3.6380    24.4490     0.0060     2.4420     0.1470
 3961.0000   -50.4550    68.6360   -89.2400   -59.1760    57.9070     9.8320     1.6240     5.4260     4.9920    21.3730     0.0100     2.4350     0.1380
 3961.5000   -39.0440    68.6360   -89.0760   -54.8040    39.3470     9.8330     4.9620     6.9950     6.3470    27.5250     0.0140     2.4160     0.1440
 3962.0000   -31.1690    77.6020   -88.8890   -50.1830    26.3640     9.8340     8.3010     8.5640     7.7010    33.4420     0.0300     2.3950     0.1500
 3962.5000   -29.3380    93.2770   -88.7200   -54.5280    25.7130     9.8670    12.3700    10.3190     9.5970    47.1130     0.0310     2.2780     0.1680
 3963.0000   -27.5070   105.8840   -88.5290   -76.0090    30.6940     9.9070    10.8570    10.1330     9.3400    60.7840     0.0290     2.1350     0.2050
 3963.5000   -25.6750   114.7740   -88.5820   -66.5220    38.0290     9.9460     9.3450     8.9980     7.8620    74.4550     0.0270     2.0030     0.2410
 3964.0000   -23.8440   114.8750   -88.7180   -39.0130    59.1310     9.9900     7.8320     7.8620     6.2700    78.4310     0.0450     2.0070     0.2780
 3964.5000   -22.0120   104.8470   -88.8470    -9.6620    80.7680    10.1320     6.1220     5.9260     4.6780    28.5400     0.0940     2.0060     0.3220
 3965.0000   -20.8960    98.9190   -88.9750   -17.6290    98.0480    10.2280     4.1150     3.5070     3.0860   -26.1440     0.1130     2.0050     0.3250
 3965.5000   -19.8660    96.1190   -89.1190   -33.6560   105.5090    10.1660     2.1090     2.0550     2.1010   -80.8280     0.1330     2.0630     0.3290
 3966.0000   -18.8360    96.2740   -89.2050   -49.8920   115.5210    10.1090     1.1680     2.0550     1.9820  -117.6470     0.1650     2.1740     0.3320
 3966.5000   -17.8050    97.7370   -89.6410   -65.2530   119.0980    10.0520     0.9370     2.0550     2.0180   -94.8040     0.1820     2.2710     0.3350
 3967.0000   -16.8000    99.1730   -90.0100   -77.3130   117.1910     9.9930     0.8450     2.0550     2.0970   -70.1960     0.0990     2.3050     0.3380
 3967.5000   -30.3410    99.8160   -90.2880   -78.4100   112.9410     9.9790     0.9260     2.0810     2.1760   -45.5880     0.0500     2.3460     0.3400
 3968.0000   -46.8240   100.4590   -90.5580   -70.0510   105.7970     9.9540     1.4750     2.1450     2.2540   -19.6080     0.0240     2.3930     0.3480
 3968.5000   -52.5670   101.1020   -90.8440   -55.4040   100.1090     9.9340     2.0240     2.2100     2.3330   -39.5240     0.0370     2.4290     0.3490
 3969.0000   -41.3290   101.7020   -91.1200   -39.7870   100.6100     9.9120     2.4640     2.2500     2.3330   -60.6160     0.0810     2.4560     0.3410
 3969.5000   -32.0870   102.0200   -91.4020   -39.1700   101.9390     9.9110     2.3980     2.1780     2.2950   -78.4310     0.1060     2.4690     0.3330
 3970.0000   -33.6320   101.9140   -91.6770   -48.7280   103.7980     9.9100     2.1220     2.1170     2.2000   -62.4650     0.1150     2.4600     0.3160
 3970.5000   -35.1770   101.8080   -91.9540   -59.7160   105.5140     9.9110     1.9110     2.0570     2.1050   -41.3730     0.0700     2.4480     0.2960
 3971.0000   -36.8610   101.8250   -92.0420   -67.7220   104.6510     9.9100     1.9680     1.9960     2.0100   -19.6080     0.0420     2.4400     0.2980
 3971.5000   -27.8540   102.1360   -92.0800   -66.7240   102.8610     9.9100     2.0250     1.9360     1.9150   -28.9540     0.0510     2.4450     0.3110
 3972.0000   -17.9640   102.3580   -92.1190   -48.5230    99.2150     9.9110     2.0930     1.9110     1.8430   -45.3590     0.0750     2.4500     0.3170
 3972.5000    -8.0740   102.6050   -92.1610   -38.7340    95.4960     9.9100     2.0470     1.8770     1.8090   -58.8240     0.1190     2.4460     0.3120
 3973.0000   -10.5090   102.9240   -92.2010   -64.4040    94.4560     9.9110     1.9110     1.8490     1.7660   -63.6600     0.1380     2.4210     0.2960
 3973.5000   -16.1280   103.6510   -92.2420   -80.3260    95.2740     9.9110     1.8550     1.8200     1.7230   -67.7610     0.1110     2.4060     0.2970
 3974.0000   -21.7470   104.5900   -92.2830   -63.7870   100.0370     9.9110     1.7850     1.7920     1.6800   -71.8630     0.0690     2.3980     0.3010
 3974.5000   -27.3660   106.6500   -92.3240   -38.0810   104.3500     9.9110     1.7140     1.7630     1.6370   -75.9640     0.0710     2.3970     0.3180
 3975.0000   -32.6370   107.4520   -92.3620   -21.1000   106.3060     9.9110     1.6690     1.7350     1.5940   -80.0650     0.0750     2.3890     0.3350
 3975.5000   -36.5410   106.4700   -92.4120   -42.8480   106.9540     9.9100     1.6240     1.7060     1.5520   -84.1670     0.0770     2.3830     0.3350
 3976.0000   -40.4450   104.9870   -92.3690   -62.2100   104.6140     9.9110     1.5700     1.6530     1.5090   -88.2350     0.0690     2.3820     0.3230
 3976.5000   -44.3490   101.2340   -92.2550   -68.3980   100.6380     9.9110     1.5100     1.6930     1.4830   -93.1960     0.0590     2.3870     0.3110
 3977.0000   -44.6210   101.2770   -92.1440   -67.5700    97.4420     9.9100     1.5790     1.7930     1.5230   -98.0390     0.0580     2.3930     0.3060
 3977.5000   -38.1140   101.9190   -92.0330   -69.2950    99.7670     9.9110     1.6490     1.8930     1.5900   -90.4410     0.0550     2.3950     0.3060
 3978.0000   -31.6080   102.9980   -91.9210   -53.5950   106.4340     9.9070     1.7180     1.9930     1.6570   -78.1370     0.0480     2.3800     0.3250
 3978.5000   -25.1020   103.5410   -91.8090   -35.6720   114.4480     9.8970     1.7880     2.0930     1.7240   -65.8330     0.0480     2.3660     0.3350
 3979.0000   -22.6890   102.0980   -91.6970   -48.0930   122.4230     9.8880     1.8570     2.0690     1.7780   -64.1180     0.0250     2.3780     0.3320
 3979.5000   -24.4560   100.0300   -91.5860   -64.6690   130.3310     9.8790     1.9260     2.0460     1.7460   -76.4220     0.1370     2.3990     0.3290
 3980.0000   -26.2220    97.7140   -91.4740   -75.1720   138.1340     9.8700     1.9820     2.0180     1.7140   -88.7250     0.2350     2.3890     0.3250
 3980.5000   -30.3330    98.3320   -91.3630   -47.6460   146.7320     9.8610     1.8770     2.2080     1.8800   -93.1460     0.1810     2.3700     0.3040
 3981.0000   -35.6790    99.6230   -91.2500   -22.3240   150.2200     9.8520     2.1200     2.4450     2.0860   -73.0120     0.0640     2.3800     0.2890
 3981.5000   -41.0240   100.5320   -91.1390   -12.0730   145.1720     9.8430     2.5240     2.6830     2.3760   -52.8790     0.0480     2.4110     0.2770
