~VERSION INFORMATION
 VERS.                2.0:   CWLS LOG ASCII STANDARD - VERSION 2.0
 WRAP.                 NO:   ONE LINE PER DEPTH STEP
~WELL INFORMATION
#MNEM.UNIT      DATA TYPE    INFORMATION
#----------   ------------   ------------------------------
 STRT.F          204.5000:   START DEPTH
 STOP.F         2964.0000:   STOP DEPTH
 STEP.F            0.5000:   STEP LENGTH
 NULL.          -999.2500:   NO VALUE
 COMP.    FENIX & SCISSON:   COMPANY
 WELL. FENIX NPR 3 "AX" #14-28:   WELL
 FLD .  TEAPOT DOME NPR-3:   FIELD
 LOC .      S28 T39N R78W:   LOCATION
 CNTY.            NATRONA:   COUNTY
 STAT.            WYOMING:   STATE
 CTRY. UNITED STATES OF AMERICA:   COUNTRY
 SRVC.           BIRDWELL:   SERVICE COMPANY
 DATE.        24-MAY-1978:   LOGDATE
 API .     49025106450000:   API NUMBER
~CURVE INFORMATION
#MNEM.UNIT       API CODE    CURVE DESCRIPTION
#----------   ------------   ------------------------------
 DEPT.F                  :   
 SPR .MV     05 010 01 00:   SPONTANEOUS POTENTIAL
 CORR.G/C3   45 356 01 00:   DENSITY CORRECTION
 DEN .G/C3   45 350 01 00:   DENSITY
 CALD.IN     45 280 60 00:   CALIPER FROM DENSITY LOG
 GRD .GAPI   45 310 01 00:   GAMMA RAY FROM DENSITY LOG
 SN  .OHMM   05 040 16 00:   SHORT NORMAL 16"
 ILD .OHMM   05 120 46 00:   DEEP INDUCTION RESISTIVITY
~PARAMETER INFORMATION
#MNEM.UNIT          VALUE    DESCRIPTION
#----------   ------------   ------------------------------
 EKB .F         5042.0000:   Kelly bushing
 EGL .F         5032.0000:   Ground level
 EDF .F            0.0000:   Drilling floor
 TD  .F         2957.0000:   Total depth
 DATE.        24-MAY-1978:   Date logged
 CLNT.            A2DTECH:   Client Code
 SL  . 2410' FNL & 280' FWL:   Surface Location
 PD  .                 GL:   Permanent Datum
 EPD .F              5032:   Elevation Permanent Datum
 LMF .                 KB:   Log Measured From
 DMF .                 KB:   Drilling Measured From
 DAPD.F                10:   Feet Above Permanent Datum
 DD  .F              2950:   Depth driller
 DL  .F              2957:   Depth logger
 BLI .F              2951:   Bottom log interval
 TLI .F               225:   Top log interval
 CS1 .IN            8.625:   Casing size
 CBL1.F               225:   Casing logger 1
 BS1 .IN            7.875:   Bit size
 BSD1.F              2950:   Depth drilled with bit1
 DFT .       CHEMICAL GEL:   Type fluid in hole
 DFD .                  9:   Density
 DFV .                 34:   Viscosity
 DFPH.               10.5:   pH
 DFL .                  6:   Fluid loss
 MSS .           FLOWLINE:   Source of sample
 RMS .OHMM            1.5:   Rm
 MST .F                70:   Rm Meas. temp.
 RMF .OHMM            1.1:   Rmf
 MFST.F                78:   Rmf Meas. temp.
 RMC .OHMM            2.8:   Rmc
 MCST.F                72:   Rmc Meas. temp.
 MFSS.               MEAS:   Source Rmf.
 RMB .OHMM           0.95:   Rm. at BHT
 BHT .F               110:   BHT.
 TCS .HRS               2:   Time Circ. stopped
 MRT .F               110:   Maximum recorded temp.
 LUN .               2958:   Logging unit number
 LUL .               CASP:   Logging unit location
 ENGI.             MILLER:   Recorded By
 WITN.            RHOADES:   Witnessed by
 ORIG.           5" PRINT:   Origin of data
 UWI .     49025106450000:   Unique Well ID
 DICO. A2D TECHNOLOGIES, INC.:   Digitizing Company
~OTHER INFORMATION
~A   DEPT      SPR       CORR        DEN       CALD         GRD        SN        ILD   
# ...
 2024.5000    -3.8000     0.0220     2.4770  -999.2500  -999.2500     7.1170     5.3120
 2025.0000    -3.8000     0.0240     2.4770  -999.2500  -999.2500     6.8150     5.1130
 2025.5000    -3.8000     0.0290     2.4790  -999.2500  -999.2500     6.5160     4.9150
 2026.0000    -3.8000     0.0340     2.4850  -999.2500  -999.2500     6.3430     4.6800
 2026.5000    -3.8000     0.0320     2.4910  -999.2500  -999.2500     6.1720     4.7770
 2027.0000    -3.8000     0.0300     2.4880  -999.2500  -999.2500     6.0000     4.8950
 2027.5000    -3.8000     0.0270     2.4850  -999.2500  -999.2500     5.8360     5.0130
 2028.0000    -3.8000     0.0250     2.4830  -999.2500  -999.2500     6.2490     5.1310
 2028.5000    -3.8000     0.0220     2.4860  -999.2500  -999.2500     6.6460     5.2480
 2029.0000    -3.8000     0.0190     2.4900  -999.2500  -999.2500     7.0430     5.3660
 2029.5000    -3.8000     0.0180     2.4910  -999.2500  -999.2500     7.4110     5.5230
 2030.0000    -3.8000     0.0140     2.4910  -999.2500  -999.2500     7.1180     5.3800
 2030.5000    -3.8000     0.0330     2.4840  -999.2500  -999.2500     6.8450     5.1680
 2031.0000    -3.8000     0.0310     2.4940  -999.2500  -999.2500     6.4770     4.9560
 2031.5000    -3.8000     0.0280     2.5000  -999.2500  -999.2500     6.0660     4.7440
 2032.0000    -3.8000     0.0220     2.5010  -999.2500  -999.2500     5.6560     4.5320
 2032.5000    -3.8000     0.0220     2.4890  -999.2500  -999.2500     5.2450     4.4210
 2033.0000    -3.8000     0.0310     2.4760  -999.2500  -999.2500     5.1310     4.4040
 2033.5000    -3.8000     0.0390     2.4620  -999.2500  -999.2500     5.1310     4.3870
 2034.0000    -3.8000     0.0450     2.4670  -999.2500  -999.2500     5.1310     4.3700
 2034.5000    -3.8000     0.0360     2.4730  -999.2500  -999.2500     5.6900     4.3530
 2035.0000    -3.8000     0.0270     2.4800  -999.2500  -999.2500     5.8360     4.4690
 2035.5000    -3.8000     0.0200     2.4740  -999.2500  -999.2500     5.7640     4.6290
 2036.0000    -3.8000     0.0190     2.4650  -999.2500  -999.2500     5.6900     4.8560
 2036.5000    -3.8000     0.0280     2.4620  -999.2500  -999.2500     5.6150     4.8010
 2037.0000    -3.8000     0.0360     2.4680  -999.2500  -999.2500     5.5410     4.7080
 2037.5000    -3.8000     0.0440     2.4730  -999.2500  -999.2500     5.4220     4.5950
 2038.0000    -3.8000     0.0530     2.4790  -999.2500  -999.2500     5.6370     4.7590
 2038.5000    -3.8000     0.0460     2.4830  -999.2500  -999.2500     6.0660     4.9630
 2039.0000    -3.8000     0.0360     2.4850  -999.2500  -999.2500     6.1230     5.1670
 2039.5000    -3.8000     0.0260     2.4830  -999.2500  -999.2500     6.2770     5.3710
 2040.0000    -3.8000     0.0220     2.4850  -999.2500  -999.2500     6.7570     5.5760
 2040.5000    -3.8000     0.0170     2.4870  -999.2500  -999.2500     7.2360     5.7220
 2041.0000    -3.8000     0.0150     2.4840  -999.2500  -999.2500     7.6890     5.6930
 2041.5000    -3.8000     0.0230     2.4790  -999.2500  -999.2500     7.5630     5.6640
 2042.0000    -3.8000     0.0290     2.4820  -999.2500  -999.2500     7.4440     5.6350
 2042.5000    -3.8000     0.0370     2.4850  -999.2500  -999.2500     7.3250     5.6070
 2043.0000    -3.8000     0.0420     2.4950  -999.2500  -999.2500     7.2060     5.5780
 2043.5000    -3.8000     0.0360     2.5050  -999.2500  -999.2500     7.0870     5.5490
 2044.0000    -3.8000     0.0300     2.5130  -999.2500  -999.2500     6.8860     5.5230
 2044.5000    -3.8000     0.0340     2.5190  -999.2500  -999.2500     6.9430     5.5450
 2045.0000    -3.8000     0.0360     2.5240  -999.2500  -999.2500     7.1270     5.5640
 2045.5000    -3.8000     0.0390     2.5290  -999.2500  -999.2500     7.3110     5.5840
 2046.0000    -3.8000     0.0420     2.5290  -999.2500  -999.2500     7.4950     5.6040
 2046.5000    -3.8000     0.0450     2.5290  -999.2500  -999.2500     7.6890     5.6250
 2047.0000    -3.8000     0.0420     2.5320  -999.2500  -999.2500     7.6610     5.6880
 2047.5000    -3.8000     0.0340     2.5370  -999.2500  -999.2500     7.6320     5.7540
 2048.0000    -3.8000     0.0340     2.5310  -999.2500  -999.2500     7.6020     5.8210
 2048.5000    -3.8000     0.0340     2.5310  -999.2500  -999.2500     7.5730     5.8890
 2049.0000    -3.8000     0.0340     2.5330  -999.2500  -999.2500     7.5490     5.9580
 2049.5000    -3.8000     0.0340     2.5350  -999.2500  -999.2500     7.7040     6.0540
 2050.0000    -3.8000     0.0270     2.5350  -999.2500  -999.2500     7.8350     6.0220
 2050.5000    -3.8000     0.0210     2.5200  -999.2500  -999.2500     7.9660     5.9660
 2051.0000    -3.8000     0.0130     2.5050  -999.2500  -999.2500     8.0970     5.8290
 2051.5000    -3.8000     0.0100     2.5010  -999.2500  -999.2500     7.7940     5.6350
 2052.0000    -3.8000     0.0130     2.4980  -999.2500  -999.2500     7.3770     5.4420
 2052.5000    -3.8000     0.0140     2.4960  -999.2500  -999.2500     6.9590     5.2480
 2053.0000    -3.8000     0.0120     2.4930  -999.2500  -999.2500     6.5410     5.0550
 2053.5000    -3.8000     0.0120     2.4890  -999.2500  -999.2500     6.1240     4.8560
 2054.0000    -3.8000     0.0100     2.4840  -999.2500  -999.2500     5.9180     4.8560
 2054.5000    -3.8000     0.0370     2.4790  -999.2500  -999.2500     5.8740     4.8560
 2055.0000    -3.8000     0.0480     2.4790  -999.2500  -999.2500     5.8360     4.8560
 2055.5000    -3.8000     0.0410     2.4840  -999.2500  -999.2500     6.0580     4.8560
 2056.0000    -3.8000     0.0350     2.4860  -999.2500  -999.2500     6.2500     4.8560
 2056.5000    -3.8000     0.0480     2.4720  -999.2500  -999.2500     6.4420     4.8560
 2057.0000    -3.8000     0.0660     2.4790  -999.2500  -999.2500     6.7600     4.8560
 2057.5000    -3.8000     0.0570     2.4940  -999.2500  -999.2500     6.6340     4.8560
 2058.0000    -3.8000     0.0420     2.5040  -999.2500  -999.2500     6.2650     4.8560
 2058.5000    -3.8000     0.0270     2.4990  -999.2500  -999.2500     6.1670     4.8560
 2059.0000    -3.8000     0.0300     2.4940  -999.2500  -999.2500     6.1670     4.8560
 2059.5000    -3.8000     0.0340     2.4890  -999.2500  -999.2500     6.1670     4.8560
 2060.0000    -3.8000     0.0390     2.4860  -999.2500  -999.2500     6.1670     4.9030
 2060.5000    -3.8000     0.0480     2.4830  -999.2500  -999.2500     6.1670     4.9530
 2061.0000    -3.8000     0.0560     2.4810  -999.2500  -999.2500     6.2400     5.0380
 2061.5000    -3.8000     0.0640     2.4800  -999.2500  -999.2500     6.4340     5.0100
 2062.0000    -3.8000     0.0690     2.4880  -999.2500  -999.2500     6.6490     4.9190
 2062.5000    -3.8000     0.0610     2.4980  -999.2500  -999.2500     6.8860     4.8560
 2063.0000    -3.8000     0.0540     2.5040  -999.2500  -999.2500     6.6720     4.8560
 2063.5000    -3.8000     0.0500     2.5010  -999.2500  -999.2500     6.4340     4.8560
 2064.0000    -3.8000     0.0500     2.5000  -999.2500  -999.2500     6.1970     4.8560
 2064.5000    -3.8000     0.0490     2.5100  -999.2500  -999.2500     5.8360     4.7680
 2065.0000    -3.8000     0.0460     2.5150  -999.2500  -999.2500     5.8740     4.6860
 2065.5000    -3.8000     0.0510     2.5190  -999.2500  -999.2500     5.9530     4.5950
 2066.0000    -3.8000     0.0530     2.5240  -999.2500  -999.2500     6.0320     4.5950
 2066.5000    -3.8000     0.0570     2.5290  -999.2500  -999.2500     6.1120     4.5950
 2067.0000    -3.8000     0.0320     2.5350  -999.2500  -999.2500     6.1910     4.5950
 2067.5000    -3.8000     0.0260     2.5290  -999.2500  -999.2500     6.2810     4.5950
 2068.0000    -3.8000     0.0180     2.5260  -999.2500  -999.2500     6.0430     4.5950
 2068.5000    -3.8000     0.0200     2.5240  -999.2500  -999.2500     5.8360     4.5950
 2069.0000    -3.8000     0.0220     2.5230  -999.2500  -999.2500     5.8360     4.5950
 2069.5000    -3.8000     0.0250     2.5230  -999.2500  -999.2500     5.8360     4.5950
