~VERSION INFORMATION
 VERS.                2.0:   CWLS LOG ASCII STANDARD - VERSION 2.0
 WRAP.                 NO:   ONE LINE PER DEPTH STEP
~WELL INFORMATION
#MNEM.UNIT      DATA TYPE    INFORMATION
#----------   ------------   ------------------------------
 STRT.F            0.0000:   START DEPTH
 STOP.F         3110.5000:   STOP DEPTH
 STEP.F            0.5000:   STEP LENGTH
 NULL.          -999.2500:   NO VALUE
 COMP. LAWRENCE  ALLISON AND ASSOCIATES:   COMPANY
 WELL. LAWRENCE NPR 3 "X" #72-15:   WELL
 FLD .                NPR:   FIELD
 LOC .      S15 T38N R78W:   LOCATION
 CNTY.            NATRONA:   COUNTY
 STAT.            WYOMING:   STATE
 CTRY. UNITED STATES OF AMERICA:   COUNTRY
 SRVC.           WIRELINE:   SERVICE COMPANY
 DATE.        16-JAN-1988:   LOGDATE
 API .     49025111930000:   API NUMBER
~CURVE INFORMATION
#MNEM.UNIT       API CODE    CURVE DESCRIPTION
#----------   ------------   ------------------------------
 DEPT.F                  :   
 TENR.LBS    07 635 01 00:   TENSION FROM RESISTIVITY
 GRR .GAPI   07 310 01 00:   GAMMA RAY FROM RESISTIVITY
 SPR .MV     07 010 01 00:   SPONTANEOUS POTENTIAL
 RFOC.OHMM   07 220 04 00:   RESISTIVITY FOCUSED LOG RES.
 RILD.OHMM   07 120 46 00:   DEEP INDUCTION RESISTIVITY
 RILM.OHMM   07 120 44 00:   INDUCTION LOG MEDIUM RESISTIVITY
 TEND.LBS    45 635 01 00:   TENSION FROM DENSITY LOG
 RHOB.G/C3   45 350 01 00:   BULK DENSITY
 CORR.G/C3   45 356 01 00:   DENSITY CORRECTION
 CNC .DEC    42 890 03 00:   NEUTRON PORISITY SANDSTONE
 CALR.IN     07 280 01 00:   CALIPER FROM RESISTIVITY
~PARAMETER INFORMATION
#MNEM.UNIT          VALUE    DESCRIPTION
#----------   ------------   ------------------------------
 EKB .F         5240.0000:   Kelly bushing
 EGL .F         5229.0000:   Ground level
 EDF .F            0.0000:   Drilling floor
 TD  .F         3090.0000:   Total depth
 DATE.        16-JAN-1988:   Date logged
 CLNT.            A2DTECH:   Client Code
 SL  . 814' FNL & 1208' FEL:   Surface Location
 PD  .                 GL:   Permanent Datum
 DD  .F              3085:   Depth driller
 DL  .F              3090:   Depth logger
 BLI .F              3089:   Bottom log interval
 CS1 .IN            8.625:   Casing size
 CBD1.      8.625" @ 610':   Casing driller 1
 CBL1.F               613:   Casing logger 1
 BS1 .IN            7.875:   Bit size
 DFT .            KCL/GEL:   Type fluid in hole
 DFD .                8.8:   Density
 DFV .                 40:   Viscosity
 DFPH.                8.5:   pH
 DFL .                 10:   Fluid loss
 MSS .           FLOWLINE:   Source of sample
 RMS .OHMM           .543:   Rm
 MST .F                65:   Rm Meas. temp.
 RMF .OHMM           .349:   Rmf
 MFST.F                65:   Rmf Meas. temp.
 RMC .OHMM           .557:   Rmc
 MCST.F                65:   Rmc Meas. temp.
 MFSS.               CALC:   Source Rmf.
 RMB .OHMM           .258:   Rm. at BHT
 BHT .F               114:   BHT.
 TCS .HRS               5:   Time Circ. stopped
 MRT .F               114:   Maximum recorded temp.
 LUN .            HL-6321:   Logging unit number
 LUL .           GILLETTE:   Logging unit location
 ENGI.               CAIN:   Recorded By
 WITN.             STRONG:   Witnessed by
 ORIG.           5" PRINT:   Origin of data
 UWI .     49025111930000:   Unique Well ID
 DICO. A2D TECHNOLOGIES, INC.:   Digitizing Company
 DAPD.F                11:   Feet Above Permanent Datum
 BSD1.F              3085:   Depth drilled with bit1
 MCSS.               CALC:   Source Rmc.
 EPD .F              5229:   Elevation Permanent Datum
 LMF .                 KB:   Log Measured From
 DMF .                 KB:   Drilling Measured From
~OTHER INFORMATION
~A    DEPT    TENR         GRR       SPR       RFOC       RILD       RILM       TEND       RHOB       CORR        CNC       CALR   
# ...
 1586.0000   -52.9770    91.3160   -68.1260     7.8090     7.8660     7.3500  -999.2500  -999.2500  -999.2500  -999.2500     9.0020
 1586.5000   -48.1240    92.8230   -68.0840     7.8330     7.8300     7.2880  -999.2500  -999.2500  -999.2500  -999.2500     9.0020
 1587.0000   -43.2710    94.1630   -68.0420     7.8560     7.7940     7.2540  -999.2500  -999.2500  -999.2500  -999.2500     9.0020
 1587.5000   -38.4170    93.3190   -68.0010     7.8780     7.7580     7.3320  -999.2500  -999.2500  -999.2500  -999.2500     9.0020
 1588.0000   -35.8360    92.4420   -67.9590     8.1050     7.7220     7.3940  -999.2500  -999.2500  -999.2500  -999.2500     9.0020
 1588.5000   -40.0150    91.5780   -67.9180     8.3680     7.6860     7.4560  -999.2500  -999.2500  -999.2500  -999.2500     9.0020
 1589.0000   -44.1940    88.0630   -67.8760     8.6430     7.6670     7.5180  -999.2500  -999.2500  -999.2500  -999.2500     9.0020
 1589.5000   -43.0770    86.0960   -67.8350     8.6430     7.7750     7.6030  -999.2500  -999.2500  -999.2500  -999.2500     9.0020
 1590.0000   -41.0710    88.4380   -68.0000     8.6430     7.9400     7.6910  -999.2500  -999.2500  -999.2500  -999.2500     9.0020
 1590.5000   -39.0650    91.3370   -68.1990     8.6430     8.0280     7.8090  -999.2500  -999.2500  -999.2500  -999.2500     9.0020
 1591.0000   -37.0590    90.2120   -68.3990     8.3960     8.0080     7.7540  -999.2500  -999.2500  -999.2500  -999.2500     9.0020
 1591.5000   -35.0530    89.0180   -68.5990     8.1780     7.9290     7.6710  -999.2500  -999.2500  -999.2500  -999.2500     9.0020
 1592.0000   -20.3040    87.7920   -68.7040     8.2990     7.8510     7.5880  -999.2500  -999.2500  -999.2500  -999.2500     9.0020
 1592.5000    -4.7550    87.4420   -68.7950     8.5580     7.8090     7.5270  -999.2500  -999.2500  -999.2500  -999.2500     9.0020
 1593.0000   -10.2000    87.5450   -68.8850     8.6670     7.7950     7.4580  -999.2500  -999.2500  -999.2500  -999.2500     9.0020
 1593.5000   -30.2600    89.9680   -68.9750     8.7170     7.7810     7.3940  -999.2500  -999.2500  -999.2500  -999.2500     9.0020
 1594.0000   -50.3200    92.3700   -68.9800     8.3210     7.7670     7.3290  -999.2500  -999.2500  -999.2500  -999.2500     9.0020
 1594.5000   -64.8150    94.7290   -68.8900     7.8090     7.7530     7.3210  -999.2500  -999.2500  -999.2500  -999.2500     9.0020
 1595.0000   -50.4000    94.5690   -68.8400     7.8520     7.7380     7.3210  -999.2500  -999.2500  -999.2500  -999.2500     9.0020
 1595.5000   -37.0270    93.6280   -68.9110     7.9390     7.7460     7.3210  -999.2500  -999.2500  -999.2500  -999.2500     9.0020
 1596.0000   -24.7750    91.6680   -68.9790     8.0270     7.7590     7.3210  -999.2500  -999.2500  -999.2500  -999.2500     9.0020
 1596.5000   -31.1690    88.8360   -69.0070     8.1150     7.7710     7.3570  -999.2500  -999.2500  -999.2500  -999.2500     9.0020
 1597.0000   -37.0690    86.2080   -68.5940     8.2540     7.7830     7.3890  -999.2500  -999.2500  -999.2500  -999.2500     9.0020
 1597.5000   -42.9690    85.0790   -68.1940     8.3990     7.7960     7.4220  -999.2500  -999.2500  -999.2500  -999.2500     9.0020
 1598.0000   -39.0220    85.1810   -67.8160     8.5390     7.8080     7.4580  -999.2500  -999.2500  -999.2500  -999.2500     9.0020
 1598.5000   -24.7750    85.4460   -67.4330     8.6800     7.4890     7.3670  -999.2500  -999.2500  -999.2500  -999.2500     9.0020
 1599.0000   -48.2840    87.7080   -67.0730     8.7230     7.1300     7.2350  -999.2500  -999.2500  -999.2500  -999.2500     9.0020
 1599.5000   -45.7470    90.2360   -67.0610     8.2800     6.7710     7.1030  -999.2500  -999.2500  -999.2500  -999.2500     9.0020
 1600.0000   -27.5220    92.7740   -67.0940     7.8750     6.3760     6.9720  -999.2500  -999.2500  -999.2500  -999.2500     9.0020
 1600.5000   -14.7650    94.8920   -67.1280     7.4710     6.2710     6.8400  -999.2500  -999.2500  -999.2500  -999.2500     9.0020
 1601.0000   -25.0880    92.5300   -67.1610     7.0660     6.2050     6.7750  -999.2500  -999.2500  -999.2500  -999.2500     9.0020
 1601.5000   -34.4720    90.2070   -67.1940     6.8010     6.1450     6.7230  -999.2500  -999.2500  -999.2500  -999.2500     9.0020
 1602.0000   -44.7950    88.9670   -67.2310     6.7380     6.3800     6.6770  -999.2500  -999.2500  -999.2500  -999.2500     9.0020
 1602.5000   -37.2870    88.7600   -67.3690     7.0330     6.5930     6.8580  -999.2500  -999.2500  -999.2500  -999.2500     9.0020
 1603.0000   -25.9300    87.9950   -67.5230     7.4540     6.8060     7.0230  -999.2500  -999.2500  -999.2500  -999.2500     9.0020
 1603.5000   -29.7800    85.5460   -67.6860     7.8750     7.0200     7.1880  -999.2500  -999.2500  -999.2500  -999.2500     9.0020
 1604.0000   -33.6300    83.7950   -67.8880     8.2540     7.2540     7.3530  -999.2500  -999.2500  -999.2500  -999.2500     9.0020
 1604.5000   -31.2810    83.7280   -68.0580     8.2920     7.3420     7.5180  -999.2500  -999.2500  -999.2500  -999.2500     9.0020
 1605.0000   -26.2760    83.6300   -68.1570     8.3490     7.4390     7.6670  -999.2500  -999.2500  -999.2500  -999.2500     9.0020
 1605.5000   -32.5600    83.5290   -68.2570     8.3770     7.5620     7.6480  -999.2500  -999.2500  -999.2500  -999.2500     9.0020
 1606.0000   -44.7950    84.4730   -68.3570     8.4070     7.6950     7.6270  -999.2500  -999.2500  -999.2500  -999.2500     9.0020
 1606.5000   -43.7940    86.4540   -68.4790     8.4850     7.8050     7.5960  -999.2500  -999.2500  -999.2500  -999.2500     9.0020
 1607.0000   -40.4570    88.2820   -68.6730     8.4850     7.9140     7.6260  -999.2500  -999.2500  -999.2500  -999.2500     9.0020
 1607.5000   -37.1200    89.4600   -68.8640     8.4950     8.0240     7.6850  -999.2500  -999.2500  -999.2500  -999.2500     9.0020
 1608.0000   -36.9300    90.5660   -69.0550     8.5280     8.1330     7.7440  -999.2500  -999.2500  -999.2500  -999.2500     9.0020
 1608.5000   -44.7950    91.6750   -69.2110     8.5640     8.2430     7.8090  -999.2500  -999.2500  -999.2500  -999.2500     9.0020
 1609.0000   -43.8360    91.9640   -68.9690     8.6550     8.3520     7.8090  -999.2500  -999.2500  -999.2500  -999.2500     9.0020
 1609.5000   -42.7710    91.2970   -68.7310     8.8370     8.4070     7.8090  -999.2500  -999.2500  -999.2500  -999.2500     9.0020
 1610.0000   -41.7070    87.9930   -68.4920     9.0190     8.4070     7.8090  -999.2500  -999.2500  -999.2500  -999.2500     9.0020
 1610.5000   -40.6420    86.3890   -68.5120     9.2190     8.4070     7.8090  -999.2500  -999.2500  -999.2500  -999.2500     9.0020
 1611.0000   -39.5770    88.6480   -68.8310     9.2190     8.4070     7.8090  -999.2500  -999.2500  -999.2500  -999.2500     9.0020
 1611.5000   -38.5120    89.6870   -69.1420     8.9260     8.4070     7.8100  -999.2500  -999.2500  -999.2500  -999.2500     9.0020
 1612.0000   -37.4470    87.4080   -69.4270     8.7000     8.4080     7.8100  -999.2500  -999.2500  -999.2500  -999.2500     9.0020
 1612.5000   -36.3820    85.1560   -69.5900     8.3300     8.4070     7.8090  -999.2500  -999.2500  -999.2500  -999.2500     9.0020
 1613.0000   -35.3170    85.1780   -69.7440     8.5040     8.4070     7.8710  -999.2500  -999.2500  -999.2500  -999.2500     9.0020
 1613.5000   -47.2970    85.3560   -69.8960     8.8520     8.5160     7.9400  -999.2500  -999.2500  -999.2500  -999.2500     9.0020
 1614.0000   -62.9380    85.7850   -70.0480     9.3050     8.6720     8.0080  -999.2500  -999.2500  -999.2500  -999.2500     9.0020
 1614.5000   -56.6820    87.0010   -70.2540     9.2480     8.8280     8.1030  -999.2500  -999.2500  -999.2500  -999.2500     9.0020
 1615.0000   -54.1040    87.8590   -70.2600     9.1680     8.9680     8.3140  -999.2500  -999.2500  -999.2500  -999.2500     9.0020
 1615.5000   -53.1030    86.8480   -70.0580     9.0880     9.3170     8.5060  -999.2500  -999.2500  -999.2500  -999.2500     9.0020
 1616.0000   -52.1020    85.2550   -69.8240     8.9680     9.7440     8.5780  -999.2500  -999.2500  -999.2500  -999.2500     9.0020
