~VERSION INFORMATION
 VERS.                2.0:   CWLS LOG ASCII STANDARD - VERSION 2.0
 WRAP.                 NO:   ONE LINE PER DEPTH STEP
~WELL INFORMATION
#MNEM.UNIT      DATA TYPE    INFORMATION
#----------   ------------   ------------------------------
 STRT.F          204.0000:   START DEPTH
 STOP.F         3040.0000:   STOP DEPTH
 STEP.F            0.5000:   STEP LENGTH
 NULL.          -999.2500:   NO VALUE
 COMP.    FENIX & SCISSON:   COMPANY
 WELL.   FENIX "A" #47-21:   WELL
 FLD .            N P R 3:   FIELD
 LOC .      S21 T39N R78W:   LOCATION
 CNTY.            NATRONA:   COUNTY
 STAT.            WYOMING:   STATE
 CTRY. UNITED STATES OF AMERICA:   COUNTRY
 SRVC.              WELEX:   SERVICE COMPANY
 DATE.        20-JUN-1977:   LOGDATE
 API .     49025103820000:   API NUMBER
~CURVE INFORMATION
#MNEM.UNIT       API CODE    CURVE DESCRIPTION
#----------   ------------   ------------------------------
 DEPT.F                  :   
 SPR .MV     07 010 01 00:   SPONTANEOUS POTENTIAL
 ILM .OHMM   07 120 44 00:   INDUCTION LOG MEDIUM RESISTIVITY
 ILD .OHMM   07 120 46 00:   DEEP INDUCTION RESISTIVITY
 SGRD.OHMM   07 220 05 00:   SHALLOW GUARD LOG RESISTIVITY
 GRD .GAPI   45 310 01 00:   GAMMA RAY FROM DENSITY LOG
 CALD.IN     45 280 60 00:   CALIPER FROM DENSITY LOG
 RHOB.G/C3   45 350 01 00:   BULK DENSITY
 CORR.G/C3   45 356 01 00:   DENSITY CORRECTION
~PARAMETER INFORMATION
#MNEM.UNIT          VALUE    DESCRIPTION
#----------   ------------   ------------------------------
 EKB .F         5010.0000:   Kelly bushing
 EGL .F         5000.0000:   Ground level
 EDF .F            0.0000:   Drilling floor
 TD  .F         3050.0000:   Total depth
 DATE.        20-JUN-1977:   Date logged
 CLNT.            A2DTECH:   Client Code
 SL  . 990' FSL & 2310' FWL:   Surface Location
 PD  .                 GL:   Permanent Datum
 DD  .F              3050:   Depth driller
 DL  .F              3039:   Depth logger
 BLI .F              3037:   Bottom log interval
 CS1 .IN            8.625:   Casing size
 CBD1.      8.625" @ 210':   Casing driller 1
 CBL1.F               215:   Casing logger 1
 BS1 .IN            7.875:   Bit size
 DFT .                KCL:   Type fluid in hole
 DFD .                9.3:   Density
 DFV .                 35:   Viscosity
 DFPH.                7.5:   pH
 DFL .                7.2:   Fluid loss
 MSS .             MUDPIT:   Source of sample
 RMS .OHMM            .22:   Rm
 MST .F                80:   Rm Meas. temp.
 RMF .OHMM            .19:   Rmf
 MFST.F                80:   Rmf Meas. temp.
 RMC .OHMM            .35:   Rmc
 MCST.F                80:   Rmc Meas. temp.
 MFSS.               MEAS:   Source Rmf.
 RMB .OHMM            .15:   Rm. at BHT
 BHT .F               111:   BHT.
 TCS .HRS               4:   Time Circ. stopped
 MRT .F               111:   Maximum recorded temp.
 LUN .               8766:   Logging unit number
 LUL .             CAPSER:   Logging unit location
 ENGI.          T. JOYNER:   Recorded By
 WITN.         PETTINGILL:   Witnessed by
 ORIG.           5" PRINT:   Origin of data
 UWI .     49025103820000:   Unique Well ID
 DICO. A2D TECHNOLOGIES, INC.:   Digitizing Company
 DAPD.                 10:   Feet Above Permanent Datum
 BSD1.               3050:   Depth drilled with bit1
 MCSS.               MEAS:   Source Rmc.
 EPD .               5000:   Elevation Permanent Datum
 LMF .                 KB:   Log Measured From
 DMF .                 KB:   Drilling Measured From
 TLI .                215:   Top log interval
~OTHER INFORMATION
~A   DEPT      SPR        ILM        ILD       SGRD         GRD        CALD       RHOB      CORR  
  204.0000  -999.2500  -999.2500  -999.2500  -999.2500    50.0000     8.6180     1.8420    -0.1420
  204.5000  -999.2500  -999.2500  -999.2500  -999.2500    50.0000     8.6180     1.8360    -0.1470
  205.0000  -999.2500  -999.2500  -999.2500  -999.2500    49.8010     8.6160     1.8220    -0.1460
  205.5000  -999.2500  -999.2500  -999.2500  -999.2500    49.6210     8.6090     1.8090    -0.1440
  206.0000  -999.2500  -999.2500  -999.2500  -999.2500    49.4420     8.6020     1.7950    -0.1420
  206.5000  -999.2500  -999.2500  -999.2500  -999.2500    49.2620     8.5960     1.7930    -0.1400
  207.0000  -999.2500  -999.2500  -999.2500  -999.2500    49.8640     8.5890     1.7890    -0.1360
  207.5000  -999.2500  -999.2500  -999.2500  -999.2500    50.3690     8.5930     1.7940    -0.1340
  208.0000  -999.2500  -999.2500  -999.2500  -999.2500    51.2130     8.5790     1.8590    -0.1300
  208.5000  -999.2500  -999.2500  -999.2500  -999.2500    52.1010     8.5720     1.9030    -0.1270
  209.0000  -999.2500  -999.2500  -999.2500  -999.2500    53.1020     8.5650     1.9240    -0.1230
  209.5000  -999.2500  -999.2500  -999.2500  -999.2500    54.1000     8.5580     1.9400    -0.1200
  210.0000  -999.2500  -999.2500    10.2850     0.2010    55.2690     8.5510     1.9470    -0.1140
  210.5000  -999.2500  -999.2500    10.2850     0.2010    56.4010     8.5440     1.9550    -0.1060
  211.0000  -999.2500  -999.2500    10.4780     0.2070    57.5500     8.5410     1.9640    -0.0980
  211.5000  -999.2500  -999.2500    12.1310     0.2320    58.6950     8.5090     1.9790    -0.0910
  212.0000  -999.2500  -999.2500    12.0880     0.2410    59.8380     8.4300     2.0010    -0.0840
  212.5000  -999.2500  -999.2500    15.9740     0.2300    60.9840     8.3520     2.0060    -0.0760
  213.0000  -999.2500  -999.2500    20.7890     0.2170    62.1280     8.3810     2.0330    -0.0690
  213.5000  -999.2500  1947.7260    36.1050     0.2070    63.2730     8.6680     2.0570    -0.0620
  214.0000  -999.2500  1856.3790   239.0510     0.2240    64.4180     8.9530     2.0840    -0.0540
  214.5000  -999.2500  1765.0330  2000.0000     0.2200    65.5620     9.1300     2.1120    -0.0480
  215.0000  -999.2500  1631.7560  2000.0000     0.2550    66.7070     9.1450     2.1400    -0.0380
  215.5000  -999.2500  1470.8350  2000.0000     0.2440    67.8520     8.9250     2.1670    -0.0260
  216.0000  -999.2500  1170.3860  1972.6680     0.2600    68.9940     8.4500     2.1950    -0.0140
  216.5000    -2.9400   855.5890  1727.0010     0.2480    70.1410     8.0010     2.2210    -0.0030
  217.0000    -6.3990   541.2960  1502.9590     0.2610    71.1770     7.5580     2.2590     0.0090
  217.5000    -8.5100   229.5250   859.0490     0.2820    72.1640     7.0940     2.2930     0.0200
  218.0000   -14.2430   154.8210   364.7420     0.4530    73.1480     6.6500     2.3300     0.0310
  218.5000   -17.3170   112.6420   102.3790     0.9230    74.1440     6.2980     2.3550     0.0340
  219.0000   -20.8330    70.4640    14.4810     2.5440    75.1330     6.6540     2.3710     0.0340
  219.5000   -22.3310    28.2850     0.8160     4.7960    75.9630     6.8820     2.3860     0.0330
  220.0000   -23.8330     1.8840     0.5880     5.8890    76.0940     6.8010     2.4030     0.0320
  220.5000   -25.6890     2.0990     0.4870     6.2690    76.2150     6.7490     2.4070     0.0300
  221.0000   -27.7500     2.3250     0.4080     6.6490    76.3030     7.4850     2.4120     0.0290
  221.5000   -29.8050     2.5500     0.3390     6.9860    76.4180     8.3380     2.4160     0.0270
  222.0000   -30.6170     2.6030     0.3220     7.2920    76.5260     7.7180     2.4200     0.0260
  222.5000   -31.7310     2.6590     0.3040     7.5760    76.5910     8.1350     2.4230     0.0250
  223.0000   -33.0120     2.6830     0.5180     7.7810    76.8060     9.2580     2.4200     0.0240
  223.5000   -34.3150     2.6950     0.7290     7.9870    76.1130    10.2860     2.4180     0.0240
  224.0000   -34.6780     2.5510     0.9380     8.1190    75.5850    10.6470     2.4150     0.0230
  224.5000   -35.0000     2.4180     2.2560     8.1770    75.2590    10.7820     2.4130     0.0220
  225.0000   -35.3270     2.2850     4.0720     8.1410    74.9570    10.8930     2.4100     0.0210
  225.5000   -35.6560     2.1820     4.1670     7.8550    74.5790    11.0280     2.4070     0.0200
  226.0000   -35.9850     2.4300     4.4300     6.4010    74.4500    11.1550     2.4070     0.0200
  226.5000   -36.3130     2.7170     4.8870     5.5780    74.6290    11.2640     2.4130     0.0200
  227.0000   -36.6410     3.0040     5.3450     6.3900    74.7690    11.3890     2.4180     0.0190
  227.5000   -36.9700     3.2910     5.8020     7.3930    74.9250    11.4950     2.4230     0.0190
  228.0000   -37.3010     3.5770     6.1020     8.3140    75.0850    11.6080     2.4270     0.0180
  228.5000   -37.7150     3.8640     6.3400     8.7320    75.0970    11.6520     2.4260     0.0180
  229.0000   -38.4460     4.1320     6.6450     8.8740    74.6700    11.5680     2.4240     0.0170
  229.5000   -39.1740     4.5460     6.9990     9.0160    74.2500    11.4530     2.4220     0.0170
  230.0000   -40.0180     4.5060     7.6670     9.2030    73.8150    11.1320     2.4220     0.0160
  230.5000   -41.2690     4.4120     8.5070     9.5500    73.3870    10.7320     2.4220     0.0160
  231.0000   -42.4540     4.3180     9.4280     9.8980    72.9580    10.3350     2.4220     0.0150
  231.5000   -44.9920     4.2240     9.1310    10.2450    72.5230     9.9440     2.4210     0.0150
  232.0000   -47.6540     4.2080     8.3470    10.7670    72.1030     9.5460     2.4180     0.0150
  232.5000   -50.2300     4.1930     7.4560    10.7330    71.6610     9.3300     2.4150     0.0140
  233.0000   -50.6810     4.1770     7.2700    10.6650    71.2260     9.2490     2.4120     0.0140
  233.5000   -51.3030     4.1610     7.2060    10.5970    70.4010     9.2900     2.4090     0.0130
  234.0000   -51.8470     4.1450     7.1420    10.5290    69.6070     9.3350     2.4070     0.0130
  234.5000   -50.5000     4.1300     7.0790    10.4610    68.7880     9.3750     2.4070     0.0130
  235.0000   -46.7440     4.1140     6.9960    10.3920    67.9860     9.4120     2.4070     0.0130
  235.5000   -42.0610     4.0980     7.0280    10.3240    67.1690     9.4510     2.4060     0.0140
  236.0000   -39.5520     4.0820     7.0730    10.2850    66.3700     9.4900     2.4060     0.0150
  236.5000   -39.5760     4.0660     7.1180    10.4440    65.5590     9.5280     2.4040     0.0160
  237.0000   -38.8310     4.0510     7.1630    10.5770    64.7160     9.5620     2.4020     0.0170
  237.5000   -38.0030     4.0350     7.2080    10.7090    64.2250     9.5800     2.4000     0.0180
  238.0000   -37.8490     4.0140     7.2530    10.8420    63.5900     9.5900     2.3970     0.0190
  238.5000   -38.4640     3.9920     7.2980    10.9670    62.1730     9.6360     2.3930     0.0190
  239.0000   -39.0720     3.9710     7.3430    10.7670    60.9070     9.6640     2.3850     0.0210
  239.5000   -39.6000     3.9380     7.3920    10.5780    59.5200     9.7100     2.3770     0.0220
  240.0000   -39.7910     3.8960     7.2210    10.3900    58.8070     9.7960     2.3690     0.0220
  240.5000   -39.8110     3.7500     7.0330    10.2010    58.0660     9.8830     2.3610     0.0220
  241.0000   -39.3080     3.5830     6.8000     9.9140    57.3520     9.9710     2.3530     0.0210
  241.5000   -38.8210     3.4170     6.2440     9.9840    56.6800    10.0080     2.3450     0.0210
  242.0000   -38.3350     3.2300     5.9630    10.1300    55.5230    10.0400     2.3370     0.0210
  242.5000   -37.7400     3.0400     5.7350    10.2760    53.9150    10.0760     2.3290     0.0210
  243.0000   -36.7190     2.8500     5.3290    10.4220    52.3770    10.1570     2.3230     0.0200
  243.5000   -35.6960     2.5740     4.8430    10.5720    50.8110    10.2430     2.3170     0.0200
  244.0000   -34.6720     2.6360     4.3570     9.8690    49.2780    10.3310     2.3350     0.0210
