~VERSION INFORMATION
 VERS.                2.0:   CWLS LOG ASCII STANDARD - VERSION 2.0
 WRAP.                 NO:   ONE LINE PER DEPTH STEP
~WELL INFORMATION
#MNEM.UNIT      DATA TYPE    INFORMATION
#----------   ------------   ------------------------------
 STRT.F           76.0000:   START DEPTH
 STOP.F         4972.0000:   STOP DEPTH
 STEP.F            0.5000:   STEP LENGTH
 NULL.          -999.2500:   NO VALUE
 COMP.    PENIX & SCISSON:   COMPANY
 WELL. FENIX NPR 3 "LX" #85-9:   WELL
 FLD .                NPR:   FIELD
 LOC .       S9 T38N R78W:   LOCATION
 CNTY.            NATRONA:   COUNTY
 STAT.            WYOMING:   STATE
 CTRY. UNITED STATES OF AMERICA:   COUNTRY
 SRVC.       SCHLUMBERGER:   SERVICE COMPANY
 DATE.        10-OCT-1978:   LOGDATE
 API .     49025107250000:   API NUMBER
~CURVE INFORMATION
#MNEM.UNIT       API CODE    CURVE DESCRIPTION
#----------   ------------   ------------------------------
 DEPT.F                  :   
 TENR.LBS    07 635 01 00:   TENSION FROM RESISTIVITY
 SPR .MV     07 010 01 00:   SPONTANEOUS POTENTIAL
 SFL .OHMM   07 220 01 00:   SHALLOW FOCUSED LOG RESISTIVITY
 ILD .OHMM   07 120 46 00:   DEEP INDUCTION RESISTIVITY
 ILM .OHMM   07 120 44 00:   INDUCTION LOG MEDIUM RESISTIVITY
 CALD.IN     45 280 60 00:   CALIPER FROM DENSITY LOG
 GRD .GAPI   45 310 01 00:   GAMMA RAY FROM DENSITY LOG
 CORR.G/C3   45 356 01 00:   DENSITY CORRECTION
 TEND.LBS    45 635 01 00:   TENSION FROM DENSITY LOG
 RHOB.G/C3   45 350 01 00:   BULK DENSITY
 NPHI.DEC    42 890 03 00:   NEUTRON POROSITY SANDSTONE
~PARAMETER INFORMATION
#MNEM.UNIT          VALUE    DESCRIPTION
#----------   ------------   ------------------------------
 EKB .F         5288.0000:   Kelly bushing
 EGL .F         5278.0000:   Ground level
 EDF .F            0.0000:   Drilling floor
 TD  .F         4950.0000:   Total depth
 DATE.        10-OCT-1978:   Date logged
 CLNT.            A2DTECH:   Client Code
 SL  . 2310' FSL & 230' FEL:   Surface Location
 PD  .                 GL:   Permanent Datum
 EPD .F              5278:   Elevation Permanent Datum
 LMF .                 KB:   Log Measured From
 DMF .                 KB:   Drilling Measured From
 DAPD.F                10:   Feet Above Permanent Datum
 DD  .F              4950:   Depth driller
 DL  .F              4950:   Depth logger
 BLI .F              4947:   Bottom log interval
 TLI .F               499:   Top log interval
 CS1 .IN            8.625:   Casing size
 CBD1.      8.625" @ 489':   Casing driller 1
 CBL1.F               499:   Casing logger 1
 BS1 .IN            7.875:   Bit size
 BSD1.F              4950:   Depth drilled with bit1
 DFT .            GEL/MUD:   Type fluid in hole
 DFD .                9.3:   Density
 DFV .                175:   Viscosity
 DFPH.                 12:   pH
 DFL .                  4:   Fluid loss
 MSS .               TANK:   Source of sample
 RMS .OHMM           .600:   Rm
 MST .F                71:   Rm Meas. temp.
 RMF .OHMM           .804:   Rmf
 MFST.F                71:   Rmf Meas. temp.
 MFSS.               MEAS:   Source Rmf.
 RMB .OHMM           .308:   Rm. at BHT
 BHT .F               138:   BHT.
 TCS .HRS            1200:   Time Circ. stopped
 TLAB.HRS            0330:   Time logger at bottom
 MRT .F               138:   Maximum recorded temp.
 LUN .               8035:   Logging unit number
 LUL .               CSPR:   Logging unit location
 ENGI.        CRAIG/DFARR:   Recorded By
 WITN.              AMEND:   Witnessed by
 ORIG.           5" PRINT:   Origin of data
 UWI .     49025107250000:   Unique Well ID
 DICO. A2D TECHNOLOGIES, INC.:   Digitizing Company
~OTHER INFORMATION
~A   DEPT     TENR        SPR        SFL        ILD        ILM       CALD         GRD      CORR       TEND       RHOB         NPHI 
# ...
 1967.0000   982.9500   -22.7120     7.7610     7.8010     6.4440    14.0160    91.1370     0.1580  1215.9270     2.4330     0.2960
 1967.5000   983.3440   -22.4960     7.4410     7.7060     5.9230    14.3590    91.6460     0.1440  1216.1591     2.4010     0.3080
 1968.0000   983.7390   -21.3370     7.1220     7.6060     5.7890    14.5730    92.2940     0.1300  1216.3910     2.4070     0.3350
 1968.5000   984.1330   -20.9750     6.8030     7.5050     5.9160    14.5320    91.3910     0.1140  1216.6219     2.4170     0.3620
 1969.0000   984.5280   -20.6540     6.3540     7.4050     6.1500    14.4690    90.4510     0.0990  1216.8540     2.4280     0.3590
 1969.5000   984.9220   -20.4590     6.3540     7.3050     6.3840    14.3960    88.7890     0.0910  1217.0861     2.4370     0.3570
 1970.0000   985.3170   -20.5010     6.3540     7.2040     6.6170    14.3360    89.0090     0.1020  1217.3180     2.4300     0.3540
 1970.5000   985.7110   -20.5500     6.3540     7.1040     6.7200    14.2760    89.1410     0.1100  1217.5490     2.4160     0.3560
 1971.0000   986.1060   -20.6110     6.1790     7.0030     6.8460    14.3840    89.3180     0.1140  1217.7810     2.4020     0.3630
 1971.5000   986.5000   -20.6670     5.9500     6.9030     6.7600    14.4930    88.9790     0.1170  1218.0129     2.4100     0.3710
 1972.0000   986.8950   -20.7150     5.8970     6.8020     6.6080    14.5750    88.6800     0.1260  1218.2450     2.4220     0.3670
 1972.5000   987.2890   -20.7820     6.1270     6.7200     6.4570    14.4240    88.3820     0.1370  1218.4760     2.4270     0.3610
 1973.0000   987.6840   -20.8560     6.5240     6.7520     6.3050    14.4450    88.2080     0.1480  1218.7080     2.4200     0.3550
 1973.5000   988.0780   -21.3730     6.8460     6.7800     6.1540    14.5630    88.7460     0.1600  1218.9399     2.4140     0.3460
 1974.0000   988.4730   -21.9070     6.9750     6.8080     6.0840    14.7280    89.2810     0.1700  1219.1720     2.4100     0.3300
 1974.5000   988.8670   -22.4520     6.7860     6.8360     6.0370    14.6330    89.3570     0.1830  1219.4030     2.4010     0.3430
 1975.0000   989.2620   -23.0100     6.5960     6.8640     5.9220    14.3270    89.3170     0.1840  1219.6350     2.3780     0.3590
 1975.5000   989.6560   -23.2310     6.5750     6.8920     5.7050    14.0480    89.3720     0.1680  1219.8669     2.3560     0.3750
 1976.0000   990.0510   -23.2140     6.5550     6.9190     5.5770    14.0980    89.4650     0.1400  1220.0990     2.3360     0.3910
 1976.5000   990.4450   -23.2140     6.5340     6.9470     5.9700    14.1600    91.0950     0.1150  1220.3300     2.3650     0.4070
 1977.0000   990.8400   -23.2150     6.5140     6.9740     6.3540    14.1280    90.9380     0.1110  1220.5620     2.3860     0.4080
 1977.5000   991.2340   -23.2250     6.4940     6.9640     6.4740    14.0010    90.8670     0.1150  1220.7939     2.3940     0.4030
 1978.0000   991.6290   -23.0900     6.4740     6.9540     6.3560    14.1540    90.6790     0.1220  1221.0260     2.4050     0.3910
 1978.5000   992.0230   -22.7590     6.4870     6.9440     6.2130    14.3240    90.5260     0.1340  1221.2570     2.4190     0.3780
 1979.0000   992.4180   -22.4430     6.5090     6.9340     6.0690    14.3410    90.2970     0.1460  1221.4890     2.4380     0.3750
 1979.5000   992.8120   -22.1240     6.5310     6.9240     5.9260    14.2380    90.0410     0.1520  1221.7209     2.4330     0.3800
 1980.0000   993.2070   -21.8040     6.5530     6.9140     5.7890    14.3840    89.8840     0.1400  1221.9530     2.4130     0.4070
 1980.5000   993.6010   -21.4870     6.5750     6.9040     5.6820    14.5320    90.5140     0.1250  1222.1840     2.3950     0.4330
 1981.0000   993.9950   -21.1650     6.5960     6.8940     5.7110    14.6900    92.0330     0.1090  1222.4160     2.3870     0.4170
 1981.5000   994.3900   -20.8490     6.4610     6.8840     5.7770    14.8490    93.4770     0.1160  1222.6479     2.3960     0.4010
 1982.0000   994.7840   -20.5330     6.3320     6.8730     5.8440    14.8570    92.9170     0.1320  1222.8800     2.4000     0.3880
 1982.5000   995.1790   -20.1920     6.2620     6.8640     5.9100    14.5930    91.7800     0.1330  1223.1110     2.3980     0.3790
 1983.0000   995.5730   -20.0540     6.3620     6.8540     5.9760    14.4120    92.5750     0.1200  1223.3430     2.4000     0.3740
 1983.5000   995.9680   -20.1460     6.4610     6.8410     6.0430    14.2860    93.3530     0.1110  1223.5750     2.4090     0.3590
 1984.0000   996.3620   -20.2150     6.5600     6.9100     6.1090    14.1570    94.1630     0.1000  1223.8070     2.4190     0.3420
 1984.5000   996.7570   -20.2800     6.6590     7.0450     6.1750    14.0340    95.0630     0.1030  1224.0380     2.4250     0.3170
 1985.0000   997.1510   -20.3590     6.7580     7.1810     6.2410    13.8970    94.8280     0.1070  1224.2700     2.4250     0.3200
 1985.5000   997.5460   -20.4510     6.8580     7.3170     6.3080    13.7970    93.7860     0.1110  1224.5020     2.4240     0.3250
 1986.0000   997.9400   -20.9210     6.9570     7.4520     6.3740    13.7180    92.8440     0.1100  1224.7340     2.4220     0.3310
 1986.5000   998.3350   -21.4720     7.0560     7.6560     6.4740    13.7790    91.8890     0.1080  1224.9650     2.4260     0.3370
 1987.0000   998.7290   -22.0740     7.1060     7.5550     6.3980    13.8630    91.1280     0.1070  1225.1970     2.4300     0.3420
 1987.5000   999.1240   -22.5150     7.2400     7.3500     6.2450    13.9580    90.8880     0.1090  1225.4290     2.4340     0.3480
 1988.0000   999.5180   -22.6710     7.0460     7.1460     6.0920    13.9740    90.6250     0.1350  1225.6610     2.4400     0.3490
 1988.5000   999.9130   -22.8770     6.8300     6.9410     5.9390    13.9430    90.8090     0.1660  1225.8920     2.4290     0.3500
 1989.0000  1000.3070   -23.0960     6.6140     6.7360     5.6820    13.9100    91.5860     0.1580  1226.1240     2.3980     0.3520
 1989.5000  1000.7020   -23.2260     6.3980     6.5960     5.7110    13.8940    92.3400     0.1370  1226.3560     2.3730     0.3580
 1990.0000  1001.0960   -23.2130     6.1220     6.5960     5.8030    13.8710    92.9340     0.1270  1226.5880     2.3850     0.3720
 1990.5000  1001.4910   -23.2150     6.1510     6.5960     5.8950    13.8530    92.8320     0.1340  1226.8190     2.4240     0.3670
 1991.0000  1001.8850   -23.2190     6.2430     6.5960     5.9870    13.8340    93.7810     0.1410  1227.0510     2.4370     0.3560
 1991.5000  1002.2800   -23.2130     6.3340     6.5960     6.1220    13.7810    95.2640     0.1410  1227.2830     2.4360     0.3440
 1992.0000  1002.6740   -23.2030     6.4260     6.5960     6.0400    13.6500    96.9710     0.1500  1227.5150     2.4410     0.3300
 1992.5000  1003.0690   -22.8160     6.5170     6.5960     5.8880    13.5140    95.9250     0.1660  1227.7460     2.4510     0.3390
 1993.0000  1003.4630   -22.2310     6.5960     6.5960     5.7360    13.5150    95.0840     0.1730  1227.9780     2.4600     0.3500
 1993.5000  1003.8580   -21.5240     6.4980     6.5960     5.5770    13.6040    94.1610     0.1630  1228.2100     2.4650     0.3610
 1994.0000  1004.2520   -20.6150     6.4130     6.5960     5.5770    13.7000    94.8220     0.1440  1228.4420     2.4600     0.3720
 1994.5000  1004.6470   -20.4170     6.3280     6.5960     6.0080    13.5900    95.3810     0.1240  1228.6730     2.4500     0.3770
 1995.0000  1005.0410   -20.1050     6.2430     6.5960     5.9430    13.4400    95.7400     0.1210  1228.9050     2.4600     0.3740
 1995.5000  1005.4350   -20.0310     6.1220     6.6410     5.8260    13.2930    93.7100     0.1400  1229.1370     2.4690     0.3710
 1996.0000  1005.8300   -20.0390     6.2040     6.6800     5.6820    13.1250    92.3540     0.1600  1229.3690     2.4680     0.3680
 1996.5000  1006.2240   -20.0420     6.3490     6.7200     5.7540    13.0770    92.7580     0.1670  1229.6000     2.4610     0.3590
 1997.0000  1006.6190   -20.0430     6.4950     6.8690     5.9490    13.0260    94.1640     0.1570  1229.8320     2.4630     0.3400
