~VERSION INFORMATION
 VERS.                2.0:   CWLS LOG ASCII STANDARD - VERSION 2.0
 WRAP.                 NO:   ONE LINE PER DEPTH STEP
~WELL INFORMATION
#MNEM.UNIT      DATA TYPE    INFORMATION
#----------   ------------   ------------------------------
 STRT.F          748.0000:   START DEPTH
 STOP.F         2734.0000:   STOP DEPTH
 STEP.F            0.5000:   STEP LENGTH
 NULL.          -999.2500:   NO VALUE
 COMP.    FENIX & SCISSON:   COMPANY
 WELL. FENIX NPR 3 "SHX" #84-4:   WELL
 FLD .             TEAPOT:   FIELD
 LOC .       S4 T38N R78W:   LOCATION
 CNTY.            NATRONA:   COUNTY
 STAT.            WYOMING:   STATE
 CTRY. UNITED STATES OF AMERICA:   COUNTRY
 SRVC.              WELEX:   SERVICE COMPANY
 DATE.        08-MAY-1980:   LOGDATE
 API .     49025108050000:   API NUMBER
~CURVE INFORMATION
#MNEM.UNIT       API CODE    CURVE DESCRIPTION
#----------   ------------   ------------------------------
 DEPT.F                  :   
 CALD.IN     45 280 60 00:   CALIPER FROM DENSITY LOG
 GRD .GAPI   45 310 01 00:   GAMMA RAY FROM DENSITY LOG
 RHOB.G/C3   45 350 01 00:   BULK DENSITY
 CORR.G/C3   45 356 01 00:   DENSITY CORRECTION
~PARAMETER INFORMATION
#MNEM.UNIT          VALUE    DESCRIPTION
#----------   ------------   ------------------------------
 EKB .F         5244.0000:   Kelly bushing
 EGL .F         5234.0000:   Ground level
 EDF .F            0.0000:   Drilling floor
 TD  .F         2733.0000:   Total depth
 DATE.        08-MAY-1980:   Date logged
 CLNT.            A2DTECH:   Client Code
 SL  . 7461' FNL & 383' FEL:   Surface Location
 PD  .                 GL:   Permanent Datum
 EPD .F              5234:   Elevation Permanent Datum
 LMF .                 KB:   Log Measured From
 DMF .                 KB:   Drilling Measured From
 DAPD.F                10:   Feet Above Permanent Datum
 DD  .F              2700:   Depth driller
 DL  .F              2733:   Depth logger
 BLI .F              2731:   Bottom log interval
 TLI .F               752:   Top log interval
 CS1 .IN            9.625:   Casing size
 CBD1.      9.625" @ 260':   Casing driller 1
 BS1 .IN              8.5:   Bit size
 BSD1.F              2700:   Depth drilled with bit1
 DFT .                AIR:   Type fluid in hole
 MRT .F               118:   Maximum recorded temp.
 LUN .                  2:   Logging unit number
 ENGI.           TORTILLE:   Recorded By
 WITN.              AMEND:   Witnessed by
 ORIG.           5" PRINT:   Origin of data
 UWI .     49025108050000:   Unique Well ID
 DICO. A2D TECHNOLOGIES, INC.:   Digitizing Company
~OTHER INFORMATION
~A   DEPT       CALD       GRD        RHOB       CORR 
# ...
 2281.0000     8.9000    92.0110     2.4650     0.0460
 2281.5000     8.9000    92.6300     2.4680     0.0520
 2282.0000     8.9000    93.2470     2.4740     0.0560
 2282.5000     8.9000    93.8590     2.4700     0.0600
 2283.0000     8.9000    94.4910     2.4550     0.0530
 2283.5000     8.9000    95.0530     2.4540     0.0460
 2284.0000     8.9000    94.9850     2.4550     0.0500
 2284.5000     8.9000    93.7410     2.4710     0.0550
 2285.0000     8.9000    92.6770     2.4770     0.0570
 2285.5000     8.9000    91.5430     2.4740     0.0590
 2286.0000     8.9000    90.4450     2.4700     0.0600
 2286.5000     8.9000    89.3330     2.4760     0.0620
 2287.0000     8.9000    88.2330     2.4740     0.0630
 2287.5000     8.9000    87.1070     2.4710     0.0650
 2288.0000     8.9000    86.0180     2.4750     0.0650
 2288.5000     8.9000    84.9710     2.4730     0.0590
 2289.0000     8.9000    84.8430     2.4550     0.0540
 2289.5000     8.9000    84.6900     2.4530     0.0490
 2290.0000     8.9000    84.5790     2.4640     0.0510
 2290.5000     8.9000    84.4470     2.4590     0.0540
 2291.0000     8.9000    84.3300     2.4500     0.0560
 2291.5000     8.9000    84.0740     2.4510     0.0560
 2292.0000     8.9000    83.4530     2.4670     0.0540
 2292.5000     8.9000    82.8600     2.4750     0.0690
 2293.0000     8.9000    82.2610     2.4770     0.0680
 2293.5000     8.9000    81.6680     2.4750     0.0670
 2294.0000     8.9000    81.0240     2.4720     0.0650
 2294.5000     8.9000    80.6700     2.4730     0.0630
 2295.0000     8.9000    80.7180     2.4730     0.0610
 2295.5000     8.9000    80.7940     2.4740     0.0600
 2296.0000     8.9000    80.8660     2.4680     0.0580
 2296.5000     8.9000    80.9490     2.4560     0.0570
 2297.0000     8.9000    81.0220     2.4560     0.0550
 2297.5000     8.9000    81.1000     2.4610     0.0630
 2298.0000     8.9000    81.1760     2.4660     0.0680
 2298.5000     8.9000    81.2530     2.4620     0.0640
 2299.0000     8.9000    81.3300     2.4520     0.0590
 2299.5000     8.9000    81.4070     2.4420     0.0520
 2300.0000     8.9000    81.4830     2.4310     0.0450
 2300.5000     8.9000    81.5630     2.4250     0.0410
 2301.0000     8.9000    81.6360     2.4260     0.0410
 2301.5000     8.9000    81.7130     2.4310     0.0410
 2302.0000     8.9000    81.8020     2.4350     0.0410
 2302.5000     8.9000    81.8360     2.4390     0.0440
 2303.0000     8.9000    82.2750     2.4430     0.0470
 2303.5000     8.9000    83.0320     2.4480     0.0500
 2304.0000     8.9000    83.7350     2.4480     0.0540
 2304.5000     8.9000    84.4430     2.4470     0.0570
 2305.0000     8.9000    85.1610     2.4470     0.0580
 2305.5000     8.9000    85.8640     2.4460     0.0590
 2306.0000     8.9000    86.5830     2.4460     0.0600
 2306.5000     8.9000    87.2940     2.4510     0.0600
 2307.0000     8.9000    87.8740     2.4540     0.0610
 2307.5000     8.9000    87.8270     2.4580     0.0620
 2308.0000     8.9000    87.7870     2.4620     0.0630
 2308.5000     8.9000    87.7220     2.4620     0.0640
 2309.0000     8.9000    87.6710     2.4630     0.0650
 2309.5000     8.9000    87.6150     2.4640     0.0580
 2310.0000     8.9000    87.5600     2.4580     0.0530
 2310.5000     8.9000    87.5040     2.4420     0.0460
 2311.0000     8.9000    87.4500     2.4480     0.0400
 2311.5000     8.9000    87.3960     2.4530     0.0400
 2312.0000     8.9000    87.3300     2.4500     0.0480
 2312.5000     8.9000    87.3610     2.4580     0.0550
 2313.0000     8.9000    87.5820     2.4580     0.0610
 2313.5000     8.9000    87.7900     2.4560     0.0590
 2314.0000     8.9000    88.0050     2.4540     0.0570
 2314.5000     8.9000    88.2190     2.4510     0.0540
 2315.0000     8.9000    88.4300     2.4480     0.0520
 2315.5000     8.9000    88.6440     2.4440     0.0510
 2316.0000     8.9000    88.8610     2.4450     0.0450
 2316.5000     8.9000    89.0590     2.4530     0.0510
 2317.0000     8.9000    89.3020     2.4610     0.0620
 2317.5000     8.9000    89.4830     2.4670     0.0730
 2318.0000     8.9000    89.5930     2.4850     0.0870
 2318.5000     8.9000    88.2020     2.5060     0.1020
 2319.0000     8.9000    86.8520     2.5110     0.1100
 2319.5000     8.9000    85.4260     2.5170     0.1090
 2320.0000     8.9000    84.0460     2.5190     0.1090
 2320.5000     8.9000    82.6500     2.5020     0.1050
 2321.0000     8.9000    81.2930     2.4780     0.0890
 2321.5000     8.9000    80.1010     2.4470     0.0730
 2322.0000     8.9000    78.9500     2.4520     0.0580
 2322.5000     8.9000    77.7290     2.4610     0.0580
 2323.0000     8.9000    76.8300     2.4700     0.0620
 2323.5000     8.9000    76.3460     2.4790     0.0670
 2324.0000     8.9000    75.7810     2.4880     0.0700
 2324.5000     8.9000    75.2510     2.4970     0.0780
 2325.0000     8.9000    74.7230     2.5060     0.0860
 2325.5000     8.9000    74.8260     2.5080     0.0930
 2326.0000     8.9000    75.0560     2.5050     0.0930
 2326.5000     8.9000    75.2870     2.5010     0.0920
 2327.0000     8.8990    75.5040     2.5000     0.0910
 2327.5000     8.8990    75.7320     2.5020     0.0910
 2328.0000     8.8980    75.9550     2.5040     0.0900
 2328.5000     8.8970    76.1760     2.5010     0.0880
 2329.0000     8.8970    76.4090     2.4900     0.0770
 2329.5000     8.8960    76.5080     2.4810     0.0680
 2330.0000     8.8950    76.4970     2.4700     0.0580
 2330.5000     8.8950    76.5010     2.4660     0.0570
 2331.0000     8.8940    76.5020     2.4710     0.0590
 2331.5000     8.8930    76.4920     2.4670     0.0660
 2332.0000     8.8930    76.6080     2.4620     0.0710
 2332.5000     8.8920    76.9340     2.4600     0.0780
 2333.0000     8.8910    77.2490     2.4680     0.0840
 2333.5000     8.8910    77.5710     2.4790     0.0890
 2334.0000     8.8900    77.8900     2.4740     0.0960
 2334.5000     8.8890    78.2080     2.4500     0.0710
 2335.0000     8.8890    78.2980     2.4380     0.0420
 2335.5000     8.8880    78.1690     2.4430     0.0490
 2336.0000     8.8870    77.9970     2.4470     0.0520
 2336.5000     8.8870    77.8860     2.4510     0.0560
 2337.0000     8.8860    77.7550     2.4560     0.0570
 2337.5000     8.8850    79.0490     2.4620     0.0600
 2338.0000     8.8850    79.5020     2.4680     0.0630
 2338.5000     8.8840    79.0920     2.4730     0.0680
 2339.0000     8.8830    78.6250     2.4790     0.0750
 2339.5000     8.8830    78.1660     2.4840     0.0810
 2340.0000     8.8820    77.7110     2.4890     0.0810
 2340.5000     8.8810    77.2600     2.4900     0.0800
 2341.0000     8.8810    76.8820     2.4810     0.0690
 2341.5000     8.8800    76.1440     2.4660     0.0580
 2342.0000     8.8790    75.4070     2.4510     0.0470
 2342.5000     8.8790    74.6510     2.4590     0.0410
 2343.0000     8.8780    73.9170     2.4700     0.0610
 2343.5000     8.8770    73.1540     2.4820     0.0650
 2344.0000     8.8760    72.8840     2.4820     0.0590
 2344.5000     8.8760    72.9750     2.4770     0.0520
 2345.0000     8.8750    73.0560     2.4700     0.0460
 2345.5000     8.8740    73.1350     2.4640     0.0390
 2346.0000     8.8740    73.2210     2.4580     0.0370
 2346.5000     8.8730    73.3070     2.4540     0.0380
 2347.0000     8.8720    73.3770     2.4630     0.0460
 2347.5000     8.8720    73.4840     2.4580     0.0540
 2348.0000     8.8710    73.5280     2.4510     0.0580
 2348.5000     8.8700    74.4620     2.4500     0.0680
 2349.0000     8.8700    75.6680     2.4640     0.0840
 2349.5000     8.8690    76.8590     2.4850     0.0980
 2350.0000     8.8680    78.0610     2.4860     0.1050
 2350.5000     8.8680    79.2470     2.4630     0.0740
 2351.0000     8.8670    80.3770     2.4480     0.0670
 2351.5000     8.8660    81.2950     2.4340     0.0540
 2352.0000     8.8660    82.9270     2.4250     0.0450
 2352.5000     8.8650    84.5060     2.4210     0.0540
 2353.0000     8.8640    86.1110     2.4470     0.0730
 2353.5000     8.8640    87.7200     2.4380     0.0670
