~VERSION INFORMATION
 VERS.                2.0:   CWLS LOG ASCII STANDARD - VERSION 2.0
 WRAP.                 NO:   ONE LINE PER DEPTH STEP
~WELL INFORMATION
#MNEM.UNIT      DATA TYPE    INFORMATION
#----------   ------------   ------------------------------
 STRT.F          250.5000:   START DEPTH
 STOP.F         2849.5000:   STOP DEPTH
 STEP.F            0.5000:   STEP LENGTH
 NULL.          -999.2500:   NO VALUE
 COMP. FENIX & SCISSON U.S. NAVY:   COMPANY
 WELL.   FENIX "A" #25-21:   WELL
 FLD .           N P R #3:   FIELD
 LOC .      S21 T39N R78W:   LOCATION
 CNTY.            NATRONA:   COUNTY
 STAT.            WYOMING:   STATE
 CTRY. UNITED STATES OF AMERICA:   COUNTRY
 SRVC.       SCHLUMBERGER:   SERVICE COMPANY
 DATE.        14-MAR-1977:   LOGDATE
 API .     49025103140000:   API NUMBER
~CURVE INFORMATION
#MNEM.UNIT       API CODE    CURVE DESCRIPTION
#----------   ------------   ------------------------------
 DEPT.F                  :   
 CALD.IN     45 280 60 00:   CALIPER FROM DENSITY LOG
 GRD .GAPI   45 310 01 00:   GAMMA RAY FROM DENSITY LOG
 RHOB.G/C3   45 350 01 00:   BULK DENSITY
 CORR.G/C3   45 356 01 00:   DENSITY CORRECTION
 SPR .MV     07 010 01 00:   SPONTANEOUS POTENTIAL
 LL8 .OHMM   07 220 08 00:   LATEROLOG-8 RES.
 ILM .OHMM   07 120 44 00:   INDUCTION LOG MEDIUM RESISTIVITY
 ILD .OHMM   07 120 46 00:   DEEP INDUCTION RESISTIVITY
~PARAMETER INFORMATION
#MNEM.UNIT          VALUE    DESCRIPTION
#----------   ------------   ------------------------------
 EKB .F         4963.0000:   Kelly bushing
 EGL .F         4953.0000:   Ground level
 EDF .F            0.0000:   Drilling floor
 TD  .F         2848.0000:   Total depth
 DATE.        14-MAR-1977:   Date logged
 CLNT.            A2DTECH:   Client Code
 SL  . 990' FWL & 2310' FSL:   Surface Location
 PD  .                 GL:   Permanent Datum
 DD  .F              2847:   Depth driller
 DL  .F              2848:   Depth logger
 BLI .F              2842:   Bottom log interval
 CS1 .IN            8.625:   Casing size
 CBD1.      8.625" @ 259':   Casing driller 1
 CBL1.F               261:   Casing logger 1
 BS1 .IN            7.875:   Bit size
 DFT .                KCL:   Type fluid in hole
 DFD .                9.2:   Density
 DFV .                 37:   Viscosity
 DFPH.                8.5:   pH
 DFL .                8.6:   Fluid loss
 MSS .           FLOWLINE:   Source of sample
 RMS .OHMM          0.226:   Rm
 MST .F                72:   Rm Meas. temp.
 RMF .OHMM          0.190:   Rmf
 MFST.F                72:   Rmf Meas. temp.
 MFSS.               MEAS:   Source Rmf.
 RMB .OHMM           .139:   Rm. at BHT
 BHT .F               117:   BHT.
 TCS .HRS            1800:   Time Circ. stopped
 MRT .F               117:   Maximum recorded temp.
 LUN .               5642:   Logging unit number
 LUL .               CSPR:   Logging unit location
 ENGI.         JIM MARTIN:   Recorded By
 WITN.               JAPP:   Witnessed by
 ORIG.           5" PRINT:   Origin of data
 UWI .     49025103140000:   Unique Well ID
 DICO. A2D TECHNOLOGIES, INC.:   Digitizing Company
 DAPD.                 10:   Feet Above Permanent Datum
 BSD1.               2847:   Depth drilled with bit1
 EPD .               4953:   Elevation Permanent Datum
 LMF .                 KB:   Log Measured From
 DMF .                 KB:   Drilling Measured From
 TLI .                261:   Top log interval
 TLAB.               2400:   Time logger at bottom
~OTHER INFORMATION
~A   DEPT     CALD         GRD      RHOB       CORR        SPR        LL8        ILM        ILD   
# ...
 2478.0000     9.2560   122.6070     2.5100     0.0200   -55.3310     6.2700     6.3920     6.7240
 2478.5000     9.2550   125.8900     2.5210     0.0270   -55.5850     6.1260     6.2480     6.3320
 2479.0000     9.2530   126.4120     2.5150     0.0180   -55.7430     5.9820     6.1490     6.2260
 2479.5000     9.2510   124.7650     2.5020     0.0060   -55.6290     5.8390     6.0490     6.1030
 2480.0000     9.2490   121.6720     2.4910     0.0040   -55.5130     5.6950     5.9490     6.1540
 2480.5000     9.2470   118.5710     2.5140     0.0200   -55.3950     5.6010     5.8490     6.2320
 2481.0000     9.2460   115.4930     2.5330     0.0330   -55.4250     5.5670     5.7500     6.2740
 2481.5000     9.2440   115.0750     2.5220     0.0210   -55.5350     5.7820     5.6500     6.2180
 2482.0000     9.2420   112.8510     2.5270     0.0120   -55.2960     6.2340     5.6180     6.0140
 2482.5000     9.2400   110.5440     2.5320     0.0120   -55.0450     6.6870     5.6510     5.8290
 2483.0000     9.2380   111.6320     2.5160     0.0030   -54.7940     7.2020     5.6990     5.8290
 2483.5000     9.2390   112.3840     2.5030     0.0170   -54.5440     6.5530     5.7470     5.8290
 2484.0000     9.2480   113.1250     2.5340     0.0400   -54.3670     5.6700     5.7950     5.9850
 2484.5000     9.2560   116.5280     2.5410     0.0290   -54.8270     5.6180     5.8900     6.1890
 2485.0000     9.2640   119.8790     2.5410     0.0220   -55.2860     5.8220     6.0890     6.3920
 2485.5000     9.2730   121.9480     2.5300     0.0140   -55.1560     6.0050     6.2870     6.5950
 2486.0000     9.2810   122.1090     2.5280     0.0060   -54.8710     6.1890     6.4850     6.8520
 2486.5000     9.2890   123.7270     2.5330     0.0080   -54.5910     6.4260     6.6830     7.1550
 2487.0000     9.2980   129.2830     2.5410     0.0160   -54.9540     6.7100     6.8810     7.4580
 2487.5000     9.3060   130.0670     2.5460     0.0080   -55.4200     6.9950     7.0790     7.7620
 2488.0000     9.3140   125.3050     2.5400     0.0180   -55.3710     7.2790     7.2770     8.0650
 2488.5000     9.3220   121.9410     2.5420     0.0310   -55.0440     7.5630     7.4720     8.3680
 2489.0000     9.3310   121.9950     2.5320     0.0140   -54.7120     7.8480     7.8270     8.6720
 2489.5000     9.3390   122.0160     2.5220     0.0230   -54.3800     8.1320     8.3320     8.9750
 2490.0000     9.3470   118.5010     2.5080     0.0020   -54.0880     8.4220     8.8370     9.2780
 2490.5000     9.3530   113.9440     2.5230     0.0080   -53.7900     8.4560     9.1490     9.5650
 2491.0000     9.3760   111.7880     2.5310     0.0090   -53.9020     8.5000     8.9820     9.4280
 2491.5000     9.3760   116.3480     2.5330     0.0180   -54.0050     8.5000     8.7100     9.3190
 2492.0000     9.3770   122.9850     2.5200     0.0100   -54.1080     7.9730     8.2290     8.7470
 2492.5000     9.3800   129.6550     2.5060     0.0020   -54.2150     7.4260     7.7480     8.0320
 2493.0000     9.3830   136.2770     2.5030     0.0010   -54.3190     6.8790     7.2680     7.3160
 2493.5000     9.3860   138.5970     2.5080    -0.0040   -54.8620     6.3320     6.7870     6.6010
 2494.0000     9.3890   139.8380     2.5140     0.0090   -55.6740     5.7850     6.3060     6.0920
 2494.5000     9.3920   138.3010     2.5190     0.0270   -56.2430     5.3650     5.8250     5.7070
 2495.0000     9.3950   136.5490     2.5480     0.0450   -55.8040     5.1240     5.3450     5.3220
 2495.5000     9.3980   137.7710     2.5390     0.0370   -56.1860     5.0310     5.0770     4.9850
 2496.0000     9.4010   141.8200     2.5460     0.0250   -56.5170     5.4650     5.0770     4.9690
 2496.5000     9.4030   139.4870     2.5480     0.0280   -56.1580     5.8790     5.0770     4.9440
 2497.0000     9.4060   136.4710     2.5360     0.0180   -56.1180     6.1590     5.0770     4.9200
 2497.5000     9.4090   133.4400     2.5280     0.0040   -56.5130     6.0040     5.0770     4.8960
 2498.0000     9.4120   130.9690     2.5360     0.0140   -56.3630     5.8580     5.0770     4.8710
 2498.5000     9.4150   134.8040     2.5430     0.0270   -55.5670     5.7110     4.9670     4.8490
 2499.0000     9.4180   140.0520     2.5250     0.0120   -55.3330     5.5650     4.8640     4.7220
 2499.5000     9.4210   145.1120     2.5180    -0.0030   -55.7060     5.4190     4.7610     4.6030
 2500.0000     9.4240   144.8470     2.5140     0.0040   -56.0690     5.2680     4.6590     4.4830
 2500.5000     9.4270   143.2280     2.5260     0.0170   -56.2220     5.1890     4.5560     4.4230
 2501.0000     9.4300   139.4850     2.5310     0.0270   -55.7560     5.1240     4.5050     4.4230
 2501.5000     9.4330   133.5300     2.5180     0.0170   -55.3100     5.0770     4.5460     4.4230
 2502.0000     9.4360   127.5860     2.5140     0.0100   -54.8640     5.0770     4.7610     4.5050
 2502.5000     9.4360   121.6340     2.5200     0.0040   -54.4190     5.1720     5.1720     5.1200
 2503.0000     9.4360   115.6840     2.5200     0.0100   -53.9740     5.4150     5.5790     5.7980
 2503.5000     9.4360   109.7080     2.5110    -0.0030   -53.5510     7.6510     6.1060     6.4760
 2504.0000     9.4360   109.8460     2.5040    -0.0050   -53.1250    10.7970     6.6320     7.1530
 2504.5000     9.4380   111.2920     2.5120     0.0080   -52.7160    10.6260     7.1590     7.8310
 2505.0000     9.4470   112.7560     2.5220     0.0190   -52.2940    10.2950     7.6860     8.5090
 2505.5000     9.4570   113.1780     2.5310     0.0300   -52.1820     9.9390     8.5720     9.1860
 2506.0000     9.4660   112.4340     2.5330     0.0400   -52.1810     9.8370    10.9970     9.8640
 2506.5000     9.4760   113.5980     2.5290     0.0310   -52.0100     9.8050    10.8400    10.5420
 2507.0000     9.4520   114.7560     2.5210     0.0130   -51.7650     9.7730    10.6650    10.9970
 2507.5000     9.4240   115.9030     2.5110     0.0210   -51.5180     9.7580    10.4080    11.0650
 2508.0000     9.3960   117.0450     2.5110     0.0140   -51.2580     9.9280    10.1510    11.0990
 2508.5000     9.3680   118.1880     2.4990    -0.0020   -51.4020    10.0550    10.0310    10.7800
 2509.0000     9.3400   117.6210     2.4860    -0.0030   -51.7120    10.2170    10.0750    10.4980
 2509.5000     9.3190   114.9800     2.4810     0.0030   -52.0270     9.8660    10.1230    10.3110
 2510.0000     9.3340   113.3940     2.4950     0.0140   -52.3380     9.3800     9.9580    10.4070
 2510.5000     9.3490   119.1410     2.5020     0.0130   -52.5510     8.8930     9.4350    10.0820
 2511.0000     9.3640   124.0450     2.5040     0.0070   -52.4180     8.4060     8.9120     9.4810
 2511.5000     9.3770   128.5090     2.5040     0.0080   -52.5170     7.9190     8.3890     8.8800
 2512.0000     9.3790   126.5920     2.4920     0.0070   -53.1310     7.4330     7.8660     8.2790
 2512.5000     9.3810   124.6080     2.4790    -0.0090   -53.7330     6.9460     7.3430     7.6790
 2513.0000     9.3830   122.4870     2.4820    -0.0040   -54.3340     6.4590     6.8210     7.0780
 2513.5000     9.3850   116.8060     2.4960     0.0060   -54.9370     5.9920     6.2740     6.4490
 2514.0000     9.3870   111.5670     2.5070     0.0140   -55.4010     6.2190     6.3490     6.3900
 2514.5000     9.3900   111.0190     2.5210     0.0080   -55.8010     6.8600     6.4850     6.4240
 2515.0000     9.3920   110.3480     2.5350     0.0070   -55.8120     7.5010     6.6210     6.4530
 2515.5000     9.3940   109.5550     2.5450     0.0160   -55.5240     8.1420     6.7560     6.4820
 2516.0000     9.3960   112.7440     2.5410     0.0100   -55.2370     8.5000     6.8150     6.5100
 2516.5000     9.3980   117.3980     2.5720     0.0300   -54.9490     7.9690     6.7980     6.5390
 2517.0000     9.4000   119.8130     2.5920     0.0460   -54.6590     7.1480     6.7500     6.5690
 2517.5000     9.4030   121.5590     2.5890     0.0240   -54.4930     6.1030     6.6910     6.8550
 2518.0000     9.4050   123.1720     2.6140     0.0380   -54.3930     6.2690     6.8760     7.2260
