~VERSION INFORMATION
 VERS.                2.0:   CWLS LOG ASCII STANDARD - VERSION 2.0
 WRAP.                 NO:   ONE LINE PER DEPTH STEP
~WELL INFORMATION
#MNEM.UNIT      DATA TYPE    INFORMATION
#----------   ------------   ------------------------------
 STRT.F          208.0000:   START DEPTH
 STOP.F         2950.0000:   STOP DEPTH
 STEP.F            0.5000:   STEP LENGTH
 NULL.          -999.2500:   NO VALUE
 COMP.    FENIX & SCISSON:   COMPANY
 WELL.     FENIX A #56-28:   WELL
 FLD .                NPR:   FIELD
 LOC .      S28 T39N R78W:   LOCATION
 CNTY.            NATRONA:   COUNTY
 STAT.            WYOMING:   STATE
 CTRY. UNITED STATES OF AMERICA:   COUNTRY
 SRVC.              WELEX:   SERVICE COMPANY
 DATE.        20-AUG-1977:   LOGDATE
 API .     49025104140000:   API NUMBER
~CURVE INFORMATION
#MNEM.UNIT       API CODE    CURVE DESCRIPTION
#----------   ------------   ------------------------------
 DEPT.F                  :   
 SPR .MV     07 010 01 00:   SPONTANEOUS POTENTIAL
 RILM.OHMM   07 120 44 00:   INDUCTION LOG MEDIUM RESISTIVITY
 RILD.OHMM   07 120 46 00:   INDUCTION LOG DEEP RESISTIVITY
 SGRD.OHMM   07 220 05 00:   SHALLOW GUARD LOG RESISTIVITY
 CALD.IN     45 280 60 00:   CALIPER FROM DENSITY LOG
 DCOR.G/C3   45 356 01 00:   DENSITY CORRECTION
 GRD .GAPI   45 310 01 00:   GAMMA RAY FROM DENSITY LOG
 RHOB.G/C3   45 350 01 00:   BULK DENSITY
~PARAMETER INFORMATION
#MNEM.UNIT          VALUE    DESCRIPTION
#----------   ------------   ------------------------------
 EKB .F         5088.0000:   Kelly bushing
 EGL .F         5078.0000:   Ground level
 EDF .F            0.0000:   Drilling floor
 EPD .F         5078.0000:   Permanent datum
 TD  .F         2960.0000:   Total depth
 DATE.        20-AUG-1977:   Date logged
 CLNT.            A2DTECH:   Client Code
 SL  . 1650' FSL & 2310' FEL:   Surface Location
 PD  .                 GL:   Permanent Datum
 LMF .                 KB:   Log Measured From
 DMF .                 KB:   Drilling Measured From
 DAPD.F                10:   Feet Above Permanent Datum
 DD  .F              2960:   Depth driller
 DL  .F              2952:   Depth logger
 BLI .F              2950:   Bottom log interval
 TLI .F               210:   Top log interval
 CS1 .IN            8.625:   Casing size
 CBD1.      8.625" @ 215':   Casing driller 1
 CBL1.F               218:   Casing logger 1
 BS1 .IN            7.875:   Bit size
 BSD1.F              2960:   Depth drilled with bit1
 DFT .            KCL MUD:   Type fluid in hole
 DFD .                8.9:   Density
 DFV .                 60:   Viscosity
 DFPH.                 11:   pH
 DFL .                7.2:   Fluid loss
 MSS .           FLOWLINE:   Source of sample
 RMS .OHMM            .78:   Rm
 MST .F                81:   Rm Meas. temp.
 RMF .OHMM            .46:   Rmf
 MFST.F                81:   Rmf Meas. temp.
 RMC .OHMM           1.66:   Rmc
 MCST.F                81:   Rmc Meas. temp.
 MFSS.               CALC:   Source Rmf.
 MCSS.               CALC:   Source Rmc.
 RMB .OHMM            .56:   Rm. at BHT
 BHT .F               112:   BHT.
 TCS .HRS             2.5:   Time Circ. stopped
 MRT .F               112:   Maximum recorded temp.
 LUN .               8611:   Logging unit number
 LUL .             CASPER:   Logging unit location
 ENGI.             C DOAK:   Recorded By
 WITN.       B HARRINGTON:   Witnessed by
 ORIG.           5" PRINT:   Origin of data
 UWI .     49025104140000:   Unique Well ID
 DICO. A2D TECHNOLOGIES, INC.:   Digitizing Company
~OTHER INFORMATION
~A   DEPT      SPR       RILM       RILD       SGRD         CALD     DCOR        GRD       RHOB   
# ...
 2759.5000   -73.2730     5.7320     5.0770     8.4190     8.6080     0.0150   142.0340     2.4810
 2760.0000   -73.3710     5.7040     5.1140     8.0140     8.6080     0.0150   140.0700     2.4850
 2760.5000   -73.4680     5.6800     5.1480     7.5430     8.6080     0.0130   137.9400     2.4880
 2761.0000   -73.5650     5.8730     5.1820     7.9800     8.6080     0.0120   138.9010     2.4900
 2761.5000   -73.6630     5.9670     5.2170     8.3600     8.6080     0.0100   140.4550     2.4880
 2762.0000   -73.7600     6.0040     5.2510     8.7400     8.6080     0.0080   141.2010     2.4820
 2762.5000   -73.8570     6.0500     5.2780     8.9770     8.6100     0.0070   141.4760     2.4760
 2763.0000   -73.9530     5.9120     5.1690     8.7460     8.6110     0.0050   141.3810     2.4710
 2763.5000   -74.0090     5.6800     5.0780     8.1800     8.6130     0.0030   141.2830     2.4660
 2764.0000   -73.9640     5.3940     4.9860     7.6140     8.6140     0.0040   141.1840     2.4750
 2764.5000   -73.9230     5.1830     4.8950     7.0750     8.6160     0.0060   140.8370     2.4870
 2765.0000   -73.8820     5.0890     4.8030     6.8840     8.6170     0.0080   140.2920     2.4990
 2765.5000   -73.8390     5.0890     4.7580     7.1400     8.6190     0.0090   139.1160     2.5090
 2766.0000   -73.8720     5.0890     4.7360     6.7990     8.6200     0.0110   136.3150     2.5190
 2766.5000   -73.9510     5.1870     4.7290     6.6360     8.6220     0.0120   132.7560     2.5290
 2767.0000   -74.0310     5.4580     4.7290     7.0750     8.6230     0.0150   129.2340     2.5400
 2767.5000   -74.1110     5.8160     4.8080    11.5950     8.6250     0.0180   125.1980     2.5450
 2768.0000   -74.1900     5.5490     4.8940    18.8450     8.6260     0.0220   127.4300     2.5490
 2768.5000   -74.3520     5.1830     4.9810     6.9470     8.6280     0.0250   133.1510     2.5510
 2769.0000   -74.5510     5.3520     5.0670     7.1510     8.6290     0.0270   138.9870     2.5320
 2769.5000   -74.7500     5.5310     5.1530     7.5240     8.6310     0.0250   144.2890     2.5140
 2770.0000   -74.9500     5.7100     5.2400     7.7510     8.6320     0.0240   143.0080     2.5030
 2770.5000   -75.1480     5.8720     5.3270     7.9190     8.6340     0.0230   140.6910     2.5030
 2771.0000   -75.3350     6.0210     5.3760     8.1610     8.6350     0.0220   143.2000     2.5030
 2771.5000   -75.8940     6.1670     5.3590     8.4030     8.6370     0.0200   145.5660     2.5000
 2772.0000   -76.5350     6.0250     5.3390     8.7340     8.6390     0.0190   147.9500     2.4990
 2772.5000   -77.1790     5.8230     5.2360     8.5550     8.6400     0.0210   150.2200     2.5010
 2773.0000   -78.0870     5.5400     5.0270     8.1460     8.6420     0.0240   152.2930     2.5000
 2773.5000   -79.3610     5.2580     4.7310     7.7360     8.6430     0.0270   154.3700     2.4920
 2774.0000   -80.6300     4.9960     4.4210     7.3270     8.6450     0.0300   156.4610     2.4840
 2774.5000   -81.8900     4.5240     4.1100     6.9170     8.6460     0.0330   157.8880     2.4760
 2775.0000   -83.0570     4.0840     3.8000     6.5070     8.6480     0.0350   158.8800     2.4680
 2775.5000   -83.4500     3.6450     3.4900     5.9530     8.6470     0.0380   160.9970     2.4620
 2776.0000   -82.4760     3.3450     3.2040     5.0600     8.6460     0.0410   163.7860     2.4530
 2776.5000   -81.1720     3.1320     2.9110     4.0580     8.6450     0.0420   166.5660     2.4370
 2777.0000   -79.8540     3.2310     2.8320     3.7450     8.6440     0.0410   167.7430     2.4210
 2777.5000   -78.5390     3.3700     3.0420     3.4180     8.6440     0.0360   161.3520     2.4060
 2778.0000   -77.2480     3.6150     3.4330     3.0750     8.6430     0.0210   152.2420     2.3960
 2778.5000   -75.7600     3.8700     3.5950     7.1110     8.6420    -0.0030   143.4080     2.4070
 2779.0000   -74.2850     4.1240     3.7620     7.4650     8.6410    -0.0040   136.8410     2.4430
 2779.5000   -73.4650     4.4550     4.1510     7.3390     8.6400     0.0030   134.8770     2.4780
 2780.0000   -72.8550     4.8990     4.4630     7.4870     8.6390     0.0030   137.1110     2.4730
 2780.5000   -72.8970     5.3430     4.7760     7.8430     8.6390     0.0000   136.1250     2.4660
 2781.0000   -72.9540     5.7320     5.0440     8.0880     8.6380    -0.0030   134.1740     2.4690
 2781.5000   -73.0090     5.6900     5.3270     8.1910     8.6370    -0.0030   135.9030     2.4730
 2782.0000   -73.0640     5.5970     5.3070     8.2670     8.6360     0.0000   138.0920     2.4700
 2782.5000   -73.1180     5.5050     5.2770     7.8920     8.6350     0.0030   140.3320     2.4760
 2783.0000   -73.1720     5.4460     5.2470     7.5960     8.6350     0.0070   141.7640     2.4810
 2783.5000   -73.2270     5.4020     5.2170     7.2720     8.6340     0.0100   142.6800     2.4860
 2784.0000   -73.2810     5.3590     5.1870     7.1540     8.6330     0.0100   142.3150     2.4920
 2784.5000   -73.3350     5.3160     5.1570     7.0220     8.6320     0.0080   141.9600     2.4910
 2785.0000   -73.3890     5.2780     5.1270     6.8840     8.6310     0.0060   142.5340     2.4870
 2785.5000   -73.4330     5.2780     5.0970     7.0810     8.6310     0.0040   144.7840     2.4870
 2786.0000   -73.4310     5.2780     5.0670     7.2900     8.6300     0.0030   147.2110     2.4870
 2786.5000   -73.4320     5.2580     5.0190     7.5000     8.6290     0.0030   149.6630     2.4870
 2787.0000   -73.4310     5.1370     4.8880     7.7540     8.6280     0.0030   152.1130     2.4820
 2787.5000   -73.3210     4.9220     4.6590     7.5100     8.6250     0.0030   154.5200     2.4770
 2788.0000   -73.1970     4.6420     4.4030     7.2060     8.6210     0.0020   155.9750     2.4710
 2788.5000   -73.0720     4.3620     4.1470     6.6970     8.6170     0.0000   157.2360     2.4670
 2789.0000   -72.9480     4.0820     3.8910     5.9090     8.6130     0.0000   158.6330     2.4640
 2789.5000   -72.8230     3.8020     3.6360     5.1150     8.6090     0.0030   160.0440     2.4640
 2790.0000   -72.6980     3.5750     3.4750     4.0480     8.6050     0.0050   161.4140     2.4710
 2790.5000   -72.6790     3.5050     3.4330     4.1490     8.6010     0.0080   157.2720     2.4770
 2791.0000   -72.7300     3.5980     3.5020    11.7060     8.5970     0.0100   152.2290     2.4840
 2791.5000   -72.7830     3.7150     3.5610     9.3270     8.5930     0.0130   146.9700     2.4900
 2792.0000   -72.8390     3.9990     3.8020     4.9960     8.5890     0.0150   145.6740     2.4900
 2792.5000   -72.7430     4.3010     4.0220     6.4920     8.5850     0.0140   145.8210     2.4840
 2793.0000   -72.6280     4.6040     4.2420     7.1610     8.5810     0.0130   143.8580     2.4790
 2793.5000   -72.5100     4.9060     4.4620     7.4750     8.5770     0.0120   141.5650     2.4830
 2794.0000   -72.4770     5.1580     4.6750     7.4750     8.5730     0.0110   139.2670     2.4860
 2794.5000   -72.5260     5.3760     4.8850     7.4070     8.5690     0.0100   137.3090     2.4840
 2795.0000   -72.5750     5.6820     5.0950     7.8520     8.5730     0.0090   136.3420     2.4830
 2795.5000   -72.6240     6.0000     5.2780     8.0430     8.5760     0.0080   135.5470     2.4810
 2796.0000   -72.5380     6.1000     5.4410     8.1740     8.5800     0.0070   135.2930     2.4850
 2796.5000   -72.3500     6.2010     5.6040     8.4970     8.5840     0.0080   135.0310     2.4900
 2797.0000   -72.1620     6.3020     5.7670     8.1540     8.5870     0.0080   134.7680     2.4960
 2797.5000   -71.9750     6.4680     5.9050     7.8970     8.5910     0.0090   134.5070     2.4950
 2798.0000   -71.9470     6.6710     5.9640     8.1320     8.5940     0.0080   134.2290     2.4920
 2798.5000   -72.1440     6.8670     6.0220     8.3210     8.5980     0.0060   133.5920     2.4900
 2799.0000   -72.0020     7.0420     6.1110     8.4970     8.6020     0.0060   131.8100     2.4980
 2799.5000   -71.4630     7.2720     6.0780     8.8160     8.6050     0.0100   130.0730     2.5130
