~VERSION INFORMATION
 VERS.                2.0:   CWLS LOG ASCII STANDARD - VERSION 2.0
 WRAP.                 NO:   ONE LINE PER DEPTH STEP
~WELL INFORMATION
#MNEM.UNIT      DATA TYPE    INFORMATION
#----------   ------------   ------------------------------
 STRT.F          200.0000:   START DEPTH
 STOP.F         3058.0000:   STOP DEPTH
 STEP.F            0.5000:   STEP LENGTH
 NULL.          -999.2500:   NO VALUE
 COMP.    FENIX & SCISSON:   COMPANY
 WELL. FENIX & SCISSON "A" #45-34:   WELL
 FLD .              N P R:   FIELD
 LOC .      S34 T39N R78W:   LOCATION
 CNTY.            NATRONA:   COUNTY
 STAT.            WYOMING:   STATE
 CTRY. UNITED STATES OF AMERICA:   COUNTRY
 SRVC.              WELEX:   SERVICE COMPANY
 DATE.        11-MAY-1977:   LOGDATE
 API .     49025103760000:   API NUMBER
~CURVE INFORMATION
#MNEM.UNIT       API CODE    CURVE DESCRIPTION
#----------   ------------   ------------------------------
 DEPT.F                  :   
 GRD .GAPI   45 310 01 00:   GAMMA RAY FROM DENSITY LOG
 CALD.IN     45 280 60 00:   CALIPER FROM DENSITY LOG
 RHOB.G/C3   45 350 01 00:   BULK DENSITY
 CORR.G/C3   45 356 01 00:   DENSITY CORRECTION
 SPR .MV     07 010 01 00:   SPONTANEOUS POTENTIAL
 ILD .OHMM   07 120 46 00:   DEEP INDUCTION RESISTIVITY
 ILM .OHMM   07 120 44 00:   INDUCTION LOG MEDIUM RESISTIVITY
 GURD.OHMM   07 220 05 00:   GUARD LOG RESISTIVITY
~PARAMETER INFORMATION
#MNEM.UNIT          VALUE    DESCRIPTION
#----------   ------------   ------------------------------
 EKB .F         5123.0000:   Kelly bushing
 EGL .F         5113.0000:   Ground level
 EDF .F            0.0000:   Drilling floor
 EPD .F            0.0000:   Permanent datum
 TD  .F         3060.0000:   Total depth
 DATE.        11-MAY-1977:   Date logged
 CLNT.            A2DTECH:   Client Code
 SL  . 2310' FSL & 2310' FWL:   Surface Location
 PD  .                 GL:   Permanent Datum
 DD  .F              3060:   Depth driller
 DL  .F              3060:   Depth logger
 BLI .F              3058:   Bottom log interval
 CS1 .IN            8.625:   Casing size
 CBD1.      8.625" @ 205':   Casing driller 1
 CBL1.F               214:   Casing logger 1
 BS1 .IN            7.875:   Bit size
 DFT .            KCL/MUD:   Type fluid in hole
 DFD .                8.8:   Density
 DFV .                 45:   Viscosity
 MSS .           FLOWLINE:   Source of sample
 RMS .OHMM            3.2:   Rm
 MST .F                85:   Rm Meas. temp.
 RMF .OHMM            2.7:   Rmf
 MFST.F                85:   Rmf Meas. temp.
 RMC .OHMM            3.6:   Rmc
 MCST.F                85:   Rmc Meas. temp.
 MFSS.               CALC:   Source Rmf.
 RMB .OHMM           2.44:   Rm. at BHT
 BHT .F               112:   BHT.
 TCS .HRS             2.5:   Time Circ. stopped
 MRT .F               112:   Maximum recorded temp.
 LUN .               8611:   Logging unit number
 LUL .           GILLETTE:   Logging unit location
 ENGI.            C. DOAK:   Recorded By
 WITN.      B. HARRINGTON:   Witnessed by
 ORIG.           5" PRINT:   Origin of data
 UWI .     49025103760000:   Unique Well ID
 DICO. A2D TECHNOLOGIES, INC.:   Digitizing Company
 DAPD.F                10:   Feet Above Permanent Datum
 BSD1.F              3060:   Depth drilled with bit1
 MCSS.               CALC:   Source Rmc.
 TLI .F               200:   Top log interval
~OTHER INFORMATION
~A   DEPT       GRD      CALD         RHOB      CORR       SPR        ILD        ILM       GURD   
# ...
 2832.5000   137.9550     8.6230     2.4790     0.0170   -34.3140     4.6700     4.9460     6.8160
 2833.0000   137.4410     8.6310     2.4820     0.0210   -34.3140     4.6800     4.9460     6.8380
 2833.5000   136.9330     8.6390     2.4860     0.0250   -34.3140     4.6150     4.9450     6.8580
 2834.0000   136.3140     8.6470     2.4810     0.0320   -34.3140     4.5540     4.9470     6.8860
 2834.5000   136.6880     8.6540     2.4710     0.0410   -34.3140     4.4930     4.9450     6.8300
 2835.0000   138.5250     8.6620     2.4750     0.0490   -34.3140     4.4320     4.9500     6.7440
 2835.5000   140.1990     8.6700     2.4800     0.0580   -34.3140     4.3710     4.8570     6.6580
 2836.0000   141.4840     8.6780     2.4850     0.0670   -34.3140     4.3100     4.7720     6.5720
 2836.5000   140.8810     8.6860     2.4810     0.0750   -34.3140     4.2490     4.6870     6.4860
 2837.0000   140.2860     8.6940     2.4670     0.0800   -34.3140     4.1880     4.6020     6.4000
 2837.5000   140.4100     8.7010     2.4530     0.0820   -34.3140     4.1270     4.5170     6.3140
 2838.0000   141.6670     8.7070     2.4400     0.0780   -34.3140     4.0650     4.4320     6.2280
 2838.5000   142.8230     8.7080     2.4220     0.0670   -34.3140     4.0280     4.3470     6.1420
 2839.0000   143.9980     8.6990     2.4260     0.0560   -34.3140     4.0070     4.2620     6.0540
 2839.5000   145.1600     8.6830     2.4400     0.0510   -34.3140     3.9850     4.1920     6.0320
 2840.0000   146.4230     8.6680     2.4510     0.0610   -34.3140     3.9640     4.2460     6.0090
 2840.5000   146.8460     8.6530     2.4670     0.0710   -34.3140     3.9430     4.2930     5.9870
 2841.0000   144.9620     8.6360     2.4620     0.0820   -34.3140     3.9210     4.3390     5.9640
 2841.5000   142.5430     8.6350     2.4490     0.0860   -34.3140     3.9000     4.3860     5.9440
 2842.0000   140.2690     8.6540     2.4390     0.0790   -34.3140     3.9490     4.4330     5.9750
 2842.5000   137.8950     8.6720     2.4250     0.0610   -34.3140     4.0240     4.4790     6.0180
 2843.0000   135.9800     8.6890     2.4380     0.0530   -34.3140     4.0980     4.5260     6.0600
 2843.5000   134.3020     8.7060     2.4710     0.0510   -34.3140     4.1730     4.5720     6.1030
 2844.0000   133.2980     8.6930     2.4950     0.0470   -34.3140     4.2470     4.6190     6.1670
 2844.5000   132.5450     8.6800     2.5090     0.0520   -34.3140     4.3220     4.6660     6.0540
 2845.0000   131.8130     8.6650     2.5210     0.0550   -34.3140     4.3960     4.7120     6.3210
 2845.5000   131.0860     8.6510     2.5330     0.0540   -34.3140     4.4710     4.7590     6.5660
 2846.0000   130.3360     8.6370     2.5320     0.0530   -34.3140     4.5450     4.8050     6.8110
 2846.5000   129.6040     8.6230     2.5290     0.0520   -34.3140     4.6200     4.8520     7.0550
 2847.0000   129.0710     8.6090     2.5270     0.0510   -34.3140     4.6940     4.8990     7.3000
 2847.5000   129.5090     8.5950     2.5370     0.0530   -34.3140     4.7690     4.9450     7.5450
 2848.0000   129.8690     8.5800     2.5440     0.0540   -34.3140     4.8430     4.9920     7.9770
 2848.5000   130.2780     8.5670     2.5360     0.0500   -34.3140     4.9460     5.0380     7.8200
 2849.0000   130.6640     8.5510     2.5140     0.0370   -34.3140     4.9300     5.0850     7.4520
 2849.5000   131.0550     8.5500     2.4930     0.0240   -34.3140     4.9050     5.1310     7.0840
 2850.0000   131.4490     8.5570     2.4700     0.0180   -34.3140     4.8800     5.1060     6.7160
 2850.5000   131.8380     8.5650     2.4580     0.0160   -34.3140     4.8550     5.0820     6.3490
 2851.0000   132.2300     8.5720     2.4680     0.0190   -34.3140     4.8300     5.0570     6.0540
 2851.5000   132.6290     8.5800     2.4780     0.0210   -34.3140     4.8050     5.0330     5.9450
 2852.0000   132.9370     8.5870     2.4880     0.0240   -34.3140     4.7800     5.0080     5.8360
 2852.5000   133.2150     8.5950     2.4920     0.0260   -34.3140     4.7550     4.9840     5.9820
 2853.0000   133.5640     8.6020     2.4860     0.0270   -34.3130     4.7300     4.9590     6.1640
 2853.5000   133.9450     8.6100     2.4810     0.0290   -34.3020     4.7050     4.9340     6.3460
 2854.0000   134.2830     8.6170     2.4750     0.0310   -34.2930     4.6800     4.9100     6.5280
 2854.5000   134.4440     8.6250     2.4720     0.0330   -34.2830     4.6550     4.8850     6.6500
 2855.0000   132.5980     8.6290     2.4790     0.0340   -34.2730     4.6300     4.8610     6.6810
 2855.5000   130.6870     8.6270     2.4850     0.0410   -34.2630     4.5950     4.8360     6.7120
 2856.0000   128.7710     8.6250     2.4890     0.0500   -34.2540     4.6000     4.8120     6.7430
 2856.5000   126.5930     8.6230     2.4760     0.0550   -34.2440     4.6090     4.7870     6.7740
 2857.0000   126.9600     8.6210     2.4650     0.0490   -34.2340     4.6170     4.7670     6.8050
 2857.5000   129.4530     8.6180     2.4520     0.0430   -34.2240     4.6260     4.7920     6.8360
 2858.0000   131.2820     8.6160     2.4390     0.0360   -34.2150     4.6350     4.8120     6.8860
 2858.5000   130.7430     8.6140     2.4320     0.0290   -34.2050     4.6440     4.8320     6.8650
 2859.0000   130.3990     8.6120     2.4400     0.0320   -34.1950     4.6530     4.8530     6.8130
 2859.5000   129.9140     8.6100     2.4500     0.0420   -34.1860     4.6620     4.8730     6.7620
 2860.0000   131.8480     8.6080     2.4410     0.0520   -34.1760     4.6690     4.8930     6.7100
 2860.5000   134.0060     8.6060     2.4220     0.0620   -34.1660     4.6800     4.9130     6.6580
 2861.0000   136.2480     8.6040     2.4030     0.0720   -34.1560     4.5650     4.9340     6.6010
 2861.5000   138.4140     8.6020     2.3850     0.0820   -34.1470     4.3730     4.9460     6.5410
 2862.0000   140.6090     8.6000     2.3670     0.0930   -34.1370     4.1810     4.7560     6.3430
 2862.5000   142.8720     8.5980     2.3440     0.1000   -34.1270     3.9890     4.5650     6.0540
 2863.0000   144.6140     8.5950     2.2910     0.1030   -34.1180     3.7970     4.3750     5.6250
 2863.5000   146.2670     8.5930     2.2390     0.1020   -34.1080     3.6050     4.1850     5.1960
 2864.0000   144.8650     8.5930     2.1850     0.0860   -34.0980     3.4120     3.9950     4.6800
 2864.5000   141.5890     8.5840     2.1320     0.0670   -34.0890     3.2200     3.8050     3.9020
 2865.0000   137.9540     8.6510     2.0870     0.0480   -34.0790     3.0670     3.6140     3.1240
 2865.5000   133.2300     8.8050     2.1460     0.0280   -34.0690     3.1740     3.4240     3.2660
 2866.0000   130.1020     8.9370     2.2900     0.0180   -34.0590     3.3080     3.5850     3.4450
 2866.5000   129.0410     9.0870     2.3810     0.0250   -34.0500     3.4420     3.7480     6.1670
 2867.0000   129.6780     8.9970     2.5230     0.0290   -34.0400     3.5760     3.9110     6.2250
 2867.5000   130.1280     8.8810     2.5180     0.0340   -34.0300     3.7100     4.0740     6.2830
 2868.0000   130.6140     8.7540     2.5250     0.0390   -34.0210     3.8430     4.2370     6.3420
 2868.5000   131.0920     8.6620     2.5310     0.0490   -34.0110     3.9770     4.4000     6.4000
 2869.0000   131.9210     8.6290     2.5340     0.0590   -34.0010     4.1110     4.5630     6.4580
 2869.5000   133.2150     8.6400     2.5390     0.0690   -33.9910     4.2280     4.7250     6.5160
 2870.0000   134.4640     8.6460     2.5390     0.0790   -33.9820     4.3200     4.8560     6.4230
 2870.5000   135.7330     8.6540     2.5240     0.0890   -33.9720     4.4120     4.9100     6.2680
 2871.0000   137.0010     8.6610     2.5100     0.0990   -33.9620     4.5040     4.9560     6.1130
 2871.5000   138.2340     8.6680     2.4900     0.1100   -33.9530     4.5950     5.0010     5.9570
 2872.0000   139.5690     8.6760     2.4540     0.1070   -33.9430     4.5350     5.0380     5.8020
 2872.5000   139.8020     8.6830     2.4480     0.0960   -33.9340     4.4750     4.9830     5.6470
