~VERSION INFORMATION
 VERS.                2.0:   CWLS LOG ASCII STANDARD - VERSION 2.0
 WRAP.                 NO:   ONE LINE PER DEPTH STEP
~WELL INFORMATION
#MNEM.UNIT      DATA TYPE    INFORMATION
#----------   ------------   ------------------------------
 STRT.F          196.0000:   START DEPTH
 STOP.F         3430.0000:   STOP DEPTH
 STEP.F            0.5000:   STEP LENGTH
 NULL.          -999.2500:   NO VALUE
 COMP.    FENIX $ SCISSON:   COMPANY
 WELL.   FENIX "A" #23-10:   WELL
 FLD .              N P R:   FIELD
 LOC .      S10 T38N R78W:   LOCATION
 CNTY.            NATRONA:   COUNTY
 STAT.            WYOMING:   STATE
 CTRY. UNITED STATES OF AMERICA:   COUNTRY
 SRVC.              WELEX:   SERVICE COMPANY
 DATE.        23-JUL-1977:   LOGDATE
 API .     49025103990000:   API NUMBER
~CURVE INFORMATION
#MNEM.UNIT       API CODE    CURVE DESCRIPTION
#----------   ------------   ------------------------------
 DEPT.F                  :   
 SPR .MV     07 010 01 00:   SPONTANEOUS POTENTIAL
 GURD.OHMM   07 220 05 00:   GUARD LOG RESISTIVITY
 FORX.OHMM   07 220 00 00:   FORMATION FACTOR
 NPHI.DEC    42 890 03 00:   NEUTRON POROSITY SANDSTONE
 CALD.IN     45 280 60 00:   CALIPER FROM DENSITY LOG
 CORR.G/C3   45 356 01 00:   DENSITY CORRECTION
 GRD .GAPI   45 310 01 00:   GAMMA RAY FROM DENSITY LOG
 RHOB.G/C3   45 350 01 00:   BULK DENSITY
~PARAMETER INFORMATION
#MNEM.UNIT          VALUE    DESCRIPTION
#----------   ------------   ------------------------------
 EKB .F         5251.0000:   Kelly bushing
 EGL .F         5241.0000:   Ground level
 EDF .F            0.0000:   Drilling floor
 EPD .F         5241.0000:   Permanent datum
 TD  .F         3430.0000:   Total depth
 DATE.        23-JUL-1977:   Date logged
 CLNT.            A2DTECH:   Client Code
 SL  . 1650' FNL & 990' FWL:   Surface Location
 PD  .                 GL:   Permanent Datum
 DD  .F              3430:   Depth driller
 DL  .F              3430:   Depth logger
 BLI .F              3428:   Bottom log interval
 CS1 .IN            8.625:   Casing size
 CBD1.      8.625" @ 220':   Casing driller 1
 BS1 .IN            7.875:   Bit size
 DFT .            KCL MUD:   Type fluid in hole
 DFD .                8.9:   Density
 DFV .                 33:   Viscosity
 DFPH.                  8:   pH
 DFL .                  8:   Fluid loss
 MSS .           FLOWLINE:   Source of sample
 RMS .OHMM            .49:   Rm
 MST .F                94:   Rm Meas. temp.
 RMF .OHMM            .46:   Rmf
 MFST.F                90:   Rmf Meas. temp.
 RMC .OHMM            .40:   Rmc
 MCST.F                90:   Rmc Meas. temp.
 MFSS.               FANN:   Source Rmf.
 RMB .OHMM            .15:   Rm. at BHT
 BHT .F               122:   BHT.
 TCS .HRS               6:   Time Circ. stopped
 MRT .F               122:   Maximum recorded temp.
 LUN .               8611:   Logging unit number
 LUL .             CASPER:   Logging unit location
 ENGI.            C. DOAK:   Recorded By
 WITN.      B. HARRINGTON:   Witnessed by
 ORIG.           5" PRINT:   Origin of data
 UWI .     49025103990000:   Unique Well ID
 DICO. A2D TECHNOLOGIES, INC.:   Digitizing Company
 DAPD.                 10:   Feet Above Permanent Datum
 BSD1.               3430:   Depth drilled with bit1
 MCSS.                KIT:   Source Rmc.
 TLI .                200:   Top log interval
~OTHER INFORMATION
~A   DEPT      SPR         GURD     FORX       NPHI       CALD       CORR        GRD       RHOB   
# ...
 2342.5000   -80.4690     9.1980    16.1430     0.3220     8.2130     0.0180   114.0780     2.4550
 2343.0000   -80.3620     8.2800    14.3000     0.3230     8.2250     0.0200   115.6960     2.4600
 2343.5000   -80.2510     7.4800    12.5850     0.3280     8.2380     0.0210   117.3110     2.4650
 2344.0000   -80.1410     6.6800    11.5060     0.3320     8.2500     0.0230   118.9200     2.4550
 2344.5000   -80.0300     5.8800    12.8060     0.3350     8.2630     0.0250   120.5340     2.4490
 2345.0000   -79.9240     5.2020    10.0840     0.3380     8.2750     0.0270   120.9760     2.4560
 2345.5000   -79.9210     5.0670    13.1600     0.3400     8.2880     0.0260   120.3600     2.4670
 2346.0000   -79.6870     4.8550    20.6540     0.3420     8.3000     0.0240   119.7320     2.4660
 2346.5000   -80.2490     5.7020    18.1430     0.3400     8.3130     0.0230   119.0180     2.4640
 2347.0000   -80.8760     7.8680    14.7210     0.3370     8.3260     0.0210   117.6470     2.4600
 2347.5000   -81.5120     7.8140    11.4690     0.3330     8.3250     0.0190   119.9360     2.4560
 2348.0000   -81.8700     6.5600    12.4330     0.3320     8.3230     0.0170   122.8470     2.4520
 2348.5000   -82.1210     5.4470    12.9240     0.3310     8.3200     0.0190   124.8390     2.4480
 2349.0000   -82.3700     5.5590    14.0700     0.3320     8.3180     0.0200   123.4900     2.4440
 2349.5000   -82.6490     5.7610    15.3910     0.3340     8.3150     0.0220   120.9980     2.4460
 2350.0000   -83.1790     6.0950    12.9240     0.3350     8.3120     0.0240   119.7970     2.4510
 2350.5000   -83.6780     6.1950    14.6990     0.3360     8.3100     0.0250   119.9090     2.4590
 2351.0000   -84.1710     5.7560    12.7870     0.3310     8.3070     0.0270   120.0390     2.4660
 2351.5000   -84.6600     6.2520    18.4970     0.3260     8.3070     0.0280   120.6260     2.4740
 2352.0000   -85.0070     5.9710    22.0270     0.3230     8.3070     0.0300   122.7500     2.4810
 2352.5000   -84.9860     7.4240    16.1150     0.3200     8.3070     0.0310   124.8260     2.5060
 2353.0000   -84.9680     9.6310    18.4970     0.3190     8.3070     0.0330   126.9410     2.5010
 2353.5000   -84.9500     8.8230    10.9540     0.3220     8.3070     0.0340   128.0610     2.4960
 2354.0000   -84.9320     7.4720    10.7540     0.3290     8.3070     0.0360   131.7680     2.4960
 2354.5000   -84.9130     5.3480    14.0390     0.3390     8.3070     0.0370   137.1090     2.5010
 2355.0000   -84.8950     5.2500    12.5660     0.3490     8.3070     0.0350   142.5040     2.5000
 2355.5000   -84.8760     6.0270    10.7540     0.3530     8.3070     0.0320   143.5890     2.4770
 2356.0000   -84.8580     5.4270    14.8350     0.3540     8.3070     0.0290   141.5000     2.4570
 2356.5000   -84.8400     5.0150    12.0110     0.3570     8.3070     0.0270   137.7620     2.4510
 2357.0000   -84.8210     5.6510     9.5430     0.3600     8.3070     0.0240   135.1710     2.4460
 2357.5000   -84.8030     5.2490    14.6530     0.3620     8.3070     0.0220   133.7500     2.4510
 2358.0000   -84.7840     4.7890    12.4580     0.3620     8.3070     0.0210   138.6090     2.4560
 2358.5000   -84.7660     5.7030    11.1340     0.3640     8.3070     0.0210   137.3950     2.4560
 2359.0000   -84.7480     5.3790     9.8100     0.3700     8.3070     0.0210   136.2890     2.4500
 2359.5000   -84.7290     5.0440    17.9940     0.3780     8.3070     0.0210   135.1910     2.4430
 2360.0000   -84.7110     4.6590    16.3550     0.3810     8.3070     0.0210   134.1070     2.4410
 2360.5000   -84.6920     5.9240    14.0390     0.3800     8.3070     0.0210   133.5720     2.4450
 2361.0000   -84.6740     6.9180    16.2630     0.3740     8.3070     0.0210   135.0090     2.4380
 2361.5000   -84.6560     6.5380    12.8060     0.3670     8.3070     0.0210   137.1240     2.4260
 2362.0000   -84.6370     6.2190    15.6760     0.3620     8.3070     0.0240   134.6990     2.4170
 2362.5000   -84.6190     6.0270    14.0390     0.3630     8.3070     0.0260   129.4050     2.4250
 2363.0000   -84.6080     6.3740    18.8400     0.3670     8.3070     0.0290   129.0540     2.4340
 2363.5000   -84.6080     6.7970    17.2840     0.3690     8.3070     0.0310   128.5500     2.4480
 2364.0000   -84.5980     7.4220    19.8320     0.3670     8.3070     0.0340   128.0300     2.4620
 2364.5000   -84.9070     8.1620    13.1640     0.3630     8.3070     0.0370   128.0250     2.4760
 2365.0000   -85.2690     7.8140    18.1600     0.3580     8.3070     0.0390   129.0220     2.4870
 2365.5000   -85.6360     6.6070    17.3210     0.3540     8.3070     0.0420   130.0070     2.4850
 2366.0000   -86.0020     6.7590    15.3910     0.3520     8.3070     0.0410   131.0610     2.4810
 2366.5000   -86.3670     7.1770    16.8840     0.3530     8.3080     0.0370   129.4780     2.4730
 2367.0000   -86.7340     6.9180    17.5040     0.3560     8.3230     0.0330   127.0010     2.4620
 2367.5000   -87.1000     7.0660    18.4930     0.3600     8.2670     0.0290   125.7170     2.4500
 2368.0000   -87.1700     7.4050    20.0060     0.3630     8.1980     0.0250   126.9090     2.4390
 2368.5000   -87.1930     7.7960    20.8450     0.3670     8.1310     0.0230   128.2710     2.4340
 2369.0000   -87.2140     7.6210    14.4320     0.3740     8.1300     0.0220   129.6450     2.4440
 2369.5000   -87.2350     7.2320    16.5650     0.3780     8.1310     0.0200   131.0180     2.4460
 2370.0000   -87.2560     5.8630    13.7830     0.3810     8.1330     0.0190   132.3930     2.4420
 2370.5000   -87.2780     5.8990    15.7060     0.3830     8.1350     0.0180   133.7550     2.4310
 2371.0000   -87.2990     5.9530    17.6660     0.3850     8.1360     0.0170   134.9450     2.4200
 2371.5000   -87.3200     6.3600    16.8990     0.3870     8.1380     0.0160   135.1690     2.3960
 2372.0000   -87.3420     6.9400    15.3910     0.3880     8.1390     0.0180   135.4240     2.3900
 2372.5000   -87.3630     7.2430    10.8530     0.3890     8.1410     0.0210   135.6840     2.4000
 2373.0000   -87.3850     6.2200    12.0310     0.3930     8.1420     0.0240   135.9380     2.4190
 2373.5000   -87.4060     5.6320    13.4080     0.3980     8.1440     0.0270   135.7590     2.4270
 2374.0000   -87.4270     5.3970     9.9000     0.4000     8.1450     0.0300   133.6510     2.4240
 2374.5000   -87.4490     5.1120    15.9670     0.3990     8.1470     0.0310   131.5500     2.4220
 2375.0000   -87.4700     4.9550    14.9190     0.3970     8.1480     0.0280   130.5150     2.4280
 2375.5000   -87.4920     5.9070    13.6570     0.3930     8.1490     0.0250   133.2910     2.4240
 2376.0000   -87.5130     6.7920    15.9670     0.3840     8.1490     0.0220   135.2320     2.4070
 2376.5000   -87.5350     6.9180    14.5600     0.3750     8.1490     0.0190   135.1630     2.3940
 2377.0000   -87.5470     6.7150    12.8060     0.3660     8.1490     0.0180   134.7300     2.4040
 2377.5000   -87.3370     6.2720    16.5650     0.3600     8.1500     0.0230   134.3200     2.4100
 2378.0000   -87.1060     5.9710    13.1640     0.3570     8.1500     0.0270   135.0960     2.4120
 2378.5000   -86.8740     6.6680    18.3280     0.3560     8.1500     0.0310   137.4830     2.4210
 2379.0000   -86.7670     6.6070    18.8400     0.3570     8.1510     0.0350   140.7340     2.4290
 2379.5000   -86.8020     7.2010    18.1040     0.3580     8.1510     0.0390   139.7210     2.4370
 2380.0000   -86.9290     7.6470    17.6660     0.3600     8.1510     0.0400   137.9550     2.4530
 2380.5000   -87.0530     7.9400    15.1220     0.3620     8.1510     0.0370   136.1670     2.4470
 2381.0000   -87.1570     7.2690    14.1690     0.3660     8.1520     0.0340   134.3530     2.4390
 2381.5000   -87.0980     6.5460    17.9940     0.3740     8.1520     0.0310   132.5340     2.4260
 2382.0000   -86.7020     6.8080    16.2630     0.3830     8.1520     0.0280   132.4750     2.4180
 2382.5000   -86.3140     7.0930    18.4080     0.3930     8.1530     0.0250   133.1070     2.4160
