~VERSION INFORMATION
 VERS.                2.0:   CWLS LOG ASCII STANDARD - VERSION 2.0
 WRAP.                 NO:   ONE LINE PER DEPTH STEP
~WELL INFORMATION
#MNEM.UNIT      DATA TYPE    INFORMATION
#----------   ------------   ------------------------------
 STRT.F            1.5000:   START DEPTH
 STOP.F          985.0000:   STOP DEPTH
 STEP.F            0.5000:   STEP LENGTH
 NULL.          -999.2500:   NO VALUE
 COMP.       FLUOR DANIEL:   COMPANY
 WELL.  FLUOR 41 "X" #1-2:   WELL
 FLD .          N.P.R. #3:   FIELD
 LOC .       S2 T38N R78W:   LOCATION
 CNTY.            NATRONA:   COUNTY
 STAT.            WYOMING:   STATE
 CTRY. UNITED STATES OF AMERICA:   COUNTRY
 SRVC.     ATLAS WIRELINE:   SERVICE COMPANY
 DATE.        09-AUG-1994:   LOGDATE
 API .     49025226450000:   API NUMBER
~CURVE INFORMATION
#MNEM.UNIT       API CODE    CURVE DESCRIPTION
#----------   ------------   ------------------------------
 DEPT.F                  :   
 GRR .GAPI   07 310 01 00:   GAMMA RAY FROM RESISTIVITY
 TENR.LBS    07 635 01 00:   TENSION FROM RESISTIVITY
 RILD.OHMM   07 120 46 00:   INDUCTION LOG DEEP RESISTIVITY
 RILM.OHMM   07 120 44 00:   INDUCTION LOG MEDIUM RESISTIVITY
~PARAMETER INFORMATION
#MNEM.UNIT          VALUE    DESCRIPTION
#----------   ------------   ------------------------------
 EKB .F         5143.0000:   Kelly bushing
 EGL .F         5133.0000:   Ground level
 EDF .F         5142.0000:   Drilling floor
 TD  .F          970.0000:   Total depth
 CLNT.            A2DTECH:   Client Code
 PD  .                 GL:   Permanent Datum
 EPD .F              5133:   Elevation Permanent Datum
 LMF .                 KB:   Log Measured From
 DMF .                 KB:   Drilling Measured From
 DAPD.F                10:   Feet Above Permanent Datum
 DATE.        09-AUG-1994:   Date Logged [DD-MMM-YYYY]
 DD  .F               970:   Depth driller
 DL  .F               970:   Depth logger
 BLI .F               962:   Bottom log interval
 TLI .F                 0:   Top log interval
 CS1 .IN            9.625:   Casing size
 CBD1.       9.625" @ 56':   Casing driller 1
 CBL1.F                59:   Casing logger 1
 BS1 .IN             8.75:   Bit size
 BSD1.F               970:   Depth drilled with bit1
 DFT .                AIR:   Type fluid in hole
 MRT .F                94:   Maximum recorded temp.
 LUN .            HL 6530:   Logging unit number
 LUL .             CASPER:   Logging unit location
 ENGI.      PAT RASMUSSEN:   Recorded By
 WITN.        GARY STRONG:   Witnessed by
 ORIG.           5" PRINT:   Origin of data
 UWI .     49025226450000:   Unique Well ID
 DICO. A2D TECHNOLOGIES, INC.:   Digitizing Company
 SL  . 173' FNL & 2204' FWL:   Surface Location
~OTHER INFORMATION
~A    DEPT      GRR      TENR       RILD       RILM   
# ...
  147.5000    95.2046   -33.1106     8.9228     9.5912
  148.0000    86.8213   -32.8187     9.0457     9.2614
  148.5000    90.1538   -32.5267     8.9811     9.0676
  149.0000    98.9491   -32.2289     8.8550     8.9342
  149.5000   112.2968   -31.8698     8.6099     8.5739
  150.0000   117.4502   -24.0964     8.1984     8.2548
  150.5000   115.3167   -23.7806     7.9707     7.9382
  151.0000   113.7905   -23.4891     7.7496     7.8267
  151.5000   115.3870   -23.1928     7.6937     7.7167
  152.0000   118.3253   -22.8333     7.5852     7.5551
  152.5000   116.7968   -22.5418     7.5305     7.5011
  153.0000   116.4845   -14.7202     7.5284     7.4996
  153.5000   120.1176    -6.8986     7.5260     7.4981
  154.0000   122.5368    -6.6071     7.5239     7.4966
  154.5000   123.1350    -6.3156     7.4697     7.4951
  155.0000   124.9772    -6.0241     7.4677     7.4935
  155.5000   127.0606   -14.2570     7.4656     7.5445
  156.0000   126.4448   -20.5014     7.4636     7.5954
  156.5000   126.4360   -20.1370     7.4673     7.5938
  157.0000   128.2481   -27.4485     7.5118     7.5923
  157.5000   130.0625   -34.6871     7.5092     7.5908
  158.0000   124.8922   -26.7927     7.5072     7.5892
  158.5000   123.3343   -11.4409     7.5052     7.5876
  159.0000   130.6387     3.9157     7.4511     7.5331
  159.5000   133.3613     4.2752     7.3974     7.4273
  160.0000   133.9617    -3.0363     7.2930     7.3742
  160.5000   132.7368   -17.7322     7.1897     7.2706
  161.0000   129.6931   -17.4407     7.1378     7.2186
  161.5000   125.1319   -24.7522     7.0372     7.1172
  162.0000   122.9337   -24.3879     6.9864     7.0660
  162.5000   116.9179   -31.6265     6.9846     7.0155
  163.0000   117.2126   -31.3253     6.9342     7.0141
  163.5000   117.5095   -23.4405     6.9323     7.0126
  164.0000   116.2846   -15.6189     6.9789     7.0606
  164.5000   115.0618   -15.3274     7.0258     7.1083
  165.0000   116.8740   -15.0359     7.1718     7.2066
  165.5000   120.0000   -22.3475     7.1699     7.2048
  166.0000   123.2297   -21.9831     7.1679     7.1533
  166.5000   122.0047   -29.2217     7.1162     7.1518
  167.0000   119.8715   -28.8574     7.1143     7.1007
  167.5000   119.5592   -28.5659     7.0630     7.0993
  168.0000   122.2819   -28.2744     7.0607     7.1475
  168.5000   121.9696   -20.4528     7.1578     7.2007
  169.0000   115.0775   -12.6312     7.2059     7.3467
  169.5000   109.5067     2.7206     7.2548     7.3962
  170.0000   111.6224     3.0120     7.3546     7.3947
  170.5000   116.7729   -11.7567     7.3521     7.4454
  171.0000   117.9803   -18.9953     7.3483     7.4435
  171.5000   117.6658   -26.2340     7.2460     7.3903
  172.0000   117.6570   -25.8696     7.2441     7.3887
  172.5000   118.0223   -25.5781     7.2421     7.3869
  173.0000   122.4931   -17.7565     7.2402     7.3341
  173.5000   126.4296   -17.4650     7.2382     7.3326
  174.0000   126.7265    -9.6386     7.2363     7.3311
  174.5000   127.3225    -9.2791     7.2343     7.3297
  175.0000   128.8312    -8.9876     7.2323     7.3795
  175.5000   131.5538    -8.6961     7.2810     7.5339
  176.0000   130.8649   -16.0076     7.5365     7.6912
  176.5000   122.4293   -15.6432     7.8561     7.9072
  177.0000   118.4752   -15.3517     7.9647     8.0170
  177.5000   117.5559    -7.5301     8.0178     8.1844
  178.0000   121.7960    -7.2289     8.0716     8.2400
  178.5000   126.0361    -6.8743     8.1827     8.2959
  179.0000   126.0273   -14.1129     8.1799     8.2938
  179.5000   121.0543   -13.8214     8.2354     8.2922
  180.0000   114.7784   -21.1329     8.2327     8.3489
  180.5000   113.8591   -20.7686     8.2304     8.3468
  181.0000   115.6712   -20.4771     8.2282     8.2872
  181.5000   117.7869   -12.1482     8.1689     8.2279
  182.0000   120.2060    -4.7610     7.9977     8.1661
  182.5000   123.8391    -4.4695     7.9951     7.9980
  183.0000   126.8652   -11.7810     7.9374     7.9408
  183.5000   124.7298   -11.4166     7.8802     7.9392
  184.0000   124.1140   -18.6553     7.7691     7.8277
  184.5000   125.9262   -18.3638     7.7130     7.7717
  185.0000   128.0440   -25.6024     7.5515     7.7162
  185.5000   128.0331   -26.3052     7.4970     7.6078
  186.0000   127.7208   -32.5496     7.4425     7.5006
  186.5000   127.3687   -39.7153     7.3888     7.3952
  187.0000   125.8800   -31.8937     7.2846     7.2913
  187.5000   124.3538   -31.6022     7.1819     7.1889
  188.0000   121.6136   -31.3107     6.9826     7.0879
  188.5000   120.6943   -31.0192     6.9807     6.8916
  189.0000   119.7751   -30.7229     6.9304     6.8423
  189.5000   119.1593   -15.3032     6.9285     6.7931
  190.0000   119.4540    -7.4815     6.9201     6.8396
  190.5000   121.8709    -7.1901     6.8285     6.8860
  191.0000   123.0783    -6.8986     6.7793     6.8843
  191.5000   120.6394    -6.6071     6.7304     6.7876
  192.0000   120.6306    -6.3156     6.5894     6.6922
  192.5000   123.0497   -13.5542     6.4965     6.5008
  193.0000   126.9863   -14.2570     6.3124     6.2824
  193.5000   128.7985   -28.0315     5.9718     6.1083
  194.0000   123.9316   -27.6671     5.7658     5.8979
  194.5000   115.7286   -27.3756     5.6058     5.7345
  195.0000   114.8094   -27.0841     5.4884     5.6147
  195.5000   114.4971   -26.7927     5.4869     5.5353
  196.0000   109.9360   -26.5012     5.4474     5.4962
  196.5000   107.4992   -26.2048     5.4840     5.5336
  197.0000   107.9211   -25.8453     5.5204     5.5712
  197.5000   115.6737   -18.0237     5.6355     5.6875
  198.0000   120.8242   -10.2021     5.7530     5.7662
  198.5000   121.7259    -9.9106     5.8322     5.8869
  199.0000   124.7520   -17.2221     5.8717     6.0101
  199.5000   125.9575   -16.8578     5.9109     6.0509
  200.0000   125.0379   -16.5663     5.9092     6.0074
  200.5000   120.8126   -31.3887     5.9911     6.0217
  201.0000   119.8601   -38.7048     5.9896     6.0387
  201.5000   119.8513   -53.5401     5.9884     6.0436
  202.0000   117.1108   -53.3133     5.9816     5.9574
  202.5000   117.4034   -53.0462     5.8618     5.8321
  203.0000   119.5189   -52.8267     5.7795     5.7896
  203.5000   119.8158   -52.6072     5.6588     5.7423
  204.0000   120.7152   -37.3274     5.5794     5.6261
  204.5000   124.3482   -37.1079     5.4250     5.5078
  205.0000   125.8590   -36.8884     5.3488     5.4297
  205.5000   125.5444   -36.6689     5.3106     5.3901
  206.0000   124.0181   -36.4458     5.3095     5.3883
  206.5000   120.6545   -28.6449     5.3456     5.3865
  207.0000   118.7435   -20.8953     5.3500     5.4603
  207.5000   113.6706   -28.2608     5.4184     5.5350
  208.0000   110.6268   -35.5166     5.4930     5.6109
  208.5000   110.0132   -50.3573     5.6079     5.6482
  209.0000   110.6091   -57.6679     5.6462     5.6858
  209.5000   112.4212   -49.9183     5.6448     5.7236
  210.0000   113.6285   -49.6988     5.6831     5.7617
  210.5000   112.0999   -49.4729     5.6819     5.7593
  211.0000   110.8730   -41.6748     5.6019     5.6776
  211.5000   110.5645   -41.4553     5.6008     5.6362
  212.0000   111.4641   -41.2358     5.6391     5.6738
  212.5000   114.7937   -41.0163     5.7567     5.7515
  213.0000   119.3372   -40.7968     5.7961     5.8298
  213.5000   121.4549   -40.5773     5.8762     5.9101
  214.0000   120.8369   -40.3578     5.9158     5.9495
  214.5000   116.5791   -40.1355     5.8735     5.9056
  215.0000   112.9284   -32.3795     5.8723     5.9036
  215.5000   111.7056   -32.1143     5.9119     5.9016
  216.0000   112.0728   -31.8948     5.9107     5.9409
  216.5000   116.5414   -31.6753     5.9095     5.9388
  217.0000   117.4453   -31.4558     5.9499     5.9364
  217.5000   115.6132   -38.8213     5.9903     6.0177
  218.0000   112.2660   -46.0843     6.0728     6.1006
  218.5000   111.6501   -45.8575     6.0715     6.0557
  219.0000   111.0343   -53.1681     5.9821     5.9698
  219.5000   110.7219   -45.3636     5.6999     5.7233
  220.0000   111.6235   -45.1441     5.5809     5.6029
