~VERSION INFORMATION
 VERS.                2.0:   CWLS LOG ASCII STANDARD - VERSION 2.0
 WRAP.                 NO:   ONE LINE PER DEPTH STEP
~WELL INFORMATION
#MNEM.UNIT      DATA TYPE    INFORMATION
#----------   ------------   ------------------------------
 STRT.F          204.0000:   START DEPTH
 STOP.F         3104.0000:   STOP DEPTH
 STEP.F            0.5000:   STEP LENGTH
 NULL.          -999.2500:   NO VALUE
 COMP.    FENIX & SCISSON:   COMPANY
 WELL. FENIX NPR 83 "AX" #3-10:   WELL
 FLD .                NPR:   FIELD
 LOC .      S10 T38N R78W:   LOCATION
 CNTY.            NATRONA:   COUNTY
 STAT.            WYOMING:   STATE
 CTRY. UNITED STATES OF AMERICA:   COUNTRY
 SRVC.              WELEX:   SERVICE COMPANY
 DATE.        14-JUL-1977:   LOGDATE
 API .     49025103980000:   API NUMBER
~CURVE INFORMATION
#MNEM.UNIT       API CODE    CURVE DESCRIPTION
#----------   ------------   ------------------------------
 DEPT.F                  :   
 ILD .OHMM   07 120 46 00:   DEEP INDUCTION RESISTIVITY
 GURD.OHMM   07 220 05 00:   GUARD LOG RESISTIVITY
 ILM .OHMM   07 120 44 00:   INDUCTION LOG MEDIUM RESISTIVITY
 SPR .MV     07 010 01 00:   SPONTANEOUS POTENTIAL
 CALD.IN     45 280 60 00:   CALIPER FROM DENSITY LOG
 GRD .GAPI   45 310 01 00:   GAMMA RAY FROM DENSITY LOG
 RHOB.G/C3   45 350 01 00:   BULK DENSITY
 CORR.G/C3   45 356 01 00:   DENSITY CORRECTION
 NPHI.DEC    42 890 03 00:   NEUTRON POROSITY SANDSTONE
~PARAMETER INFORMATION
#MNEM.UNIT          VALUE    DESCRIPTION
#----------   ------------   ------------------------------
 EKB .F         5176.0000:   Kelly bushing
 EGL .F         5166.0000:   Ground level
 TD  .F         3105.0000:   Total depth
 DATE.        14-JUL-1977:   Date logged
 CLNT.            A2DTECH:   Client Code
 SL  . 1650' FNL & 100' FEL:   Surface Location
 PD  .                 GL:   Permanent Datum
 DD  .F              3094:   Depth driller
 DL  .F              3105:   Depth logger
 BLI .F              3103:   Bottom log interval
 CS1 .IN            8.625:   Casing size
 CBD1.      8.625" @ 218':   Casing driller 1
 CBL1.F               220:   Casing logger 1
 BS1 .IN            7.875:   Bit size
 DFT .            KCL/GEL:   Type fluid in hole
 DFD .                9.4:   Density
 DFV .                 36:   Viscosity
 DFPH.                  8:   pH
 DFL .                 12:   Fluid loss
 MSS .           FLOWLINE:   Source of sample
 RMS .OHMM           1.54:   Rm
 MST .F               100:   Rm Meas. temp.
 RMF .OHMM            1.5:   Rmf
 MFST.F               100:   Rmf Meas. temp.
 RMC .OHMM           3.47:   Rmc
 MCST.F               100:   Rmc Meas. temp.
 MFSS.               FANN:   Source Rmf.
 RMB .OHMM           1.36:   Rm. at BHT
 BHT .F               113:   BHT.
 TCS .HRS             2.5:   Time Circ. stopped
 MRT .F               113:   Maximum recorded temp.
 LUN .               8766:   Logging unit number
 LUL .             CASPER:   Logging unit location
 ENGI. G. BENTSEN/T. JOYNER:   Recorded By
 WITN.      B. HARRINGTON:   Witnessed by
 ORIG.           5" PRINT:   Origin of data
 UWI .     49025103980000:   Unique Well ID
 DICO. A2D TECHNOLOGIES, INC.:   Digitizing Company
 DAPD.F                10:   Feet Above Permanent Datum
 BSD1.F              3094:   Depth drilled with bit1
 MCSS.                KIT:   Source Rmc.
 TLI .F               210:   Top log interval
 EPD .F              5166:   Elevation Permanent Datum
 LMF .                 KB:   Log Measured From
 DMF .                 KB:   Drilling Measured From
~OTHER INFORMATION
~A   DEPT      ILD       GURD        ILM        SPR       CALD        GRD       RHOB       CORR       NPHI   
# ...
  970.5000     6.5790     8.0280     7.1220   -61.8000    10.4520   104.1660     2.5090     0.0350     0.3580
  971.0000     6.5960     7.9820     7.1860   -61.7890    10.4490   104.1140     2.5020     0.0320     0.3560
  971.5000     6.6140     7.9400     7.2490   -61.7770    10.4450   104.5670     2.4940     0.0300     0.3540
  972.0000     6.6310     7.9740     7.3070   -61.7650    10.4420   105.3980     2.4860     0.0270     0.3500
  972.5000     6.6480     8.0110     7.2870   -61.7530    10.4380   106.2310     2.4790     0.0280     0.3460
  973.0000     6.6660     8.0480     7.2650   -61.7410    10.4350   107.0650     2.4810     0.0300     0.3440
  973.5000     6.6830     8.0850     7.2440   -61.7290    10.4310   107.8990     2.4850     0.0330     0.3450
  974.0000     6.7010     8.1220     7.2220   -61.7180    10.4280   108.7320     2.4850     0.0280     0.3420
  974.5000     6.7180     8.1630     7.2000   -61.7060    10.4240   109.5650     2.4780     0.0290     0.3410
  975.0000     6.7360     8.1450     7.1780   -61.6940    10.4210   110.0160     2.4810     0.0300     0.3400
  975.5000     6.7530     8.1250     7.1570   -61.6820    10.4170   109.2930     2.4840     0.0310     0.3390
  976.0000     6.7700     8.1050     7.1350   -61.6700    10.4130   108.3070     2.4850     0.0300     0.3370
  976.5000     6.7860     8.0860     7.1130   -61.6580    10.4100   107.3120     2.4830     0.0280     0.3370
  977.0000     6.7580     8.0660     7.0920   -61.6470    10.4060   106.3290     2.4810     0.0260     0.3380
  977.5000     6.7320     8.0460     7.0700   -61.6350    10.4030   105.3280     2.4790     0.0240     0.3400
  978.0000     6.7060     8.0260     7.0420   -61.6230    10.3990   107.0760     2.4770     0.0220     0.3430
  978.5000     6.6800     8.0060     7.0560   -61.6110    10.3960   110.0120     2.4760     0.0190     0.3460
  979.0000     6.6550     7.9860     7.0840   -61.5990    10.3920   108.4900     2.4780     0.0190     0.3490
  979.5000     6.6290     7.9660     7.1130   -61.5870    10.3890   107.0350     2.4850     0.0190     0.3510
  980.0000     6.6030     7.9400     7.1410   -61.5760    10.3850   106.6110     2.4910     0.0230     0.3540
  980.5000     6.5770     7.9560     7.1730   -61.5640    10.3830   108.1850     2.4910     0.0260     0.3570
  981.0000     6.5520     7.9790     7.1520   -61.5520    10.4160   109.7010     2.4860     0.0290     0.3600
  981.5000     6.5260     8.0140     7.1300   -61.5400    10.4490   110.8150     2.4850     0.0310     0.3630
  982.0000     6.5000     7.8740     7.1070   -61.5280    10.4810   110.2300     2.4900     0.0330     0.3640
  982.5000     6.4740     7.5120     7.0840   -61.5160    10.5150   109.4780     2.4950     0.0350     0.3650
  983.0000     6.4490     7.6580     7.0610   -61.5050    10.5050   109.2460     2.5000     0.0360     0.3640
  983.5000     6.4200     7.8670     7.0380   -61.4930    10.5080   109.8660     2.5040     0.0370     0.3640
  984.0000     6.4100     8.0140     7.0160   -61.5390    10.5340   110.4880     2.5050     0.0380     0.3630
  984.5000     6.4000     7.9110     6.9930   -61.6930    10.5610   111.1060     2.5040     0.0390     0.3610
  985.0000     6.3890     7.8310     6.9700   -61.8470    10.5870   111.7240     2.5030     0.0380     0.3580
  985.5000     6.3780     7.7520     6.9470   -61.8840    10.6140   112.3390     2.5020     0.0380     0.3550
  986.0000     6.3670     7.6730     6.9240   -61.8900    10.6400   112.7300     2.5010     0.0370     0.3540
  986.5000     6.3560     7.5940     6.9020   -61.8950    10.6670   111.5670     2.4940     0.0350     0.3530
  987.0000     6.3460     7.5140     6.8790   -61.9000    10.6760   110.3280     2.4870     0.0320     0.3520
  987.5000     6.3350     7.4430     6.8490   -61.9050    10.6720   109.2190     2.4800     0.0300     0.3500
  988.0000     6.3240     7.5010     6.8570   -61.9100    10.6690   109.9710     2.4730     0.0270     0.3480
  988.5000     6.3130     7.5540     6.8690   -61.9150    10.6650   111.4260     2.4660     0.0250     0.3470
  989.0000     6.3020     7.6070     6.8810   -61.9190    10.6620   112.8770     2.4600     0.0220     0.3460
  989.5000     6.2920     7.6600     6.8930   -61.9240    10.6580   113.9760     2.4600     0.0210     0.3460
  990.0000     6.2810     7.7130     6.9040   -61.9290    10.6550   112.6870     2.4690     0.0230     0.3460
  990.5000     6.2700     7.7660     6.9130   -61.9340    10.6510   111.6060     2.4790     0.0250     0.3490
  991.0000     6.2590     7.8180     6.9320   -61.9390    10.6480   113.3610     2.4880     0.0270     0.3520
  991.5000     6.2480     7.8710     6.9500   -61.9440    10.6440   114.2360     2.4920     0.0290     0.3530
  992.0000     6.2370     7.9240     6.9680   -61.9490    10.6410   112.4900     2.4940     0.0300     0.3530
  992.5000     6.2270     8.0140     6.9860   -61.9540    10.6380   110.7760     2.4940     0.0300     0.3520
  993.0000     6.2160     7.8400     7.0040   -61.9590    10.6630   112.3570     2.4940     0.0300     0.3550
  993.5000     6.2050     7.7070     7.0220   -61.9640    10.6900   113.7540     2.4930     0.0290     0.3550
  994.0000     6.1940     7.5730     7.0420   -61.9690    10.7170   115.1810     2.4930     0.0290     0.3550
  994.5000     6.1830     7.4400     6.7890   -61.9740    10.7440   115.3820     2.5020     0.0320     0.3570
  995.0000     6.1730     7.2390     6.4800   -61.9790    10.7520   114.7010     2.5100     0.0340     0.3590
  995.5000     6.1620     7.2520     6.4570   -61.9840    10.7480   114.5400     2.5150     0.0370     0.3600
  996.0000     6.1510     7.2790     6.4110   -61.9890    10.7430   115.6070     2.5090     0.0390     0.3600
  996.5000     6.1400     7.3050     6.3660   -61.9940    10.7380   116.6330     2.5030     0.0370     0.3600
  997.0000     6.1300     7.3310     6.3200   -61.9980    10.7330   117.3590     2.4980     0.0350     0.3590
  997.5000     6.3680     7.3570     6.2740   -62.0030    10.7280   116.7120     2.4920     0.0330     0.3570
  998.0000     6.6330     7.3830     6.2280   -62.0080    10.7230   116.2700     2.4870     0.0340     0.3540
  998.5000     6.9770     7.4090     6.1870   -62.0130    10.7170   116.7070     2.4840     0.0350     0.3520
  999.0000     6.9270     7.4350     6.1870   -62.0180    10.7120   117.1740     2.4820     0.0370     0.3500
  999.5000     6.8560     7.4430     6.1870   -62.0230    10.7070   117.4700     2.4850     0.0380     0.3490
 1000.0000     6.7840     7.4430     6.1870   -62.0280    10.7010   116.0840     2.4910     0.0370     0.3470
 1000.5000     6.7130     7.4430     6.1870   -62.0330    10.6960   114.6880     2.4930     0.0340     0.3470
 1001.0000     6.6420     7.4430     6.1870   -62.0380    10.6910   114.9980     2.4930     0.0330     0.3480
 1001.5000     6.5700     7.4430     6.1870   -62.0430    10.6860   115.4890     2.4970     0.0350     0.3500
 1002.0000     6.4990     7.4440     6.1880   -62.0480    10.6800   114.4590     2.5040     0.0370     0.3510
 1002.5000     6.4280     7.4140     6.1770   -62.0530    10.6760   112.8120     2.5080     0.0390     0.3510
 1003.0000     6.3610     7.3880     6.1540   -62.0580    10.6720   113.6080     2.5040     0.0390     0.3530
 1003.5000     6.3610     7.3610     6.1320   -62.0630    10.6680   114.8670     2.4970     0.0390     0.3540
 1004.0000     6.3610     7.3340     6.1100   -62.0680    10.6640   115.0800     2.4910     0.0390     0.3570
 1004.5000     6.3610     7.3080     6.0870   -62.0720    10.6600   114.5310     2.4850     0.0390     0.3590
 1005.0000     6.3420     7.2810     6.0650   -62.0780    10.6560   113.9550     2.4840     0.0390     0.3600
 1005.5000     6.3190     7.2550     6.0430   -62.0570    10.6520   114.3470     2.4850     0.0390     0.3580
 1006.0000     6.2960     7.2350     6.0200   -62.0230    10.6480   115.7360     2.4940     0.0380     0.3560
 1006.5000     6.2730     7.2150     5.9980   -61.9880    10.6440   117.0610     2.5020     0.0380     0.3550
