~VERSION INFORMATION
 VERS.                2.0:   CWLS LOG ASCII STANDARD - VERSION 2.0
 WRAP.                 NO:   ONE LINE PER DEPTH STEP
~WELL INFORMATION
#MNEM.UNIT      DATA TYPE    INFORMATION
#----------   ------------   ------------------------------
 STRT.F           40.0000:   START DEPTH
 STOP.F         3032.5000:   STOP DEPTH
 STEP.F            0.5000:   STEP LENGTH
 NULL.          -999.2500:   NO VALUE
 COMP.   TESORO PETROLEUM:   COMPANY
 WELL. TESORO NPR 3 "AX" #51-15:   WELL
 FLD .        TEAPOT DOME:   FIELD
 LOC .      S15 T38N R78W:   LOCATION
 CNTY.            NATRONA:   COUNTY
 STAT.            WYOMING:   STATE
 CTRY. UNITED STATES OF AMERICA:   COUNTRY
 SRVC.       SCHLUMBERGER:   SERVICE COMPANY
 DATE.        21-JUL-1969:   LOGDATE
 API .     49025100240000:   API NUMBER
~CURVE INFORMATION
#MNEM.UNIT       API CODE    CURVE DESCRIPTION
#----------   ------------   ------------------------------
 DEPT.F                  :   
 CALD.IN     45 280 60 00:   CALIPER FROM DENSITY LOG
 GRD .GAPI   45 310 01 00:   GAMMA RAY FROM DENSITY LOG
 RHOB.G/C3   45 350 01 00:   BULK DENSITY
 CORR.G/C3   45 356 01 00:   DENSITY CORRECTION
 GR  .GAPI   35 310 01 00:   GAMMA RAY FROM GAMMA RAY LOG
 SPR .MV     05 010 01 00:   SPONTANEOUS POTENTIAL
 ASN .OHMM   05 041 16 00:   AMPLIFIED SHORT NORMAL 16"
 ILD .OHMM   05 120 46 00:   DEEP INDUCTION RESISTIVITY
~PARAMETER INFORMATION
#MNEM.UNIT          VALUE    DESCRIPTION
#----------   ------------   ------------------------------
 EKB .F         5235.0000:   Kelly bushing
 EGL .F         5222.0000:   Ground level
 EDF .F            0.0000:   Drilling floor
 TD  .F         3027.0000:   Total depth
 DATE.        21-JUL-1969:   Date logged
 CLNT.            A2DTECH:   Client Code
 SL  . 2000' FEL & 660' FNL:   Surface Location
 PD  .                 GL:   Permanent Datum
 EPD .F              5222:   Elevation Permanent Datum
 LMF .                 KB:   Log Measured From
 DMF .                 KB:   Drilling Measured From
 DAPD.F                13:   Feet Above Permanent Datum
 DD  .F              3027:   Depth driller
 DL  .F              3025:   Depth logger
 BLI .F              3024:   Bottom log interval
 TLI .F              2604:   Top log interval
 CS1 .IN            10.75:   Casing size
 CBD1.      10.75" @ 622':   Casing driller 1
 BS1 .IN                9:   Bit size
 BSD1.F              3027:   Depth drilled with bit1
 DFT .          FRESH/GEL:   Type fluid in hole
 DFD .                9.7:   Density
 DFV .                 65:   Viscosity
 DFPH.                9.5:   pH
 DFL .                  7:   Fluid loss
 MSS .           FLOWLINE:   Source of sample
 RMS .OHMM           2.48:   Rm
 MST .F                80:   Rm Meas. temp.
 RMF .OHMM           2.80:   Rmf
 MFST.F                80:   Rmf Meas. temp.
 MFSS.               MEAS:   Source Rmf.
 RMB .OHMM           2.20:   Rm. at BHT
 BHT .F               106:   BHT.
 TCS .HRS               1:   Time Circ. stopped
 MRT .F               106:   Maximum recorded temp.
 LUN .               4507:   Logging unit number
 LUL .               CSPR:   Logging unit location
 ENGI.           CHAMPLIN:   Recorded By
 WITN.                MAY:   Witnessed by
 ORIG.           5" PRINT:   Origin of data
 UWI .     49025100240000:   Unique Well ID
 DICO. A2D TECHNOLOGIES, INC.:   Digitizing Company
~OTHER INFORMATION
~A   DEPT     CALD        GRD       RHOB       CORR         GR        SPR        ASN          ILD 
# ...
 1619.5000     9.3690    94.8890     2.6090     0.0130  -999.2500   -40.6660    10.5350     8.9950
 1620.0000     9.3680    91.9710     2.6000     0.0110  -999.2500   -40.7040    10.2340     8.9730
 1620.5000     9.3670    92.7220     2.5930     0.0260  -999.2500   -40.7420    10.2240     8.9500
 1621.0000     9.3660    96.1380     2.5840     0.0200  -999.2500   -40.6940    10.2100     8.9270
 1621.5000     9.3640    96.8730     2.5810     0.0080  -999.2500   -40.6370    10.2710     8.9040
 1622.0000     9.3630    96.2670     2.5940     0.0090  -999.2500   -40.5760    10.4330     8.8810
 1622.5000     9.3620    98.4520     2.5880     0.0110  -999.2500   -40.5210    10.6010     8.8580
 1623.0000     9.3610    98.0870     2.5770     0.0190  -999.2500   -40.4590    10.6080     8.8370
 1623.5000     9.3600    92.3200     2.5830     0.0230  -999.2500   -40.4000    10.5430     8.8040
 1624.0000     9.3590    87.3700     2.6010     0.0210  -999.2500   -40.3780    10.4790     8.7320
 1624.5000     9.3570    88.5430     2.6150     0.0290  -999.2500   -40.5910    10.4100     8.6590
 1625.0000     9.3560    89.1090     2.6310     0.0390  -999.2500   -40.7840    10.2750     8.6290
 1625.5000     9.3550    89.4750     2.6240     0.0410  -999.2500   -40.9910    10.1300     8.6270
 1626.0000     9.3530    90.1750     2.6120     0.0470  -999.2500   -41.1110    10.0030     8.6410
 1626.5000     9.3660    93.5600     2.6170     0.0490  -999.2500   -40.8550    10.0000     8.5270
 1627.0000     9.3900    97.3200     2.5990     0.0480  -999.2500   -40.6410     9.7000     8.2640
 1627.5000     9.4120    97.3440     2.5680     0.0460  -999.2500   -40.4010     9.2990     8.0510
 1628.0000     9.4320    94.7330     2.5730     0.0440  -999.2500   -40.1790     9.2520     8.0370
 1628.5000     9.4330    93.1220     2.5870     0.0430  -999.2500   -39.9760     9.1780     8.0350
 1629.0000     9.4310    93.0110     2.6010     0.0430  -999.2500   -40.0020     9.2130     8.0430
 1629.5000     9.4290    93.9680     2.6220     0.0400  -999.2500   -40.0350     9.2230     8.1210
 1630.0000     9.4270    95.4310     2.6130     0.0500  -999.2500   -40.0760     9.3210     8.2130
 1630.5000     9.4250    96.6440     2.6080     0.0540  -999.2500   -40.1100     9.4420     8.3060
 1631.0000     9.4230    97.5540     2.6090     0.0530  -999.2500   -40.1480     9.6300     8.3930
 1631.5000     9.4210    95.0030     2.6150     0.0470  -999.2500   -40.1840     9.8010     8.4830
 1632.0000     9.4190    91.5440     2.6350     0.0450  -999.2500   -40.2210     9.9780     8.5750
 1632.5000     9.4160    93.3550     2.6800     0.0470  -999.2500   -40.2570    10.0660     8.6640
 1633.0000     9.4140    94.7270     2.6620     0.0490  -999.2500   -40.2960    10.1530     8.7520
 1633.5000     9.4120    93.5250     2.5850     0.0560  -999.2500   -40.3240    10.2380     8.8420
 1634.0000     9.4100    90.3330     2.6000     0.0500  -999.2500   -40.4490    10.3230     8.9290
 1634.5000     9.4080    88.1590     2.6080     0.0410  -999.2500   -40.7150    10.4130     9.0210
 1635.0000     9.4060    90.5530     2.5920     0.0320  -999.2500   -40.9910    10.4960     9.0510
 1635.5000     9.4040    90.1300     2.6000     0.0240  -999.2500   -41.2570    10.5860     9.0780
 1636.0000     9.4020    89.1100     2.5830     0.0270  -999.2500   -41.4920    10.6750     9.1030
 1636.5000     9.4000    90.9090     2.5960     0.0310  -999.2500   -41.2200    10.7630     9.1310
 1637.0000     9.3980    93.2450     2.5910     0.0350  -999.2500   -40.8680    10.8520     9.1570
 1637.5000     9.3950    95.5810     2.5730     0.0340  -999.2500   -40.8490    10.9420     9.1820
 1638.0000     9.3940    94.9360     2.5780     0.0170  -999.2500   -41.1120    11.0080     9.2160
 1638.5000     9.3930    93.8550     2.5940     0.0080  -999.2500   -41.3160    11.0110     9.1810
 1639.0000     9.3920    92.8100     2.5840    -0.0010  -999.2500   -41.5200    11.0070     9.0600
 1639.5000     9.3920    92.0470     2.6110     0.0010  -999.2500   -41.5040    11.0190     8.9490
 1640.0000     9.3910    92.2480     2.6470     0.0170  -999.2500   -41.4760    10.9030     8.8330
 1640.5000     9.3900    92.1270     2.6290     0.0470  -999.2500   -41.4430    10.6870     8.7190
 1641.0000     9.3890    93.5220     2.6050     0.0700  -999.2500   -41.4140    10.5110     8.6060
 1641.5000     9.3890   100.5430     2.6110     0.0700  -999.2500   -41.3830    10.3140     8.4900
 1642.0000     9.3880   100.3300     2.6320     0.0540  -999.2500   -41.3540     9.9780     8.3780
 1642.5000     9.3870    96.0730     2.6400     0.0430  -999.2500   -41.3240     9.4970     8.2640
 1643.0000     9.3860    92.7450     2.6140     0.0440  -999.2500   -41.2950     9.4910     8.2330
 1643.5000     9.3850    95.6400     2.6010     0.0440  -999.2500   -41.2650     9.4660     8.2360
 1644.0000     9.3850    99.5060     2.5900     0.0420  -999.2500   -41.2370     9.4970     8.2380
 1644.5000     9.3840   101.2420     2.6040     0.0390  -999.2500   -41.2080     9.5060     8.2810
 1645.0000     9.3830    99.7540     2.5950     0.0370  -999.2500   -41.1710     9.5030     8.3260
 1645.5000     9.3820    99.8990     2.5870     0.0360  -999.2500   -41.1600     9.5040     8.3720
 1646.0000     9.3820   101.1550     2.5960     0.0330  -999.2500   -41.2680     9.5630     8.4170
 1646.5000     9.3810    90.4090     2.6190     0.0290  -999.2500   -41.4040     9.7490     8.4630
 1647.0000     9.3800    81.2710     2.6290     0.0250  -999.2500   -41.6650    10.1260     8.5090
 1647.5000     9.3790    79.8690     2.6380     0.0190  -999.2500   -42.8480    10.6780     8.5530
 1648.0000     9.3790    88.1430     2.6440     0.0230  -999.2500   -43.9810    10.4350     8.6060
 1648.5000     9.3780    92.9880     2.6150     0.0430  -999.2500   -43.0460    10.2410     8.5990
 1649.0000     9.3770    92.6710     2.5900     0.0480  -999.2500   -42.1150     9.9810     8.4930
 1649.5000     9.3760    92.9610     2.5690     0.0380  -999.2500   -41.9530     9.4860     8.3960
 1650.0000     9.3760    90.7360     2.5800     0.0300  -999.2500   -41.6630     9.3640     8.2950
 1650.5000     9.3750    89.2260     2.5930     0.0170  -999.2500   -41.5040     9.3250     8.1950
 1651.0000     9.3740    90.9980     2.6110     0.0130  -999.2500   -41.2870     9.3030     8.0940
 1651.5000     9.3730    96.6080     2.6330     0.0180  -999.2500   -41.0340     9.2740     7.9980
 1652.0000     9.3730    98.4110     2.6150     0.0230  -999.2500   -40.7750     9.3320     7.8860
 1652.5000     9.3720    93.1920     2.5940     0.0280  -999.2500   -40.7690     9.3630     7.8650
 1653.0000     9.3710    90.7250     2.6000     0.0320  -999.2500   -41.0260     9.4150     7.9520
 1653.5000     9.3700    92.1750     2.5950     0.0380  -999.2500   -41.1940     9.3270     8.0240
 1654.0000     9.3700    95.0020     2.5830     0.0320  -999.2500   -41.3010     9.1510     8.1030
 1654.5000     9.3690    94.7500     2.5890     0.0170  -999.2500   -41.3720     9.3540     8.1790
 1655.0000     9.3680    95.4880     2.5840     0.0120  -999.2500   -41.5310     9.4200     8.2530
 1655.5000     9.3670    95.4940     2.6000     0.0210  -999.2500   -41.2290     9.3870     8.3210
 1656.0000     9.3670    93.4380     2.5990     0.0360  -999.2500   -41.1300     9.3950     8.3890
 1656.5000     9.3660    92.4770     2.6050     0.0390  -999.2500   -41.1400     9.4280     8.4570
 1657.0000     9.3650    92.9510     2.5870     0.0340  -999.2500   -41.1470     9.6450     8.5250
 1657.5000     9.3640    92.3820     2.5980     0.0260  -999.2500   -41.1380    10.3940     8.5930
 1658.0000     9.3640    90.7270     2.6150     0.0250  -999.2500   -41.1440    10.6120     8.6620
 1658.5000     9.3630    92.3250     2.5970     0.0310  -999.2500   -41.1450    10.7640     8.7260
 1659.0000     9.3620    90.8280     2.6200     0.0240  -999.2500   -41.2390    10.8160     8.8040
 1659.5000     9.3610    89.9770     2.6260     0.0120  -999.2500   -41.3460    10.8140     8.7810
