~VERSION INFORMATION
 VERS.                2.0:   CWLS LOG ASCII STANDARD - VERSION 2.0
 WRAP.                 NO:   ONE LINE PER DEPTH STEP
~WELL INFORMATION
#MNEM.UNIT      DATA TYPE    INFORMATION
#----------   ------------   ------------------------------
 STRT.F           46.5000:   START DEPTH
 STOP.F         3160.0000:   STOP DEPTH
 STEP.F            0.5000:   STEP LENGTH
 NULL.          -999.2500:   NO VALUE
 COMP. LAWRENCE ALLISON & WEST:   COMPANY
 WELL. LAWRENCE NPR 3 "AX" #42-34:   WELL
 FLD .                NPR:   FIELD
 LOC .      S34 T39N R78W:   LOCATION
 CNTY.            NATRONA:   COUNTY
 STAT.            WYOMING:   STATE
 CTRY. UNITED STATES OF AMERICA:   COUNTRY
 SRVC.      WESTERN ATLAS:   SERVICE COMPANY
 DATE.        19-OCT-1987:   LOGDATE
 API .     49025111830000:   API NUMBER
~CURVE INFORMATION
#MNEM.UNIT       API CODE    CURVE DESCRIPTION
#----------   ------------   ------------------------------
 DEPT.F                  :   
 CALD.IN     45 280 60 00:   CALIPER FROM DENSITY LOG
 DEN .LBS    45 635 01 00:   BUCK DENSITY
 CORR.G/C3   45 356 01 00:   DENSITY CORRECTION
 NPOR.DEC    42 890 03 00:   ALPHA PROCESSED NEUTRON POROSITY
 SPR .MV     07 010 01 00:   SPONTANEOUS POTENTIAL
 GRR .GAPI   07 310 01 00:   GAMMA RAY FROM RESISTIVITY
 RFOC.OHMM   07 220 04 00:   RESISTIVITY FOCUSED LOG RES.
 RILD.OHMM   07 120 46 00:   DEEP INDUCTION RESISTIVITY
 RILM.OHMM   07 120 44 00:   INDUCTION LOG MEDIUM RESISTIVITY
 TENR.LBS    07 635 01 00:   TENSION FROM RESISTIVITY
~PARAMETER INFORMATION
#MNEM.UNIT          VALUE    DESCRIPTION
#----------   ------------   ------------------------------
 EKB .F         5088.0000:   Kelly bushing
 EGL .F         5077.0000:   Ground level
 EDF .F         5087.0000:   Drilling floor
 TD  .F         3151.0000:   Total depth
 DATE.        19-OCT-1987:   Date logged
 CLNT.            A2DTECH:   Client Code
 SL  . 1032' FNL & 2316' FWL:   Surface Location
 PD  .                 GL:   Permanent Datum
 EPD .F              5077:   Elevation Permanent Datum
 LMF .                 KB:   Log Measured From
 DMF .                 KB:   Drilling Measured From
 DAPD.F                11:   Feet Above Permanent Datum
 DD  .F              3151:   Depth driller
 DL  .F              3151:   Depth logger
 BLI .F              3149:   Bottom log interval
 TLI .F                50:   Top log interval
 CS1 .IN            8.625:   Casing size
 CBD1.      8.625" @ 693':   Casing driller 1
 CBL1.F               693:   Casing logger 1
 BS1 .IN            7.875:   Bit size
 BSD1.F              3151:   Depth drilled with bit1
 DFT .        KCL/POLYMER:   Type fluid in hole
 DFD .                9.2:   Density
 DFV .                 53:   Viscosity
 DFPH.                9.5:   pH
 DFL .               11.8:   Fluid loss
 MSS .            MUD/PIT:   Source of sample
 RMS .OHMM           .441:   Rm
 MST .F                66:   Rm Meas. temp.
 RMF .OHMM           .336:   Rmf
 MFST.F                66:   Rmf Meas. temp.
 RMC .OHMM           .711:   Rmc
 MCST.F                66:   Rmc Meas. temp.
 MFSS.               MEAS:   Source Rmf.
 MCSS.               MEAS:   Source Rmc.
 RMB .OHMM           .244:   Rm. at BHT
 BHT .F               119:   BHT.
 TCS .HRS               3:   Time Circ. stopped
 MRT .F               119:   Maximum recorded temp.
 LUN .            HL-6343:   Logging unit number
 LUL .               CODY:   Logging unit location
 ENGI.               JULL:   Recorded By
 WITN.             STRONG:   Witnessed by
 ORIG.           5" PRINT:   Origin of data
 UWI .     49025111830000:   Unique Well ID
 DICO. A2D TECHNOLOGIES, INC.:   Digitizing Company
~OTHER INFORMATION
~A   DEPT     CALD        DEN       CORR       NPOR        SPR         GRR      RFOC       RILD       RILM       TENR   
# ...
 2961.0000     8.4530     2.5278     0.0273     0.2231   -42.1966   126.5378     7.3224     6.0229     6.1078    -6.6197
 2961.5000     8.4526     2.5207     0.0130     0.2267   -42.6054   127.3395     6.8592     5.9658     6.0399    -6.3712
 2962.0000     8.3707     2.5206    -0.0032     0.2247   -43.4191   131.3801     6.4253     5.8545     5.9825    -6.1226
 2962.5000     8.3696     2.5247     0.0088     0.2187   -44.0303   139.0626     5.8532     5.8531     5.9814   -15.9853
 2963.0000     8.3485     2.5246     0.0107     0.2142   -44.6408   138.6514     5.9063     5.9062     5.9243    -5.6255
 2963.5000     8.3084     2.5165    -0.0055     0.2122   -45.6376   132.1659     6.6026     5.6892     5.8678     4.7343
 2964.0000     8.2863     2.5073    -0.0279     0.2118   -46.0665   124.4611     6.9151     5.7411     5.8665    -5.1284
 2964.5000     8.2853     2.4971    -0.0361     0.2122   -47.0834   125.6724     6.9781     5.8475     5.8651    -4.8798
 2965.0000     8.2645     2.4971    -0.0200     0.2116   -47.6946   129.7130     6.9119     5.9008     5.8638    -4.5816
 2965.5000     8.2031     2.4991    -0.0099     0.2106   -48.1035   131.7292     6.8463     5.8995     5.8624     5.7783
 2966.0000     8.2017     2.5071     0.0203     0.2090   -48.3099   131.7213     6.9733     6.0089     5.8614    -4.0844
 2966.5000     8.2013     2.5172     0.0142     0.2099   -48.3122   129.2826     6.9717     6.0637     5.9148     6.2754
 2967.0000     8.2001     2.5192     0.0100     0.2107   -48.7219   127.6553     7.0353     6.0062     5.9685    -3.5873
 2967.5000     8.1790     2.5181     0.0018     0.2123   -48.9291   126.0280     7.5771     6.1175     6.0796    -3.3388
 2968.0000     8.1178     2.5191     0.0058     0.2127   -49.3371   126.4248     7.8887     6.1161     6.1922    -3.0902
 2968.5000     8.0966     2.5271     0.0300     0.2184   -49.7467   128.4411     7.4337     6.1147     6.2485    -2.8417
 2969.0000     8.0153     2.5342     0.0420     0.2196   -50.1555   129.6477     7.2950     6.3597     6.3645    -2.5931
 2969.5000     8.0341     2.5463     0.0541     0.2196   -50.5636   127.2107     7.2933     6.2846     6.4225     7.7667
 2970.0000     8.0534     2.5594     0.0723     0.2192   -51.1756   125.5833     7.4980     6.6439     6.7268   -12.2073
 2970.5000     7.9721     2.5735     0.1187     0.2176   -51.3820   124.3608     6.8304     6.8304     6.9250    -1.8474
 2971.0000     7.8507     2.5532     0.1408     0.2140   -52.3033   126.3771     7.2883     7.2883     7.1105     8.5621
 2971.5000     7.7501     2.5299     0.1367     0.2047   -53.0077   125.5547     7.6336     7.6335     7.5881    -1.3006
 2972.0000     7.5475     2.5137     0.1346     0.2003   -53.6190   124.3354     7.9212     7.9211     8.4043    -1.0520
 2972.5000     7.6069     2.4873     0.1228     0.1795   -54.2294   111.3723     8.8547     8.8546     9.1370    -0.8035
 2973.0000     7.5659     2.4802     0.1081     0.1659   -55.2488   104.0770    10.0840    10.0840     9.9335    -0.5549
 2973.5000     7.4840     2.4963     0.1061     0.1481   -55.8600    86.6606    11.9195    11.9194    11.5270    -0.3064
 2974.0000     7.5432     2.5004     0.0836     0.1258   -56.0672    83.4139    13.7006    13.7006    15.2381    -0.0578
 2974.5000     7.5426     2.5661     0.0916     0.1246   -56.0704    82.5946    20.8184    20.0579    19.0503     0.1907
 2975.0000     7.5261     2.5782     0.1199     0.1246   -56.0744    79.3479    37.7501    21.0081    20.7110     0.4393
 2975.5000     7.4799     2.5761     0.1259     0.1469   -56.0783    76.1011    54.5396    21.1996    21.0956    10.7991
 2976.0000     7.4989     2.5072     0.0934     0.1712   -56.0831    74.0689    50.1431    21.3928    18.5127     0.9364
 2976.5000     7.4784     2.4829     0.0852     0.1935   -55.4798    74.8707    26.0024    21.5878    16.5514     1.1850
 2977.0000     7.4965     2.4262     0.0770     0.2004   -53.0571    74.4579    19.1245    21.1860    16.2423    11.5945
 2977.5000     7.5161     2.4008     0.0769     0.1919   -52.4514    72.0208    13.5521    19.8449    15.7912     1.7318
 2978.0000     7.4948     2.4068     0.0849     0.1834   -51.4433    67.5579    12.9332    19.6548    15.9353    12.0916
 2978.5000     7.4938     2.4098     0.0929     0.1433   -50.4351    67.5500    13.0511    19.4702    17.1639    12.3402
 2979.0000     7.4928     2.4897     0.1009     0.1332   -50.0342    66.7323    14.3202    19.2873    17.9779     2.4775
 2979.5000     7.4916     2.5241     0.1090     0.1316   -50.2406    64.2937    18.2336    18.7496    18.3109     2.7260
 2980.0000     7.5108     2.5241     0.1068     0.1349   -49.0301    61.0486    26.2011    18.5717    18.3067    13.0858
 2980.5000     7.5096     2.4587     0.0784     0.1778   -48.6292    58.6115    25.8874    18.5674    18.1345    13.3344
 2981.0000     7.4684     2.4157     0.0419     0.1904   -48.2291    58.6036    18.0524    18.2218    17.1435    23.6942
 2981.5000     7.4680     2.4146     0.0398     0.2066   -48.0307    59.0004    16.9104    18.0672    15.9090    13.8315
 2982.0000     7.4462     2.4156     0.0559     0.2118   -48.2371    59.8022    14.4335    16.7499    14.6144    24.1913
 2982.5000     7.4452     2.4155     0.0679     0.2074   -48.8483    60.6039    14.4302    16.1344    14.2203    14.3286
 2983.0000     7.4442     2.4175     0.0879     0.2038   -50.6765    64.2396    14.5618    15.9813    14.2171     4.5156
 2983.5000     7.4440     2.4276     0.1001     0.1799   -50.8805    67.0608    14.5584    16.2777    14.3468     4.7642
 2984.0000     7.4419     2.4589     0.1041     0.1738   -52.3015    66.6512    14.8284    16.6918    14.7499     5.0127
 2984.5000     7.4610     2.5024     0.1041     0.1334   -53.7224    66.6433    15.6761    17.0450    17.5985    15.3726
 2985.0000     7.4403     2.5426     0.1019     0.1200   -55.3458    65.0159    17.2004    19.0537    18.0684    15.6211
 2985.5000     7.4790     2.5732     0.1018     0.1160   -56.3627    64.6031    24.1441    23.3734    19.3091    15.8697
 2986.0000     7.4579     2.5772     0.1078     0.1160   -57.1764    67.0242    49.9118    25.6475    28.5426    26.2295
 2986.5000     7.4569     2.5174     0.1117     0.1261   -57.1787    69.8502    49.9004    27.3670    29.0046    26.4781
 2987.0000     7.4364     2.4981     0.1116     0.1343   -58.2601    71.8665    40.8184    31.7519    31.3169    26.6272
 2987.5000     7.4546     2.4971     0.0812     0.1343   -58.8077    70.6440    25.2706    32.3408    28.5269    26.9752
 2988.0000     7.4538     2.4991     0.0122     0.1347   -59.2165    70.6361    23.0203    31.1523    29.4611    27.2237
 2988.5000     7.4530     2.4686     0.0081     0.1477   -59.0173    59.6956    23.4477    28.6437    24.5654    17.4107
 2989.0000     7.4515     2.4504     0.0141     0.1610   -58.1788    56.8537    26.5798    26.5833    22.5852    17.5599
 2989.5000     7.4708     2.3906     0.0262     0.1999   -57.4066    52.7989    23.6920    24.4427    20.6731    17.9078
 2990.0000     7.4694     2.3997     0.0321     0.2051   -56.6009    53.1942    18.1454    22.0601    18.3149    18.1564
 2990.5000     7.4283     2.3622     0.0381     0.2064   -55.5928    54.4008    16.5298    21.0527    15.9237     8.2937
 2991.0000     7.4671     2.3652     0.0401     0.2025   -53.9781    57.2220    15.6288    20.2791    16.0711    28.7648
 2991.5000     7.4665     2.3702     0.0493     0.1979   -52.1603    59.2430    15.1945    19.3521    15.1944    29.0133
 2992.0000     7.4657     2.3661     0.0541     0.1983   -50.5457    60.8545    15.3330    17.3024    15.3329    29.2619
 2992.5000     7.4649     2.3590     0.0540     0.2020   -49.7392    62.0611    15.0469    16.8239    15.0469    19.3992
 2993.0000     7.4232     2.3366     0.0300     0.2052   -48.3262    62.0531    14.7662    16.3572    14.7661    19.6477
 2993.5000     7.4224     2.3214     0.0255     0.2068   -47.3180    62.4500    14.4907    15.9033    14.1470    19.8963
 2994.0000     7.3608     2.3143     0.0051     0.2089   -46.9163    59.2017    13.9582    15.4621    13.2517    20.1448
