~VERSION INFORMATION
 VERS.                2.0:   CWLS LOG ASCII STANDARD - VERSION 2.0
 WRAP.                 NO:   ONE LINE PER DEPTH STEP
~WELL INFORMATION
#MNEM.UNIT      DATA TYPE    INFORMATION
#----------   ------------   ------------------------------
 STRT.F          620.0000:   START DEPTH
 STOP.F         3209.0000:   STOP DEPTH
 STEP.F            0.5000:   STEP LENGTH
 NULL.          -999.2500:   NO VALUE
 COMP. FENIX & SCISSON - US NAVY:   COMPANY
 WELL.   FENIX "A" #23-33:   WELL
 FLD .             NPR #3:   FIELD
 LOC .      S33 T39N R78W:   LOCATION
 CNTY.            NATRONA:   COUNTY
 STAT.            WYOMING:   STATE
 CTRY. UNITED STATES OF AMERICA:   COUNTRY
 SRVC.              WELEX:   SERVICE COMPANY
 DATE.        26-MAR-1977:   LOGDATE
 API .     49025103250000:   API NUMBER
~CURVE INFORMATION
#MNEM.UNIT       API CODE    CURVE DESCRIPTION
#----------   ------------   ------------------------------
 DEPT.F                  :   
 GRD .GAPI   45 310 01 00:   GAMMA RAY FROM DENSITY LOG
 CALD.IN     45 280 60 00:   CALIPER FROM DENSITY LOG
 CORR.G/C3   45 356 01 00:   DENSITY CORRECTION
 RHOB.G/C3   45 350 01 00:   BULK DENSITY
 SPR .MV     07 010 01 00:   SPONTANEOUS POTENTIAL
 ILD .OHMM   07 120 46 00:   DEEP INDUCTION RESISTIVITY
 ILM .OHMM   07 120 44 00:   INDUCTION LOG MEDIUM RESISTIVITY
 SGRD.OHMM   07 220 05 00:   SHALLOW SHORT GUARD RESISTIVITY
~PARAMETER INFORMATION
#MNEM.UNIT          VALUE    DESCRIPTION
#----------   ------------   ------------------------------
 EKB .F         5183.0000:   Kelly bushing
 EGL .F         5172.0000:   Ground level
 TD  .F         3213.0000:   Total depth
 CLNT.            A2DTECH:   Client Code
 SL  . 900' FWL & 1650' FNL:   Surface Location
 PD  .                 GL:   Permanent Datum
 EPD .F              5172:   Elevation Permanent Datum
 LMF .                 KB:   Log Measured From
 DMF .                 KB:   Drilling Measured From
 DAPD.F                11:   Feet Above Permanent Datum
 DATE.        26-MAR-1977:   Date Logged [DD-MMM-YYYY]
 DD  .F              3210:   Depth driller
 DL  .F              3213:   Depth logger
 BLI .F              3211:   Bottom log interval
 TLI .F               625:   Top log interval
 CS1 .IN            8.625:   Casing size
 CBD1.      8.625" @ 633':   Casing driller 1
 CBL1.F               635:   Casing logger 1
 BS1 .IN            7.875:   Bit size
 BSD1.F              3210:   Depth drilled with bit1
 DFT .            KCL MUD:   Type fluid in hole
 DFD .                9.5:   Density
 DFV .                 34:   Viscosity
 DFPH.                8.5:   pH
 DFL .                 14:   Fluid loss
 MSS .           FLOWLINE:   Source of sample
 RMS .OHMM           0.34:   Rm
 MST .F                86:   Rm Meas. temp.
 RMF .OHMM           0.25:   Rmf
 MFST.F                86:   Rmf Meas. temp.
 MFSS.            FANN KL:   Source Rmf.
 RMC .OHMM           0.55:   Rmc
 MCST.F                86:   Rmc Meas. temp.
 MCSS.            FANN KL:   Source Rmc.
 RMB .OHMM           0.31:   Rm. at BHT
 BHT .F                92:   BHT.
 TCS .HRS             2.5:   Time Circ. stopped
 MRT .F                92:   Maximum recorded temp.
 LUN .               8611:   Logging unit number
 LUL .             CASPER:   Logging unit location
 ENGI.            C. DOAK:   Recorded By
 WITN.            K. JAPP:   Witnessed by
 ORIG.           5" PRINT:   Origin of data
 UWI .     49025103250000:   Unique Well ID
 DICO. A2D TECHNOLOGIES, INC.:   Digitizing Company
~OTHER INFORMATION
~A   DEPT       GRD        CALD      CORR        RHOB      SPR        ILD        ILM       SGRD   
# ...
 3171.5000    84.0910     7.8168     0.0530     2.4427   -44.7233     2.3510     3.9279     3.9191
 3172.0000    82.6184     7.8179     0.0532     2.4540   -44.5509     2.4015     4.0113     4.3507
 3172.5000    81.1435     7.8191     0.0533     2.4548   -44.3814     2.4870     4.0684     4.2346
 3173.0000    79.8171     7.8203     0.0519     2.4594   -44.3623     2.6295     4.2414     4.4790
 3173.5000    78.9335     7.8063     0.0505     2.4662   -44.1927     2.8187     4.7693     4.3595
 3174.0000    81.4668     7.8078     0.0507     2.4722   -44.0232     3.0215     5.1815     4.5485
 3174.5000    83.8495     7.8090     0.0509     2.4760   -43.8537     3.1945     5.4767     5.0153
 3175.0000    87.1224     7.8102     0.0525     2.4783   -43.7594     3.4009     5.6704     5.4539
 3175.5000    90.6921     7.8113     0.0541     2.4747   -43.5143     3.5709     5.8308     5.4956
 3176.0000    97.8225     7.8125     0.0558     2.4703   -43.3182     3.6728     5.9137     6.6348
 3176.5000   106.4367     7.8137     0.0574     2.4637   -43.0205     3.6495     5.8754     7.3623
 3177.0000   114.3090     7.8149     0.0605     2.4541   -42.8510     3.5768     5.7948     7.0184
 3177.5000   121.4395     7.8161     0.0622     2.4437   -42.5311     3.4814     5.2369     8.2955
 3178.0000   122.3091     7.8219     0.0608     2.4394   -42.3616     3.2933     4.0019     5.3273
 3178.5000   107.2139     7.8334     0.0579     2.4432   -42.1921     3.1155     3.7370     4.1539
 3179.0000    98.6174     7.8344     0.0581     2.4507   -42.0226     2.9557     4.0884     3.9867
 3179.5000    94.4719     7.8207     0.0612     2.4769   -42.0035     2.8964     4.5034     4.0458
 3180.0000    86.7656     7.8220     0.0643     2.4912   -41.8340     2.8780     4.9947     4.3390
 3180.5000    74.7269     7.8231     0.0645     2.5002   -41.8148     3.0016     5.4265     4.7091
 3181.0000    73.2620     7.8243     0.0666     2.5056   -41.7955     3.1301     5.8150     4.1605
 3181.5000    72.6971     7.8255     0.0677     2.4997   -41.6679     3.3298     6.2314     7.8916
 3182.0000    72.5576     7.8238     0.0679     2.4953   -41.7564     3.5597     6.5864    11.0118
 3182.5000    72.4180     7.7984     0.0680     2.4931   -41.7335     3.8476     6.9138     6.8320
 3183.0000    72.5774     7.7996     0.0666     2.4925   -41.7191     4.2981     7.2078     6.4668
 3183.5000    72.8830     7.8008     0.0653     2.5015   -41.8504     4.5436     7.3650     6.7471
 3184.0000    73.3369     7.7720     0.0639     2.5046   -41.8265     4.7049     7.4740     7.2865
 3184.5000    73.7909     7.7735     0.0655     2.5002   -41.9577     4.8384     7.6248     7.4964
 3185.0000    74.3932     7.7596     0.0666     2.4980   -41.9398     4.9075     7.6276     7.7124
 3185.5000    75.1438     7.7608     0.0688     2.5064   -41.9194     4.9777     7.5781     7.3494
 3186.0000    76.1912     7.7620     0.0704     2.5169   -42.0511     4.9797     7.5283     7.3063
 3186.5000    77.3870     7.7632     0.0691     2.5214   -42.0316     4.9817     7.4282     7.3621
 3187.0000    78.7311     7.7644     0.0677     2.5171   -42.0120     5.0530     7.3294     7.6812
 3187.5000    79.9269     7.7656     0.0663     2.5142   -41.9925     5.1105     7.1830     7.9025
 3188.0000    78.8972     7.7670     0.0650     2.5098   -41.9694     5.1318     7.0868     7.5857
 3188.5000    76.6805     7.7682     0.0636     2.5047   -41.9534     5.2010     7.0414     7.3324
 3189.0000    72.2383     7.7691     0.0623     2.4980   -41.9311     5.2391     7.4426     7.1851
 3189.5000    58.8940     7.7703     0.0624     2.4922   -41.9120     5.2412     7.8690     7.3934
 3190.0000    37.0927     7.7715     0.0625     2.4863   -42.0480     5.2073     8.0948    11.1356
 3190.5000  -999.2500     7.7729     0.0612     2.4834   -42.0241     5.1028     8.0920    11.2305
 3191.0000  -999.2500     7.7739     0.0613     2.4827   -42.1601     4.9999     7.7685     8.9108
 3191.5000  -999.2500     7.7751     0.0614     2.4813   -42.1362     4.8664     7.4060     7.5933
 3192.0000  -999.2500     7.7763     0.0616     2.4762   -42.2677     4.7359     6.9163     7.4700
 3192.5000  -999.2500     7.7775     0.0617     2.4733   -42.2483     4.6398     6.4147     7.7925
 3193.0000  -999.2500     7.7789     0.0618     2.4794   -42.3795     4.5477     6.1576     7.0291
 3193.5000  -999.2500     7.7798     0.0620     2.4854   -42.3556     4.4262     6.0757     6.6074
 3194.0000  -999.2500     7.7811     0.0621     2.4885   -42.3365     4.2780     6.1199     6.7519
 3194.5000  -999.2500     7.7822     0.0637     2.4856   -42.4725     4.1347     6.1645     6.6175
 3195.0000  -999.2500     7.7834     0.0654     2.4902   -42.6037     4.0235     6.1668     6.3523
 3195.5000  -999.2500     7.7847     0.0670     2.4992   -42.7302     3.9156     6.1690     6.4453
 3196.0000  -999.2500     7.7858     0.0686     2.4948   -42.7111     3.7849     6.1290     6.9125
 3196.5000  -999.2500     7.7869     0.0688     2.4859   -42.6919     3.6581     6.0660     7.7322
 3197.0000  -999.2500     7.7882     0.0689     2.5025   -42.6728     3.5601     6.0947     7.0367
 3197.5000  -999.2500     7.7894     0.0690     2.5115   -42.6537     3.4777     6.0528     6.2872
 3198.0000  -999.2500     7.7905     0.0692     2.5146   -42.6345     3.4057     5.9629     5.9521
 3198.5000  -999.2500     7.7917     0.0693     2.5094   -42.6150     3.3631     5.7679     5.9561
 3199.0000  -999.2500     7.7780     0.0694     2.5043   -42.5955     3.3631     5.5726     5.8771
 3199.5000  -999.2500     7.7792     0.0711     2.4999   -41.5197     3.4097     5.3839     5.6747
 3200.0000  -999.2500     7.7804     0.0697     2.4977   -39.2449     3.5780     5.2376     5.4451
 3200.5000  -999.2500     7.7816     0.0714     2.5120   -37.7220     3.9672     5.1659     5.2972
 3201.0000  -999.2500     7.7828     0.0730     2.5196   -30.1841     4.5843     5.2738     5.2609
 3201.5000  -999.2500     7.7840     0.0761     2.5249    -2.4958     5.2609     6.3518     5.2972
 3202.0000  -999.2500     7.7852     0.0763     2.5310    -0.5194     5.6747     9.8713     5.2972
 3202.5000  -999.2500     7.7864     0.0779     2.5355    -0.5194     6.2060    81.2560     5.3707
 3203.0000  -999.2500     7.8172     0.0780     2.5379    -0.5194     6.7869  1967.7579     5.4451
 3203.5000  -999.2500     7.8038     0.0796     2.5312    -0.5194     7.5252  1970.1780     5.4827
 3204.0000  -999.2500     7.7602     0.0798     2.5268    -0.5194     9.3152  1972.5980     5.5971
 3204.5000  -999.2500     7.6281     0.0814     2.5225    -0.5194    27.4504  1975.0179     5.7139
 3205.0000  -999.2500     7.4509     0.0831     2.5188    -0.5194  1984.7719  1977.4380     5.2609
 3205.5000  -999.2500     7.7343     0.0877     2.5286    -0.5194  1979.0632  1979.8580     4.8106
 3206.0000  -999.2500     7.1569     0.0908     2.5347    -0.5194  1973.3547  1982.2780     5.2609
 3206.5000  -999.2500     7.2025     0.0955     2.5370    -0.5194  1966.5480  1984.6980     5.8331
 3207.0000  -999.2500     7.3521     0.1046     2.5311    -0.5194  1966.5480  1987.1179     5.9960
 3207.5000  -999.2500     6.9378     0.1182     2.5230    -0.5194  1966.5480  1989.5380     5.3707
 3208.0000  -999.2500  -999.2500  -999.2500  -999.2500    -0.5194  1966.5480  1991.9580     4.9449
 3208.5000  -999.2500  -999.2500  -999.2500  -999.2500    -0.5194  1966.5480  1994.3779     4.8773
 3209.0000  -999.2500  -999.2500  -999.2500  -999.2500    -0.5194  1966.5480  1996.7980     5.2306
