~VERSION INFORMATION
 VERS.                2.0:   CWLS LOG ASCII STANDARD - VERSION 2.0
 WRAP.                 NO:   ONE LINE PER DEPTH STEP
~WELL INFORMATION
#MNEM.UNIT      DATA TYPE    INFORMATION
#----------   ------------   ------------------------------
 STRT.F          200.0000:   START DEPTH
 STOP.F         3098.0000:   STOP DEPTH
 STEP.F            0.5000:   STEP LENGTH
 NULL.          -999.2500:   NO VALUE
 COMP.    FENIX & SCISSON:   COMPANY
 WELL.   FENIX "AX" #74-3:   WELL
 FLD .              N P R:   FIELD
 LOC .       S3 T38N R78W:   LOCATION
 CNTY.            NATRONA:   COUNTY
 STAT.            WYOMING:   STATE
 CTRY. UNITED STATES OF AMERICA:   COUNTRY
 SRVC.              WELEX:   SERVICE COMPANY
 DATE.        17-AUG-1977:   LOGDATE
 API .     49025104120000:   API NUMBER
~CURVE INFORMATION
#MNEM.UNIT       API CODE    CURVE DESCRIPTION
#----------   ------------   ------------------------------
 DEPT.F                  :   
 CALD.IN     45 280 60 00:   CALIPER FROM DENSITY LOG
 SPR .MV     07 010 01 00:   SPONTANEOUS POTENTIAL
 NPHI.DEC    42 890 00 00:   NEUTRON POROSITY
 GRD .GAPI   45 310 01 00:   GAMMA RAY FROM DENSITY LOG
 CORR.G/C3   45 356 01 00:   DENSITY CORRECTION
 RHOB.G/C3   45 350 01 00:   BULK DENSITY
 SGRD.OHMM   07 220 05 00:   SHALLOW SHORT GUARD RESISTIVITY
 ILD .OHMM   07 120 46 00:   DEEP INDUCTION RESISTIVITY
 ILM .OHMM   07 120 44 00:   INDUCTION LOG MEDIUM RESISTIVITY
~PARAMETER INFORMATION
#MNEM.UNIT          VALUE    DESCRIPTION
#----------   ------------   ------------------------------
 EKB .F         5141.0000:   Kelly bushing
 EGL .F         5131.0000:   Ground level
 EDF .F            0.0000:   Drilling floor
 TD  .F         3100.0000:   Total depth
 DATE.        17-AUG-1977:   Date logged
 CLNT.            A2DTECH:   Client Code
 SL  . 2272' FNL & 1060' FEL:   Surface Location
 PD  .                 GL:   Permanent Datum
 EPD .F              5131:   Elevation Permanent Datum
 LMF .                 KB:   Log Measured From
 DMF .                 KB:   Drilling Measured From
 DD  .F              3100:   Depth driller
 DL  .F              3100:   Depth logger
 BLI .F              3098:   Bottom log interval
 TLI .F               200:   Top log interval
 CS1 .IN            8.625:   Casing size
 CBD1.      8.625" @ 215':   Casing driller 1
 CBL1.F               218:   Casing logger 1
 BS1 .IN            7.875:   Bit size
 DFT .            KCL MUD:   Type fluid in hole
 DFD .                8.8:   Density
 DFV .                 33:   Viscosity
 DFPH.                9.5:   pH
 DFL .               10.6:   Fluid loss
 MSS .           FLOWLINE:   Source of sample
 RMS .OHMM            .67:   Rm
 MST .F                98:   Rm Meas. temp.
 RMF .OHMM            .64:   Rmf
 MFST.F                98:   Rmf Meas. temp.
 RMC .OHMM            .31:   Rmc
 MCST.F                98:   Rmc Meas. temp.
 MFSS.           MEASURED:   Source Rmf.
 RMB .OHMM            .57:   Rm. at BHT
 BHT .F               115:   BHT.
 TCS .HRS               3:   Time Circ. stopped
 MRT .F               115:   Maximum recorded temp.
 LUN .               8611:   Logging unit number
 LUL .             CASPER:   Logging unit location
 ENGI.            C. DOAK:   Recorded By
 WITN.     MR. PETTINGILL:   Witnessed by
 ORIG.           5" PRINT:   Origin of data
 UWI .     49025104120000:   Unique Well ID
 DICO. A2D TECHNOLOGIES, INC.:   Digitizing Company
 BSD1.               3100:   Depth drilled with bit1
~OTHER INFORMATION
~A   DEPT       CALD      SPR       NPHI          GRD      CORR        RHOB     SGRD        ILD        ILM   
# ...
  565.0000    10.7930   -69.9970     0.3150    17.0260     0.0440     2.4560     7.8750     6.4030     7.3390
  565.5000    10.7980   -69.9730     0.3190    18.4190     0.0420     2.4540     7.6810     6.3680     7.3390
  566.0000    10.8030   -69.9490     0.3240    19.1800     0.0390     2.4410     7.4880     6.3160     7.3390
  566.5000    10.8080   -69.9250     0.3290    16.9890     0.0360     2.4310     7.2950     6.1820     7.2060
  567.0000    10.8140   -69.9000     0.3330    14.7640     0.0460     2.4290     7.1010     6.0550     6.9220
  567.5000    10.8190   -69.8760     0.3350    13.8850     0.0550     2.4280     6.7910     5.7260     6.4760
  568.0000    10.8240   -69.8520     0.3350    16.2070     0.0620     2.4180     6.4620     5.4150     6.0290
  568.5000    10.8470   -69.8270     0.3360    18.9950     0.0550     2.4050     6.0000     5.1040     5.5820
  569.0000    10.8780   -69.8030     0.3400    19.2540     0.0460     2.3920     6.1830     4.7930     5.2300
  569.5000    10.9100   -69.7790     0.3450    14.9900     0.0370     2.3780     6.4900     4.5590     5.7600
  570.0000    10.9420   -69.7550     0.3490    19.9870     0.0280     2.3990     6.7960     5.0210     6.1970
  570.5000    10.9740   -69.7300     0.3540    18.0370     0.0190     2.4400     7.1030     5.4140     6.6090
  571.0000    11.0060   -69.7060     0.3510    15.7470     0.0210     2.4480     7.4100     5.7680     6.8590
  571.5000    11.0200   -69.6820     0.3440    13.4360     0.0270     2.4540     7.7160     6.1230     7.1090
  572.0000    10.9810   -69.6570     0.3300    12.6300     0.0320     2.4560     8.0230     6.4770     7.3590
  572.5000    10.9340   -69.6330     0.3230    13.8280     0.0380     2.4570     8.3300     6.8310     7.6090
  573.0000    10.8860   -69.6090     0.3200    15.0570     0.0430     2.4770     8.6540     7.2060     7.8590
  573.5000    10.8380   -69.5850     0.3170    16.1180     0.0490     2.4910     8.6540     7.2190     8.0180
  574.0000    10.7910   -69.5600     0.3140    15.5580     0.0500     2.4980     8.6540     7.2420     8.1040
  574.5000    10.7430   -69.5360     0.3140    14.7360     0.0470     2.4970     8.6540     7.2650     8.1910
  575.0000    10.6960   -69.5120     0.3150    13.9090     0.0430     2.4930     8.6940     7.2880     8.2780
  575.5000    10.6480   -69.4870     0.3160    13.2070     0.0390     2.4880     8.7320     7.3120     8.3640
  576.0000    10.5990   -69.4770     0.3170    12.8340     0.0330     2.4770     8.7690     7.3350     8.4190
  576.5000    10.5910   -69.4780     0.3180    12.5290     0.0260     2.4660     8.8080     7.3580     8.4190
  577.0000    10.6150   -69.4860     0.3190    12.4810     0.0200     2.4550     8.8140     7.3810     8.4190
  577.5000    10.6390   -69.4940     0.3200    14.6410     0.0130     2.4520     8.8140     7.4070     8.4190
  578.0000    10.6630   -69.5020     0.3200    15.1260     0.0160     2.4560     8.8140     7.4060     8.4190
  578.5000    10.6870   -69.5090     0.3170    15.0380     0.0210     2.4680     8.8140     7.3980     8.4190
  579.0000    10.7110   -69.5170     0.3150    12.8540     0.0260     2.4790     8.8140     7.3820     8.4190
  579.5000    10.7340   -69.5250     0.3120    10.9930     0.0300     2.4810     8.8140     7.3670     8.4190
  580.0000    10.7580   -69.5330     0.3090    12.7260     0.0350     2.4800     8.8130     7.3510     8.4200
  580.5000    10.7820   -69.5400     0.3090    16.0490     0.0390     2.4760     8.8110     7.3360     8.4200
  581.0000    10.8060   -69.5480     0.3090    18.0220     0.0420     2.4720     8.8180     7.3200     8.3740
  581.5000    10.8300   -69.5560     0.3090    17.3980     0.0400     2.4680     8.6750     7.3050     8.3120
  582.0000    10.8540   -69.5640     0.3120    17.0930     0.0370     2.4640     8.6150     7.2890     8.2510
  582.5000    10.8780   -69.5710     0.3150    19.1090     0.0340     2.4590     8.5550     7.2720     8.1900
  583.0000    10.8850   -69.5790     0.3180    18.9540     0.0310     2.4600     8.4960     7.2470     8.1290
  583.5000    10.8890   -69.5870     0.3200    18.6640     0.0270     2.4630     8.4360     7.1980     8.0670
  584.0000    10.8920   -69.5950     0.3230    18.4610     0.0300     2.4660     8.3760     7.1500     7.9690
  584.5000    10.8960   -69.6020     0.3260    19.2610     0.0350     2.4690     8.2670     7.1010     7.8970
  585.0000    10.9000   -69.6100     0.3260    20.0430     0.0380     2.4660     8.2670     7.0530     7.8250
  585.5000    10.9030   -69.6180     0.3240    20.8320     0.0380     2.4580     8.2570     7.0110     7.7540
  586.0000    10.8970   -69.6260     0.3210    20.2910     0.0370     2.4510     8.2390     7.0110     7.7370
  586.5000    10.8900   -69.6330     0.3190    18.9930     0.0320     2.4420     8.2210     7.0110     7.7080
  587.0000    10.8840   -69.6410     0.3170    17.6800     0.0340     2.4490     8.2030     7.0110     7.6790
  587.5000    10.8770   -69.6490     0.3150    16.5460     0.0350     2.4570     8.1850     7.0110     7.6500
  588.0000    10.8700   -69.6570     0.3190    15.7360     0.0360     2.4660     8.1670     7.0110     7.6210
  588.5000    10.8640   -69.6640     0.3220    14.9210     0.0370     2.4730     8.1480     7.0110     7.5920
  589.0000    10.8570   -69.6810     0.3260    14.1070     0.0380     2.4780     8.1250     7.0110     7.5630
  589.5000    10.8500   -69.7380     0.3290    13.2930     0.0450     2.4830     8.1160     7.0100     7.5340
  590.0000    10.8440   -69.7950     0.3330    12.4760     0.0530     2.4910     8.0390     7.0760     7.5050
  590.5000    10.8490   -69.8530     0.3330    12.4570     0.0570     2.5000     8.0430     7.0750     7.4740
  591.0000    10.8530   -69.8130     0.3340    13.0640     0.0580     2.5040     8.0780     7.0750     7.4750
  591.5000    10.8580   -69.7450     0.3330    13.6790     0.0560     2.5040     8.1760     7.1040     7.4780
  592.0000    10.8620   -69.6770     0.3300    13.7070     0.0520     2.4970     8.2730     7.1330     7.4850
  592.5000    10.8670   -69.6080     0.3260    13.3190     0.0480     2.4920     8.3430     7.1620     7.4930
  593.0000    10.8710   -69.5400     0.3220    12.9710     0.0490     2.4870     8.3430     7.1910     7.5000
  593.5000    10.8760   -69.4710     0.3190    13.4410     0.0500     2.4890     8.3430     7.2210     7.5080
  594.0000    10.8800   -69.4030     0.3200    15.0560     0.0510     2.4920     8.3070     7.2500     7.5150
  594.5000    10.8850   -69.3350     0.3230    16.6430     0.0520     2.4950     8.2200     7.2790     7.5220
  595.0000    10.8890   -69.2660     0.3270    17.8510     0.0480     2.4970     8.1170     7.3080     7.5300
  595.5000    10.8940   -69.1980     0.3300    17.3440     0.0450     2.4910     7.9690     7.3400     7.5370
  596.0000    10.8980   -69.1300     0.3340    16.9290     0.0410     2.4830     7.9690     7.3390     7.5430
  596.5000    10.9020   -69.1140     0.3350    16.4620     0.0410     2.4770     8.0620     7.3370     7.5440
  597.0000    10.9080   -69.2520     0.3340    16.6170     0.0430     2.4790     8.1780     7.3250     7.5410
  597.5000    10.9210   -69.3860     0.3330    17.3360     0.0450     2.4800     8.2950     7.3140     7.6840
  598.0000    10.9640   -69.5210     0.3330    17.8570     0.0450     2.4760     8.4120     7.3020     7.8460
  598.5000    10.9680   -69.6550     0.3320    17.3000     0.0430     2.4700     8.5290     7.2900     8.0080
  599.0000    10.9750   -69.7890     0.3320    16.5780     0.0410     2.4710     8.6460     7.2790     8.0630
  599.5000    10.9830   -69.8650     0.3330    15.8500     0.0380     2.4740     8.7340     7.2670     8.0890
  600.0000    10.9900   -69.8470     0.3340    15.1230     0.0380     2.4780     8.7340     7.2560     8.1150
  600.5000    10.9980   -69.7760     0.3330    14.3970     0.0440     2.4820     8.8140     7.2440     8.1410
  601.0000    11.0050   -69.7070     0.3290    13.6650     0.0500     2.4850     8.8140     7.2320     8.1670
