~VERSION INFORMATION
 VERS.                2.0:   CWLS LOG ASCII STANDARD - VERSION 2.0
 WRAP.                 NO:   ONE LINE PER DEPTH STEP
~WELL INFORMATION
#MNEM.UNIT      DATA TYPE    INFORMATION
#----------   ------------   ------------------------------
 STRT.F           70.0000:   START DEPTH
 STOP.F         2751.5000:   STOP DEPTH
 STEP.F            0.5000:   STEP LENGTH
 NULL.          -999.2500:   NO VALUE
 COMP.          INTEX OIL:   COMPANY
 WELL. INTEX N.P.R. "AX" #75-20:   WELL
 FLD .             TEAPOT:   FIELD
 LOC .      S20 T39N R78W:   LOCATION
 CNTY.            NATRONA:   COUNTY
 STAT.            WYOMING:   STATE
 CTRY. UNITED STATES OF AMERICA:   COUNTRY
 SRVC.       SCHLUMBERGER:   SERVICE COMPANY
 DATE.        06-MAY-1966:   LOGDATE
 API .     49025095120000:   API NUMBER
~CURVE INFORMATION
#MNEM.UNIT       API CODE    CURVE DESCRIPTION
#----------   ------------   ------------------------------
 DEPT.F                  :   
 CALD.IN     45 280 60 00:   CALIPER FROM DENSITY LOG
 GRD .GAPI   45 310 01 00:   GAMMA RAY FROM DENSITY LOG
 RHOB.G/C3   45 350 01 00:   BULK DENSITY
 CORR.G/C3   45 356 01 00:   DENSITY CORRECTION
 SPR .MV     05 010 01 00:   SPONTANEOUS POTENTIAL
 ILD .OHMM   05 120 46 00:   DEEP INDUCTION RESISTIVITY
 ASN .OHMM   05 041 16 00:   AMPLIFIED SHORT NORMAL 16"
~PARAMETER INFORMATION
#MNEM.UNIT          VALUE    DESCRIPTION
#----------   ------------   ------------------------------
 EKB .F         5016.3000:   Kelly bushing
 EGL .F         5006.0000:   Ground level
 EDF .F            0.0000:   Drilling floor
 TD  .F         2750.0000:   Total depth
 DATE.        06-MAY-1966:   Date logged
 CLNT.            A2DTECH:   Client Code
 PD  .                 GL:   Permanent Datum
 DD  .F              2750:   Depth driller
 DL  .F              2746:   Depth logger
 BLI .F              2745:   Bottom log interval
 CS1 .IN            10.75:   Casing size
 CBD1.       10.75" @ 30':   Casing driller 1
 BS1 .IN            7.875:   Bit size
 DFT .           OIL/EMUL:   Type fluid in hole
 DFD .                9.8:   Density
 DFV .                 43:   Viscosity
 DFPH.                  8:   pH
 DFL .               11.8:   Fluid loss
 MSS .         CIRCULATED:   Source of sample
 RMS .OHMM           1.84:   Rm
 MST .F                73:   Rm Meas. temp.
 RMF .OHMM           1.21:   Rmf
 MFST.F                74:   Rmf Meas. temp.
 MFSS.                 FP:   Source Rmf.
 RMB .OHMM           1.27:   Rm. at BHT
 BHT .F               106:   BHT.
 TCS .HRS             1.5:   Time Circ. stopped
 MRT .F               106:   Maximum recorded temp.
 LUN .               3527:   Logging unit number
 LUL .               CSPR:   Logging unit location
 ENGI.               HAUG:   Recorded By
 WITN.      TUTTLE/HUDSON:   Witnessed by
 ORIG.           5" PRINT:   Origin of data
 UWI .     49025095120000:   Unique Well ID
 DICO. A2D TECHNOLOGIES, INC.:   Digitizing Company
 DAPD.F              10.3:   Feet Above Permanent Datum
 BSD1.F              2750:   Depth drilled with bit1
 MCSS.                 FP:   Source Rmc.
 EPD .F              5006:   Elevation Permanent Datum
 LMF .                 KB:   Log Measured From
 DMF .                 KB:   Drilling Measured From
 TLI .F                88:   Top log interval
~OTHER INFORMATION
~A   DEPT     CALD        GRD       RHOB       CORR        SPR        ILD          ASN 
# ...
 2618.0000     7.5110   129.2710     2.5080     0.0910   -35.9250     4.9330     7.0900
 2618.5000     7.4820   125.4610     2.4980     0.0930   -35.6930     5.3130     7.3010
 2619.0000     7.4630   125.3570     2.4830     0.0800   -35.4620     5.4730     7.5010
 2619.5000     7.4260   126.5850     2.4800     0.0890   -35.4270     5.5650     7.7020
 2620.0000     7.4630   128.0760     2.5010     0.1330   -35.4620     5.6410     7.8980
 2620.5000     7.5180   127.1080     2.4970     0.1240   -35.4990     5.7160     8.0050
 2621.0000     7.5720   124.0570     2.4810     0.0830   -35.5360     5.7920     8.1090
 2621.5000     7.6250   120.1450     2.4600     0.0490   -35.5740     5.8680     8.2100
 2622.0000     7.6800   116.7750     2.4660     0.0360   -35.5950     5.9440     8.3900
 2622.5000     7.7330   117.1960     2.4820     0.0200   -35.4310     6.0190     8.5840
 2623.0000     7.7880   118.5700     2.4980     0.0140   -35.2690     6.0950     8.7810
 2623.5000     7.8380   123.7870     2.5050     0.0170   -35.1060     6.1710     8.9060
 2624.0000     7.8950   126.8390     2.5120     0.0230   -35.1900     6.2470     8.9740
 2624.5000     7.9000   126.9020     2.5190     0.0280   -35.6320     6.3230     9.0430
 2625.0000     7.8750   124.7330     2.5270     0.0340   -35.5270     6.3990     9.1350
 2625.5000     7.8480   124.5150     2.5330     0.0400   -35.0870     6.4750     9.3060
 2626.0000     7.8220   123.5820     2.5330     0.0400   -35.2250     6.5480     9.4730
 2626.5000     7.7950   120.7820     2.5220     0.0280   -35.4870     6.6990     9.6400
 2627.0000     7.7680   117.7790     2.5190     0.0200   -35.7520     6.6860     9.8060
 2627.5000     7.7420   116.6930     2.5210     0.0180   -36.0160     6.5540     9.9350
 2628.0000     7.7150   118.2520     2.5210     0.0200   -36.1760     6.4240     9.8330
 2628.5000     7.6880   123.8390     2.5030     0.0270   -36.0370     6.2940     9.6470
 2629.0000     7.6680   127.4410     2.4970     0.0350   -36.1350     6.0990     9.2030
 2629.5000     7.6660   129.5840     2.4960     0.0440   -36.5810     5.6970     8.7600
 2630.0000     7.6760   130.3800     2.4960     0.0410   -36.4660     5.2990     8.3180
 2630.5000     7.6930   132.4530     2.4960     0.0420   -36.2230     4.9020     7.8760
 2631.0000     7.7090   134.5620     2.4960     0.0510   -36.0700     4.5060     7.4310
 2631.5000     7.7250   138.9910     2.4900     0.0610   -36.2030     4.1090     7.0860
 2632.0000     7.7430   148.0410     2.4730     0.0550   -36.6610     3.7140     6.7690
 2632.5000     7.7390   156.6010     2.4600     0.0420   -36.4560     3.3190     6.4220
 2633.0000     7.7330   173.4350     2.4450     0.0400   -35.9830     3.1340     5.8670
 2633.5000     7.7260   192.2300     2.4320     0.0540   -35.7220     3.0230     5.3070
 2634.0000     7.7180   198.9390     2.4080     0.0860   -36.3600     3.0740     4.7300
 2634.5000     7.7140   183.3410     2.3770     0.0960   -36.2790     3.1720     4.5040
 2635.0000     7.6850   156.3690     2.3910     0.0770   -35.8070     3.2690     4.6690
 2635.5000     7.6890   136.5790     2.4490     0.0610   -36.0040     3.3780     4.9080
 2636.0000     7.7610   126.6280     2.4760     0.0210   -36.2610     4.0710     5.9010
 2636.5000     7.8210   115.6750     2.4920     0.0020   -36.5180     4.8210     7.8620
 2637.0000     7.8950   114.4840     2.5000     0.0080   -36.7690     5.5790     8.8920
 2637.5000     7.8980   115.2340     2.5050     0.0210   -36.6700     6.3280     9.2380
 2638.0000     7.8930   115.7960     2.5070     0.0330   -36.2800     6.8030     9.2230
 2638.5000     7.8860   114.8920     2.4920     0.0390   -36.1700     6.5800     8.9470
 2639.0000     7.8820   115.5870     2.4850     0.0190   -36.0830     6.3100     8.6680
 2639.5000     7.8760   118.3340     2.4920     0.0220   -36.0390     6.0410     8.3880
 2640.0000     7.8710   120.1150     2.4990     0.0240   -36.1260     5.7700     8.1070
 2640.5000     7.8680   120.9080     2.5040     0.0280   -35.9200     5.4970     7.8610
 2641.0000     7.8420   124.1330     2.5070     0.0370   -35.7120     5.2040     7.5800
 2641.5000     7.7630   126.6410     2.5120     0.0500   -35.6060     4.7980     7.2960
 2642.0000     7.6920   134.0900     2.5030     0.0360   -35.6890     4.3930     7.0140
 2642.5000     7.6170   145.0350     2.4820     0.0210   -35.7730     3.9880     6.6920
 2643.0000     7.5450   150.2670     2.4630     0.0120   -35.7730     3.5830     6.3260
 2643.5000     7.4760   155.5660     2.4500     0.0130   -35.7190     3.1800     5.9140
 2644.0000     7.4710   161.7470     2.4610     0.0180   -35.6660     2.7760     5.3520
 2644.5000     7.4710   175.6640     2.4710     0.0510   -35.6200     2.4600     4.8340
 2645.0000     7.4710   184.9720     2.4760     0.0740   -35.3160     2.3300     4.3140
 2645.5000     7.4720   175.1680     2.4740     0.0970   -34.9690     2.3460     3.9770
 2646.0000     7.4720   151.4060     2.4730     0.0900   -34.6440     2.4220     3.8110
 2646.5000     7.5340   135.2830     2.4730     0.0430   -35.1260     2.4930     3.9800
 2647.0000     7.6160   126.6230     2.4860     0.0070   -35.6400     2.6490     4.2330
 2647.5000     7.6930   120.8420     2.4990     0.0150   -35.7780     3.0370     5.2990
 2648.0000     7.7820   122.2500     2.4750     0.0330   -35.0500     3.6710     6.5110
 2648.5000     7.8020   123.4170     2.4650     0.0290   -35.4230     4.3140     7.4060
 2649.0000     7.7300   124.0770     2.4780     0.0250   -35.8820     4.9540     7.6300
 2649.5000     7.6710   125.5790     2.4880     0.0310   -35.9200     5.4300     7.8630
 2650.0000     7.6670   127.2580     2.4950     0.0320   -35.8230     5.4990     8.0210
 2650.5000     7.6660   128.5820     2.4790     0.0190   -35.8400     5.5090     8.0490
 2651.0000     7.6670   130.0150     2.4700     0.0190   -35.8950     5.5170     8.0120
 2651.5000     7.6660   130.2750     2.4760     0.0270   -35.9480     5.5240     7.9780
 2652.0000     7.6670   131.0120     2.4890     0.0380   -35.8860     5.5300     7.9790
 2652.5000     7.6670   133.2140     2.4930     0.0500   -35.3890     5.5370     8.0240
 2653.0000     7.6670   133.5790     2.4820     0.0530   -34.8950     5.5430     8.0790
 2653.5000     7.6670   133.8050     2.4720     0.0410   -34.9980     5.5490     8.1770
 2654.0000     7.6670   134.6300     2.4590     0.0220   -35.2140     5.5560     8.2740
 2654.5000     7.6670   136.0230     2.4590     0.0210   -35.4340     5.5620     8.3720
 2655.0000     7.6670   136.9990     2.4750     0.0300   -35.6500     5.5680     8.4700
 2655.5000     7.6670   135.5040     2.4880     0.0400   -35.7820     5.5750     8.5490
 2656.0000     7.6670   133.2060     2.4850     0.0440   -35.5180     5.5810     8.5650
 2656.5000     7.6670   133.3010     2.4820     0.0380   -35.6540     5.5870     8.5820
 2657.0000     7.6670   135.1720     2.4890     0.0370   -35.8780     5.5940     8.5980
 2657.5000     7.6670   136.9090     2.4960     0.0540   -35.9700     5.6050     8.6150
 2658.0000     7.6670   136.3370     2.5050     0.0740   -35.9210     5.7000     8.7250
 2658.5000     7.6670   135.3100     2.5070     0.0940   -35.8730     5.7940     8.8590
 2659.0000     7.6670   133.9470     2.5010     0.0940   -35.8260     5.8890     8.9930
 2659.5000     7.6670   133.5230     2.5050     0.0870   -35.6330     5.9890     9.1270
 2660.0000     7.6670   132.9030     2.5030     0.0780   -35.2460     5.8500     9.2610
 2660.5000     7.6670   133.1830     2.5020     0.0690   -35.2210     5.7500     9.3200
 2661.0000     7.6670   133.3690     2.5020     0.0610   -35.7430     5.6470     9.3180
 2661.5000     7.6670   133.4850     2.5070     0.0590   -36.2550     5.5430     9.2830
 2662.0000     7.6670   135.5850     2.5120     0.0650   -36.4470     5.4390     8.9800
 2662.5000     7.6690   139.3780     2.5230     0.0710   -36.0370     5.3360     8.6170
 2663.0000     7.7140   139.2050     2.5070     0.0730   -35.6350     5.2330     8.2510
