~VERSION INFORMATION
 VERS.                2.0:   CWLS LOG ASCII STANDARD - VERSION 2.0
 WRAP.                 NO:   ONE LINE PER DEPTH STEP
~WELL INFORMATION
#MNEM.UNIT      DATA TYPE    INFORMATION
#----------   ------------   ------------------------------
 STRT.F          450.5000:   START DEPTH
 STOP.F         3173.5000:   STOP DEPTH
 STEP.F            0.5000:   STEP LENGTH
 NULL.          -999.2500:   NO VALUE
 COMP.    FENIX & SCISSON:   COMPANY
 WELL. FENIX & SCISSONNPR #72-TX-33:   WELL
 FLD .              N.P.R:   FIELD
 LOC .      S33 T39N R78W:   LOCATION
 CNTY.            NATRONA:   COUNTY
 STAT.            WYOMING:   STATE
 CTRY. UNITED STATES OF AMERICA:   COUNTRY
 SRVC.       SCHLUMBERGER:   SERVICE COMPANY
 DATE.        03-SEP-1981:   LOGDATE
 API .     49025108810000:   API NUMBER
~CURVE INFORMATION
#MNEM.UNIT       API CODE    CURVE DESCRIPTION
#----------   ------------   ------------------------------
 DEPT.F                  :   
 CALD.IN     45 280 60 00:   CALIPER FROM DENSITY LOG
 GRD .GAPI   45 310 01 00:   GAMMA RAY FROM DENSITY LOG
 DPHI.DEC    45 890 03 00:   
 RHOB.G/C3   45 350 01 00:   BULK DENSITY
 CORR.G/C3   45 356 01 00:   DENSITY CORRECTION
 SPR .MV     07 010 01 00:   SPONTANEOUS POTENTIAL
 SFL .OHMM   07 220 01 00:   SHALLOW FOCUSED LOG RESISTIVITY
 ILD .OHMM   07 120 46 00:   DEEP INDUCTION RESISTIVITY
 ILM .OHMM   07 120 44 00:   INDUCTION LOG MEDIUM RESISTIVITY
 TENR.LBS    07 635 01 00:   TENSION FROM RESISTIVITY
~PARAMETER INFORMATION
#MNEM.UNIT          VALUE    DESCRIPTION
#----------   ------------   ------------------------------
 EKB .F         5115.0000:   Kelly bushing
 EGL .F         5105.0000:   Ground level
 EDF .F            0.0000:   Drilling floor
 TD  .F         3162.0000:   Total depth
 DATE.        03-SEP-1981:   Date logged
 CLNT.            A2DTECH:   Client Code
 CTRY.                USA:   Country
 SL  . 808' FNL & 954' FEL:   Surface Location
 PD  .                 GL:   Permanent Datum
 EPD .F              5105:   Elevation Permanent Datum
 LMF .                 KB:   Log Measured From
 DMF .                 KB:   Drilling Measured From
 DAPD.F                10:   Feet Above Permanent Datum
 DD  .F              3162:   Depth driller
 DL  .F              3162:   Depth logger
 BLI .F              3158:   Bottom log interval
 TLI .F              1612:   Top log interval
 CS1 .IN            9.625:   Casing size
 CBD1.      9.625" @ 480':   Casing driller 1
 BS1 .IN            7.875:   Bit size
 BSD1.F              3162:   Depth drilled with bit1
 DFT .              WATER:   Type fluid in hole
 MSS .               TANK:   Source of sample
 RMS .OHMM            6.3:   Rm
 MST .F                73:   Rm Meas. temp.
 RMF .OHMM            6.3:   Rmf
 MFST.F                73:   Rmf Meas. temp.
 TCS .HRS            2200:   Time Circ. stopped
 TLAB.HRS            0300:   Time logger at bottom
 MRT .F               100:   Maximum recorded temp.
 LUN .               8039:   Logging unit number
 LUL .               CSPR:   Logging unit location
 ENGI.           C. PEARR:   Recorded By
 WITN.           R. SCOTT:   Witnessed by
 ORIG.         2.5" PRINT:   Origin of data
 UWI .     49025108810000:   Unique Well ID
 DICO. A2D TECHNOLOGIES, INC.:   Digitizing Company
~OTHER INFORMATION
~A   DEPT     CALD         GRD      DPHI       RHOB       CORR        SPR        SFL        ILD        ILM       TENR   
# ...
 1355.0000     9.0594   134.4451     0.0926     2.5771     0.0693  -999.2500  -999.2500  -999.2500  -999.2500  -999.2500
 1355.5000     9.0978   132.6964     0.0624     2.6103     0.1433  -999.2500  -999.2500  -999.2500  -999.2500  -999.2500
 1356.0000     9.2136   132.1081     0.0239     2.6200     0.2099  -999.2500  -999.2500  -999.2500  -999.2500  -999.2500
 1356.5000     9.2135   131.5198     0.0612     2.6415     0.2509  -999.2500  -999.2500  -999.2500  -999.2500  -999.2500
 1357.0000     9.5617   133.8408     0.0986     2.5461     0.2489  -999.2500  -999.2500  -999.2500  -999.2500  -999.2500
 1357.5000     9.6389   136.1594     0.1465     2.4722     0.2372  -999.2500  -999.2500  -999.2500  -999.2500  -999.2500
 1358.0000     9.4059   135.5734     0.1504     2.4267     0.1598  -999.2500  -999.2500  -999.2500  -999.2500  -999.2500
 1358.5000     9.3281   131.4968     0.1075     2.4305     0.0887  -999.2500  -999.2500  -999.2500  -999.2500  -999.2500
 1359.0000     9.2503   128.0039     0.1067     2.4816     0.0887  -999.2500  -999.2500  -999.2500  -999.2500  -999.2500
 1359.5000     9.1723   124.5087     0.0917     2.5379     0.1180  -999.2500  -999.2500  -999.2500  -999.2500  -999.2500
 1360.0000     9.0555   125.6669     0.0926     2.5536     0.1180  -999.2500  -999.2500  -999.2500  -999.2500  -999.2500
 1360.5000     9.0165   128.5669     0.1017     2.5187     0.0965  -999.2500  -999.2500  -999.2500  -999.2500  -999.2500
 1361.0000     8.9773   130.3065     0.1137     2.4871     0.0700  -999.2500  -999.2500  -999.2500  -999.2500  -999.2500
 1361.5000     8.9382   129.7182     0.1145     2.4871     0.0434  -999.2500  -999.2500  -999.2500  -999.2500  -999.2500
 1362.0000     8.9765   129.7136     0.1122     2.5086     0.0301  -999.2500  -999.2500  -999.2500  -999.2500  -999.2500
 1362.5000     8.9374   133.7764     0.0942     2.5301     0.1082  -999.2500  -999.2500  -999.2500  -999.2500  -999.2500
 1363.0000     8.9757   134.9346     0.0723     2.5574     0.1941  -999.2500  -999.2500  -999.2500  -999.2500  -999.2500
 1363.5000     9.0032   140.1602     0.0873     2.5457     0.2449  -999.2500  -999.2500  -999.2500  -999.2500  -999.2500
 1364.0000     8.9750   139.5742     0.1023     2.5146     0.2293  -999.2500  -999.2500  -999.2500  -999.2500  -999.2500
 1364.5000     9.0133   137.2417     0.1177     2.4832     0.1824  -999.2500  -999.2500  -999.2500  -999.2500  -999.2500
 1365.0000     9.0130   134.9093     0.1072     2.4851     0.2117  -999.2500  -999.2500  -999.2500  -999.2500  -999.2500
 1365.5000     9.0125   133.1606     0.0967     2.5099     0.2214  -999.2500  -999.2500  -999.2500  -999.2500  -999.2500
 1366.0000     9.0511   130.8281     0.0849     2.5281     0.2214  -999.2500  -999.2500  -999.2500  -999.2500  -999.2500
 1366.5000     9.0893   130.8235     0.0988     2.4890     0.1686  -999.2500  -999.2500  -999.2500  -999.2500  -999.2500
 1367.0000     9.0889   134.8863     0.1128     2.4734     0.1159  -999.2500  -999.2500  -999.2500  -999.2500  -999.2500
 1367.5000     9.0110   136.6259     0.1263     2.4675     0.0631  -999.2500  -999.2500  -999.2500  -999.2500  -999.2500
 1368.0000     9.0107   135.4562     0.1271     2.4772     0.0221  -999.2500  -999.2500  -999.2500  -999.2500  -999.2500
 1368.5000     9.0334   134.2889     0.1127     2.5026     0.0260  -999.2500  -999.2500  -999.2500  -999.2500  -999.2500
 1369.0000     9.0487   130.7936     0.0984     2.5221     0.0397  -999.2500  -999.2500  -999.2500  -999.2500  -999.2500
 1369.5000     9.0482   131.3704     0.0857     2.5319     0.0436  -999.2500  -999.2500  -999.2500  -999.2500  -999.2500
 1370.0000     8.9704   133.6891     0.0914     2.5221     0.0436  -999.2500  -999.2500  -999.2500  -999.2500  -999.2500
 1370.5000     8.9699   134.8473     0.0971     2.5104     0.0459  -999.2500  -999.2500  -999.2500  -999.2500  -999.2500
 1371.0000     9.0084   133.6776     0.1029     2.5065     0.0416  -999.2500  -999.2500  -999.2500  -999.2500  -999.2500
 1371.5000     9.0079   131.3475     0.1037     2.5026     0.0436  -999.2500  -999.2500  -999.2500  -999.2500  -999.2500
 1372.0000     9.0074   127.8522     0.1068     2.4986     0.0358  -999.2500  -999.2500  -999.2500  -999.2500  -999.2500
 1372.5000     8.9684   126.1012     0.1107     2.4928     0.0318  -999.2500  -999.2500  -999.2500  -999.2500  -999.2500
 1373.0000     8.9679   122.6083     0.1115     2.4908     0.0299  -999.2500  -999.2500  -999.2500  -999.2500  -999.2500
 1373.5000     8.9289   117.9503     0.1123     2.4986     0.0298  -999.2500  -999.2500  -999.2500  -999.2500  -999.2500
 1374.0000     8.9672   116.2015     0.1045     2.5006     0.0357  -999.2500  -999.2500  -999.2500  -999.2500  -999.2500
 1374.5000     8.9668   117.9388     0.0850     2.5266     0.0806  -999.2500  -999.2500  -999.2500  -999.2500  -999.2500
 1375.0000     9.0439   121.4225     0.0749     2.5591     0.0943  -999.2500  -999.2500  -999.2500  -999.2500  -999.2500
 1375.5000     9.0436   129.5550     0.0685     2.5451     0.1001  -999.2500  -999.2500  -999.2500  -999.2500  -999.2500
 1376.0000     9.0044   131.8760     0.0943     2.5311     0.0845  -999.2500  -999.2500  -999.2500  -999.2500  -999.2500
 1376.5000     9.0041   130.1249     0.0943     2.5220     0.1001  -999.2500  -999.2500  -999.2500  -999.2500  -999.2500
 1377.0000     9.0036   126.6320     0.0787     2.5513     0.1099  -999.2500  -999.2500  -999.2500  -999.2500  -999.2500
 1377.5000     9.0033   124.8810     0.0868     2.5336     0.0923  -999.2500  -999.2500  -999.2500  -999.2500  -999.2500
 1378.0000     9.0028   124.8764     0.0949     2.5102     0.0532  -999.2500  -999.2500  -999.2500  -999.2500  -999.2500
 1378.5000     9.0025   128.9392     0.0998     2.5298     0.0532  -999.2500  -999.2500  -999.2500  -999.2500  -999.2500
 1379.0000     9.0022   129.5160     0.0819     2.5532     0.0882  -999.2500  -999.2500  -999.2500  -999.2500  -999.2500
 1379.5000     8.9632   130.6718     0.0748     2.5551     0.1391  -999.2500  -999.2500  -999.2500  -999.2500  -999.2500
 1380.0000     9.0401   130.6673     0.0748     2.5473     0.1254  -999.2500  -999.2500  -999.2500  -999.2500  -999.2500
 1380.5000     9.0009   130.6604     0.0873     2.5043     0.0964  -999.2500  -999.2500  -999.2500  -999.2500  -999.2500
 1381.0000     8.9618   130.6558     0.0998     2.4965     0.0673  -999.2500  -999.2500  -999.2500  -999.2500  -999.2500
 1381.5000     8.9613   130.0675     0.1116     2.4985     0.0414  -999.2500  -999.2500  -999.2500  -999.2500  -999.2500
 1382.0000     8.9612   128.3164     0.0893     2.5043     0.0218  -999.2500  -999.2500  -999.2500  -999.2500  -999.2500
 1382.5000     8.9218   126.5677     0.0670     2.5590     0.1566  -999.2500  -999.2500  -999.2500  -999.2500  -999.2500
 1383.0000     8.9603   128.3049     0.0447     2.6000     0.2249  -999.2500  -999.2500  -999.2500  -999.2500  -999.2500
 1383.5000     8.9986   131.2073     0.0194     2.6469     0.2406  -999.2500  -999.2500  -999.2500  -999.2500  -999.2500
 1384.0000     9.0370   133.5259     0.0202     2.6508     0.2503  -999.2500  -999.2500  -999.2500  -999.2500  -999.2500
 1384.5000     9.0369   131.7772     0.0670     2.6074     0.2504  -999.2500  -999.2500  -999.2500  -999.2500  -999.2500
 1385.0000     9.0362   128.8633     0.0865     2.5641     0.2464  -999.2500  -999.2500  -999.2500  -999.2500  -999.2500
 1385.5000     8.9970   128.8588     0.1060     2.5207     0.1819  -999.2500  -999.2500  -999.2500  -999.2500  -999.2500
 1386.0000     9.0355   130.5960     0.1264     2.4691     0.1173  -999.2500  -999.2500  -999.2500  -999.2500  -999.2500
 1386.5000     9.0738   131.1728     0.1272     2.4652     0.0570  -999.2500  -999.2500  -999.2500  -999.2500  -999.2500
 1387.0000     8.9981   131.7473     0.1280     2.4710     0.0550  -999.2500  -999.2500  -999.2500  -999.2500  -999.2500
 1387.5000     8.9955   131.1613     0.1179     2.4749     0.0550  -999.2500  -999.2500  -999.2500  -999.2500  -999.2500
 1388.0000     9.0339   127.6661     0.1163     2.4847     0.0569  -999.2500  -999.2500  -999.2500  -999.2500  -999.2500
