~VERSION INFORMATION
 VERS.                2.0:   CWLS LOG ASCII STANDARD - VERSION 2.0
 WRAP.                 NO:   ONE LINE PER DEPTH STEP
~WELL INFORMATION
#MNEM.UNIT      DATA TYPE    INFORMATION
#----------   ------------   ------------------------------
 STRT.F            0.0000:   START DEPTH
 STOP.F         3083.0000:   STOP DEPTH
 STEP.F            0.5000:   STEP LENGTH
 NULL.          -999.2500:   NO VALUE
 COMP. LAWRENCE & ALLISON & ASSOCIATES:   COMPANY
 WELL. LAWRENCE 71 "AX" #3-29:   WELL
 FLD .              N P R:   FIELD
 LOC .      S29 T38N R78W:   LOCATION
 CNTY.            NATRONA:   COUNTY
 STAT.            WYOMING:   STATE
 CTRY. UNITED STATES OF AMERICA:   COUNTRY
 SRVC.      DRESSER ATLAS:   SERVICE COMPANY
 DATE.        12-MAR-1985:   LOGDATE
 API .     49025110160000:   API NUMBER
~CURVE INFORMATION
#MNEM.UNIT       API CODE    CURVE DESCRIPTION
#----------   ------------   ------------------------------
 DEPT.F                  :   
 GRR .GAPI   07 310 01 00:   GAMMA RAY FROM RESISTIVITY
 SPR .MV     07 010 01 00:   SPONTANEOUS POTENTIAL
 TENR.LBS    07 635 01 00:   TENSION FROM RESISTIVITY
 RFOC.OHMM   07 220 04 00:   RESISTIVITY FOCUSED LOG RES.
 RILD.OHMM   07 120 46 00:   DEEP INDUCTION RESISTIVITY
 RILM.OHMM   07 120 44 00:   INDUCTION LOG MEDIUM RESISTIVITY
 TEND.LBS    45 635 01 00:   TENSION FROM DENSITY LOG
 DEN .G/C3   45 350 01 00:   BULK DENSITY
 CORR.G/C3   45 356 01 00:   DENSITY CORRECTION
 CNC .DEC    42 890 01 00:   NEUTRON PORISITY LIMESTONE
 CALD.IN     45 280 60 00:   CALIPER FROM DENSITY LOG
~PARAMETER INFORMATION
#MNEM.UNIT          VALUE    DESCRIPTION
#----------   ------------   ------------------------------
 EKB .F         4983.0000:   Kelly bushing
 EGL .F         4971.0000:   Ground level
 TD  .F         3082.0000:   Total depth
 DATE.        12-MAR-1985:   Date logged
 CLNT.            A2DTECH:   Client Code
 SL  . 568' FNL AND 829' FEL:   Surface Location
 PD  .                 GL:   Permanent Datum
 EPD .F              4971:   Elevation Permanent Datum
 LMF .                 KB:   Log Measured From
 DMF .                 KB:   Drilling Measured From
 DD  .F              3080:   Depth driller
 DL  .F              3082:   Depth logger
 BLI .F              3080:   Bottom log interval
 TLI .F              2100:   Top log interval
 CS1 .IN            8.625:   Casing size
 CBD1.      8.625" @ 311':   Casing driller 1
 BS1 .IN            7.875:   Bit size
 DFT .            KCL GEL:   Type fluid in hole
 DFD .                9.1:   Density
 DFV .                 38:   Viscosity
 DFPH.                  8:   pH
 DFL .               10.4:   Fluid loss
 MSS .           FLOWLINE:   Source of sample
 RMS .OHMM            .47:   Rm
 MST .F                60:   Rm Meas. temp.
 RMF .OHMM            .35:   Rmf
 MFST.F                61:   Rmf Meas. temp.
 RMC .OHMM            .53:   Rmc
 MCST.F                61:   Rmc Meas. temp.
 MFSS.               CLAC:   Source Rmf.
 RMB .OHMM           .209:   Rm. at BHT
 BHT .F               134:   BHT.
 TCS .HRS               3:   Time Circ. stopped
 MRT .F               134:   Maximum recorded temp.
 LUN .               6234:   Logging unit number
 LUL .               CLTE:   Logging unit location
 ENGI.      MACK/ EDWARDS:   Recorded By
 WITN.             STRONG:   Witnessed by
 PWI .                  -:   Primary Well Identifier
 ORIG.           5" PRINT:   Origin of data
 UWI .     49025110160000:   Unique Well ID
 DICO. A2D TECHNOLOGIES, INC.:   Digitizing Company
 DAPD.F                12:   Feet Above Permanent Datum
 BSD1.F              3080:   Depth drilled with bit1
 MCSS.               CALC:   Source Rmc.
~OTHER INFORMATION
~A    DEPT      GRR       SPR       TENR       RFOC       RILD       RILM       TEND        DEN       CORR        CNC       CALD   
# ...
 2501.0000    98.9720   -50.6920   -72.1470     6.4850     5.2440     5.7140   -90.7750     2.4680    -0.0390     0.2430     9.4110
 2501.5000    98.5210   -50.6920   -65.5560     6.6400     5.4270     5.8980   -89.1680     2.4720    -0.0580     0.2510     9.3910
 2502.0000    98.2630   -50.6500   -58.9650     6.8130     5.6100     6.0820   -87.5620     2.4710    -0.0710     0.2590     9.3670
 2502.5000    98.4530   -50.3130   -66.6900     6.9860     5.7930     6.2660   -84.0190     2.4690    -0.0600     0.2520     9.3420
 2503.0000    98.5650   -50.1700   -70.7920     7.2280     6.0580     6.4500   -66.2150     2.4700    -0.0380     0.2350     9.3280
 2503.5000    95.3150   -49.7440   -50.2060     7.5810     6.3330     6.7910   -48.4110     2.4700    -0.0190     0.2390     9.3220
 2504.0000    89.0820   -48.4860   -29.6200     8.3240     6.6080     7.2290   -41.4400     2.4610    -0.0190     0.2460     9.3160
 2504.5000    82.7660   -47.4810   -35.9600     9.0050     6.8830     7.6320   -56.3950     2.4520    -0.0190     0.2500     9.3090
 2505.0000    77.4570   -46.6560   -45.8420     8.7180     7.1580     8.0170   -64.4100     2.4470    -0.0110     0.2400     9.3030
 2505.5000    72.1570   -45.8240   -55.7230     8.4480     7.4400     8.3190   -58.8710     2.4460     0.0020     0.2350     9.2970
 2506.0000    70.2710   -44.9920   -38.3450     9.5070     7.7300     8.4050   -40.8070     2.4420    -0.0050     0.2400     9.2910
 2506.5000    72.8740   -45.0470   -17.1710    10.7130     7.9990     8.4900   -15.1240     2.4370    -0.0130     0.2500     9.2840
 2507.0000    78.7420   -45.2160     2.4750    11.1070     8.1730     8.5760    -6.7030     2.4400    -0.0170     0.2500     9.2780
 2507.5000    85.4440   -45.3840     2.4750     9.9280     8.3360     8.7420    -9.3510     2.4600     0.0040     0.2400     9.2720
 2508.0000    88.2370   -45.5470    -0.0990     8.8280     8.4980     8.9480   -25.9680     2.4800     0.0270     0.2400     9.2660
 2508.5000    83.8850   -45.5420    -5.5890     8.5260     8.6610     9.1540   -42.5850     2.4960     0.0500     0.2430     9.2600
 2509.0000    72.5520   -45.4570   -11.0780    10.0810     8.6830     9.3600   -46.4250     2.4710     0.0420     0.2360     9.2530
 2509.5000    64.8680   -45.3630   -16.5680    11.5400     8.6830     9.5990   -46.4250     2.4420     0.0310     0.2280     9.2470
 2510.0000    69.1610   -45.6790   -17.3270    13.2080     8.6830     9.4360   -46.1170     2.4370     0.0190     0.2190     9.2410
 2510.5000    79.0230   -46.0890   -17.3270    12.1940     8.6120     9.1900   -44.3980     2.4490     0.0060     0.2200     9.2350
 2511.0000    89.0830   -46.5040   -17.3270    10.6570     8.4580     8.9450   -42.6790     2.4580    -0.0160     0.2290     9.2290
 2511.5000    98.7910   -46.9200   -17.3270     9.4040     8.3050     8.6990   -40.9600     2.4600    -0.0390     0.2360     9.2220
 2512.0000    99.8520   -47.3210   -17.3270     9.0880     8.1040     8.4530   -39.2410     2.4590    -0.0420     0.2410     9.2160
 2512.5000   100.5250   -47.4210   -17.3270     9.0880     7.8460     8.2070   -37.5220     2.4580    -0.0410     0.2410     9.2100
 2513.0000    99.3140   -47.5590   -17.3270     9.0880     7.5880     7.9530   -36.4950     2.4570    -0.0400     0.2410     9.2040
 2513.5000    97.7350   -47.7000   -17.3270     9.0880     7.3310     7.6890   -35.0010     2.4570    -0.0270     0.2420     9.1970
 2514.0000    96.0820   -47.8420   -17.3270     9.1500     7.0730     7.4260   -33.5120     2.4540    -0.0050     0.2450     9.1910
 2514.5000    97.4780   -48.0370   -17.3270     9.4050     6.8160     7.1620   -32.0240     2.4460    -0.0250     0.2510     9.1850
 2515.0000    99.4310   -48.3050   -17.3270     9.5990     6.5580     6.8980   -30.5360     2.4370    -0.0500     0.2580     9.1790
 2515.5000   101.4100   -48.4490   -17.3270     8.9520     6.3100     6.6340   -29.0480     2.4260    -0.0770     0.2640     9.1730
 2516.0000   102.5650   -48.0730   -17.3270     7.6980     6.1520     6.4080   -27.5600     2.4050    -0.1030     0.2590     9.1660
 2516.5000   102.0720   -47.7450   -17.3270     6.0840     6.0000     6.3280   -26.0720     2.3820    -0.0410     0.2520     9.1580
 2517.0000    99.0490   -48.0440   -17.3270     6.0290     5.9580     6.2490   -24.5840     2.3640     0.0190     0.2510     9.1500
 2517.5000    96.0040   -48.3570   -17.3270     7.1340     5.9340     6.1700   -23.0960     2.3650     0.0150     0.2480     9.1410
 2518.0000    93.8300   -48.6480   -13.0890     8.2050     5.9090     6.0900   -21.6080     2.4000    -0.0240     0.2440     9.1330
 2518.5000    93.9700   -49.2770    -3.2080     8.7620     5.8840     6.0290   -20.1200     2.4350    -0.0550     0.2400     9.1320
 2519.0000    96.3970   -49.9010     1.5510     8.4450     5.8590     6.1960   -18.6320     2.4690    -0.0330     0.2430     9.1320
 2519.5000    98.8370   -50.2810    -2.5660     7.9740     5.8340     6.1350   -17.1430     2.4750    -0.0170     0.2480     9.1320
 2520.0000   101.2600   -50.6410    -6.6830     7.2050     5.8090     6.0930   -22.7780     2.4750    -0.0070     0.2530     9.1320
 2520.5000   103.6850   -50.9050   -10.8000     6.1400     5.7850     6.0500   -32.1250     2.4790    -0.0070     0.2560     9.1320
 2521.0000   106.2280   -51.1530   -14.9170     6.2740     5.7600     6.0080   -41.4720     2.4830    -0.0190     0.2460     9.1320
 2521.5000   105.8860   -51.4110   -17.3270     6.5970     5.7360     5.9740   -45.0740     2.4870    -0.0190     0.2330     9.1320
 2522.0000   102.6410   -51.4520   -17.3270     6.9200     5.7080     6.1990   -40.0890     2.4910    -0.0050     0.2370     9.1320
 2522.5000    99.0980   -51.4140   -17.3270     7.2420     5.9980     6.3840   -35.1040     2.4950    -0.0120     0.2460     9.1320
 2523.0000    95.8820   -51.3720   -16.2740     7.4200     6.3550     6.5690   -30.1190     2.4930    -0.0310     0.2500     9.1320
 2523.5000    95.4730   -51.3310   -14.9740     7.5060     6.7130     6.8930   -25.1340     2.4920    -0.0540     0.2420     9.1320
 2524.0000    93.6900   -51.2880   -13.6740     7.5910     7.0700     7.2690   -20.1490     2.4930    -0.0560     0.2290     9.1320
 2524.5000    90.2870   -51.0760   -12.3740     7.8250     7.4280     7.6440   -16.6340     2.5000    -0.0310     0.2170     9.1320
 2525.0000    85.4000   -50.8440   -11.0730     8.2800     7.6770     8.0200   -20.5910     2.5130    -0.0230     0.2110     9.1320
 2525.5000    80.0620   -50.6110    -9.7730     9.4230     7.8770     8.3960   -24.2040     2.5250    -0.0150     0.2040     9.1320
 2526.0000    75.3420   -50.5230    -8.4730    11.0060     8.0820     8.9230   -27.8160     2.5330    -0.0120     0.1920     9.1320
 2526.5000    76.0450   -50.5780    -7.4260    10.7190     8.2880     8.8680   -31.4290     2.5300    -0.0060     0.1830     9.1320
 2527.0000    79.6120   -50.6320    -9.9150    10.3580     8.3720     8.7760   -35.0410     2.5250    -0.0030     0.1910     9.1320
 2527.5000    83.9570   -50.6900   -13.0520    10.1130     8.2300     8.6830   -38.6530     2.5260    -0.0070     0.2040     9.1320
 2528.0000    88.3800   -50.7180   -16.1890    10.0470     8.0870     8.4920   -42.2660     2.5280    -0.0110     0.2170     9.1320
 2528.5000    91.5690   -50.8090   -19.3260     9.6080     7.9430     8.3000   -45.8780     2.5260    -0.0290     0.2200     9.1320
 2529.0000    94.1010   -50.8970   -22.4630     9.1630     7.8000     8.1290   -49.4910     2.5210    -0.0270     0.2230     9.1320
 2529.5000    95.5300   -50.9850   -25.6000     8.7190     7.6300     7.9740   -53.1030     2.5160    -0.0260     0.2290     9.1320
 2530.0000    96.4630   -51.0730   -28.7360     8.2750     7.4160     7.8190   -56.7150     2.5110    -0.0330     0.2260     9.1320
 2530.5000    95.4490   -51.1610   -31.8730     8.0240     7.3680     7.6630   -60.3280     2.5030    -0.0610     0.2220     9.1320
 2531.0000    93.8970   -51.2490   -35.0100     8.2750     7.5510     7.5040   -63.9400     2.4980    -0.0690     0.2210     9.1320
