~VERSION INFORMATION
 VERS.                2.0:   CWLS LOG ASCII STANDARD - VERSION 2.0
 WRAP.                 NO:   ONE LINE PER DEPTH STEP
~WELL INFORMATION
#MNEM.UNIT      DATA TYPE    INFORMATION
#----------   ------------   ------------------------------
 STRT.F          174.0000:   START DEPTH
 STOP.F         3492.0000:   STOP DEPTH
 STEP.F            0.5000:   STEP LENGTH
 NULL.          -999.2500:   NO VALUE
 COMP.    FENIX & SCISSON:   COMPANY
 WELL.   FENIX "AX" #18-3:   WELL
 FLD .        TEAPOT DOME:   FIELD
 LOC .       S3 T38N R78W:   LOCATION
 CNTY.            NATRONA:   COUNTY
 STAT.            WYOMING:   STATE
 CTRY. UNITED STATES OF AMERICA:   COUNTRY
 SRVC.       SCHLUMBERGER:   SERVICE COMPANY
 DATE.        09-FEB-1981:   LOGDATE
 API .     49025108630000:   API NUMBER
~CURVE INFORMATION
#MNEM.UNIT       API CODE    CURVE DESCRIPTION
#----------   ------------   ------------------------------
 DEPT.F                  :   
 CALD.IN     45 280 60 00:   CALIPER FROM DENSITY LOG
 GRD .GAPI   45 310 01 00:   GAMMA RAY FROM DENSITY LOG
 RHOB.G/C3   45 350 01 00:   BULK DENSITY
 DRHO.G/C3   45 356 01 00:   DENSITY CORRECTION
 TENR.LBS    07 635 01 00:   TENSION FROM RESISTIVITY
 SPR .MV     07 010 01 00:   SPONTANEOUS POTENTIAL
 ILM .OHMM   07 120 44 00:   INDUCTION LOG MEDIUM RESISTIVITY
 ILD .OHMM   07 120 46 00:   INDUCTION LOG DEEP RESISTIVITY
 SFLU.OHMM   07 220 01 00:   SPHERICALLY FOCUSED LOG UNAVERAGED RESISTIVITY
~PARAMETER INFORMATION
#MNEM.UNIT          VALUE    DESCRIPTION
#----------   ------------   ------------------------------
 EKB .F         5267.0000:   Kelly bushing
 EGL .F         5257.0000:   Ground level
 EDF .F            0.0000:   Drilling floor
 TD  .F         3472.0000:   Total depth
 DATE.        09-FEB-1981:   Date logged
 CLNT.            A2DTECH:   Client Code
 SL  . 669' FSL & 42' FWL:   Surface Location
 PD  .                 GL:   Permanent Datum
 DD  .F              3401:   Depth driller
 DL  .F              3472:   Depth logger
 BLI .F              3466:   Bottom log interval
 CS1 .IN            8.625:   Casing size
 CBD1.      8.625" @ 200':   Casing driller 1
 CBL1.F               196:   Casing logger 1
 BS1 .IN            7.875:   Bit size
 DFT .            KCL/GEL:   Type fluid in hole
 DFD .                  9:   Density
 DFV .                 60:   Viscosity
 DFPH.                8.5:   pH
 DFL .                 10:   Fluid loss
 MSS .            MUD/PIT:   Source of sample
 RMS .OHMM           1.88:   Rm
 MST .F                75:   Rm Meas. temp.
 RMF .OHMM           1.12:   Rmf
 MFST.F                75:   Rmf Meas. temp.
 MFSS.               MEAS:   Source Rmf.
 RMB .OHMM           1.21:   Rm. at BHT
 BHT .F               120:   BHT.
 TCS .HRS            1800:   Time Circ. stopped
 MRT .F               120:   Maximum recorded temp.
 LUN .               8043:   Logging unit number
 LUL .               CSPR:   Logging unit location
 ENGI.            CONNETT:   Recorded By
 WITN.              SCOTT:   Witnessed by
 ORIG.           5" PRINT:   Origin of data
 UWI .     49025108630000:   Unique Well ID
 DICO. A2D TECHNOLOGIES, INC.:   Digitizing Company
 DAPD.F                10:   Feet Above Permanent Datum
 BSD1.F              3401:   Depth drilled with bit1
 EPD .F              5257:   Elevation Permanent Datum
 LMF .                 KB:   Log Measured From
 DMF .                 KB:   Drilling Measured From
 TLI .F               196:   Top log interval
 TLAB.               0000:   Time logger at bottom
~OTHER INFORMATION
~A   DEPT     CALD         GRD      RHOB       DRHO       TENR        SPR        ILM        ILD       SFLU   
# ...
 3203.5000     9.2240   108.9390     2.6060     0.0540  1081.3290   -29.7940     7.4570     7.1220    10.2860
 3204.0000     9.2230   112.5760     2.5940     0.0440  1081.1010   -29.6950     7.4590     7.1220    10.3930
 3204.5000     9.2220   116.5050     2.5720     0.0340  1080.8730   -29.5960     7.4650     7.1220     9.3400
 3205.0000     9.2200   120.4300     2.5480     0.0280  1080.6450   -29.4970     7.1330     6.9420     8.5210
 3205.5000     9.2170   124.0080     2.5470     0.0350  1080.4170   -29.3980     6.8320     6.6780     7.7010
 3206.0000     9.2150   125.2630     2.5580     0.0420  1080.1890   -29.3010     6.5320     6.4350     6.6150
 3206.5000     9.2120   124.9220     2.5680     0.0510  1079.9611   -29.2000     6.2060     5.5280     6.7030
 3207.0000     9.2090   124.5800     2.5780     0.0720  1079.7330   -28.9790     5.5990     4.7470     6.8330
 3207.5000     9.2060   125.6800     2.5890     0.0950  1079.5060   -28.7620     4.9920     4.2990     6.9270
 3208.0000     9.2040   132.3140     2.6000     0.1270  1079.2780   -28.5490     4.4820     3.7850     6.7560
 3208.5000     9.2230   156.0320     2.5860     0.1710  1079.0500   -28.3360     4.0200     3.2710     5.7720
 3209.0000     9.2820   179.8890     2.5520     0.1720  1078.8220   -28.3800     3.5580     2.7570     4.3230
 3209.5000     9.3380   200.2600     2.4920     0.1670  1078.5940   -28.7260     3.0970     2.3770     2.8740
 3210.0000     9.4110   208.6790     2.4430     0.1270  1078.3660   -29.0700     2.7300     2.2490     1.8030
 3210.5000     9.3230   151.4530     2.4120     0.0830  1078.1379   -29.4160     2.7810     2.5740     2.9900
 3211.0000     9.1570   152.1680     2.4680     0.0670  1077.9100   -29.7620     3.0490     3.0660     4.3720
 3211.5000     9.0050   134.2380     2.5240     0.0600  1077.6820   -30.1080     3.7110     3.5590     5.7530
 3212.0000     8.9580   113.6520     2.5850     0.0850  1077.4540   -30.4520     4.4180     4.0510     7.1340
 3212.5000     8.9610   104.2420     2.6220     0.0970  1077.2260   -30.7940     5.1240     4.5430     8.7230
 3213.0000     8.9620   103.4820     2.6140     0.0920  1076.9980   -30.8320     5.6560     5.0350     8.5640
 3213.5000     8.9630   105.2550     2.6030     0.0850  1076.7700   -30.4830     5.9900     5.5150     8.0540
 3214.0000     8.9640   108.6600     2.5910     0.0790  1076.5420   -30.1360     6.3090     6.2590     7.5680
 3214.5000     8.9650   111.2510     2.5940     0.0850  1076.3140   -29.8050     6.6150     6.2040     7.0820
 3215.0000     8.9660   110.1030     2.5970     0.0930  1076.0870   -29.6760     6.3930     6.0780     6.6150
 3215.5000     8.9670   107.4850     2.6010     0.0990  1075.8590   -29.5560     6.1800     5.9180     6.4720
 3216.0000     8.9680   106.1090     2.6040     0.1000  1075.6310   -29.4350     5.9360     5.6560     6.3340
 3216.5000     8.9690   109.0220     2.5970     0.0880  1075.4030   -29.3150     5.6070     5.3950     6.1960
 3217.0000     8.9700   112.9950     2.5870     0.0820  1075.1750   -29.1940     5.4110     5.2590     6.1100
 3217.5000     8.9710   114.7140     2.5820     0.0800  1074.9470   -29.0740     5.2680     5.1470     6.0330
 3218.0000     8.9720   116.0280     2.5810     0.0870  1074.7190   -28.9530     5.1100     5.0360     5.8900
 3218.5000     8.9730   119.2500     2.5800     0.1000  1074.4910   -28.8340     4.8270     4.7150     5.6850
 3219.0000     8.9740   122.3840     2.5730     0.0970  1074.2629   -28.7510     4.5520     4.3500     5.4810
 3219.5000     8.9750   127.5510     2.5660     0.0960  1074.0350   -28.6770     4.2080     3.9860     5.2760
 3220.0000     8.9760   132.5140     2.5590     0.1000  1073.8070   -28.6020     4.2110     3.6210     5.0090
 3220.5000     8.9780   156.7770     2.5530     0.1150  1073.5790   -28.5280     3.5760     3.2560     4.3340
 3221.0000     8.9780   173.4880     2.5630     0.1430  1073.3510   -28.4540     3.1300     2.8910     3.6590
 3221.5000     8.9800   193.9420     2.5820     0.2010  1073.1230   -28.3810     2.6840     2.5270     2.9940
 3222.0000     9.0420   218.6090     2.5910     0.2420  1072.8950   -28.3050     2.3990     2.2690     2.3190
 3222.5000     9.1080   219.0400     2.5310     0.1800  1072.6680   -28.2170     2.3990     2.2290     1.6590
 3223.0000     9.0180   187.2580     2.4600     0.1260  1072.4399   -28.6610     2.3990     2.2910     2.3330
 3223.5000     8.8430   167.3880     2.4850     0.0780  1072.2120   -29.1990     2.6230     2.3990     3.4120
 3224.0000     8.6640   147.1210     2.5350     0.0670  1071.9840   -29.7430     3.1740     2.6420     4.4920
 3224.5000     8.6210   122.2730     2.5870     0.0790  1071.7560   -30.2930     3.7240     3.1620     5.5720
 3225.0000     8.6250   119.8770     2.6040     0.0850  1071.5280   -30.1600     4.2740     3.6810     6.4910
 3225.5000     8.6310   117.6420     2.6070     0.0860  1071.3000   -29.7850     4.8250     4.2010     6.7730
 3226.0000     8.6370   115.4140     2.6040     0.0850  1071.0710   -29.4140     5.3750     4.7210     7.0560
 3226.5000     8.6430   116.8600     2.5940     0.0820  1071.5640   -29.2690     5.7890     5.2400     7.1220
 3227.0000     8.6480   120.9570     2.5850     0.0790  1072.0580   -29.1340     5.9940     5.7600     7.0260
 3227.5000     8.6540   125.6080     2.5810     0.0810  1072.5530   -28.9980     6.2020     5.8840     6.9060
 3228.0000     8.6610   128.2920     2.5850     0.0820  1073.0470   -28.8610     6.2220     5.9040     6.7860
 3228.5000     8.6710   130.3980     2.5890     0.0830  1073.5420   -28.7260     6.2420     5.9240     6.6150
 3229.0000     8.6920   132.0150     2.5860     0.0840  1074.0360   -28.6170     6.2620     5.9440     6.6910
 3229.5000     8.6500   133.6560     2.5830     0.0770  1074.5310   -28.6570     6.2820     5.9640     6.8200
 3230.0000     8.5990   134.7140     2.5840     0.0760  1075.0260   -28.6940     6.3030     5.9840     6.9500
 3230.5000     8.5790   135.3700     2.5880     0.0770  1075.5200   -28.7300     6.3230     6.0040     7.0590
 3231.0000     8.5840   135.9540     2.5930     0.0820  1076.0150   -28.7670     6.3430     6.0240     7.0750
 3231.5000     8.5890   136.5670     2.5970     0.0920  1076.5090   -28.8030     6.3630     6.0510     7.0900
 3232.0000     8.5950   137.0160     2.6020     0.1020  1077.0040   -28.8520     6.3740     6.0820     7.1060
 3232.5000     8.5860   136.2280     2.6090     0.1070  1077.4980   -28.9040     6.3580     6.1130     7.1220
 3233.0000     8.5740   134.4820     2.5930     0.0950  1077.9930   -28.9560     6.3440     6.1440     7.4330
 3233.5000     8.5610   132.7260     2.5720     0.0640  1078.4871   -29.0080     6.3310     6.1760     7.7540
 3234.0000     8.5480   132.9890     2.5540     0.0460  1078.9821   -29.0600     6.3170     6.2020     8.0740
 3234.5000     8.5350   137.0620     2.5700     0.0750  1079.4771   -29.1130     6.3170     6.1160     8.4070
 3235.0000     8.5230   141.1870     2.5930     0.0920  1079.9709   -29.1640     6.3170     6.0420     7.9540
 3235.5000     8.4930   143.4370     2.6080     0.1010  1080.4659   -29.1840     6.3170     5.9690     7.3580
 3236.0000     8.4950   142.4750     2.5910     0.0930  1080.9600   -29.0180     6.3170     5.8950     6.7630
 3236.5000     8.4950   139.0170     2.5730     0.0780  1081.4550   -28.8520     6.3170     5.8210     6.2590
 3237.0000     8.4940   135.5770     2.5660     0.0740  1081.9490   -28.6880     6.3560     5.7480     6.3760
 3237.5000     8.4940   132.1130     2.5690     0.0740  1082.4440   -28.5230     6.4640     5.6560     6.5300
 3238.0000     8.4940   130.5220     2.5690     0.0740  1082.9380   -28.3580     6.5730     5.8140     6.6840
 3238.5000     8.4940   130.0910     2.5680     0.0730  1083.4330   -28.2200     6.6810     6.0330     6.8390
 3239.0000     8.4940   129.0500     2.5750     0.0750  1083.9270   -28.3270     6.7900     6.1740     6.9930
 3239.5000     8.4930   127.0670     2.5830     0.0750  1084.4220   -28.4440     6.8980     6.3310     7.1480
