~VERSION INFORMATION
 VERS.                2.0:   CWLS LOG ASCII STANDARD - VERSION 2.0
 WRAP.                 NO:   ONE LINE PER DEPTH STEP
~WELL INFORMATION
#MNEM.UNIT      DATA TYPE    INFORMATION
#----------   ------------   ------------------------------
 STRT.F            0.0000:   START DEPTH
 STOP.F         4022.0000:   STOP DEPTH
 STEP.F            0.5000:   STEP LENGTH
 NULL.          -999.2500:   NO VALUE
 COMP. LAWRENCE - ALLISON:   COMPANY
 WELL. LAWRENCE NPR 3 "MX" #58-10:   WELL
 FLD .                MPR:   FIELD
 LOC .      S10 T38N R78W:   LOCATION
 CNTY.            NATRONA:   COUNTY
 STAT.            WYOMING:   STATE
 CTRY. UNITED STATES OF AMERICA:   COUNTRY
 SRVC.      DRESSER ATLAS:   SERVICE COMPANY
 DATE.        12-FEB-1984:   LOGDATE
 API .     49025109610000:   API NUMBER
~CURVE INFORMATION
#MNEM.UNIT       API CODE    CURVE DESCRIPTION
#----------   ------------   ------------------------------
 DEPT.F                  :   
 GRR .GAPI   07 310 01 00:   GAMMA RAY FROM RESISTIVITY
 SPR .MV     07 010 01 00:   SPONTANEOUS POTENTIAL
 TENR.LBS    07 635 01 00:   TENSION FROM RESISTIVITY
 ILD .OHMM   07 120 46 00:   DEEP INDUCTION RESISTIVITY
 ILM .OHMM   07 120 44 00:   INDUCTION LOG MEDIUM RESISTIVITY
 SFL .OHMM   07 220 01 00:   SHALLOW FOCUSED LOG RESISTIVITY
 DT  .US/F   60 520 00 00:   DELTA TIME
 TENS.LBS    60 635 01 00:   TENSION FROM SONIC LOG
 CNC .DEC    42 890 03 00:   NEUTRON PORISITY SANDSTONE
 CALD.IN     45 280 60 00:   CALIPER FROM DENSITY LOG
 RHOB.G/C3   45 350 01 00:   BULK DENSITY
 CORR.G/C3   45 356 01 00:   DENSITY CORRECTION
 TEND.LBS    45 635 01 00:   TENSION FROM DENSITY LOG
~PARAMETER INFORMATION
#MNEM.UNIT          VALUE    DESCRIPTION
#----------   ------------   ------------------------------
 EKB .F         5218.0000:   Kelly bushing
 EGL .F         5208.0000:   Ground level
 EDF .F         5217.0000:   Drilling floor
 TD  .F         4014.0000:   Total depth
 DATE.        12-FEB-1984:   Date logged
 CLNT.            A2DTECH:   Client Code
 SL  . 500' FSL & 2150' FEL:   Surface Location
 PD  .                 GL:   Permanent Datum
 EPD .F              5208:   Elevation Permanent Datum
 LMF .                 KB:   Log Measured From
 DMF .                 KB:   Drilling Measured From
 DD  .F              4014:   Depth driller
 DL  .F              4011:   Depth logger
 BLI .F              4009:   Bottom log interval
 CS1 .IN            8.625:   Casing size
 CBD1.      8.625" @ 526':   Casing driller 1
 CBL1.F               525:   Casing logger 1
 BS1 .IN            7.875:   Bit size
 DFT .            GEL/KCL:   Type fluid in hole
 DFD .                8.9:   Density
 DFV .                 48:   Viscosity
 DFPH.                  8:   pH
 DFL .                1.3:   Fluid loss
 MSS .           MUD/TANK:   Source of sample
 RMS .OHMM           .556:   Rm
 MST .F                61:   Rm Meas. temp.
 RMF .OHMM           .423:   Rmf
 MFST.F                61:   Rmf Meas. temp.
 RMC .OHMM           .662:   Rmc
 MCST.F                61:   Rmc Meas. temp.
 MFSS.           MUD/TANK:   Source Rmf.
 RMB .OHMM            .80:   Rm. at BHT
 BHT .F               119:   BHT.
 TCS .HRS               5:   Time Circ. stopped
 MRT .F               119:   Maximum recorded temp.
 LUN .               6302:   Logging unit number
 ENGI.              GETTY:   Recorded By
 ORIG.           5" PRINT:   Origin of data
 UWI .     49025109610000:   Unique Well ID
 DICO. A2D TECHNOLOGIES, INC.:   Digitizing Company
 TLI .F                 0:   Top log interval
~OTHER INFORMATION
~A    DEPT      GRR       SPR       TENR        ILD        ILM        SFL         DT       TENS        CNC       CALD       RHOB       CORR       TEND   
# ...
 2366.0000   102.9910   -29.1500  -110.8330     6.5970     6.6290     7.8620  -999.2500  -999.2500     0.1850     9.0050     2.4980     0.0520   -80.7080
 2366.5000   103.2720   -29.1490  -109.5060     6.9410     7.0860     7.5540  -999.2500  -999.2500     0.1860     9.0060     2.4960     0.0570   -70.1290
 2367.0000   103.9780   -28.9580  -108.1780     7.1040     7.2170     7.2170  -999.2500  -999.2500     0.1880     9.0070     2.4950     0.0620   -69.6270
 2367.5000   104.2340   -28.7440  -106.8510     7.1510     7.1340     7.3730  -999.2500  -999.2500     0.1900     9.0080     2.5050     0.0680   -76.8050
 2368.0000   106.7350   -28.5720  -105.4340     7.0270     6.9710     7.5930  -999.2500  -999.2500     0.1910     9.0090     2.5200     0.0780   -83.9840
 2368.5000   104.9160   -28.6820  -112.6740     6.8460     6.8090     7.8120  -999.2500  -999.2500     0.1930     9.0100     2.5270     0.1030   -91.1620
 2369.0000   101.3030   -28.7930  -120.4350     6.6660     6.6760     7.9110  -999.2500  -999.2500     0.1950     9.0110     2.5210     0.1050   -94.7690
 2369.5000    99.9530   -28.9040  -123.7060     6.4860     6.5540     7.3400  -999.2500  -999.2500     0.1990     9.0120     2.5120     0.0940   -93.0360
 2370.0000   102.8360   -28.7670  -119.1200     6.3060     6.4320     6.8450  -999.2500  -999.2500     0.2050     9.0130     2.5050     0.0820   -91.3040
 2370.5000   108.0270   -28.4540  -115.4040     6.2140     6.3630     6.3460  -999.2500  -999.2500     0.2070     9.0150     2.5010     0.0680   -89.5710
 2371.0000   112.9630   -28.1410  -115.4040     6.1850     6.3090     6.4690  -999.2500  -999.2500     0.2060     9.0160     2.4990     0.0630   -87.8380
 2371.5000   112.5480   -27.8180  -115.4040     6.1520     6.2710     6.7850  -999.2500  -999.2500     0.2030     9.0170     2.5090     0.0710   -86.1050
 2372.0000   109.2900   -28.7840  -115.4040     6.1170     6.1740     7.1010  -999.2500  -999.2500     0.2000     9.0180     2.5210     0.0820   -85.7970
 2372.5000   106.3450   -30.0090  -115.4040     6.0620     6.2040     7.2170  -999.2500  -999.2500     0.1990     9.0160     2.5360     0.0900   -86.2670
 2373.0000   107.1040   -29.4830  -115.4040     6.1760     6.3200     7.0110  -999.2500  -999.2500     0.2000     9.0140     2.5350     0.0900   -86.7370
 2373.5000   112.3200   -29.1610  -115.4040     6.4310     6.5180     6.5840  -999.2500  -999.2500     0.2060     9.0110     2.5260     0.0830   -87.2060
 2374.0000   115.0700   -29.1480  -115.4040     6.6860     6.6650     6.6450  -999.2500  -999.2500     0.2170     9.0090     2.5190     0.0750   -87.6760
 2374.5000   112.6180   -29.1370  -115.4040     6.8250     6.8360     7.4100  -999.2500  -999.2500     0.2210     9.0070     2.5210     0.0740   -88.1450
 2375.0000   104.8130   -29.0900  -115.4040     6.9090     7.0050     7.9580  -999.2500  -999.2500     0.2120     9.0040     2.5280     0.0840   -88.6150
 2375.5000    97.2020   -29.0440  -115.4040     6.9940     7.1510     8.1140  -999.2500  -999.2500     0.2040     9.0020     2.5360     0.0960   -89.0850
 2376.0000    93.3800   -28.9970  -115.4040     7.0780     7.1510     8.2830  -999.2500  -999.2500     0.1970     8.9990     2.5430     0.1070   -89.5540
 2376.5000    97.4950   -28.9510  -115.4040     7.1470     7.1510     8.2830  -999.2500  -999.2500     0.1910     8.9980     2.5500     0.1190   -90.0240
 2377.0000   101.0030   -28.9040  -115.4040     7.1210     7.1390     8.0510  -999.2500  -999.2500     0.1890     8.9980     2.5550     0.1280   -90.4930
 2377.5000   103.5760   -28.8580  -115.4040     7.0940     7.1050     7.8460  -999.2500  -999.2500     0.1920     8.9980     2.5520     0.1220   -90.9630
 2378.0000   103.5390   -28.8110  -115.4040     7.0680     7.0720     7.6420  -999.2500  -999.2500     0.1980     8.9980     2.5470     0.1070   -91.4330
 2378.5000   102.5430   -28.7640  -115.4040     7.0410     7.0380     7.4370  -999.2500  -999.2500     0.2040     8.9980     2.5470     0.0930   -91.9020
 2379.0000   104.0560   -28.7740  -115.4040     7.0140     7.0040     7.2330  -999.2500  -999.2500     0.2060     8.9980     2.5490     0.0790   -92.3720
 2379.5000   106.4080   -28.7980  -112.0470     6.9880     6.9700     7.1510  -999.2500  -999.2500     0.2060     8.9980     2.5460     0.0830   -92.8420
 2380.0000   110.0020   -28.8230  -107.8430     6.9610     6.9320     7.6170  -999.2500  -999.2500     0.2070     8.9980     2.5440     0.0910   -93.3110
 2380.5000   111.3370   -28.8470  -110.0480     6.9340     6.8920     7.9660  -999.2500  -999.2500     0.2070     8.9980     2.5400     0.0980   -93.7810
 2381.0000   110.1280   -28.8720  -120.8590     6.8930     6.8530     8.1500  -999.2500  -999.2500     0.2070     9.0020     2.5350     0.0880   -94.2500
 2381.5000   110.8140   -28.8960  -131.6690     6.9040     6.8130     8.2070  -999.2500  -999.2500     0.2070     9.0070     2.5290     0.0710   -94.7200
 2382.0000   111.5870   -28.9200  -129.7940     6.9290     6.7730     7.2210  -999.2500  -999.2500     0.2040     9.0130     2.5230     0.0580   -95.1900
 2382.5000   110.7530   -28.9450  -121.3860     6.9540     6.6380     6.7680  -999.2500  -999.2500     0.2010     9.0190     2.5210     0.0720   -96.0980
 2383.0000   108.0050   -28.9730  -115.4040     6.7870     6.4890     6.7680  -999.2500  -999.2500     0.1980     9.0250     2.5210     0.0860   -97.6210
 2383.5000   104.2530   -29.0020  -115.4040     6.5940     6.3400     7.0390  -999.2500  -999.2500     0.1960     9.0310     2.5180     0.0930   -99.1430
 2384.0000   100.4680   -29.0320  -115.4040     6.4010     6.1920     7.2500  -999.2500  -999.2500     0.1950     9.0380     2.5140     0.0900  -100.6660
 2384.5000    96.6330   -29.0610  -115.4040     6.2080     6.0510     7.3510  -999.2500  -999.2500     0.1980     9.0170     2.5110     0.0910  -102.1890
 2385.0000    96.7670   -29.0900  -115.4040     6.0970     5.9660     7.0320  -999.2500  -999.2500     0.2020     8.9920     2.5110     0.0980  -103.7120
 2385.5000   100.2190   -29.1190  -115.4040     6.0350     5.8810     6.6890  -999.2500  -999.2500     0.2060     8.9910     2.5160     0.1030  -105.2340
 2386.0000   103.3900   -29.1520  -115.4040     5.9730     5.8430     6.3450  -999.2500  -999.2500     0.2120     9.0180     2.5250     0.0830  -106.7570
 2386.5000   102.1220   -29.2880  -115.4040     5.8970     5.8430     6.0620  -999.2500  -999.2500     0.2190     9.0380     2.5300     0.0680  -108.2800
 2387.0000   102.6690   -29.4300  -115.4040     5.9450     5.8710     6.2200  -999.2500  -999.2500     0.2190     9.0350     2.5340     0.0690  -109.8020
 2387.5000   104.9450   -29.5260  -115.4040     6.0070     5.9190     6.4230  -999.2500  -999.2500     0.2190     9.0320     2.5270     0.0790  -111.3250
 2388.0000   109.1190   -29.3960  -115.4040     6.0690     5.9670     6.6510  -999.2500  -999.2500     0.2130     9.0290     2.5100     0.0790  -112.8480
 2388.5000   111.9560   -29.2700  -115.4040     6.1310     6.0150     6.9730  -999.2500  -999.2500     0.2100     9.0270     2.5060     0.0670  -114.3710
 2389.0000   110.8810   -29.1460  -113.0890     6.1930     6.0620     7.2840  -999.2500  -999.2500     0.2120     9.0240     2.5100     0.0580  -114.2290
 2389.5000   109.6130   -29.0230  -110.2860     6.2550     6.1510     7.2420  -999.2500  -999.2500     0.2150     9.0220     2.5140     0.0650  -110.5750
 2390.0000   110.0210   -29.0440  -107.4830     6.3160     6.2380     7.1470  -999.2500  -999.2500     0.2150     9.0190     2.5170     0.0800  -106.9200
 2390.5000   111.1580   -29.2430  -105.4340     6.3750     6.3240     7.0210  -999.2500  -999.2500     0.2110     9.0170     2.5120     0.0920  -103.2660
 2391.0000   112.1380   -29.3470  -105.4340     6.4350     6.4110     7.0870  -999.2500  -999.2500     0.2070     9.0150     2.5060     0.0820   -99.6110
 2391.5000   111.7570   -29.3480  -105.4340     6.4950     6.5240     7.1850  -999.2500  -999.2500     0.2090     9.0130     2.5020     0.0570   -95.9570
