~VERSION INFORMATION
 VERS.                2.0:   CWLS LOG ASCII STANDARD - VERSION 2.0
 WRAP.                 NO:   ONE LINE PER DEPTH STEP
~WELL INFORMATION
#MNEM.UNIT      DATA TYPE    INFORMATION
#----------   ------------   ------------------------------
 STRT.F          200.5000:   START DEPTH
 STOP.F         3164.0000:   STOP DEPTH
 STEP.F            0.5000:   STEP LENGTH
 NULL.          -999.2500:   NO VALUE
 COMP. FENIX & SCISSON U.S NAVY:   COMPANY
 WELL. FENIX & SCISSON "A" #83-4:   WELL
 FLD .              NPR-3:   FIELD
 LOC .       S4 T38N R78W:   LOCATION
 CNTY.            NATRONA:   COUNTY
 STAT.            WYOMING:   STATE
 CTRY. UNITED STATES OF AMERICA:   COUNTRY
 SRVC.       SCHLUMBERGER:   SERVICE COMPANY
 DATE.        25-MAY-1977:   LOGDATE
 API .     49025103660000:   API NUMBER
~CURVE INFORMATION
#MNEM.UNIT       API CODE    CURVE DESCRIPTION
#----------   ------------   ------------------------------
 DEPT.F                  :   
 CALD.IN     45 280 60 00:   CALIPER FROM DENSITY LOG
 GRD .GAPI   45 310 01 00:   GAMMA RAY FROM DENSITY LOG
 RHOB.G/C3   45 350 01 00:   BULK DENSITY
 CORR.G/C3   45 356 01 00:   DENSITY CORRECTION
 SPR .MV     07 010 01 00:   SPONTANEOUS POTENTIAL
 SFLU.OHMM   07 220 01 00:   SPHERICALLY FOCUSED LOG UNAVERAGED RESISTIVITY
 ILD .OHMM   07 120 46 00:   DEEP INDUCTION RESISTIVITY
 ILM .OHMM   07 120 44 00:   INDUCTION LOG MEDIUM RESISTIVITY
~PARAMETER INFORMATION
#MNEM.UNIT          VALUE    DESCRIPTION
#----------   ------------   ------------------------------
 EKB .F         5163.0000:   Kelly bushing
 EGL .F         5149.0000:   Ground level
 EDF .F            0.0000:   Drilling floor
 EPD .F            0.0000:   Permanent datum
 TD  .F         3173.0000:   Total depth
 DATE.        25-MAY-1977:   Date logged
 CLNT.            A2DTECH:   Client Code
 SL  . 1650' FNL & 330 ' FEL:   Surface Location
 PD  .                 GL:   Permanent Datum
 DAPD.F                14:   Feet Above Permanent Datum
 DD  .F              3173:   Depth driller
 DL  .F              3157:   Depth logger
 BLI .F              3165:   Bottom log interval
 TLI .F               200:   Top log interval
 CS1 .IN            8.625:   Casing size
 CBD1.      8.625" @ 204':   Casing driller 1
 CBL1.F               220:   Casing logger 1
 BS1 .IN            7.875:   Bit size
 BSD1.F              3173:   Depth drilled with bit1
 DFT .            KCL MUD:   Type fluid in hole
 DFD .                8.8:   Density
 DFV .                 37:   Viscosity
 DFPH.                7.5:   pH
 DFL .                4.4:   Fluid loss
 MSS .           FLOWLINE:   Source of sample
 RMS .OHMM            .39:   Rm
 MST .F                79:   Rm Meas. temp.
 RMF .OHMM            .31:   Rmf
 MFST.F                79:   Rmf Meas. temp.
 RMC .OHMM            .63:   Rmc
 MCST.F                79:   Rmc Meas. temp.
 MFSS.           FANN KIT:   Source Rmf.
 MCSS.           FANN KIT:   Source Rmc.
 RMB .OHMM            .27:   Rm. at BHT
 BHT .F               112:   BHT.
 TCS .HRS             2.5:   Time Circ. stopped
 MRT .F               112:   Maximum recorded temp.
 LUN .               8611:   Logging unit number
 LUL .             CASPER:   Logging unit location
 ENGI.            C. DOAK:   Recorded By
 WITN.      B. HARRINGTON:   Witnessed by
 ORIG.       2.5"5" PRINT:   Origin of data
 UWI .     49025103660000:   Unique Well ID
 DICO. A2D TECHNOLOGIES, INC.:   Digitizing Company
~OTHER INFORMATION
~A   DEPT     CALD        GRD         RHOB     CORR        SPR       SFLU        ILD        ILM   
# ...
 1942.0000     9.3556   123.4369     2.4851     0.0491   -38.1473     7.6620     3.5765     4.4682
 1942.5000     9.3552   121.0818     2.4654     0.0451   -38.1463     7.6618     3.5121     4.4900
 1943.0000     9.3546   118.9403     2.4831     0.0412   -37.7573     7.6615     3.3259     4.5119
 1943.5000     9.3933   118.1502     2.4948     0.0529   -37.3679     5.7228     3.5117     4.5268
 1944.0000     9.3926   117.3562     2.4948     0.0608   -37.3674     5.9351     4.5256     4.5264
 1944.5000     9.3922   116.5661     2.4850     0.0626   -37.3665     8.3902     4.2095     4.5262
 1945.0000     9.3916   113.9856     2.4516     0.0626   -37.3659     8.5440     3.9148     4.3647
 1945.5000     9.3912   116.5471     2.4300     0.0586   -36.9765     8.2377     3.3859     4.4441
 1946.0000     9.3514   119.6664     2.4182     0.0547   -36.5876     4.8552     3.0921     4.4439
 1946.5000     9.3119   121.2242     2.4575     0.0193   -36.9751     6.0460     2.9819     4.5250
 1947.0000     9.3112   121.9956     2.4947     0.0154   -37.3629     7.5287     4.2852     4.6076
 1947.5000     9.2717   121.9881     2.4986     0.0232   -37.3620     9.3556     3.9136     4.7775
 1948.0000     9.1919   121.9768     2.4986     0.0310   -36.9730     9.3550     3.8430     4.8646
 1948.5000     9.1915   121.9693     2.4888     0.0388   -37.3605     9.3541     4.2075     5.1363
 1949.0000     9.1126   122.7408     2.4868     0.0349   -37.3599     9.0191     4.3626     5.4230
 1949.5000     9.0348   124.2989     2.4966     0.0270   -36.9707     6.7372     4.6905     5.5219
 1950.0000     8.9559   128.9843     2.5084     0.0191   -36.9701     8.3835     4.7869     5.8302
 1950.5000     8.9554   130.5425     2.4887     0.0152   -36.9692     8.3762     4.8852     6.0451
 1951.0000     8.9157   132.8799     2.4828     0.0094   -36.9687     6.6170     4.9856     6.3826
 1951.5000     8.9544   132.8726     2.4907     0.0073   -36.9678     7.3782     5.1340     6.6179
 1952.0000     9.0320   133.6444     2.4848     0.0112   -36.9672     9.5210     5.1339     6.2670
 1952.5000     9.0316   134.4200     2.5024     0.0190   -36.9663     9.6954     5.2277     6.2669
 1953.0000     9.0310   136.7576     2.5024     0.0229   -36.9657     9.8731     5.7220     6.1536
 1953.5000     9.0305   137.5332     2.4945     0.0268   -37.3532    10.2386     5.7216     6.0427
 1954.0000     9.0299   141.4369     2.4827     0.0268   -36.9643    10.2380     5.2266     5.9338
 1954.5000     9.0295   141.4297     2.4454     0.0228   -37.3517    10.5955     5.0401     5.9335
 1955.0000     8.9897   142.2018     2.4454     0.0189   -37.3511    10.4048     4.6030     5.7954
 1955.5000     8.9501   142.1946     2.4533     0.0052   -37.3502     5.5090     4.2040     5.6604
 1956.0000     8.9103   145.3157     2.4572     0.0052   -37.7378     7.1354     4.9486     5.5287
 1956.5000     8.9099   147.6575     2.4630     0.0091   -37.7370     9.3428     5.0390     5.3999
 1957.0000     8.8701   151.5618     2.4552     0.0130   -37.7364     9.5140     5.1306     5.2742
 1957.5000     8.8697   153.1208     2.4473     0.0130   -38.1237     9.6881     5.0382     5.1514
 1958.0000     8.7908   159.1575     2.4434     0.0130   -37.7349     9.3409     4.8584     5.0315
 1958.5000     8.7903   160.7166     2.4355     0.0129   -38.1222     8.6836     4.7710     4.9143
 1959.0000     8.7897   166.1877     2.4296     0.0148   -37.7334     7.6261     4.3573     4.7999
 1959.5000     8.8674   174.7946     2.4472     0.0108   -38.1207     6.6974     4.2020     4.6846
 1960.0000     8.7878   180.2662     2.4590     0.0147   -38.1201     6.0310     4.0521     4.6845
 1960.5000     8.7874   184.1752     2.4747     0.0147   -38.1192    11.4087     4.0519     4.7687
 1961.0000     8.7476   192.2134     2.4570     0.0147   -38.1186    11.6177     3.9789     4.7685
 1961.5000     8.7080   192.2070     2.4531     0.0147   -37.7295    11.8001     4.0514     4.7682
 1962.0000     8.6682   192.9806     2.4491     0.0146   -37.7289     8.5976     4.2775     4.7680
 1962.5000     8.6286   192.9742     2.4667     0.0146   -37.7280     6.2524     4.4351     4.7678
 1963.0000     8.6280   192.9646     2.4452     0.0107   -37.7274     6.1394     4.8554     4.7682
 1963.5000     8.5500   192.1750     2.4393     0.0067   -37.7265     6.7246     5.1266     4.9441
 1964.0000     8.4711   190.5990     2.4275     0.0048   -37.3378     9.6528     5.7860     5.3014
 1964.5000     8.4315   190.5926     2.4196     0.0087   -37.3369    13.6790     6.5302     5.6845
 1965.0000     8.3917   189.7997     2.4157     0.0087   -37.3363    15.2575     7.3701     6.0954
 1965.5000     8.3912   189.0100     2.4058     0.0087   -37.3354    15.5364     8.3180     6.5359
 1966.0000     8.3514   190.5669     2.4039     0.0087   -36.9467    14.9796     9.3879     7.0082
 1966.5000     8.3510   192.1270     2.4019     0.0086   -36.9458    16.4060    10.2018     7.9160
 1967.0000     8.3503   196.8172     2.4019     0.0086   -36.9452    16.7063    10.5776     8.2077
 1967.5000     8.3097   198.3775     2.3960     0.0086   -36.9444    19.6795    12.2265     8.6654
 1968.0000     8.3093   202.3140     2.3939     0.0046   -36.5557    18.2957    12.6768     8.6649
 1968.5000     8.3480   205.4427     2.3704     0.0046   -36.5548    16.1044    11.7894     8.9838
 1969.0000     8.3865   209.3455     2.3743     0.0007   -36.5543    17.3200    11.7891     8.9833
 1969.5000     8.3861   208.5529     2.3880     0.0046   -36.5534    17.9605    12.9052     8.9825
 1970.0000     8.3854   204.6220     2.4057     0.0124   -36.5528    17.9592    13.3806     8.9819
 1970.5000     8.3850   200.6957     2.4351     0.0163   -36.1639    16.6959    13.8729     8.9811
 1971.0000     8.3843   193.6308     2.4273     0.0181   -36.1633    17.3139    14.1256     9.4822
 1971.5000     8.3847   182.6457     2.4233     0.0181   -36.1625    20.0267    14.6453     9.4816
 1972.0000     8.3841   179.5020     2.4233     0.0179   -35.7739    19.3091    14.6443     9.4808
 1972.5000     8.3837   166.1765     2.4076     0.0177   -35.7731    19.6618    16.0316     9.4805
 1973.0000     8.3438   160.6819     2.3899     0.0176   -35.7725    18.9573    17.2347     9.4796
 1973.5000     8.3434   159.8915     2.3840     0.0174   -35.7716    18.9553    18.1953     9.4785
 1974.0000     8.3430   157.5306     2.3958     0.0172   -35.7711    20.6485    17.5460     9.6511
 1974.5000     8.3423   157.5236     2.4114     0.0170   -35.7702    20.0158    16.6174     9.6503
 1975.0000     8.4200   156.5097     2.4134     0.0168   -35.7697    19.6533    14.9035     9.6497
 1975.5000     8.3804   155.8510     2.4173     0.0167   -35.7688    19.6512    14.9030     9.6488
 1976.0000     8.4189   154.9287     2.4212     0.0165   -35.7682    19.6497    18.1825     9.6482
 1976.5000     8.4185   153.3545     2.4546     0.0163   -35.7674    19.6476    18.1809     9.6479
 1977.0000     8.4570   148.6424     2.4663     0.0161   -35.7668    20.3747    18.5122     9.3038
 1977.5000     8.4566   143.9336     2.4683     0.0159   -36.1539    20.3724    16.9117     9.4727
 1978.0000     8.5343   138.4374     2.4722     0.0158   -36.1533    20.3710    14.3669     9.4720
 1978.5000     8.5339   133.7283     2.4781     0.0156   -36.1525    19.2863    13.1218     9.4716
 1979.0000     8.5724   124.3133     2.4840     0.0154   -36.5398    19.2849    12.8854     9.4710
 1979.5000     8.6504   121.9548     2.4879     0.0152   -36.5389    18.2581    12.8841     9.4699
 1980.0000     8.6889   118.2414     2.4938     0.0150   -36.5384    17.6041    12.4250     9.4696
 1980.5000     8.6885   118.2338     2.4937     0.0149   -36.5375    17.6023    11.9818     9.4684
 1981.0000     8.6486   117.4387     2.4859     0.0147   -36.5369    17.6010    11.7661     9.2982
 1981.5000     8.7266   115.8637     2.4819     0.0145   -36.5361    14.6701    11.5538     9.4647
 1982.0000     8.8435   112.7172     2.4858     0.0143   -36.9233    15.2134    11.5530     9.4642
