~VERSION INFORMATION
 VERS.                2.0:   CWLS LOG ASCII STANDARD - VERSION 2.0
 WRAP.                 NO:   ONE LINE PER DEPTH STEP
~WELL INFORMATION
#MNEM.UNIT      DATA TYPE    INFORMATION
#----------   ------------   ------------------------------
 STRT.F           22.5000:   START DEPTH
 STOP.F         4120.0000:   STOP DEPTH
 STEP.F            0.5000:   STEP LENGTH
 NULL.          -999.2500:   NO VALUE
 COMP. LAWRENCE ALLISON & ASSOCIATES:   COMPANY
 WELL. LAWRENCE-ALLISON SHX #37-10:   WELL
 FLD .              N P R:   FIELD
 LOC .      S10 T38N R78W:   LOCATION
 CNTY.            NATRONA:   COUNTY
 STAT.            WYOMING:   STATE
 CTRY. UNITED STATES OF AMERICA:   COUNTRY
 SRVC.      DRESSER ATLAS:   SERVICE COMPANY
 DATE.        29-JUN-1983:   LOGDATE
 API .     49025107370001:   API NUMBER
~CURVE INFORMATION
#MNEM.UNIT       API CODE    CURVE DESCRIPTION
#----------   ------------   ------------------------------
 DEPT.F                  :   
 TEND.LBS    45 635 01 00:   TENSION FROM DENSITY LOG
 CORR.G/C3   45 356 01 00:   DENSITY CORRECTION
 NPHI.DEC    42 890 03 00:   NEUTRON POROSITY SANDSTONE
 CALD.IN     45 280 60 00:   CALIPER FROM DENSITY LOG
 GRR .GAPI   07 310 01 00:   GAMMA RAY FROM RESISTIVITY
 SPR .MV     07 010 01 00:   SPONTANEOUS POTENTIAL
 TENR.LBS    07 635 01 00:   TENSION FROM RESISTIVITY
 RILD.OHMM   07 120 46 00:   DEEP INDUCTION RESISTIVITY
 RILM.OHMM   07 120 44 00:   INDUCTION LOG MEDIUM RESISTIVITY
 RFOC.OHMM   07 220 04 00:   RESISTIVITY FOCUSED LOG RES.
 RHOB.G/C3   45 350 01 00:   BULK DENSITY
~PARAMETER INFORMATION
#MNEM.UNIT          VALUE    DESCRIPTION
#----------   ------------   ------------------------------
 EKB .F         5228.0000:   Kelly bushing
 EGL .F         5218.0000:   Ground level
 EDF .F            0.0000:   Drilling floor
 EPD .F         5218.0000:   Permanent datum
 TD  .F         4125.0000:   Total depth
 DATE.        29-JUN-1983:   Date logged
 CLNT.            A2DTECH:   Client Code
 SL  . 984' FWL & 1620' FEL:   Surface Location
 PD  .                 GL:   Permanent Datum
 DD  .F              4125:   Depth driller
 DL  .F              4107:   Depth logger
 BLI .F              4105:   Bottom log interval
 CS1 .IN              4.5:   Casing size
 CBD1.       4.5" @ 2213':   Casing driller 1
 CBL1.F              2213:   Casing logger 1
 BS1 .IN             6.25:   Bit size
 DFT .                KCL:   Type fluid in hole
 DFD .                8.8:   Density
 DFV .                 45:   Viscosity
 DFPH.                  9:   pH
 DFL .               10.8:   Fluid loss
 MSS .            MUDTANK:   Source of sample
 RMS .OHMM            .44:   Rm
 MST .F               108:   Rm Meas. temp.
 RMF .OHMM            .37:   Rmf
 MFST.F               108:   Rmf Meas. temp.
 RMC .OHMM            .55:   Rmc
 MCST.F               108:   Rmc Meas. temp.
 MFSS.               MEAS:   Source Rmf.
 RMB .OHMM            .36:   Rm. at BHT
 BHT .F               126:   BHT.
 TCS .HRS               2:   Time Circ. stopped
 MRT .F               126:   Maximum recorded temp.
 LUN .               6343:   Logging unit number
 LUL .                 FM:   Logging unit location
 ENGI.          I. GOVETT:   Recorded By
 WITN.          G. STRONG:   Witnessed by
 ORIG.     2.5", 5" PRINT:   Origin of data
 UWI .     49025107370001:   Unique Well ID
 DICO. A2D TECHNOLOGIES, INC.:   Digitizing Company
 DAPD.                 10:   Feet Above Permanent Datum
 BSD1.               4125:   Depth drilled with bit1
 MCSS.               CALC:   Source Rmc.
 TLI .               2213:   Top log interval
~OTHER INFORMATION
~A   DEPT     TEND       CORR       NPHI       CALD         GRR       SPR       TENR       RILD       RILM       RFOC       RHOB   
# ...
 2828.5000     9.9400     0.1190     0.2920     7.2830   194.3840   -35.2470     7.0610     1.5410     1.9350     3.0680     2.2960
 2829.0000     9.9400     0.1680     0.2730     7.3040   184.1560   -34.6080     7.1430     1.7310     2.4300     2.4430     2.2590
 2829.5000     9.9400     0.1790     0.2540     7.3230   176.4370   -34.4190     7.2260     1.9210     2.9260     2.2230     2.3650
 2830.0000     9.9400     0.1560     0.2360     7.3380   149.6000   -35.3980     7.3090     2.4670     3.4210     4.2340     2.4550
 2830.5000     9.9400     0.1370     0.1850     7.2940   113.6680   -36.3320     7.3910     3.1450     3.9160     5.7550     2.5630
 2831.0000     9.9400     0.1180     0.1880     7.2490   104.7290   -37.0130     7.4740     3.8230     4.4110     7.0310     2.5870
 2831.5000     9.9400     0.0980     0.1950     7.2020    97.8920   -37.2150     7.5570     4.5010     4.9070     6.8660     2.5900
 2832.0000     9.9400     0.0790     0.2020     7.1560    94.8460   -37.4240     7.6390     5.1790     5.4020     6.5790     2.5880
 2832.5000     9.9400     0.0640     0.2060     7.1100    95.1770   -37.6340     7.7220     5.8570     5.9970     6.1920     2.5960
 2833.0000     9.9400     0.0580     0.1880     7.0690    95.4550   -37.8480     7.8050     6.5360     6.9760     6.2400     2.6030
 2833.5000     9.9400     0.0700     0.1680     7.0670    95.7230   -37.7290     7.8870     7.4490     7.9540     6.5930     2.6180
 2834.0000     9.9400     0.1030     0.1480     7.0670    96.0350   -37.4200     7.9700     8.4130     8.9330     8.5450     2.6310
 2834.5000     9.9400     0.1100     0.1270     7.0670    94.5910   -37.2500     8.0520     9.3510     9.9110    11.1980     2.6260
 2835.0000     9.9400     0.0960     0.0980     7.0670    92.1970   -37.1270     8.1350    10.2600    10.8900    13.8500     2.6220
 2835.5000     9.9400     0.0670     0.1000     7.0670    84.8830   -37.0070     8.2180    11.1690    11.8680    18.1560     2.6170
 2836.0000     9.9400     0.0600     0.1040     7.0670    77.7480   -36.8860     8.3000    12.0770    12.8470    16.8840     2.6120
 2836.5000     9.9400     0.0550     0.1080     7.0670    74.8170   -36.7570     8.3830    12.9860    13.9000    13.6470     2.6080
 2837.0000     9.9400     0.0510     0.1120     7.0670    76.7390   -36.9430     8.4660    13.9000    14.1590    13.7710     2.6040
 2837.5000     9.9400     0.0420     0.1160     7.0670    78.5920   -37.2270     8.5480    13.6460    13.1120    13.9430     2.6030
 2838.0000     9.9400     0.0280     0.1190     7.0670    80.6060   -37.5150     8.6310    13.3010    12.1900    14.1150     2.6030
 2838.5000     9.9400     0.0210     0.1230     7.0670    82.7210   -37.8030     8.7130    12.7380    11.2470    14.2900     2.6040
 2839.0000     9.9400     0.0260     0.1270     7.0670    84.8240   -38.0390     8.7960    12.0110    10.6590    12.8700     2.6030
 2839.5000     9.9400     0.0260     0.1310     7.0670    85.9800   -38.2390     8.8790    11.2830    10.0580    11.4190     2.6060
 2840.0000     9.9400     0.0450     0.1420     7.0670    85.6280   -38.4560     8.9610    10.9520     9.6340     9.9680     2.6100
 2840.5000     9.9400     0.0800     0.1500     7.0670    85.8000   -38.6820     9.0440    10.7160     9.4610     8.8280     2.6280
 2841.0000     9.9400     0.1030     0.1470     7.0670    87.9910   -38.9090     9.1270    10.4790     9.2880     8.6900     2.6290
 2841.5000     9.9400     0.0940     0.1440     7.0670    90.0930   -39.1360     9.2090    10.2420     9.1140     9.1040     2.6310
 2842.0000     9.9400     0.0860     0.1400     7.0670    90.8790   -39.3620     9.2920     9.7980     8.9410     9.7380     2.6310
 2842.5000     9.9400     0.0880     0.1460     7.0670    87.3410   -39.5880     9.3740     9.2500     8.7710    10.3720     2.6250
 2843.0000     9.9400     0.0910     0.1530     7.0670    84.5420   -39.7300     9.4570     8.7020     8.6030    10.8780     2.6170
 2843.5000     9.9400     0.0940     0.1540     7.0670    86.4320   -39.7860     9.5400     8.1540     8.4350    10.2680     2.6090
 2844.0000     9.9400     0.0960     0.1640     7.0670    89.2520   -39.8440     9.6220     7.5690     8.2680     8.8940     2.6000
 2844.5000     9.9400     0.0840     0.1730     7.0670    96.1190   -39.8940     9.7050     7.6990     8.1000     6.8280     2.5950
 2845.0000     9.9400     0.0690     0.1790     7.0670   103.6340   -39.6060     9.7880     7.8390     7.9260     5.8480     2.5990
 2845.5000     9.9400     0.0560     0.1760     7.0670   101.6740   -39.2900     9.8700     7.9790     7.7810     6.3500     2.6020
 2846.0000     9.9400     0.0460     0.1690     7.0670    96.3560   -38.9680     9.9530     8.1180     7.8780     7.7110     2.6050
 2846.5000     9.9400     0.0530     0.1560     7.0670    91.0740   -39.0570    10.0360     8.4200     8.0120     8.4400     2.6080
 2847.0000     9.9400     0.0590     0.1530     7.0670    90.0080   -39.2400    10.1180     8.7660     8.1460     7.6560     2.6110
 2847.5000     9.9400     0.0820     0.1550     7.0670    89.8450   -39.1210    10.2010     9.1110     8.3780     7.2950     2.6150
 2848.0000     9.9400     0.0960     0.1530     7.0670    89.8010   -38.8270    10.2830     9.4560     8.7450     8.8500     2.6180
 2848.5000     9.9400     0.0980     0.1500     7.0670    84.6460   -38.5350    10.3660     9.8010     9.1120    10.5450     2.6190
 2849.0000     9.9400     0.0760     0.1480     7.0670    84.5290   -38.3240    10.4490    10.2570     9.4780    10.3800     2.6140
 2849.5000     9.9400     0.0660     0.1510     7.0670    86.8210   -38.3820    10.5310    10.1160     9.8450    10.1310     2.6090
 2850.0000     9.9400     0.0540     0.1550     7.0670    90.7650   -38.4340    10.6140     9.8860    10.0700     9.8830     2.6040
 2850.5000     9.9400     0.0630     0.1630     7.0690    96.1090   -38.4850    10.6970     9.6660     9.9280     9.6340     2.6000
 2851.0000     9.9400     0.0770     0.1710     7.0710   101.2750   -38.5360    10.7790     9.3550     9.8190     9.3860     2.5980
 2851.5000     9.8080     0.0870     0.1780     7.0740   105.2920   -38.5880    10.8620     9.4310     9.7100     9.2540     2.5960
 2852.0000     9.6960     0.0910     0.1860     7.0760   108.3160   -38.6380    10.9440     9.5350     9.4410     9.2080     2.5940
 2852.5000     9.5840     0.0830     0.1870     7.0790   107.1890   -38.6900    11.0270     9.6920     9.5530     9.1620     2.5920
 2853.0000     9.4720     0.0740     0.1870     7.0810   105.4910   -38.6040    11.1100     9.5230     9.6710     9.1170     2.5880
 2853.5000     9.3600     0.0710     0.1820     7.0840   103.0090   -38.4180    11.1920     9.0160     9.7890     9.0710     2.5820
 2854.0000     9.2470     0.0670     0.1760     7.0860   100.4710   -38.2310    11.2750     9.4000     9.9070     9.0260     2.5750
 2854.5000     9.1350     0.0600     0.1670     7.0890   100.3680   -38.0430    11.3580     9.7910    10.0240     8.9340     2.5730
 2855.0000     9.0230     0.0430     0.1550     7.0910    99.5540   -37.8550    11.4400    10.1810    10.2090     9.2690     2.5790
 2855.5000     8.9110     0.0430     0.1520     7.0940    97.6200   -37.6690    11.5230    10.5710    10.5430    10.6300     2.6030
 2856.0000     8.7990     0.0820     0.1470     7.0960    92.0690   -37.5350    11.6050    10.9620    10.8760    13.0330     2.6230
 2856.5000     8.6870     0.1030     0.1390     7.0990    87.0720   -37.6070    11.6880    11.5620    11.2100    12.7710     2.6190
 2857.0000     8.5750     0.0860     0.1400     7.1010    88.4270   -37.6770    11.7710    11.0150    11.4560    11.8860     2.6140
 2857.5000     8.4620     0.0680     0.1430     7.1040    91.2700   -37.8410    11.8530     9.8320    10.6660    12.0440     2.6080
 2858.0000     8.3500     0.0770     0.1580     7.1070    92.3240   -38.3200    11.9360     8.6490     9.9260    12.3780     2.6030
 2858.5000     8.2380     0.0910     0.1730     7.1200    94.5760   -38.7860    12.0190     7.4670     9.1870    12.6280     2.5860
