~VERSION INFORMATION
 VERS.                2.0:   CWLS LOG ASCII STANDARD - VERSION 2.0
 WRAP.                 NO:   ONE LINE PER DEPTH STEP
~WELL INFORMATION
#MNEM.UNIT      DATA TYPE    INFORMATION
#----------   ------------   ------------------------------
 STRT.F          196.5000:   START DEPTH
 STOP.F         3202.0000:   STOP DEPTH
 STEP.F            0.5000:   STEP LENGTH
 NULL.          -999.2500:   NO VALUE
 COMP.    FENIX & SCISSON:   COMPANY
 WELL.   FENIX "AX" #26-3:   WELL
 FLD .              NPR-3:   FIELD
 LOC .       S3 T38N R78W:   LOCATION
 CNTY.            NATRONA:   COUNTY
 STAT.            WYOMING:   STATE
 CTRY. UNITED STATES OF AMERICA:   COUNTRY
 SRVC.              WELEX:   SERVICE COMPANY
 DATE.        19-JUN-1977:   LOGDATE
 API .     49025103800000:   API NUMBER
~CURVE INFORMATION
#MNEM.UNIT       API CODE    CURVE DESCRIPTION
#----------   ------------   ------------------------------
 DEPT.F                  :   
 CALD.IN     45 280 60 00:   CALIPER FROM DENSITY LOG
 GRD .GAPI   45 310 01 00:   GAMMA RAY FROM DENSITY LOG
 RHOB.G/C3   45 350 01 00:   BULK DENSITY
 CORR.G/C3   45 356 01 00:   DENSITY CORRECTION
 SPR .MV     07 010 01 00:   SPONTANEOUS POTENTIAL
 ILD .OHMM   07 120 46 00:   DEEP INDUCTION RESISTIVITY
 ILM .OHMM   07 120 44 00:   INDUCTION LOG MEDIUM RESISTIVITY
 SGRD.OHMM   07 220 05 00:   SHALLOW SHORT GUARD RESISTIVITY
~PARAMETER INFORMATION
#MNEM.UNIT          VALUE    DESCRIPTION
#----------   ------------   ------------------------------
 EKB .F         5231.0000:   Kelly bushing
 EGL .F         5221.0000:   Ground level
 EDF .F            0.0000:   Drilling floor
 TD  .F         3204.0000:   Total depth
 CLNT.            A2DTECH:   Client Code
 SL  . 1320' FSL & 740' FWL:   Surface Location
 PD  .                 GL:   Permanent Datum
 EPD .F              5221:   Elevation Permanent Datum
 LMF .                 KB:   Log Measured From
 DMF .                 KB:   Drilling Measured From
 DAPD.F                10:   Feet Above Permanent Datum
 DATE.        19-JUN-1977:   Date Logged [DD-MMM-YYYY]
 DD  .F              3200:   Depth driller
 DL  .F              3204:   Depth logger
 BLI .F              3202:   Bottom log interval
 TLI .F               220:   Top log interval
 CS1 .IN            8.625:   Casing size
 CBD1.      8.625" @ 220':   Casing driller 1
 CBL1.F               220:   Casing logger 1
 BS1 .IN            7.875:   Bit size
 BSD1.F              3200:   Depth drilled with bit1
 DFT .                KCL:   Type fluid in hole
 DFD .                9.1:   Density
 RMS .OHMM           1.19:   Rm
 MST .F                65:   Rm Meas. temp.
 TCS .HRS               4:   Time Circ. stopped
 MRT .F               115:   Maximum recorded temp.
 LUN .               8766:   Logging unit number
 ENGI.          T. JOYNER:   Recorded By
 WITN.         PETTINGILL:   Witnessed by
 ORIG.           5" PRINT:   Origin of data
 UWI .     49025103800000:   Unique Well ID
 DICO. A2D TECHNOLOGIES, INC.:   Digitizing Company
 DFPH.                7.5:   pH
 DFL .                4.2:   Fluid loss
 MSS .            MUD PIT:   Source of sample
 RMF .OHMM           1.19:   Rmf
 MFST.F                65:   Rmf Meas. temp.
 MFSS.               MEAS:   Source Rmf.
 RMC .OHMM           2.01:   Rmc
 MCST.F                65:   Rmc Meas. temp.
 MCSS.               MEAS:   Source Rmc.
 RMB .OHMM            .67:   Rm. at BHT
 BHT .F               115:   BHT.
~OTHER INFORMATION
~A   DEPT     CALD         GRD      RHOB       CORR        SPR        ILD        ILM       SGRD   
# ...
 2748.0000    10.4337    71.7640     2.4594     0.0158   -44.8962     8.8557    10.0373     9.5760
 2748.5000    12.3681    70.9099     2.4564     0.0174   -45.0300     8.7386    10.1818    12.2816
 2749.0000    12.6229    71.2673     2.4534     0.0174   -45.1591     8.6243    10.3285    12.5465
 2749.5000    12.5953    72.7771     2.4505     0.0160   -45.1356     8.5717    10.3344    12.5550
 2750.0000    12.5821    73.7061     2.4513     0.0161   -45.2694     8.5769    10.2669    12.3065
 2750.5000    12.5551    72.5548     2.4522     0.0154   -45.3985     8.5821    10.2023    12.1442
 2751.0000    12.5423    71.3942     2.4554     0.0155   -45.3750     8.5873    10.2071    11.9059
 2751.5000    12.3812    70.8372     2.4616     0.0155   -45.3565     8.6519    10.0718    11.6702
 2752.0000    11.9774    72.3873     2.4648     0.0156   -45.4853     8.6584    10.0072    11.3607
 2752.5000    11.1843    74.5083     2.4611     0.0157   -45.6144     8.6627     9.9418    11.0469
 2753.0000     9.9344    77.2237     2.4580     0.0158   -45.5947     8.6689     9.9477    10.5947
 2753.5000     9.1064    79.3448     2.4534     0.0151   -45.5754     8.6741    10.0909     9.9202
 2754.0000     8.7223    74.9279     2.4621     0.0159   -45.5562     8.6788    10.1657     9.5908
 2754.5000     8.3615    74.0771     2.4576     0.0160   -45.5344     8.6842    10.3181    10.7897
 2755.0000     7.9393    73.8106     2.4592     0.0161   -45.5156     8.6899    10.3886    11.8085
 2755.5000     7.7780    74.1587     2.4624     0.0169   -45.6494     8.6342    10.3946    12.0633
 2756.0000     7.7202    77.1713     2.4656     0.0170   -45.7785     8.6406    10.3868    11.9865
 2756.5000     7.6932    73.0516     2.4672     0.0171   -45.7549     8.6753    10.2604    11.9966
 2757.0000     7.6954    74.2823     2.4657     0.0171   -45.8846     8.7115    10.1777    11.9220
 2757.5000     7.6976    75.5208     2.4619     0.0172   -45.8652     8.7165    10.1292    12.0251
 2758.0000     7.7022    77.6418     2.4584     0.0173   -45.8464     8.7220     9.9273    12.3680
 2758.5000     7.7619    79.4555     2.4529     0.0173   -45.9755     8.7282     9.6406    12.2897
 2759.0000     7.8235    76.5347     2.4509     0.0167   -45.9520     8.7335     9.4675    11.6365
 2759.5000     7.8851    77.1698     2.4565     0.0167   -46.0811     8.7388     9.3420    11.0877
 2760.0000     7.8725    78.6965     2.4581     0.0168   -46.2149     8.7441     9.2182    10.0759
 2760.5000     7.8895    77.5486     2.4567     0.0169   -46.1914     8.6880     9.0960     9.2200
 2761.0000     7.8917    74.3204     2.4522     0.0170   -46.1725     8.6946     9.0276    10.7372
 2761.5000     7.8790    73.7669     2.4499     0.0171   -46.1537     8.6999     8.9797    10.0273
 2762.0000     7.8663    73.2125     2.4516     0.0171   -45.8402     8.6454     8.9221     9.6928
 2762.5000     7.8388    72.9569     2.4549     0.0172   -45.5252     8.5324     8.8048     9.6301
 2763.0000     7.8410    75.1498     2.4503     0.0165   -45.5024     8.4716     8.6881    10.0436
 2763.5000     7.8437    78.7814     2.4434     0.0151   -45.1877     8.2550     8.3971    10.2590
 2764.0000     7.8310    80.8161     2.4363     0.0144   -44.8730     7.9805     8.0599    10.3355
 2764.5000     7.6969    79.9653     2.4270     0.0145   -44.5584     7.7152     7.7362    10.3411
 2765.0000     7.5117    79.1044     2.4183     0.0146   -43.9478     7.3567     7.3237    10.3467
 2765.5000     7.3265    79.1554     2.4160     0.0169   -43.6331     6.7776     6.7441    11.4409
 2766.0000     7.1415    81.5736     2.4154     0.0177   -43.0226     6.2440     5.9996    11.8907
 2766.5000     7.1134    83.1003     2.4031     0.0178   -42.4121     5.5962     5.0331    11.0283
 2767.0000     7.1162    84.6269     2.3808     0.0179   -41.5057     4.4311     4.3155     9.4814
 2767.5000     7.1183    86.1536     2.3570     0.0179   -40.5941     3.6818     3.9422     7.1508
 2768.0000     7.0903    87.0859     2.3308     0.0158   -39.6569     3.1870     3.8366     4.0095
 2768.5000     7.0776    88.3154     2.3170     0.0136   -38.0421     2.9352     3.9460     2.9620
 2769.0000     7.0803    88.9510     2.2846     0.0107   -36.6919     2.7819     4.7248     2.6910
 2769.5000     7.0825    88.3626     2.2565     0.0078   -35.7855     2.9412     6.1889     3.0064
 2770.0000     7.3116    88.1406     2.2249     0.0026   -34.8792     3.1964     7.3087     3.7505
 2770.5000     7.5077    90.5690     2.2123    -0.0018   -33.9728     3.5255     8.1669    10.9418
 2771.0000     7.6988    92.6900     2.2695    -0.0047   -33.0664     3.9387     8.8160    14.5704
 2771.5000     8.0130    97.7828     2.4413     0.0038   -32.3079     4.3951     9.3214    15.7617
 2772.0000     8.6833   101.6869     2.4476     0.0096   -31.5494     5.1168     9.8558    16.3233
 2772.5000     7.8390   104.1051     2.4477     0.0105   -30.6430     7.2733    10.4270    16.6734
 2773.0000     7.6475   106.2261     2.4470     0.0106   -29.7366     9.3887    10.9682    16.6824
 2773.5000     7.7245   106.5641     2.4440     0.0114   -28.8080    11.1586    11.9780    16.1259
 2774.0000     7.7267   106.0105     2.4411     0.0124   -27.8758    11.7286    13.3845    15.3744
 2774.5000     7.7735   103.6739     2.4412     0.0130   -26.8648    12.0782    14.3487    14.2593
 2775.0000     7.9242    99.2571     2.4405     0.0138   -26.1063    12.3117    14.5553    15.6047
 2775.5000     8.1813    94.0099     2.4390     0.0147   -25.4958    12.4042    14.5622    16.9597
 2776.0000     8.4147    83.5074     2.4376     0.0162   -25.1811    12.4118    14.3692    15.8369
 2776.5000     8.6891    74.4268     2.4447     0.0163   -24.8664    12.4193    14.0810    15.4159
 2777.0000     8.7210    69.7127     2.4471     0.0179   -24.5518    12.4268    13.6093    15.0068
 2777.5000     8.7677    67.3761     2.4426     0.0187   -24.5329    12.3490    13.1534    14.4065
 2778.0000     8.8294    65.6338     2.4396     0.0188   -24.6627    12.4419    12.9791    13.3616
 2778.5000     9.0098    63.2972     2.4359     0.0196   -24.7914    12.4494    12.8958    12.7389
 2779.0000    11.0923    60.9606     2.4313     0.0174   -24.9240    12.6297    12.7986    12.3140
 2779.5000    10.9459    59.5155     2.4252     0.0167   -25.0656    12.8126    12.7309    12.0684
 2780.0000    10.0862    58.9517     2.4223     0.0146   -25.6175    13.0103    12.9157    12.5848
 2780.5000     8.4981    59.2999     2.4293     0.0139   -25.8946    13.3710    13.0114    13.7722
 2781.0000     8.4710    59.3407     2.4341     0.0140   -26.1716    13.5646    13.1078    15.8168
 2781.5000     8.5480    57.8723     2.4366     0.0141   -26.4533    13.6665    13.3887    18.1680
 2782.0000     8.5947    54.8946     2.4374     0.0141   -26.7683    13.7693    13.4879    17.4707
 2782.5000     8.6415    51.7466     2.4367     0.0142   -27.0027    13.7776    13.4943    14.2880
 2783.0000     8.6882    50.0044     2.4314     0.0143   -27.4277    13.7860    13.3154    13.4356
 2783.5000     8.7499    49.1536     2.4253     0.0136   -27.7047    13.6057    13.1388    13.3487
 2784.0000     8.7966    48.8870     2.4223     0.0137   -27.8343    13.5206    13.1451    13.9218
 2784.5000     8.8557    49.5324     2.4232     0.0138   -28.1109    13.3438    13.4346    14.6180
 2785.0000     8.9236    50.7619     2.4272     0.0146   -28.5358    13.1678    13.7148    15.2436
 2785.5000     8.9915    52.5857     2.4320     0.0147   -28.8349    13.0778    13.5343    15.5705
 2786.0000     9.0594    55.0039     2.4351     0.0162   -28.9587    12.9158    13.3533    15.6867
 2786.5000     9.1273    56.2334     2.4407     0.0178   -29.2190    12.9256    12.9970    15.5871
 2787.0000     9.1952    55.6799     2.4463     0.0186   -29.3434    12.9334    12.8232    15.3822
 2787.5000     9.3027    55.1263     2.4478     0.0194   -29.4772    12.9413    12.6532    15.6043
 2788.0000     9.3792    56.9747     2.4480     0.0195   -29.4537    13.0386    12.6607    15.6130
