~VERSION INFORMATION
 VERS.                2.0:   CWLS LOG ASCII STANDARD - VERSION 2.0
 WRAP.                 NO:   ONE LINE PER DEPTH STEP
~WELL INFORMATION
#MNEM.UNIT      DATA TYPE    INFORMATION
#----------   ------------   ------------------------------
 STRT.F           36.0000:   START DEPTH
 STOP.F         3488.0000:   STOP DEPTH
 STEP.F            0.5000:   STEP LENGTH
 NULL.          -999.2500:   NO VALUE
 COMP. LAWRENCE - ALLISON  & ASSOCIATE:   COMPANY
 WELL. LAWRENCE "STX" #76-23:   WELL
 FLD .              NPR 3:   FIELD
 LOC .      S23 T38N R78W:   LOCATION
 CNTY.            NATRONA:   COUNTY
 STAT.            WYOMING:   STATE
 CTRY. UNITED STATES OF AMERICA:   COUNTRY
 SRVC.       SCHLUMBERGER:   SERVICE COMPANY
 DATE.        07-MAY-1982:   LOGDATE
 API .     49025108920000:   API NUMBER
~CURVE INFORMATION
#MNEM.UNIT       API CODE    CURVE DESCRIPTION
#----------   ------------   ------------------------------
 DEPT.F                  :   
 CORR.G/C3   45 356 01 00:   DENSITY CORRECTION
 CALD.IN     45 280 60 00:   CALIPER FROM DENSITY LOG
 GRD .GAPI   45 310 01 00:   GAMMA RAY FROM DENSITY LOG
 RHOB.G/C3   45 350 01 00:   BULK DENSITY
 SFL .OHMM   07 220 01 00:   SHALLOW FOCUSED LOG RESISTIVITY
 ILD .OHMM   07 120 46 00:   DEEP INDUCTION RESISTIVITY
 ILM .OHMM   07 120 44 00:   INDUCTION LOG MEDIUM RESISTIVITY
 TENR.LBS    07 635 01 00:   TENSION
 SPR .MV     07 010 01 00:   SPONTANEOUS POTENTIAL
 NPHI.DEC    42 890 03 00:   NEUTRON POROSITY SANDSTONE
 TEND.LBS    45 635 01 00:   TENSION FROM DENSITY LOG
~PARAMETER INFORMATION
#MNEM.UNIT          VALUE    DESCRIPTION
#----------   ------------   ------------------------------
 EKB .F         5441.0000:   Kelly bushing
 EGL .F         5431.0000:   Ground level
 EDF .F            0.0000:   Drilling floor
 EPD .F            0.0000:   Permanent datum
 TD  .F         3788.0000:   Total depth
 DATE.        07-MAY-1982:   Date logged
 CLNT.            A2DTECH:   Client Code
 SL  . 1327' FSL & 1190' FEL:   Surface Location
 PD  .                 GL:   Permanent Datum
 DAPD.F                10:   Feet Above Permanent Datum
 DD  .F              3788:   Depth driller
 DL  .F              3478:   Depth logger
 BLI .F              3471:   Bottom log interval
 TLI .F              1615:   Top log interval
 CS1 .IN            9.625:   Casing size
 CBD1.     9.625" @ 1603':   Casing driller 1
 CBL1.F              1615:   Casing logger 1
 BS1 .IN            7.875:   Bit size
 BSD1.F              3788:   Depth drilled with bit1
 DFT .                AIR:   Type fluid in hole
 TCS .HRS            1230:   Time Circ. stopped
 TLAB.HRS            1500:   Time logger at bottom
 MRT .F               125:   Maximum recorded temp.
 LUN .               8035:   Logging unit number
 LUL .               CSPR:   Logging unit location
 ENGI.              PENNY:   Recorded By
 WITN.    JENNINGS/STRONG:   Witnessed by
 ORIG.       2.5"5" PRINT:   Origin of data
 UWI .     49025108920000:   Unique Well ID
 DICO. A2D TECHNOLOGIES, INC.:   Digitizing Company
~OTHER INFORMATION
~A   DEPT       CORR     CALD        GRD         RHOB      SFL        ILD        ILM       TENR        SPR        NPHI      TEND   
# ...
  707.0000     0.0430    12.7390    94.1910     2.4820     5.9590     5.7110     5.7110   675.9590    -5.3780     0.4030  1120.3521
  707.5000     0.0340    12.7380    91.8760     2.4790     6.0740     5.7110     5.6710   676.3510    -5.3780     0.3880  1120.4790
  708.0000     0.0230    12.7360    88.6990     2.4600     6.1510     5.6710     5.5950   676.7420    -5.3780     0.3770  1120.6060
  708.5000     0.0120    12.7360    86.4360     2.4410     6.1510     5.5500     5.5190   677.1330    -5.3780     0.3670  1120.7340
  709.0000     0.0060    12.7380    87.9530     2.4280     5.9270     5.4290     5.4430   677.5240    -5.3790     0.3720  1120.8610
  709.5000     0.0080    12.7400    92.1780     2.4220     5.7300     5.3090     5.3670   677.9150    -5.3780     0.3800  1120.9880
  710.0000     0.0100    12.7410    94.8540     2.4260     5.5330     5.1880     5.2920   678.3070    -5.3790     0.4000  1121.1160
  710.5000     0.0120    12.7430    95.2100     2.4320     5.3360     5.0670     5.2160   678.6980    -5.3790     0.3950  1121.2430
  711.0000     0.0130    12.7450    92.2800     2.4380     5.1390     4.9460     5.1400   679.0890    -5.3760     0.3890  1121.3700
  711.5000     0.0110    12.7460    86.2470     2.4450     4.9410     4.8250     5.0640   679.4800    -5.4180     0.3830  1121.4980
  712.0000     0.0030    12.7480    80.4780     2.4540     4.7430     4.7040     4.9880   679.8710    -5.5630     0.3800  1121.6250
  712.5000    -0.0080    12.7500    73.4200     2.4650     4.6550     4.6550     4.9120   680.2630    -5.7060     0.3990  1121.7520
  713.0000     0.0010    12.7510    76.3110     2.4790     5.0940     4.7500     4.8360   680.6540    -5.8460     0.4150  1121.8790
  713.5000     0.0250    12.7530    81.9260     2.4900     5.4600     4.8290     4.7600   681.0450    -6.0020     0.4170  1122.0070
  714.0000     0.0420    12.7550    87.5250     2.4830     5.8180     4.9080     4.6550   681.4360    -6.1130     0.4070  1122.1340
  714.5000     0.0320    12.7570    91.3500     2.4660     4.8320     4.9870     4.6840   681.8280    -5.6260     0.3880  1122.2610
  715.0000     0.0230    12.7580    91.7650     2.4510     4.9260     5.0660     4.8100   682.2190    -5.1490     0.3690  1122.3890
  715.5000     0.0180    12.7600    92.0350     2.4500     5.1430     5.1450     4.9350   682.6100    -5.9180     0.3640  1122.5160
  716.0000     0.0160    12.7620    92.2870     2.4460     5.3610     5.2240     5.0610   683.0010    -5.9520     0.3670  1122.6429
  716.5000     0.0150    12.7630    92.1300     2.4410     5.5780     5.3030     5.1870   683.3920    -6.1540     0.3700  1122.7710
  717.0000     0.0140    12.7650    90.2930     2.4400     5.7950     5.3830     5.3120   683.7840    -6.3010     0.3700  1122.8979
  717.5000     0.0120    12.7670    89.2550     2.4510     6.0380     5.4620     5.4380   684.1750    -6.4530     0.3620  1123.0250
  718.0000     0.0120    12.7690    90.2570     2.4540     6.1510     5.5020     5.5020   684.5660    -6.5520     0.3530  1123.1520
  718.5000     0.0120    12.7700    91.7170     2.4520     5.9020     5.4510     5.4350   684.9570    -6.4520     0.3450  1123.2800
  719.0000     0.0120    12.7720    91.2060     2.4470     5.6730     5.4040     5.3740   685.3490    -6.3610     0.3420  1123.4070
  719.5000     0.0120    12.7740    90.3480     2.4410     5.4010     5.3560     5.3130   685.7400    -6.2630     0.3570  1123.5341
  720.0000     0.0100    12.7510    91.3660     2.4400     5.4080     5.3090     5.2510   686.1310    -6.1670     0.3690  1123.6620
  720.5000     0.0090    12.7470    93.0820     2.4400     5.4230     5.2620     5.1900   686.5220    -6.0730     0.3810  1123.7889
  721.0000     0.0070    12.7410    94.8030     2.4430     5.4370     5.2150     5.1280   686.9130    -5.9730     0.3830  1123.9160
  721.5000     0.0090    12.7450    96.2410     2.4430     5.4510     5.1670     5.0670   687.3050    -5.8830     0.3820  1124.0439
  722.0000     0.0090    12.8150    94.7690     2.4370     5.4650     5.1080     5.0140   687.6960    -5.7900     0.3760  1124.1710
  722.5000     0.0060    12.8860    92.4380     2.4310     5.4790     5.1480     5.0140   688.0870    -5.9260     0.3710  1124.2980
  723.0000     0.0030    12.9570    90.1170     2.4270     5.4930     5.2600     5.1080   688.4780    -6.0820     0.3670  1124.4250
  723.5000     0.0020    13.0310    87.8010     2.4320     5.5020     5.3710     5.1500   688.8690    -6.2440     0.3640  1124.5530
  724.0000     0.0160    13.0490    86.8530     2.4410     5.6200     5.4830     5.2620   689.2610    -6.4030     0.3520  1124.6801
  724.5000     0.0340    13.0470    88.3750     2.4560     5.7400     5.5940     5.3730   689.6520    -6.5610     0.3430  1124.8070
  725.0000     0.0290    12.9510    89.8590     2.4680     5.8600     5.7060     5.4850   690.0430    -6.7180     0.3460  1124.9351
  725.5000     0.0220    12.8520    90.5020     2.4590     5.9810     5.8170     5.5960   690.4340    -6.8920     0.3490  1125.0620
  726.0000     0.0150    12.7570    90.9590     2.4460     6.1010     5.9290     5.7080   690.8260    -6.9370     0.3510  1125.1890
  726.5000     0.0080    12.7530    90.8760     2.4350     6.2660     6.0380     5.8190   691.2170    -6.8070     0.3510  1125.3170
  727.0000     0.0070    12.7520    90.6940     2.4430     6.1480     6.0570     5.9310   691.6080    -6.7050     0.3490  1125.4440
  727.5000     0.0210    12.7510    90.4910     2.4530     5.9600     6.0760     6.0380   691.9990    -6.5850     0.3480  1125.5710
  728.0000     0.0140    12.7500    90.9330     2.4600     5.8450     6.0960     6.0490   692.3900    -6.6170     0.3510  1125.6980
  728.5000     0.0070    12.7490    91.6620     2.4490     5.9580     6.1150     6.0600   692.7820    -6.6660     0.3520  1125.8260
  729.0000     0.0010    12.7470    92.2140     2.4370     6.0710     6.1340     6.0710   693.1730    -6.7190     0.3400  1125.9530
  729.5000    -0.0020    12.7460    91.7400     2.4310     6.1840     6.1530     6.0820   693.5640    -6.7680     0.3300  1126.0800
  730.0000     0.0010    12.7450    90.7850     2.4360     6.2660     6.1720     6.0930   693.9550    -6.8180     0.3250  1126.2080
  730.5000     0.0030    12.7440    89.8120     2.4480     6.2660     6.1920     6.1040   694.3460    -6.8720     0.3290  1126.3350
  731.0000     0.0070    12.7420    89.3550     2.4530     6.3360     6.2110     6.1150   694.7380    -6.9170     0.3330  1126.4620
  731.5000     0.0070    12.7410    89.0360     2.4520     6.4010     6.2300     6.1260   695.1290    -6.9610     0.3380  1126.5900
  732.0000     0.0030    12.7400    89.1580     2.4480     6.4660     6.2490     6.1370   695.5200    -6.8100     0.3340  1126.7170
  732.5000     0.0000    12.7390    90.8810     2.4350     6.5300     6.2650     6.1480   695.9110    -6.6450     0.3260  1126.8440
  733.0000     0.0030    12.7370    93.0170     2.4210     6.6250     6.2470     6.0530   696.3030    -6.4740     0.3190  1126.9709
  733.5000     0.0090    12.7360    93.5260     2.4150     6.3850     6.2320     5.9180   696.6940    -6.3100     0.3290  1127.0990
  734.0000     0.0140    12.7350    93.9650     2.4120     5.9330     6.2160     5.7830   697.0850    -6.1360     0.3550  1127.2260
  734.5000     0.0180    12.7340    94.4150     2.4090     5.4810     6.1990     5.6490   697.4760    -5.9750     0.3980  1127.3530
  735.0000     0.0130    12.7320    94.8110     2.4090     5.0290     6.1830     5.5140   697.8670    -5.7950     0.4030  1127.4810
  735.5000     0.0070    12.7310    93.7960     2.4100     4.8320     6.1680     5.4010   698.2590    -5.7680     0.3870  1127.6080
  736.0000     0.0020    12.7300    93.1420     2.4120     5.2750     6.1520     5.4930   698.6500    -5.8720     0.3680  1127.7350
  736.5000    -0.0020    12.7290    92.7390     2.4140     5.6550     6.1970     5.5720   699.0410    -6.0620     0.3520  1127.8630
  737.0000    -0.0010    12.7270    92.3760     2.4180     6.0380     6.2420     5.6520   699.4320    -6.1750     0.3450  1127.9900
