~VERSION INFORMATION
 VERS.                2.0:   CWLS LOG ASCII STANDARD - VERSION 2.0
 WRAP.                 NO:   ONE LINE PER DEPTH STEP
~WELL INFORMATION
#MNEM.UNIT      DATA TYPE    INFORMATION
#----------   ------------   ------------------------------
 STRT.F          209.5000:   START DEPTH
 STOP.F         3130.0000:   STOP DEPTH
 STEP.F            0.5000:   STEP LENGTH
 NULL.          -999.2500:   NO VALUE
 COMP. FENIX & SCISSON-U.S. NAVY:   COMPANY
 WELL.   FENIX "A" #66-29:   WELL
 FLD .              NPR 3:   FIELD
 LOC .      S29 T39N R78W:   LOCATION
 CNTY.            NATRONA:   COUNTY
 STAT.            WYOMING:   STATE
 CTRY. UNITED STATES OF AMERICA:   COUNTRY
 SRVC.       SCHLUMBERGER:   SERVICE COMPANY
 DATE.        12-JUN-1977:   LOGDATE
 API .     49025103850000:   API NUMBER
~CURVE INFORMATION
#MNEM.UNIT       API CODE    CURVE DESCRIPTION
#----------   ------------   ------------------------------
 DEPT.F                  :   
 CALD.IN     45 280 60 00:   CALIPER FROM DENSITY LOG
 GRD .GAPI   45 310 01 00:   GAMMA RAY FROM DENSITY LOG
 RHOB.G/C3   45 350 01 00:   BULK DENSITY
 CORR.G/C3   45 356 01 00:   DENSITY CORRECTION
 LL8 .OHMM   07 220 08 00:   LATEROLOG-8 RES.
 ILD .OHMM   07 120 46 00:   DEEP INDUCTION RESISTIVITY
 ILM .OHMM   07 120 44 00:   INDUCTION LOG MEDIUM RESISTIVITY
 SPR .MV     07 010 01 00:   SPONTANEOUS POTENTIAL
~PARAMETER INFORMATION
#MNEM.UNIT          VALUE    DESCRIPTION
#----------   ------------   ------------------------------
 EKB .F         5058.0000:   Kelly bushing
 EGL .F         5048.0000:   Ground level
 EDF .F            0.0000:   Drilling floor
 TD  .F         3120.0000:   Total depth
 DATE.        12-JUN-1977:   Date logged
 CLNT.            A2DTECH:   Client Code
 SL  . 1650' FSL & 1650' FEL:   Surface Location
 PD  .                 GL:   Permanent Datum
 EPD .F              5048:   Elevation Permanent Datum
 LMF .                 KB:   Log Measured From
 DMF .                 KB:   Drilling Measured From
 DAPD.F                10:   Feet Above Permanent Datum
 DD  .F              3120:   Depth driller
 DL  .F              3120:   Depth logger
 BLI .F              3120:   Bottom log interval
 TLI .F               219:   Top log interval
 CS1 .IN            8.625:   Casing size
 CBD1.      8.625" @ 225':   Casing driller 1
 CBL1.F               219:   Casing logger 1
 BS1 .IN            7.875:   Bit size
 BSD1.F              3120:   Depth drilled with bit1
 DFT .            KCL MUD:   Type fluid in hole
 DFD .                8.8:   Density
 DFV .                 32:   Viscosity
 DFPH.                7.5:   pH
 DFL .                  8:   Fluid loss
 MSS .              CIRC.:   Source of sample
 RMS .OHMM           2.01:   Rm
 MST .F                72:   Rm Meas. temp.
 RMF .OHMM            1.9:   Rmf
 MFST.F                72:   Rmf Meas. temp.
 RMC .OHMM           3.02:   Rmc
 MCST.F                72:   Rmc Meas. temp.
 MFSS.               MEAS:   Source Rmf.
 MCSS.               CALC:   Source Rmc.
 RMB .OHMM           1.21:   Rm. at BHT
 BHT .F               120:   BHT.
 TCS .HRS            1400:   Time Circ. stopped
 TLAB.HRS            1730:   Time logger at bottom
 MRT .F               120:   Maximum recorded temp.
 LUN .               7711:   Logging unit number
 LUL .               CSPR:   Logging unit location
 ENGI.             SAYLER:   Recorded By
 WITN.             RHODES:   Witnessed by
 ORIG.           5" PRINT:   Origin of data
 UWI .     49025103850000:   Unique Well ID
 DICO. A2D TECHNOLOGIES, INC.:   Digitizing Company
~OTHER INFORMATION
~A   DEPT     CALD         GRD      RHOB       CORR        LL8        ILD        ILM        SPR   
# ...
 2518.0000     8.9439   117.1461     2.5813     0.0205     8.1364     7.2241     7.0286   -27.6119
 2518.5000     8.9439   117.3437     2.5643     0.0015     8.0625     7.2244     6.9014   -27.8094
 2519.0000     8.9439   116.7508     2.5564     0.0006     7.9166     7.1588     6.8388   -27.8094
 2519.5000     8.9439   116.5531     2.5623     0.0045     7.8448     7.1591     6.7767   -28.2044
 2520.0000     8.9439   116.1579     2.5673     0.0075     7.7736     7.0941     6.7153   -28.0069
 2520.5000     8.9637   115.3674     2.5743     0.0115     7.7739     6.9023     6.5938   -28.0069
 2521.0000     8.9834   117.3437     2.5813     0.0105     7.7576     6.8397     6.5339   -27.8094
 2521.5000     8.9834   120.5057     2.5653     0.0105     7.7578     6.7776     6.4747   -27.4143
 2522.0000     8.9834   124.4583     2.5673     0.0155     7.6875     6.7162     6.3575   -27.0193
 2522.5000     8.9834   123.4701     2.5554     0.0065     7.4799     6.5346     6.1857   -26.4267
 2523.0000     8.9834   122.2844     2.5375     0.0026     7.3448     6.3001     5.9636   -26.2291
 2523.5000     9.0032   123.2725     2.5434    -0.0004     7.0815     6.0186     5.8024   -26.0316
 2524.0000     8.9834   125.6441     2.5464     0.0026     6.9536     5.7498     5.6456   -26.0316
 2524.5000     8.9834   128.4109     2.5554     0.0006     6.7659     5.6458     5.5944   -25.6365
 2525.0000     8.9834   128.6085     2.5514     0.0026     6.1194     5.6460     5.5436   -25.4390
 2525.5000     8.9834   127.6203     2.5355     0.0046     5.9001     5.6461     5.5947   -25.8341
 2526.0000     8.9834   126.0393     2.5395     0.0046     6.1198     5.7506     5.6982   -26.2291
 2526.5000     8.9834   122.4820     2.5444     0.0026     7.0185     5.8569     5.7508   -26.2291
 2527.0000     9.0032   119.7152     2.5514     0.0006     7.4141     5.9653     5.8038   -26.4267
 2527.5000     9.0032   117.5413     2.5445    -0.0004     7.3469     6.0756     5.8573   -26.6242
 2528.0000     9.0032   116.9484     2.5435    -0.0024     7.2142     6.1880     5.9113   -27.0193
 2528.5000     9.0032   116.7508     2.5355    -0.0024     7.1488     6.2450     5.9659   -27.2168
 2529.0000     9.0032   118.7271     2.5435     0.0016     7.1491     6.2452     5.9661   -27.4143
 2529.5000     8.9834   121.6915     2.5474     0.0056     7.1493     6.2454     5.9663   -27.6119
 2530.0000     8.9834   123.6678     2.5524     0.0046     7.1495     6.1888     5.9665   -27.8094
 2530.5000     8.9637   126.0393     2.5584     0.0036     7.1498     6.1890     5.9667   -28.0069
 2531.0000     8.9439   126.2369     2.5524     0.0076     7.1500     6.1329     5.9669   -28.0069
 2531.5000     8.9241   126.4346     2.5475     0.0076     7.0852     6.0772     5.9671   -27.8094
 2532.0000     8.9044   126.6322     2.5405    -0.0014     6.8940     6.0774     5.9130   -27.2168
 2532.5000     8.9044   126.4346     2.5295    -0.0034     6.7695     6.0223     5.8593   -27.0193
 2533.0000     8.9044   126.4346     2.5495    -0.0044     6.7082     5.9677     5.8062   -26.6242
 2533.5000     8.9044   126.6322     2.5505    -0.0014     6.7699     5.9679     5.8064   -26.0316
 2534.0000     8.9044   125.2488     2.5455    -0.0014     6.8949     5.9681     5.8066   -26.0316
 2534.5000     8.9241   121.0986     2.5395    -0.0014     6.7704     6.0231     5.8601   -25.4390
 2535.0000     8.9439   120.7033     2.5495     0.0016     6.8327     6.1345     5.9685   -25.2415
 2535.5000     8.9439   122.0867     2.5584     0.0036     7.0871     6.3633     6.1347   -25.0440
 2536.0000     8.9439   123.2725     2.5624     0.0056     7.3510     6.6612     6.3056   -24.4514
 2536.5000     8.9637   126.0393     2.5724     0.0135     7.6947     6.9731     6.5407   -24.6489
 2537.0000     8.9637   126.2369     2.5724     0.0255     8.0544     7.2331     6.7846   -24.8464
 2537.5000     8.9439   120.1105     2.5654     0.0076     8.5863     7.5029     6.9736   -24.8464
 2538.0000     8.9439   118.7271     2.5754     0.0066     8.9877     7.6416     7.2336   -25.2415
 2538.5000     8.9439   116.3555     2.5674     0.0006     9.4942     7.8544     7.5034   -25.0440
 2539.0000     8.9439   114.7745     2.5614    -0.0024     9.5816     8.0731     7.6421   -25.2415
 2539.5000     8.9439   112.6006     2.5565    -0.0054     9.4948     8.1475     7.7834   -25.6365
 2540.0000     8.9439   110.6243     2.5565    -0.0103     8.9889     8.2227     7.7837   -25.8341
 2540.5000     8.9834   112.9959     2.5704     0.0126     8.6667     8.2229     7.7838   -26.2291
 2541.0000     8.9834   115.7627     2.5585    -0.0004     8.5882     8.2987     7.7842   -26.4267
 2541.5000     9.0032   118.7271     2.5505    -0.0024     8.5885     8.2989     7.7844   -26.8217
 2542.0000     9.0032   120.9010     2.5614     0.0066     8.5888     8.2992     7.7846   -26.8217
 2542.5000     9.0032   120.5057     2.5654    -0.0014     8.5890     8.2995     7.7849   -27.0193
 2543.0000     9.0032   119.5176     2.5664    -0.0004     8.6681     8.2997     7.7143   -26.8217
 2543.5000     9.0032   118.9247     2.5405    -0.0034     8.6684     8.3000     7.7145   -26.4267
 2544.0000     8.9637   116.5531     2.5495    -0.0024     8.7481     8.3002     7.7148   -26.2291
 2544.5000     9.0032   118.5295     2.5535     0.0006     8.8286     8.3006     7.7150   -25.8341
 2545.0000     9.0230   119.9129     2.5724     0.0066     8.9099     8.3008     7.6451   -25.4390
 2545.5000     9.0230   119.9129     2.5654     0.0076     8.9919     8.1507     7.5757   -25.0440
 2546.0000     9.0230   117.1461     2.5565     0.0021     8.9922     8.0767     7.5070   -25.0440
 2546.5000     9.0230   113.3911     2.5575    -0.0004     8.9925     8.0035     7.4389   -24.8464
 2547.0000     9.0230   114.9721     2.5625    -0.0034     8.9928     7.8587     7.2379   -24.4514
 2547.5000     9.0230   117.7389     2.5694    -0.0044     8.9113     7.7874     7.1069   -24.2538
 2548.0000     9.0230   119.1223     2.5575    -0.0093     8.6709     7.7168     6.9784   -24.2538
 2548.5000     9.0032   121.8891     2.5565    -0.0044     7.9145     7.5772     6.8521   -24.8464
 2549.0000     9.0032   122.0867     2.5645    -0.0044     7.7882     7.5084     6.8523   -25.0440
 2549.5000     9.0032   123.4701     2.5764    -0.0034     7.7175     7.4403     6.8525   -25.2415
 2550.0000     9.0032   124.4583     2.5694    -0.0034     7.7886     7.3058     6.8709   -25.2415
 2550.5000     9.0032   126.0393     2.5485    -0.0014     8.0614     7.3060     6.8893   -25.8341
 2551.0000     9.0032   122.4820     2.5475     0.0046     7.9884     7.3062     6.9079   -26.0316
 2551.5000     9.0032   121.8891     2.5645     0.0106     8.0619     7.3065     6.9264   -26.4267
 2552.0000     9.0032   122.0867     2.5386     0.0046     8.1361     7.3067     6.9450   -26.6242
 2552.5000     9.0032   123.6678     2.5485    -0.0033     8.2863     7.2404     6.9637   -26.8217
 2553.0000     9.0032   121.6915     2.5545    -0.0103     8.4392     7.2407     6.9807   -26.8217
 2553.5000     9.0032   120.5057     2.5655     0.0046     8.3628     7.2409     6.9809   -27.0193
 2554.0000     8.9637   120.5057     2.5734     0.0136     8.1371     7.2412     6.9811   -27.0193
 2554.5000     8.9637   120.7033     2.5625     0.0126     8.1374     7.2414     6.9813   -27.0193
 2555.0000     8.9637   121.8891     2.5525     0.0016     8.0637     7.3081     6.9816   -26.8217
 2555.5000     8.9439   123.0749     2.5525    -0.0004     8.2125     7.3084     6.9818   -26.6242
 2556.0000     8.9241   120.3081     2.5525    -0.0053     8.2128     7.4435     7.0462   -26.0316
 2556.5000     8.9241   118.1342     2.5635    -0.0013     8.4411     7.4437     7.1111   -25.6365
 2557.0000     8.9439   117.7389     2.5725    -0.0023     8.4414     7.5123     7.1767   -25.2415
 2557.5000     8.9439   116.3555     2.5645    -0.0063     8.3649     7.5816     7.2428   -25.0440
 2558.0000     8.9439   115.5650     2.5336    -0.0153     8.2892     7.5818     7.3097   -24.8464
