~VERSION INFORMATION
 VERS.                2.0:   CWLS LOG ASCII STANDARD - VERSION 2.0
 WRAP.                 NO:   ONE LINE PER DEPTH STEP
~WELL INFORMATION
#MNEM.UNIT      DATA TYPE    INFORMATION
#----------   ------------   ------------------------------
 STRT.F          200.0000:   START DEPTH
 STOP.F         3160.0000:   STOP DEPTH
 STEP.F            0.5000:   STEP LENGTH
 NULL.          -999.2500:   NO VALUE
 COMP.    FENIX & SCISSON:   COMPANY
 WELL. FENIX NPR 3 "AX" #72-3:   WELL
 FLD .             TEAPOT:   FIELD
 LOC .       S3 T38N R78W:   LOCATION
 CNTY.            NATRONA:   COUNTY
 STAT.            WYOMING:   STATE
 CTRY. UNITED STATES OF AMERICA:   COUNTRY
 SRVC.           BIRDWELL:   SERVICE COMPANY
 DATE.        10-JAN-1978:   LOGDATE
 API .     49025105530000:   API NUMBER
~CURVE INFORMATION
#MNEM.UNIT       API CODE    CURVE DESCRIPTION
#----------   ------------   ------------------------------
 DEPT.F                  :   
 CALD.IN     45 280 60 00:   CALIPER FROM DENSITY LOG
 GRD .GAPI   45 310 01 00:   GAMMA RAY FROM DENSITY LOG
 DEN .LBS    45 635 01 00:   BUCK DENSITY
 CORR.G/C3   45 356 01 00:   DENSITY CORRECTION
 SPR .MV     07 010 01 00:   SPONTANEOUS POTENTIAL
 ILD .OHMM   07 120 46 00:   DEEP INDUCTION RESISTIVITY
 ILM .OHMM   07 120 44 00:   INDUCTION LOG MEDIUM RESISTIVITY
~PARAMETER INFORMATION
#MNEM.UNIT          VALUE    DESCRIPTION
#----------   ------------   ------------------------------
 EKB .F         5164.0000:   Kelly bushing
 EGL .F         5153.0000:   Ground level
 TD  .F         3157.0000:   Total depth
 DATE.        10-JAN-1978:   Date logged
 CLNT.            A2DTECH:   Client Code
 SL  . 900' FNL & 900' FEL:   Surface Location
 PD  .                 GL:   Permanent Datum
 EPD .F              5153:   Elevation Permanent Datum
 LMF .                 KB:   Log Measured From
 DMF .                 KB:   Drilling Measured From
 DAPD.F                11:   Feet Above Permanent Datum
 DD  .F              3156:   Depth driller
 DL  .F              3157:   Depth logger
 BLI .F              3157:   Bottom log interval
 TLI .F               200:   Top log interval
 CS1 .IN            8.625:   Casing size
 CBD1.      8.625" @ 222':   Casing driller 1
 CBL1.F               220:   Casing logger 1
 BS1 .IN            7.875:   Bit size
 BSD1.F              3156:   Depth drilled with bit1
 DFT .                KCL:   Type fluid in hole
 DFD .                8.5:   Density
 DFV .                 36:   Viscosity
 DFPH.                 10:   pH
 DFL .                8.8:   Fluid loss
 MSS .           FLOWLINE:   Source of sample
 RMS .OHMM            1.4:   Rm
 MST .F                66:   Rm Meas. temp.
 RMF .OHMM            .85:   Rmf
 MFST.F                74:   Rmf Meas. temp.
 RMC .OHMM            1.4:   Rmc
 MCST.F                72:   Rmc Meas. temp.
 MFSS.               MEAS:   Source Rmf.
 MCSS.               MEAS:   Source Rmc.
 RMB .OHMM            .83:   Rm. at BHT
 BHT .F               112:   BHT.
 TCS .HRS               4:   Time Circ. stopped
 MRT .F               112:   Maximum recorded temp.
 LUN .               2958:   Logging unit number
 LUL .             CASPER:   Logging unit location
 ENGI.            POINTER:   Recorded By
 WITN.         HARRINGTON:   Witnessed by
 ORIG.           5" PRINT:   Origin of data
 UWI .     49025105530000:   Unique Well ID
 DICO. A2D TECHNOLOGIES, INC.:   Digitizing Company
~OTHER INFORMATION
~A   DEPT     CALD        GRD          DEN     CORR        SPR        ILD        ILM   
# ...
 2702.5000     9.3163    80.7636     2.4149     0.0592   -49.3920    15.9681    21.6448
 2703.0000     9.3165    81.1621     2.4159     0.0572   -49.3900    15.9682    22.2516
 2703.5000     9.3166    80.7670     2.4159     0.0552   -49.5872    15.9683    22.2515
 2704.0000     9.3168    80.5703     2.4179     0.0553   -49.5852    15.9683    22.6655
 2704.5000     9.3169    80.7704     2.4179     0.0553   -49.5832    15.8219    22.2515
 2705.0000     9.3171    80.9704     2.4179     0.0533   -49.3820    15.8220    22.0473
 2705.5000     9.3173    82.1625     2.4159     0.0533   -49.3800    15.6769    21.8450
 2706.0000     9.3174    82.1642     2.4220     0.0533   -49.3780    15.9686    22.0472
 2706.5000     9.3176    80.9755     2.4280     0.0574   -49.3760    15.6771    21.4460
 2707.0000     9.2979    79.3901     2.4340     0.0574   -49.3740    15.6771    21.2492
 2707.5000     9.2584    76.4160     2.4310     0.0574   -49.3720    15.6772    21.0543
 2708.0000     9.2387    74.0375     2.4320     0.0614   -49.1708    15.6773    21.0542
 2708.5000     9.2587    74.0392     2.4400     0.0655   -49.1688    15.6774    20.6698
 2709.0000     9.2588    74.6358     2.4511     0.0655   -49.1668    15.5337    20.4801
 2709.5000     9.2490    78.6051     2.4491     0.0655   -49.1648    15.5337    20.1062
 2710.0000     9.2490    80.1938     2.4421     0.0615   -49.9597    15.2502    20.1062
 2710.5000     9.2492    83.5678     2.4271     0.0676   -49.3601    15.1104    19.7390
 2711.0000     9.2493    83.5695     2.4221     0.0676   -49.1589    15.1105    19.7390
 2711.5000     9.2495    82.7777     2.4181     0.0696   -49.1569    15.1106    19.0248
 2712.0000     9.2497    80.3989     2.4161     0.0696   -49.1549    15.1107    18.6774
 2712.5000     9.2498    78.0202     2.4151     0.0656   -49.7505    14.9722    18.1683
 2713.0000     9.2500    76.2367     2.4151     0.0616   -49.1509    14.9722    18.3365
 2713.5000     9.2501    76.2384     2.4221     0.0597   -49.1489    14.8350    18.3365
 2714.0000     9.2503    77.8270     2.4301     0.0557   -49.1469    15.1110    18.3366
 2714.5000     9.2505    80.6057     2.4352     0.0537   -49.1449    14.8352    18.3366
 2715.0000     9.2506    82.3926     2.4372     0.0577   -49.1429    14.9726    18.1685
 2715.5000     9.2508    83.7828     2.4372     0.0617   -49.3401    14.8354    18.1685
 2716.0000     9.2509    83.7844     2.4272     0.0658   -48.7405    14.8355    18.6777
 2716.5000     9.2511    82.9927     2.4202     0.0678   -49.3361    14.5647    18.0020
 2717.0000     9.2513    80.6142     2.4272     0.0678   -49.3341    14.5648    17.8370
 2717.5000     9.2514    79.4258     2.4302     0.0678   -49.3321    14.8358    17.8370
 2718.0000     9.2516    78.4358     2.4352     0.0678   -49.3301    15.3927    17.3509
 2718.5000     9.2517    78.4368     2.4382     0.0679   -49.1289    14.5651    17.5115
 2719.0000     9.2519    77.0491     2.4383     0.0679   -48.7285    14.4317    16.8781
 2719.5000     9.2521    77.6459     2.4413     0.0679   -49.1249    14.4318    16.5701
 2720.0000     9.2522    79.8293     2.4483     0.0659   -49.1229    14.4319    16.4182
 2720.5000     9.2524    82.4093     2.4523     0.0639   -48.7225    14.1685    15.8244
 2721.0000     9.2525    84.3960     2.4533     0.0640   -49.1189    14.1686    15.6794
 2721.5000     9.2527    83.4060     2.4603     0.0640   -49.1169    14.0388    15.5357
 2722.0000     9.2529    82.0193     2.4614     0.0640   -49.1149    14.0389    15.2094
 2722.5000     9.2530    82.0210     2.4594     0.0620   -49.1130    14.0391    14.9740
 2723.0000     9.2532    82.0227     2.4614     0.0640   -49.1110    13.8899    14.8367
 2723.5000     9.2533    82.8176     2.4664     0.0641   -49.3082    13.8900    14.8369
 2724.0000     9.2535    84.0092     2.4734     0.0641   -49.3062    13.9099    14.8370
 2724.5000     9.2537    85.2008     2.4744     0.0621   -49.5034    13.9299    14.9743
 2725.0000     9.2538    85.2024     2.4764     0.0621   -49.3022    13.9499    15.2528
 2725.5000     9.2540    83.6176     2.4785     0.0601   -49.3002    13.9700    15.5364
 2726.0000     9.2541    83.4209     2.4815     0.0582   -49.4974    13.9900    15.8252
 2726.5000     9.2544    83.4226     2.4845     0.0602   -49.2962    14.0101    15.8253
 2727.0000     9.2644    83.4242     2.4865     0.0662   -49.2942    14.0303    15.8254
 2727.5000     9.2448    83.2276     2.4855     0.0702   -49.4914    14.0504    15.8255
 2728.0000     9.2449    81.2462     2.4765     0.0703   -49.4894    14.0706    15.8255
 2728.5000     9.2649    80.0581     2.4625     0.0703   -49.4874    14.0908    15.8256
 2729.0000     9.2651    79.4649     2.4625     0.0683   -49.2862    14.1110    15.8257
 2729.5000     9.2652    79.4665     2.4635     0.0683   -49.0850    14.1313    15.6807
 2730.0000     9.2456    81.2529     2.4665     0.0723   -49.0830    14.1501    15.3947
 2730.5000     9.2655    82.6423     2.4675     0.0744   -48.4834    14.1502    15.1139
 2731.0000     9.2657    83.8338     2.4635     0.0784   -48.4814    14.1503    14.8382
 2731.5000     9.2659    83.2405     2.4575     0.0764   -48.4794    13.8917    14.7023
 2732.0000     9.2660    80.8631     2.4545     0.0744   -48.4774    13.8918    14.7024
 2732.5000     9.2662    80.4682     2.4596     0.0744   -48.4754    13.8919    14.8385
 2733.0000     9.2465    80.6678     2.4736     0.0765   -48.4734    14.0207    15.2541
 2733.5000     9.2466    81.6609     2.4806     0.0765   -49.0690    14.1508    15.6814
 2734.0000     9.2468    82.6540     2.4796     0.0805   -49.2663    14.1509    16.2696
 2734.5000     9.2271    83.4488     2.4756     0.0785   -49.2643    14.2821    16.4202
 2735.0000     9.1876    85.2349     2.4626     0.0786   -49.2623    14.4146    16.2698
 2735.5000     9.1680    86.8228     2.4646     0.0746   -49.2603    14.5483    15.8267
 2736.0000     9.1880    90.1951     2.4907     0.0626   -49.2583    14.5484    15.2546
 2736.5000     9.1485    90.7915     2.5037     0.0586   -49.2563    14.8193    14.4149
 2737.0000     9.1090    90.9913     2.5128     0.0586   -49.2543    14.5536    14.2826
 2737.5000     9.0893    90.9929     2.5168     0.0586   -49.4515    14.2827    14.0216
 2738.0000     9.0894    91.3910     2.5218     0.0586   -49.6487    14.3031    13.8930
 2738.5000     9.0500    90.5995     2.5248     0.0607   -49.4475    13.7862    13.8931
 2739.0000     9.0501    91.1959     2.5238     0.0607   -49.2463    13.4109    13.4109
 2739.5000     9.0304    90.6027     2.5238     0.0587   -49.0451    13.1664    13.1664
 2740.0000     9.0306    91.5956     2.5259     0.0627   -49.2423    13.1665    12.3451
 2740.5000     9.0307    93.3815     2.5279     0.0667   -48.4435    13.0460    12.2320
 2741.0000     9.0507    96.1586     2.5289     0.0668   -48.0431    13.0461    11.8991
 2741.5000     9.0509    97.3496     2.5249     0.0668   -48.0411    12.9267    11.4691
 2742.0000     9.0511    97.9459     2.5149     0.0688   -48.0391    12.8084    11.4692
 2742.5000     9.0512    97.7492     2.5129     0.0688   -48.0371    12.5749    11.0548
 2743.0000     9.0514    97.3542     2.5059     0.0709   -48.0351    12.4598    10.8534
 2743.5000     9.0515    96.7610     2.5039     0.0689   -47.8339    12.4600    10.7541
 2744.0000     9.0517    95.7713     2.5079     0.0689   -48.0311    12.8088    10.4614
 2744.5000     9.0519    96.3675     2.5139     0.0689   -48.0291    12.4602    10.7544
 2745.0000     9.0520    96.7656     2.5149     0.0669   -48.0275    12.4603    10.6560
 2745.5000     9.0522    96.3706     2.5059     0.0690   -47.6271    12.4604    10.7546
 2746.0000     9.0523    95.3792     2.5059     0.0690   -47.6251    12.4606    10.7548
 2746.5000     9.0525    94.9843     2.5049     0.0710   -48.0215    12.4607    10.3663
 2747.0000     9.0527    95.1840     2.5039     0.0730   -48.2187    12.4608    10.3664
 2747.5000     9.0528    96.5729     2.5070     0.0730   -48.0175    12.5761    10.3665
