~VERSION INFORMATION
 VERS.                2.0:   CWLS LOG ASCII STANDARD - VERSION 2.0
 WRAP.                 NO:   ONE LINE PER DEPTH STEP
~WELL INFORMATION
#MNEM.UNIT      DATA TYPE    INFORMATION
#----------   ------------   ------------------------------
 STRT.F            7.5000:   START DEPTH
 STOP.F         3140.0000:   STOP DEPTH
 STEP.F            0.5000:   STEP LENGTH
 NULL.          -999.2500:   NO VALUE
 COMP. LAWRENCE ALLISON WEST:   COMPANY
 WELL. LAWRENCE NPR 3 "AX" #51-3:   WELL
 FLD .                NPR:   FIELD
 LOC .       S3 T38N R78W:   LOCATION
 CNTY.            NATRONA:   COUNTY
 STAT.            WYOMING:   STATE
 CTRY. UNITED STATES OF AMERICA:   COUNTRY
 SRVC.      DRESSER ATLAS:   SERVICE COMPANY
 DATE.        09-NOV-1986:   LOGDATE
 API .     49025111180000:   API NUMBER
~CURVE INFORMATION
#MNEM.UNIT       API CODE    CURVE DESCRIPTION
#----------   ------------   ------------------------------
 DEPT.F                  :   
 CALD.IN     45 280 60 00:   CALIPER FROM DENSITY LOG
 DEN .LBS    45 350 01 00:   BULK DENSITY
 CORR.G/C3   45 356 01 00:   DENSITY CORRECTION
 NPOR.DEC    42 890 03 00:   ALPHA PROCESSED NEUTRON POROSITY
 SPR .MV     07 010 01 00:   SPONTANEOUS POTENTIAL
 GRR .GAPI   07 310 01 00:   GAMMA RAY FROM RESISTIVITY
 SFL .OHMM   07 220 01 00:   SHALLOW FOCUSED LOG RESISTIVITY
 ILD .OHMM   07 120 46 00:   DEEP INDUCTION RESISTIVITY
 ILM .OHMM   07 120 44 00:   INDUCTION LOG MEDIUM RESISTIVITY
 TENR.LBS    07 635 01 00:   TENSION FROM RESISTIVITY
~PARAMETER INFORMATION
#MNEM.UNIT          VALUE    DESCRIPTION
#----------   ------------   ------------------------------
 EKB .F         5132.0000:   Kelly bushing
 EGL .F         5120.0000:   Ground level
 TD  .F         3141.0000:   Total depth
 DATE.        09-NOV-1986:   Date logged
 CLNT.            A2DTECH:   Client Code
 SL  . 249' FNL & 2195' FEL:   Surface Location
 PD  .                 GL:   Permanent Datum
 EPD .F              5120:   Elevation Permanent Datum
 LMF .                 KB:   Log Measured From
 DMF .                 KB:   Drilling Measured From
 DAPD.F                12:   Feet Above Permanent Datum
 DD  .F              3141:   Depth driller
 DL  .F              3132:   Depth logger
 BLI .F              3126:   Bottom log interval
 CS1 .IN            8.625:   Casing size
 CBD1.      8.625" @ 690':   Casing driller 1
 CBL1.F               690:   Casing logger 1
 BS1 .IN            7.875:   Bit size
 BSD1.F              3141:   Depth drilled with bit1
 DFT .        KCL/POLYMER:   Type fluid in hole
 DFD .                8.9:   Density
 DFV .                 34:   Viscosity
 DFPH.                9.5:   pH
 DFL .                9.5:   Fluid loss
 MSS .           FLOWLINE:   Source of sample
 RMS .OHMM           .368:   Rm
 MST .F                66:   Rm Meas. temp.
 RMF .OHMM           .296:   Rmf
 MFST.F                66:   Rmf Meas. temp.
 RMC .OHMM           .468:   Rmc
 MCST.F                66:   Rmc Meas. temp.
 MFSS.               MEAS:   Source Rmf.
 MCSS.               CALC:   Source Rmc.
 RMB .OHMM           .282:   Rm. at BHT
 BHT .F               120:   BHT.
 TCS .HRS             3.5:   Time Circ. stopped
 MRT .F               120:   Maximum recorded temp.
 LUN .            HL-6274:   Logging unit number
 LUL .           GILLETTE:   Logging unit location
 ENGI.             RAUTIO:   Recorded By
 WITN.             STRONG:   Witnessed by
 ORIG.        2" 5" PRINT:   Origin of data
 UWI .     49025111180000:   Unique Well ID
 DICO. A2D TECHNOLOGIES, INC.:   Digitizing Company
~OTHER INFORMATION
~A    DEPT    CALD        DEN       CORR       NPOR        SPR         GRR       SFL        ILD        ILM       TENR   
# ...
 2319.0000  -999.2500  -999.2500  -999.2500  -999.2500   -66.1198   124.6138    10.4796     7.9588     8.3373   -50.6648
 2319.5000  -999.2500  -999.2500  -999.2500  -999.2500   -66.1247   125.8135    10.6743     7.9576     8.3360   -50.4666
 2320.0000  -999.2500  -999.2500  -999.2500  -999.2500   -66.1297   127.8196     9.6367     7.9564     8.3347   -50.2684
 2320.5000  -999.2500  -999.2500  -999.2500  -999.2500   -66.3363   131.4386     9.1983     7.8815     8.3334   -50.0703
 2321.0000  -999.2500  -999.2500  -999.2500  -999.2500   -66.3423   131.0247     9.1119     7.8803     8.2551   -39.7835
 2321.5000  -999.2500  -999.2500  -999.2500  -999.2500   -66.5489   129.0026     9.1104     7.8062     8.1774   -39.5854
 2322.0000  -999.2500  -999.2500  -999.2500  -999.2500   -66.5538   122.9444     9.1940     7.7328     8.0256   -29.2988
 2322.5000  -999.2500  -999.2500  -999.2500  -999.2500   -66.7604   118.9023     9.2774     7.4495     7.8038   -49.2775
 2323.0000  -999.2500  -999.2500  -999.2500  -999.2500   -66.9670   116.8763     9.0220     7.0445     7.5179   -49.0397
 2323.5000  -999.2500  -999.2500  -999.2500  -999.2500   -67.1736   114.4470     8.6116     6.7862     7.1753   -48.8416
 2324.0000  -999.2500  -999.2500  -999.2500  -999.2500   -67.1786   108.3856     8.7713     6.4771     6.7851   -58.7316
 2324.5000  -999.2500  -999.2500  -999.2500  -999.2500   -66.9849   104.3415     8.2954     6.0122     6.3569   -48.4452
 2325.0000  -999.2500  -999.2500  -999.2500  -999.2500   -67.3901   108.7670     7.2498     5.7384     6.0109   -48.2470
 2325.5000  -999.2500  -999.2500  -999.2500  -999.2500   -67.3951   113.1924     6.3360     5.5282     5.8997   -48.0489
 2326.0000  -999.2500  -999.2500  -999.2500  -999.2500   -66.7952   118.8294     5.4601     5.2764     5.7902   -68.0268
 2326.5000  -999.2500  -999.2500  -999.2500  -999.2500   -66.8002   115.5917     5.4600     5.1785     5.7357   -57.7406
 2327.0000  -999.2500  -999.2500  -999.2500  -999.2500   -67.4090   108.7271     6.3504     5.1298     5.7348   -57.5820
 2327.5000  -999.2500  -999.2500  -999.2500  -999.2500   -66.6086   100.2497     7.3861     5.0816     5.7340   -67.4321
 2328.0000  -999.2500  -999.2500  -999.2500  -999.2500   -66.6135    96.2076     8.4411     5.0808     5.7331   -67.2338
 2328.5000  -999.2500  -999.2500  -999.2500  -999.2500   -66.6195    93.3751     8.1322     5.2724     5.7857   -56.9477
 2329.0000  -999.2500  -999.2500  -999.2500  -999.2500   -66.8261    94.1716     7.6905     5.5738     5.8933   -56.7495
 2329.5000  -999.2500  -999.2500  -999.2500  -999.2500   -66.8311    96.5809     7.1391     5.8924     6.0590   -56.5513
 2330.0000  -999.2500  -999.2500  -999.2500  -999.2500   -66.8360    99.7967     6.6890     6.0580     6.2292   -66.4408
 2330.5000  -999.2500  -999.2500  -999.2500  -999.2500   -66.6394    99.7867     6.6877     6.2281     6.3449   -66.2029
 2331.0000  -999.2500  -999.2500  -999.2500  -999.2500   -66.2412    96.1478     6.8128     6.2853     6.5232   -55.9171
 2331.5000  -999.2500  -999.2500  -999.2500  -999.2500   -66.0445    91.2973     8.0069     6.3429     6.6446   -55.7189
 2332.0000  -999.2500  -999.2500  -999.2500  -999.2500   -66.0495    89.6745     9.6892     6.4012     6.8313   -55.5207
 2332.5000  -999.2500  -999.2500  -999.2500  -999.2500   -66.0545    89.2613     9.8695     6.5202     6.8942   -55.3226
 2333.0000  -999.2500  -999.2500  -999.2500  -999.2500   -66.2611    91.2675     9.5970     6.6415     6.9573   -55.1244
 2333.5000  -999.2500  -999.2500  -999.2500  -999.2500   -66.4677    94.0800     8.5842     6.7650     7.0866   -54.9262
 2334.0000  -999.2500  -999.2500  -999.2500  -999.2500   -67.0775    94.8765     7.8951     6.8908     7.1517   -54.7280
 2334.5000  -999.2500  -999.2500  -999.2500  -999.2500   -67.3661    94.0601     7.5359     6.9540     7.2847   -54.5298
 2335.0000  -999.2500  -999.2500  -999.2500  -999.2500   -67.4906    93.6469     7.4652     7.0178     7.3515   -44.2445
 2335.5000  -999.2500  -999.2500  -999.2500  -999.2500   -67.2940    94.4434     8.1899     7.0168     7.4190   -64.1809
 2336.0000  -999.2500  -999.2500  -999.2500  -999.2500   -67.0984    97.2559     9.7676     7.0812     7.4178   -64.0223
 2336.5000  -999.2500  -999.2500  -999.2500  -999.2500   -66.4985    97.6492    10.9165     7.1461     7.4859   -63.8241
 2337.0000  -999.2500  -999.2500  -999.2500  -999.2500   -66.7031    95.6232    10.9148     7.2117     7.5546   -63.6259
 2337.5000  -999.2500  -999.2500  -999.2500  -999.2500   -65.7020    93.1939    10.2267     7.2779     7.6239   -63.4277
 2338.0000  -999.2500  -999.2500  -999.2500  -999.2500   -65.7070    91.9743     8.4927     7.2093     7.6228   -63.1898
 2338.5000  -999.2500  -999.2500  -999.2500  -999.2500   -65.5074    92.3676     8.8128     6.8810     7.3433   -62.9916
 2339.0000  -999.2500  -999.2500  -999.2500  -999.2500   -65.9186    91.5512     9.4902     6.7532     7.0743   -52.7067
 2339.5000  -999.2500  -999.2500  -999.2500  -999.2500   -66.3268    89.1200    10.1256     6.3267     6.8152   -52.5085
 2340.0000  -999.2500  -999.2500  -999.2500  -999.2500   -66.3317    89.9185     9.9384     6.2096     6.5049   -52.3104
 2340.5000  -999.2500  -999.2500  -999.2500  -999.2500   -66.7399    98.0845     6.5440     6.2087     6.4437   -52.1122
 2341.0000  -999.2500  -999.2500  -999.2500  -999.2500   -66.7449   106.2504     6.6042     6.2077     6.5029   -51.9141
 2341.5000  -999.2500  -999.2500  -999.2500  -999.2500   -66.9515   114.4826     6.9177     6.0925     6.5625   -61.8024
 2342.0000  -999.2500  -999.2500  -999.2500  -999.2500   -66.9565   115.6843     7.7779     5.9794     6.6228   -61.6042
 2342.5000  -999.2500  -999.2500  -999.2500  -999.2500   -66.9614   110.8337     8.7451     5.8142     6.4998   -61.4060
 2343.0000  -999.2500  -999.2500  -999.2500  -999.2500   -67.2543   107.5981     9.4783     5.7063     6.1465   -51.1215
 2343.5000  -999.2500  -999.2500  -999.2500  -999.2500   -67.3756   108.3946     9.1318     5.5486     5.8124   -40.8371
 2344.0000  -999.2500  -999.2500  -999.2500  -999.2500   -67.3806   110.4007     6.9753     5.3952     5.5995   -60.8114
 2344.5000  -999.2500  -999.2500  -999.2500  -999.2500   -67.5871   117.2453     6.8466     5.1494     5.4956   -50.5270
 2345.0000  -999.2500  -999.2500  -999.2500  -999.2500   -67.5921   125.2996     6.5961     4.9150     5.2452   -60.4150
 2345.5000  -999.2500  -999.2500  -999.2500  -999.2500   -67.3955   137.3860     6.8442     4.8237     5.0531   -60.2168
 2346.0000  -999.2500  -999.2500  -999.2500  -999.2500   -67.4005   139.3921     6.0655     4.8230     5.0995   -59.9790
 2346.5000  -999.2500  -999.2500  -999.2500  -999.2500   -67.0022   137.7693     5.3257     5.0048     5.2428   -49.6949
 2347.0000  -999.2500  -999.2500  -999.2500  -999.2500   -66.8026   132.5176     5.5263     5.1935     5.4912   -49.4968
 2347.5000  -999.2500  -999.2500  -999.2500  -999.2500   -66.4074   125.2530     6.5299     5.5416     5.9691   -39.2128
 2348.0000  -999.2500  -999.2500  -999.2500  -999.2500   -66.4123   121.6142    12.2701     6.0239     6.4286   -28.9289
 2348.5000  -999.2500  -999.2500  -999.2500  -999.2500   -66.0141   124.0235    12.9714     6.4276     6.8594   -48.9024
 2349.0000  -999.2500  -999.2500  -999.2500  -999.2500   -66.2207   129.6585    13.0903     6.8584     7.2515   -48.7043
 2349.5000  -999.2500  -999.2500  -999.2500  -999.2500   -66.2257   133.6806    11.8182     7.1169     7.5248   -38.4205
 2350.0000  -999.2500  -999.2500  -999.2500  -999.2500   -66.2306   142.5381     9.6341     7.1822     7.5939   -38.2224
 2350.5000  -999.2500  -999.2500  -999.2500  -999.2500   -66.2356   145.7538     9.3685     7.1147     7.5927   -38.0244
 2351.0000  -999.2500  -999.2500  -999.2500  -999.2500   -66.0370   150.5856     9.4543     6.9181     7.4518   -37.8659
 2351.5000  -999.2500  -999.2500  -999.2500  -999.2500   -66.0449   153.7982     8.3013     6.4816     7.1125   -37.6283
 2352.0000  -999.2500  -999.2500  -999.2500  -999.2500   -65.6467   155.8042     7.2215     6.1293     6.7259   -37.4302
