~VERSION INFORMATION
 VERS.                2.0:   CWLS LOG ASCII STANDARD - VERSION 2.0
 WRAP.                 NO:   ONE LINE PER DEPTH STEP
~WELL INFORMATION
#MNEM.UNIT      DATA TYPE    INFORMATION
#----------   ------------   ------------------------------
 STRT.F           12.0000:   START DEPTH
 STOP.F          900.0000:   STOP DEPTH
 STEP.F            0.5000:   STEP LENGTH
 NULL.          -999.2500:   NO VALUE
 COMP. FLUOR DANIEL - NPSOR:   COMPANY
 WELL. FLUOR NPR "X" #82-34:   WELL
 FLD .              NPR 3:   FIELD
 LOC .      S34 T39N R78W:   LOCATION
 CNTY.            NATRONA:   COUNTY
 STAT.            WYOMING:   STATE
 CTRY. UNITED STATES OF AMERICA:   COUNTRY
 SRVC.      WESTERN ATLAS:   SERVICE COMPANY
 DATE.        06-SEP-1994:   LOGDATE
 API .     49025226350000:   API NUMBER
~CURVE INFORMATION
#MNEM.UNIT       API CODE    CURVE DESCRIPTION
#----------   ------------   ------------------------------
 DEPT.F                  :   
 RILD.OHMM   07 120 46 00:   INDUCTION LOG DEEP RESISTIVITY
 TENR.LBS    07 635 01 00:   TENSION
 RILM.OHMM   07 120 44 00:   INDUCTION LOG MEDIUM RESISTIVITY
 GRR .GAPI   07 310 01 00:   GAMMA RAY FROM RESISTIVITY
~PARAMETER INFORMATION
#MNEM.UNIT          VALUE    DESCRIPTION
#----------   ------------   ------------------------------
 EKB .F         5084.0000:   Kelly bushing
 EGL .F         5074.0000:   Ground level
 EDF .F         5083.0000:   Drilling floor
 EPD .F            0.0000:   Permanent datum
 TD  .F          918.0000:   Total depth
 DATE.        06-SEP-1994:   Date logged
 CLNT.            A2DTECH:   Client Code
 SL  . 990' FNL & 330' FEL:   Surface Location
 PD  .                 GL:   Permanent Datum
 DAPD.F                10:   Feet Above Permanent Datum
 DD  .F               918:   Depth driller
 DL  .F               807:   Depth logger
 BLI .F               889:   Bottom log interval
 CS1 .IN            9.625:   Casing size
 CBD1.       9.625" @ 54':   Casing driller 1
 CBL1.F                54:   Casing logger 1
 BS1 .IN             8.75:   Bit size
 BSD1.F               918:   Depth drilled with bit1
 DFT .                AIR:   Type fluid in hole
 LUN .            HL-6321:   Logging unit number
 LUL .       ROCK SPRINGS:   Logging unit location
 ENGI.           VERCIMAK:   Recorded By
 WITN.          G. STRONG:   Witnessed by
 ORIG.           5" PRINT:   Origin of data
 UWI .     49025226350000:   Unique Well ID
 DICO. A2D TECHNOLOGIES, INC.:   Digitizing Company
~OTHER INFORMATION
~A   DEPT     RILD       TENR       RILM         GRR  
# ...
   85.0000     4.4380   -65.8910     4.5350   109.6580
   85.5000     4.4760   -65.8910     4.5630   110.6070
   86.0000     4.5150   -65.8910     4.5910   112.2440
   86.5000     4.5540   -65.8910     4.6190   113.0500
   87.0000     4.5920   -65.8910     4.6470   113.2060
   87.5000     4.6310   -65.8910     4.6650   113.3890
   88.0000     4.6690   -65.8910     4.6430   113.5880
   88.5000     4.6460   -65.8910     4.6210   113.9980
   89.0000     4.6070   -65.8910     4.5990   115.2210
   89.5000     4.5680   -65.8910     4.5770   117.2060
   90.0000     4.5300   -65.8910     4.5550   119.2400
   90.5000     4.4910   -65.8910     4.5330   120.7190
   91.0000     4.4530   -65.8910     4.5120   120.7570
   91.5000     4.4140   -65.8910     4.4900   119.8880
   92.0000     4.3750   -65.8910     4.4680   117.0220
   92.5000     4.3470   -65.8910     4.4460   113.9560
   93.0000     4.3520   -65.8910     4.4260   113.0990
   93.5000     4.3560   -65.8910     4.4320   111.9630
   94.0000     4.3610   -65.8910     4.4380   109.7520
   94.5000     4.3650   -65.8910     4.4430   108.1030
   95.0000     4.3700   -65.8910     4.4480   108.9460
   95.5000     4.3740   -65.8910     4.4540   109.0830
   96.0000     4.3790   -65.8910     4.4600   109.4440
   96.5000     4.3840   -65.8910     4.4650   109.6030
   97.0000     4.3880   -65.8910     4.4710   111.1460
   97.5000     4.3930   -65.8910     4.4760   114.0970
   98.0000     4.3980   -65.8910     4.4820   115.1890
   98.5000     4.4020   -65.8910     4.4880   112.5600
   99.0000     4.4070   -65.8910     4.4930   110.2020
   99.5000     4.4110   -65.8910     4.4990   108.9700
  100.0000     4.4160   -65.8910     4.5040   111.0730
  100.5000     4.4210   -65.8910     4.5660   112.1690
  101.0000     4.4270   -65.8910     4.6420   111.0470
  101.5000     4.4870   -65.8910     4.7180   110.3860
  102.0000     4.5610   -65.8910     4.7940   112.0140
  102.5000     4.6350   -65.8910     4.8690   114.3330
  103.0000     4.7090   -65.8910     4.9450   114.4370
  103.5000     4.7830   -65.8910     5.0210   114.1650
  104.0000     4.8580   -65.8910     5.0970   108.1440
  104.5000     4.9320   -65.8910     5.1970   103.3000
  105.0000     5.0150   -65.8910     5.1540   102.7320
  105.5000     4.9510   -65.8910     5.0910   102.7690
  106.0000     4.8800   -65.8910     5.0280   100.1630
  106.5000     4.8080   -65.8910     4.9640    97.2320
  107.0000     4.7360   -65.8910     4.9010    98.2180
  107.5000     4.6640   -65.8910     4.8380   100.5560
  108.0000     4.5870   -65.8910     4.7740   106.6900
  108.5000     4.5870   -65.8910     4.7110   112.2250
  109.0000     4.5870   -65.8910     4.6690   114.2520
  109.5000     4.5870   -65.8910     4.6690   114.9540
  110.0000     4.6340   -65.8910     4.7030   113.5520
  110.5000     4.6760   -65.8910     4.7470   109.5370
  111.0000     4.7170   -65.8910     4.7910   105.9250
  111.5000     4.7590   -65.8910     4.8360   103.5430
  112.0000     4.8000   -65.8910     4.8800   100.0180
  112.5000     4.8420   -65.8910     4.9240    97.1420
  113.0000     4.8830   -65.8910     4.9690    97.9490
  113.5000     4.9250   -65.8910     5.0130   101.1660
  114.0000     4.9660   -65.8910     5.0570   107.2960
  114.5000     5.0150   -65.8910     5.1020   107.7100
  115.0000     5.0000   -65.8910     5.1460   108.1850
  115.5000     4.9820   -65.8910     5.1970   109.0770
  116.0000     4.9640   -65.8910     5.1810   110.3100
  116.5000     4.9470   -65.8910     5.1630   110.1510
  117.0000     4.9290   -65.8910     5.1440   108.9840
  117.5000     4.9110   -65.8910     5.1260   107.8380
  118.0000     4.8930   -65.8910     5.1080   107.3250
  118.5000     4.8750   -65.8910     5.0890   108.1390
  119.0000     4.8580   -65.8910     5.0710   109.5890
  119.5000     4.8400   -65.8910     5.0520   110.8720
  120.0000     4.8220   -65.8910     5.0340   111.6720
  120.5000     4.8040   -65.8910     5.0150   112.2340
  121.0000     4.7860   -65.8910     4.9970   112.7630
  121.5000     4.7680   -65.8910     4.9780   113.3290
  122.0000     4.7530   -65.8910     4.9600   114.0640
  122.5000     4.7530   -65.8910     4.9410   115.1630
  123.0000     4.7530   -65.8910     4.9260   116.3420
  123.5000     4.7530   -65.8910     5.0480   116.7330
  124.0000     4.8390   -65.8910     5.2070   116.4540
  124.5000     4.9100   -65.8910     5.3660   116.2360
  125.0000     5.0920   -65.8910     5.5250   116.0300
  125.5000     5.2740   -65.8910     5.6840   115.7920
  126.0000     5.4560   -65.8910     5.8420   115.5720
  126.5000     5.6380   -65.8910     6.0010   115.3860
  127.0000     5.8200   -65.8910     6.1600   114.6200
  127.5000     5.9950   -65.8910     6.3190   113.0830
  128.0000     6.1030   -65.8910     6.4380   111.5430
  128.5000     6.1030   -65.8910     6.3470   111.2190
  129.0000     6.0490   -65.8910     6.2400   113.7870
  129.5000     5.9680   -65.8910     6.1330   116.1370
  130.0000     5.8860   -65.8910     6.0260   118.1910
  130.5000     5.8050   -65.8910     5.9190   116.7390
  131.0000     5.7230   -65.8910     5.8120   115.2950
  131.5000     5.6420   -65.8910     5.7050   114.3780
  132.0000     5.5600   -65.8910     5.5980   114.5270
  132.5000     5.4780   -65.8910     5.4900   115.4660
  133.0000     5.3970   -65.8910     5.3830   116.3330
  133.5000     5.3150   -65.8910     5.2910   116.6320
  134.0000     5.2340   -65.8910     5.2910   116.0850
  134.5000     5.1970   -65.8910     5.2910   116.1870
  135.0000     5.2910   -65.8910     5.3860   119.0690
  135.5000     5.3860   -65.8910     5.3860   122.0740
  136.0000     5.3860   -65.8910     5.6110   122.7070
  136.5000     5.3860   -65.8910     5.7780   121.8590
  137.0000     5.5680   -65.8910     5.9440   121.1260
  137.5000     5.7990   -65.8910     6.1110   120.3590
  138.0000     6.0310   -65.8910     6.2770   120.3160
  138.5000     6.2630   -65.8910     6.4440   121.8710
  139.0000     6.4940   -65.8910     6.6100   121.7350
  139.5000     6.6420   -65.8910     6.9150   121.0400
  140.0000     6.5080   -65.8910     6.7790   121.8340
  140.5000     6.3740   -65.8910     6.6150   122.5620
  141.0000     6.2400   -65.8910     6.4510   123.6680
  141.5000     6.1060   -65.8910     6.2870   122.2750
  142.0000     5.9720   -65.8910     6.1240   119.0280
  142.5000     5.8380   -65.8910     5.9600   117.3560
  143.0000     5.7040   -65.8910     5.7960   119.9620
  143.5000     5.5700   -65.8910     5.6320   122.1330
  144.0000     5.4360   -65.8910     5.4690   124.3910
  144.5000     5.2910   -65.8910     5.2910   120.8490
  145.0000     5.3250   -65.8910     5.3280   120.8740
  145.5000     5.3620   -65.8910     5.4020   119.9380
  146.0000     5.3990   -65.8910     5.4750   117.4890
  146.5000     5.4370   -65.8910     5.5480   115.9690
  147.0000     5.4740   -65.8910     5.6210   118.3230
  147.5000     5.4830   -65.8910     5.6940   120.7110
  148.0000     5.4490   -65.8910     5.7850   123.1990
  148.5000     5.4140   -65.8910     5.7630   124.0830
  149.0000     5.3790   -65.8910     5.7030   124.3240
  149.5000     5.3430   -65.8910     5.6440   124.5630
  150.0000     5.3080   -65.8910     5.5850   125.1170
  150.5000     5.2730   -65.8910     5.5260   126.1030
  151.0000     5.2370   -65.8910     5.4670   125.5110
  151.5000     5.2020   -65.8910     5.4080   124.7750
  152.0000     5.1670   -65.8910     5.3490   125.1980
  152.5000     5.1320   -65.8910     5.2890   126.1830
  153.0000     5.0960   -65.8910     5.2300   126.6030
  153.5000     5.0610   -65.8910     5.1710   128.3880
  154.0000     5.0260   -65.8910     5.1120   130.3010
  154.5000     4.9910   -65.8910     5.0150   129.2720
  155.0000     4.9550   -65.8910     5.0260   126.9740
  155.5000     4.9260   -65.8910     5.0560   124.9800
  156.0000     4.9260   -65.8910     5.0870   123.7730
  156.5000     4.9260   -65.8910     5.1170   125.6600
  157.0000     4.9260   -65.8910     5.1470   127.2540
  157.5000     4.9260   -65.8910     5.1780   129.2480
