~VERSION INFORMATION
 VERS.                2.0:   CWLS LOG ASCII STANDARD - VERSION 2.0
 WRAP.                 NO:   ONE LINE PER DEPTH STEP
~WELL INFORMATION
#MNEM.UNIT      DATA TYPE    INFORMATION
#----------   ------------   ------------------------------
 STRT.F         3288.0000:   START DEPTH
 STOP.F         4421.0000:   STOP DEPTH
 STEP.F            0.5000:   STEP LENGTH
 NULL.          -999.2500:   NO VALUE
 COMP.       FLUOR DANIEL:   COMPANY
 WELL. FLUOR 22 "X" #2-10:   WELL
 FLD . TEA POT DOME NAVAL PETROLEUM DO:   FIELD
 LOC .      S10 T38N R78W:   LOCATION
 CNTY.            NATRONA:   COUNTY
 STAT.            WYOMING:   STATE
 CTRY. UNITED STATES OF AMERICA:   COUNTRY
 SRVC.        HALLIBURTON:   SERVICE COMPANY
 DATE.        13-DEC-1996:   LOGDATE
 API .     49025228330000:   API NUMBER
~CURVE INFORMATION
#MNEM.UNIT       API CODE    CURVE DESCRIPTION
#----------   ------------   ------------------------------
 DEPT.F                  :   
 NPHI.DEC    42 890 03 00:   NEUTRON POROSITY SANDSTONE
 GRD .GAPI   45 310 01 00:   GAMMA RAY FROM DENSITY LOG
 CALD.IN     45 280 60 00:   CALIPER FROM DENSITY LOG
 PE  .B/E    45 358 01 00:   PHOTOELECTRIC FACTOR
 CORR.G/C3   45 356 01 00:   DENSITY CORRECTION
 TEND.LBS    45 635 01 00:   TENSION FORM DENSITY LOG
 RHOB.G/C3   45 350 01 00:   BULK DENSITY
 TENR.LBS    07 635 01 00:   TENSION FROM RESISTIVITY
 ILD .OHMM   07 120 46 00:   DEEP INDUCTION RESISTIVITY
 ILM .OHMM   07 120 44 00:   INDUCTION LOG MEDIUM RESISTIVITY
 SFL .OHMM   07 220 01 00:   SHALLOW FOCUSED LOG RESISTIVITY
~PARAMETER INFORMATION
#MNEM.UNIT          VALUE    DESCRIPTION
#----------   ------------   ------------------------------
 EKB .F         5268.0000:   Kelly bushing
 EGL .F         5258.0000:   Ground level
 EDF .F         5267.0000:   Drilling floor
 TD  .F         4435.0000:   Total depth
 CLNT.            A2DTECH:   Client Code
 SL  . 569' FNL & 1440' FWL:   Surface Location
 PD  .                 GL:   Permanent Datum
 EPD .F              5258:   Elevation Permanent Datum
 LMF .                 KB:   Log Measured From
 DMF .                 KB:   Drilling Measured From
 DAPD.F                10:   Feet Above Permanent Datum
 DATE.        13-DEC-1996:   Date Logged [DD-MMM-YYYY]
 DD  .F              4435:   Depth driller
 DL  .F              4412:   Depth logger
 BLI .F              4403:   Bottom log interval
 TLI .F              3308:   Top log interval
 CS1 .IN            9.625:   Casing size
 CBD1.     9.625" @ 3307':   Casing driller 1
 CBL1.F              3308:   Casing logger 1
 BS1 .IN              8.5:   Bit size
 BSD1.F              4435:   Depth drilled with bit1
 DFT .           POLY-KCL:   Type fluid in hole
 DFD .                  9:   Density
 DFV .                 50:   Viscosity
 DFPH.                  9:   pH
 DFL .                  7:   Fluid loss
 MSS .           MUD TANK:   Source of sample
 RMS .OHMM           0.47:   Rm
 MST .F                56:   Rm Meas. temp.
 RMF .OHMM           0.36:   Rmf
 MFST.F                61:   Rmf Meas. temp.
 MFSS.               MEAS:   Source Rmf.
 RMC .OHMM           0.48:   Rmc
 MCST.F                68:   Rmc Meas. temp.
 MCSS.               MEAS:   Source Rmc.
 RMB .OHMM           0.20:   Rm. at BHT
 BHT .F               138:   BHT.
 TCS .HRS              20:   Time Circ. stopped
 TLAB.HRS            0108:   Time logger at bottom
 MRT .F               138:   Maximum recorded temp.
 LUN .              52546:   Logging unit number
 LUL .              VERNI:   Logging unit location
 ENGI.        JOHN SAVAGE:   Recorded By
 WITN.          STEBBINGS:   Witnessed by
 ORIG.         2.5" PRINT:   Origin of data
 UWI .     49025228330000:   Unique Well ID
 DICO. A2D TECHNOLOGIES, INC.:   Digitizing Company
~OTHER INFORMATION
~A  DEPT        NPHI       GRD      CALD         PE       CORR       TEND       RHOB       TENR        ILD        ILM        SFL   
# ...
 3806.5000     0.2387   128.0181     9.0598     2.7329     0.0502  3017.2715     2.4248  3115.8284     6.4451     8.0159     6.2412
 3807.0000     0.2286   113.3782     9.1221     2.7535     0.0441  3003.9268     2.4249  3084.0352     8.5087     8.5254    12.0810
 3807.5000     0.2360   111.6923     9.1662     2.7684     0.0445  2940.8425     2.4278  3040.5811     8.5766     8.2160    12.5700
 3808.0000     0.2541   118.2209     9.1655     2.7843     0.0490  2925.6196     2.4245  3041.2791     7.9491     7.4102     9.4951
 3808.5000     0.2664   129.5143     9.1649     2.7846     0.0518  2955.5891     2.4176  3041.9768     7.0375     5.1702     8.0735
 3809.0000     0.2746   134.7196     9.1341     2.7547     0.0492  3045.8843     2.4082  3042.6750     5.5144     4.8320     6.6819
 3809.5000     0.2788   136.4411     9.1033     2.6946     0.0429  3075.8308     2.3988  3043.3823     5.5160     4.8198     6.5030
 3810.0000     0.2818   135.7904     9.1027     2.5740     0.0367  3015.0913     2.3887  3081.3442     5.5546     5.0989     6.6861
 3810.5000     0.2812   131.5940     9.1057     2.4535     0.0289  2924.1660     2.3833  3198.9624     6.1370     6.0398     7.1339
 3811.0000     0.2716   126.1501     9.1318     2.3329     0.0231  2955.7961     2.3827  3163.1143     7.3718     7.4894     8.2869
 3811.5000     0.2495   118.2893     9.1614     2.3030     0.0222  3052.5613     2.3842  3078.4861     8.6035     8.4462    10.6142
 3812.0000     0.2355   114.0539     9.1607     2.3388     0.0292  3134.7742     2.3857  3034.1250     9.2021     9.5589    11.7644
 3812.5000     0.2316   112.8396     9.1601     2.4094     0.0352  3056.3691     2.3873  3224.3809    10.5300    10.4969    13.8419
 3813.0000     0.2328   114.0423     9.1595     2.4550     0.0398  2983.0815     2.3873  3048.6086    10.1093     9.6112    14.4126
 3813.5000     0.2401   117.8308     9.1588     2.4553     0.0429  3040.1045     2.3873  2990.4829     9.1591     8.2834    13.6527
 3814.0000     0.2590   124.9406     9.1280     2.4411     0.0445  3117.6323     2.3842  3108.8284     7.9229     7.1390    12.2530
 3814.5000     0.2681   135.9117     9.0972     2.3955     0.0459  3072.7524     2.3846  3197.7942     6.6758     6.3210    10.7037
 3815.0000     0.2697   136.3755     9.0362     2.3354     0.0459  3012.0383     2.3878  3169.0479     6.1770     6.0692     8.7280
 3815.5000     0.2691   133.4965     8.9752     2.3357     0.0459  3011.7478     2.3929  3169.8528     6.2114     6.1510     8.1020
 3816.0000     0.2655   126.5901     9.0366     2.3360     0.0459  3011.4570     2.3992  3141.0322     7.0088     6.5221     7.6338
 3816.5000     0.2522   117.8386     9.0949     2.3665     0.0460  3011.1663     2.4040  3112.4998     8.1292     7.2603    11.9366
 3817.0000     0.2364   113.3886     9.0875     2.3970     0.0475  3010.8755     2.4111  3054.5422     9.8186    10.6362    14.5406
 3817.5000     0.2066   111.5701     9.0634     2.4577     0.0490  2978.1235     2.4192  3055.2405    11.3882    11.4424    17.1697
 3818.0000     0.1929   111.5643     9.0326     2.4608     0.0536  2949.8491     2.4253  3114.7617    10.6085     9.4258    21.1705
 3818.5000     0.1980   116.3923     9.0018     2.4885     0.0627  2919.3691     2.4178  3144.8713     6.9056     6.7482    21.6548
 3819.0000     0.2247   135.7218     9.0012     2.4586     0.0688  2958.5996     2.3891  3145.5881     4.7761     4.6906    10.2660
 3819.5000     0.2556   166.5317     9.0005     2.3887     0.0718  3051.3242     2.3710  3146.3232     3.2318     3.0857     5.3780
 3820.0000     0.2869   186.0604     8.9999     2.3383     0.0748  3085.6196     2.3680  3147.0588     2.3121     2.1138     3.2565
 3820.5000     0.3176   189.4808     9.0296     2.2638     0.0765  3052.7136     2.3695  3136.8101     2.1018     2.0852     2.8835
 3821.0000     0.3133   188.8701     9.0290     2.2316     0.0779  3008.4043     2.3676  3119.1177     2.0731     2.0544     2.8057
 3821.5000     0.3000   189.8274     9.0586     2.2184     0.0717  2947.6907     2.3583  3061.1736     2.0726     2.0179     2.6505
 3822.0000     0.3050   193.9897     9.0882     2.2490     0.0560  2947.4001     2.3545  3061.8718     1.7860     1.8211     2.5451
 3822.5000     0.3248   196.7070     9.0924     2.3399     0.0465  3037.7439     2.3679  3033.0881     1.8793     1.8787     2.4735
 3823.0000     0.3212   194.8233     9.0870     2.4006     0.0424  3097.8760     2.3866  3033.8562     2.0864     2.1547     2.5416
 3823.5000     0.3004   179.1711     9.0864     2.4915     0.0447  3006.0293     2.4015  3034.5588     2.5357     2.9600     3.1099
 3824.0000     0.2777   146.5368     9.0858     2.5825     0.0507  2946.2234     2.4150  3035.2939     3.4810     4.3197     4.8779
 3824.5000     0.2334   128.4041     9.0852     2.5828     0.0477  2986.5000     2.4211  3065.4414     5.4105     5.6585     6.7444
 3825.0000     0.2219   119.3349     9.0845     2.5831     0.0417  3096.7131     2.4226  3066.1765     6.6083     6.7436    16.6666
 3825.5000     0.2274   109.0571     9.0839     2.5834     0.0417  3026.0242     2.4226  3109.2744     8.5523     8.3087    16.0028
 3826.0000     0.2304   104.8217     9.0833     2.5837     0.0432  3005.4380     2.4226  3126.4707     8.3222     8.4817    15.9419
 3826.5000     0.2328   102.9650     9.0827     2.6262     0.0463  3065.5588     2.4211  3097.9150     7.6598     7.9260    12.9903
 3827.0000     0.2354   101.1843     9.0822     2.6590     0.0479  3065.2568     2.4196  3098.6133     7.0719     7.2317    11.8454
 3827.5000     0.2405   100.5746     9.0816     2.6752     0.0495  3064.9026     2.4165  3099.3110     6.4510     6.5482    11.5665
 3828.0000     0.2519   103.8704     9.0810     2.6756     0.0508  3034.4006     2.4137  3129.4211     6.3943     6.4428    10.9235
 3828.5000     0.2615   113.0038     9.0804     2.6456     0.0509  3003.8979     2.4118  3130.1472     6.9618     7.0157     9.3483
 3829.0000     0.2604   118.3482     9.0798     2.6460     0.0509  3003.6074     2.4096  3101.4055     7.5474     7.6068    10.3775
 3829.5000     0.2516   117.7560     9.0792     2.6462     0.0502  3003.3167     2.4064  3072.6919     8.4185     8.7181    10.5173
 3830.0000     0.2481   114.4399     9.0785     2.6163     0.0494  3003.0210     2.4002  3073.5295     9.6723     9.7151    12.2001
 3830.5000     0.2552   112.0172     9.0779     2.6166     0.0479  3002.7190     2.3939  3074.2649     9.4321     9.0760    13.0507
 3831.0000     0.2619   111.4071     9.0772     2.6169     0.0449  3002.4167     2.3896  3045.5884     7.9134     7.4646    12.2488
 3831.5000     0.2661   114.4225     9.1069     2.5870     0.0419  3010.2122     2.3881  3046.4211     7.3890     7.3521     9.4129
 3832.0000     0.2679   119.2505     9.0761     2.5873     0.0404  3062.2861     2.3897  3076.5312     6.8552     6.8222     9.0596
 3832.5000     0.2658   122.8700     9.0453     2.5876     0.0389  2975.8340     2.3957  3077.2292     7.3322     7.9138     9.7126
 3833.0000     0.2437   125.3544     9.0447     2.5879     0.0388  2955.9985     2.4018  3077.9414     8.7372     8.9354    13.3075
 3833.5000     0.2365   128.6267     9.0441     2.5882     0.0420  3114.0388     2.4094  3078.6765     8.6178     8.6962    14.1408
 3834.0000     0.2411   137.2138     9.0737     2.5885     0.0483  3131.7251     2.4157  3079.4119     7.6878     7.2521    10.0874
 3834.5000     0.2633   155.4510     9.0731     2.5889     0.0528  3060.6873     2.4200  3050.6096     4.9778     4.9399     6.1195
 3835.0000     0.2844   178.3879     9.0640     2.5892     0.0541  3090.6077     2.4162  3094.6201     4.6894     4.3656     5.4184
 3835.5000     0.2893   188.7568     9.0417     2.5592     0.0521  3150.7551     2.4080  3140.4412     4.9445     4.9786     5.2733
 3836.0000     0.2800   185.2104     9.0274     2.4689     0.0468  3059.8149     2.3986  3023.6411     6.2374     6.2019     5.9946
 3836.5000     0.2740   167.5336     9.0103     2.4390     0.0383  2906.8950     2.3877  2965.4409     8.6035     7.5913     9.1030
