~VERSION INFORMATION
 VERS.                2.0:   CWLS LOG ASCII STANDARD - VERSION 2.0
 WRAP.                 NO:   ONE LINE PER DEPTH STEP
~WELL INFORMATION
#MNEM.UNIT      DATA TYPE    INFORMATION
#----------   ------------   ------------------------------
 STRT.F          211.5000:   START DEPTH
 STOP.F         3103.0000:   STOP DEPTH
 STEP.F            0.5000:   STEP LENGTH
 NULL.          -999.2500:   NO VALUE
 COMP.    FENIX & SCISSON:   COMPANY
 WELL. FENIX NPR 3 "AX" #38-10:   WELL
 FLD .  TEAPOT DOME - NPR:   FIELD
 LOC .      S10 T38N R78W:   LOCATION
 CNTY.            NATRONA:   COUNTY
 STAT.            WYOMING:   STATE
 CTRY. UNITED STATES OF AMERICA:   COUNTRY
 SRVC.           BIRDWELL:   SERVICE COMPANY
 DATE.        01-JUL-1978:   LOGDATE
 API .     49025106550000:   API NUMBER
~CURVE INFORMATION
#MNEM.UNIT       API CODE    CURVE DESCRIPTION
#----------   ------------   ------------------------------
 DEPT.F                  :   
 CALD.IN     45 280 60 00:   CALIPER FROM DENSITY LOG
 GRD .GAPI   45 310 01 00:   GAMMA RAY FROM DENSITY LOG
 RHOB.G/C3   45 350 01 00:   BULK DENSITY
 CORR.G/C3   45 356 01 00:   DENSITY CORRECTION
 NPOR.DEC    42 890 03 00:   ALPHA PROCESSED NEUTRON POROSITY
 SPR .MV     05 010 01 00:   SPONTANEOUS POTENTIAL
 SN  .OHMM   05 040 00 00:   SHORT NORMAL
 ILD .OHMM   05 120 46 00:   DEEP INDUCTION RESISTIVITY
~PARAMETER INFORMATION
#MNEM.UNIT          VALUE    DESCRIPTION
#----------   ------------   ------------------------------
 EKB .F         5240.0000:   Kelly bushing
 EGL .F         5230.0000:   Ground level
 TD  .F         3103.0000:   Total depth
 DATE.        01-JUL-1978:   Date logged
 CLNT.            A2DTECH:   Client Code
 SL  . 200' FSL & 2100' FWL:   Surface Location
 PD  .                 GL:   Permanent Datum
 EPD .F              5230:   Elevation Permanent Datum
 LMF .                 KB:   Log Measured From
 DMF .                 KB:   Drilling Measured From
 DAPD.F                10:   Feet Above Permanent Datum
 DD  .F              3100:   Depth driller
 DL  .F              3103:   Depth logger
 BLI .F              3096:   Bottom log interval
 TLI .F               228:   Top log interval
 CS1 .IN            8.625:   Casing size
 CBD1.      8.625" @ 224':   Casing driller 1
 CBL1.F               228:   Casing logger 1
 BS1 .IN            7.875:   Bit size
 BSD1.F              3100:   Depth drilled with bit1
 DFT .            MUD/GEL:   Type fluid in hole
 DFD .                8.7:   Density
 DFV .                 31:   Viscosity
 DFPH.               10.5:   pH
 DFL .                  7:   Fluid loss
 MSS .           FLOWLINE:   Source of sample
 BHT .F               109:   BHT.
 TCS .HRS             4.5:   Time Circ. stopped
 MRT .F               109:   Maximum recorded temp.
 LUN .               2958:   Logging unit number
 LUL .               CASP:   Logging unit location
 ENGI.             MILLER:   Recorded By
 ORIG.      2.5" 5" PRINT:   Origin of data
 UWI .     49025106550000:   Unique Well ID
 DICO. A2D TECHNOLOGIES, INC.:   Digitizing Company
~OTHER INFORMATION
~A   DEPT     CALD         GRD      RHOB       CORR       NPOR        SPR         SN        ILD   
# ...
  981.0000    10.9753    65.1199     2.4906     0.0138  -999.2500   -15.5668     8.7321     9.7488
  981.5000    10.9949    68.0594     2.4926     0.0058  -999.2500   -15.9654     8.7312     9.7479
  982.0000    10.9949    69.0443     2.4806     0.0058  -999.2500   -15.9693     8.7303     9.7470
  982.5000    10.9948    67.8594     2.4816     0.0058  -999.2500   -15.9732     8.7294     9.7460
  983.0000    10.9947    66.8720     2.4836     0.0058  -999.2500   -16.1744     8.6489     9.7451
  983.5000    10.9749    66.4928     2.4846     0.0058  -999.2500   -16.3757     8.6481     9.7442
  984.0000    10.9748    67.0837     2.4846     0.0058  -999.2500   -16.3796     8.4124     9.7433
  984.5000    10.9944    65.7017     2.4747     0.0058  -999.2500   -16.7781     8.6465     9.7424
  985.0000    10.9746    64.1224     2.4777     0.0058  -999.2500   -16.7820     8.6458     9.7416
  985.5000    10.9745    63.3320     2.4836     0.0138  -999.2500   -16.7859     8.6450     9.7407
  986.0000    10.9942    62.9364     2.4856     0.0278  -999.2500   -16.7898     8.6442     9.7398
  986.5000    10.9941    64.6926     2.5015     0.0356  -999.2500   -16.7944     8.6434     9.7389
  987.0000    10.9940    67.0582     2.5186     0.0416  -999.2500   -16.6010     8.6425     9.7381
  987.5000    10.9742    67.0568     2.5065     0.0396  -999.2500   -16.2101     8.6417     9.7372
  988.0000    10.9741    66.4636     2.5005     0.0356  -999.2500   -15.8193     8.6409     9.8257
  988.5000    10.9937    66.4622     2.4965     0.0376  -999.2500   -16.0205     8.6401     9.8252
  989.0000    10.9936    67.4472     2.5086     0.0396  -999.2500   -16.2202     8.6394     9.8241
  989.5000    10.9738    69.2213     2.5206     0.0396  -999.2500   -16.2257     8.6384     9.8234
  990.0000    11.0329    69.4175     2.5116     0.0356  -999.2500   -15.8348     8.5589     9.5557
  990.5000    10.9934    70.2050     2.5027     0.0316  -999.2500   -15.8387     8.5581     9.2102
  991.0000    10.9933    71.1901     2.5017     0.0278  -999.2500   -16.0400     8.4791     9.1252
  991.5000    10.9932    71.7810     2.4997     0.0238  -999.2500   -16.0438     8.4785     9.1247
  992.0000    10.9931    71.1878     2.4937     0.0218  -999.2500   -15.6530     8.4776     9.1028
  992.5000    10.9930    73.5712     2.4848     0.0218  -999.2500   -16.0516     8.3994     9.0810
  993.0000    10.9929    72.1890     2.4858     0.0238  -999.2500   -16.0563     8.3986     9.0592
  993.5000    10.9928    70.3945     2.4928     0.0296  -999.2500   -16.0601     8.1695     9.0376
  994.0000    10.9928    68.2227     2.5037     0.0396  -999.2500   -16.2614     8.1689     9.2891
  994.5000    10.9927    65.4589     2.5176     0.0476  -999.2500   -16.0679     8.1681     8.9534
  995.0000    10.9926    64.4709     2.5206     0.0476  -999.2500   -16.0718     8.1674     8.9526
  995.5000    10.9925    62.3163     2.5176     0.0456  -999.2500   -16.4704     8.1667     8.9518
  996.0000    10.9924    63.3014     2.5017     0.0376  -999.2500   -16.6716     8.1659     8.9510
  996.5000    10.9726    68.6106     2.5007     0.0296  -999.2500   -16.8728     8.1653     8.8689
  997.0000    10.9922    71.7840     2.5037     0.0296  -999.2500   -17.0741     8.1650     8.8871
  997.5000    10.9723    71.9801     2.5067     0.0296  -999.2500   -17.0780     8.1643     8.9053
  998.0000    10.9920    70.2027     2.4906     0.0198  -999.2500   -17.0826     8.1716     8.9236
  998.5000    10.9920    68.0305     2.4886     0.0158  -999.2500   -17.0865     8.1789     8.9419
  999.0000    10.9919    70.0027     2.4916     0.0118  -999.2500   -16.8930     8.1861     8.9603
  999.5000    10.9918    71.5800     2.4957     0.0058  -999.2500   -16.6996     8.1934     8.9787
 1000.0000    10.9720    71.5792     2.4977     0.0058  -999.2500   -16.7034     8.2007     8.9971
 1000.5000    10.9719    71.2348     2.4947     0.0058  -999.2500   -16.7076     8.2080     9.0155
 1001.0000    10.9719    69.6053     2.4928     0.0038  -999.2500   -16.7071     8.1921     8.9424
 1001.5000    10.9917    66.0526     2.4796     0.0038  -999.2500   -16.5115     8.1763     8.9414
 1002.0000    10.9917    66.4474     2.4876     0.0058  -999.2500   -16.3159     8.1605     9.0229
 1002.5000    10.9917    70.3774     2.4945     0.0058  -999.2500   -16.3177     8.1554     9.0221
 1003.0000    10.9719    72.5484     2.4965     0.0058  -999.2500   -16.3195     8.1540     9.0210
 1003.5000    10.9917    74.1274     2.4985     0.0058  -999.2500   -16.3213     8.2288     9.0193
 1004.0000    10.9917    75.3289     2.4965     0.0058  -999.2500   -16.7177     8.2279     8.9365
 1004.5000    10.9917    72.7458     2.4926     0.0058  -999.2500   -16.7195     8.2270     8.9356
 1005.0000    10.9917    70.3774     2.4926     0.0058  -999.2500   -16.7213     8.2261     8.9346
 1005.5000    10.9917    68.6011     2.5017     0.0078  -999.2500   -16.7230     8.2251     8.9336
 1006.0000    10.9917    67.0221     2.5027     0.0058  -999.2500   -16.9221     8.2242     8.8510
 1006.5000    10.9917    67.6142     2.4977     0.0058  -999.2500   -16.7266     8.2235     8.8500
 1007.0000    10.9917    68.2063     2.5065     0.0058  -999.2500   -17.1234     8.1476     8.8491
 1007.5000    10.9917    68.2063     2.5055     0.0058  -999.2500   -17.1251     8.0384     8.7673
 1008.0000    10.9917    69.1932     2.4955     0.0058  -999.2500   -17.3242     7.9306     8.7661
 1008.5000    10.9917    70.3774     2.4707     0.0056  -999.2500   -17.1286     7.9234     8.7651
 1009.0000    10.9719    72.3511     2.4677     0.0056  -999.2500   -17.1304     7.9225     8.7642
 1009.5000    10.9719    73.1405     2.4816     0.0076  -999.2500   -17.1322     7.8493     8.6832
 1010.0000    10.9917    73.5353     2.4926     0.0216  -999.2500   -16.9366     7.7057     8.6822
 1010.5000    10.9917    73.5353     2.5114     0.0256  -999.2500   -16.7411     7.7759     8.4455
 1011.0000    10.9917    73.5353     2.5124     0.0254  -999.2500   -16.9402     7.7750     8.5224
 1011.5000    10.9917    74.5221     2.4886     0.0254  -999.2500   -16.9419     7.7742     8.4436
 1012.0000    10.9917    75.7063     2.5104     0.0274  -999.2500   -16.9437     7.7733     8.4427
 1012.5000    10.9917    75.5089     2.5025     0.0314  -999.2500   -16.9455     7.7725     8.4418
 1013.0000    10.9917    74.7195     2.4906     0.0314  -999.2500   -16.7499     7.7006     8.4409
 1013.5000    10.9917    71.5616     2.4896     0.0314  -999.2500   -16.7517     7.7708     8.4399
 1014.0000    10.9917    66.2500     2.4955     0.0274  -999.2500   -16.7534     7.6990     8.5168
 1014.5000    10.9917    67.0395     2.5084     0.0274  -999.2500   -16.7552     7.7691     8.5163
 1015.0000    10.9917    68.2237     2.5114     0.0234  -999.2500   -16.7570     7.7682     8.4374
 1015.5000    10.9917    66.2500     2.4856     0.0214  -999.2500   -16.7587     7.7674     8.4793
 1016.0000    10.9917    64.8684     2.4945     0.0214  -999.2500   -16.9582     7.7664     8.5214
 1016.5000    10.9917    66.6447     2.4965     0.0234  -999.2500   -16.7626     7.7655     8.5637
 1017.0000    10.9917    73.5353     2.5037     0.0254  -999.2500   -16.9617     7.7647     8.7488
 1017.5000    10.9917    76.6932     2.5057     0.0294  -999.2500   -16.9635     7.7638     8.8285
 1018.0000    10.9917    79.6537     2.5067     0.0332  -999.2500   -17.3598     7.7630     8.8276
 1018.5000    10.9917    80.4432     2.5067     0.0332  -999.2500   -17.3616     7.7622     8.8268
 1019.0000    10.9917    79.4563     2.5096     0.0332  -999.2500   -17.5606     7.7613     8.8255
 1019.5000    10.9917    77.8774     2.5164     0.0332  -999.2500   -17.5624     7.7605     8.9058
 1020.0000    10.9917    76.8905     2.5064     0.0332  -999.2500   -17.7614     7.7596     8.9049
 1020.5000    10.9917    75.9037     2.4906     0.0312  -999.2500   -17.3686     7.6879     8.8226
 1021.0000    10.9917    74.5221     2.4918     0.0352  -999.2500   -17.3704     7.7579     8.7410
