~VERSION INFORMATION
 VERS.                2.0:   CWLS LOG ASCII STANDARD - VERSION 2.0
 WRAP.                 NO:   ONE LINE PER DEPTH STEP
~WELL INFORMATION
#MNEM.UNIT      DATA TYPE    INFORMATION
#----------   ------------   ------------------------------
 STRT.F          198.0000:   START DEPTH
 STOP.F         3252.0000:   STOP DEPTH
 STEP.F            0.5000:   STEP LENGTH
 NULL.          -999.2500:   NO VALUE
 COMP. FENIX & SCISSON - U.S. NAVY:   COMPANY
 WELL.   FENIX A X #21-33:   WELL
 FLD .              NPR-3:   FIELD
 LOC .      S33 T39N R78W:   LOCATION
 CNTY.            NATRONA:   COUNTY
 STAT.            WYOMING:   STATE
 CTRY. UNITED STATES OF AMERICA:   COUNTRY
 SRVC.              WELEX:   SERVICE COMPANY
 DATE.        06-JUN-1977:   LOGDATE
 API .     49025103750000:   API NUMBER
~CURVE INFORMATION
#MNEM.UNIT       API CODE    CURVE DESCRIPTION
#----------   ------------   ------------------------------
 DEPT.F                  :   
 CALD.IN     45 280 60 00:   CALIPER FROM DENSITY LOG
 GRD .GAPI   45 310 01 00:   GAMMA RAY FROM DENSITY LOG
 RHOB.G/C3   45 350 01 00:   BULK DENSITY
 CORR.G/C3   45 356 01 00:   DENSITY CORRECTION
 NPHI.DEC    42 890 01 00:   NEUTRON POROSITY LIMESTONE
 SPR .MV     07 010 01 00:   SPONTANEOUS POTENTIAL
 GURD.OHMM   07 220 05 00:   GUARD LOG RESISTIVITY
 FORX.OHMM   07 220 00 00:   FORMATION FACTOR
~PARAMETER INFORMATION
#MNEM.UNIT          VALUE    DESCRIPTION
#----------   ------------   ------------------------------
 EKB .F         5147.0000:   Kelly bushing
 EGL .F         5137.0000:   Ground level
 EDF .F            0.0000:   Drilling floor
 EPD .F            0.0000:   Permanent datum
 TD  .F         3254.0000:   Total depth
 CLNT.            A2DTECH:   Client Code
 SL  . 660' FNL & 1320' FWL:   Surface Location
 PD  .                 GL:   Permanent Datum
 DAPD.F                10:   Feet Above Permanent Datum
 DATE.        06-JUN-1977:   Date Logged [DD-MMM-YYYY]
 DD  .F              3249:   Depth driller
 DL  .F              3254:   Depth logger
 BLI .F              3252:   Bottom log interval
 TLI .F               200:   Top log interval
 CS1 .IN            8.625:   Casing size
 CBD1.      8.625" @ 204':   Casing driller 1
 CBL1.F               221:   Casing logger 1
 BS1 .IN            7.875:   Bit size
 BSD1.F              3249:   Depth drilled with bit1
 DFT .            KCL MUD:   Type fluid in hole
 DFD .                  9:   Density
 DFV .                134:   Viscosity
 DFPH.                7.5:   pH
 DFL .                7.8:   Fluid loss
 MSS .           FLOWLINE:   Source of sample
 RMS .OHMM           0.64:   Rm
 MST .F                85:   Rm Meas. temp.
 RMF .OHMM           0.61:   Rmf
 MFST.F                85:   Rmf Meas. temp.
 MFSS.           FANN KIT:   Source Rmf.
 RMC .OHMM              1:   Rmc
 MCST.F                85:   Rmc Meas. temp.
 MCSS.           FANN KIT:   Source Rmc.
 RMB .OHMM           0.46:   Rm. at BHT
 BHT .F               116:   BHT.
 TCS .HRS             2.5:   Time Circ. stopped
 MRT .F               116:   Maximum recorded temp.
 LUN .               8611:   Logging unit number
 LUL .             CASPER:   Logging unit location
 ENGI.            C. DOAK:   Recorded By
 WITN.      B. HARRINGTON:   Witnessed by
 ORIG.           5" PRINT:   Origin of data
 UWI .     49025103750000:   Unique Well ID
 DICO. A2D TECHNOLOGIES, INC.:   Digitizing Company
~OTHER INFORMATION
~A   DEPT     CALD         GRD      RHOB       CORR       NPHI        SPR       GURD       FORX   
# ...
 1210.5000     9.5222   117.8452     2.5153     0.0409     0.2992   -45.1277     9.6029     5.2116
 1211.0000     9.5233   115.8027     2.5117     0.0381     0.2995   -45.1693     9.3434     5.1787
 1211.5000     9.5394   113.7602     2.5080     0.0352     0.2995   -45.2109     9.6058     5.2208
 1212.0000     9.5405   105.4677     2.5021     0.0309     0.2994   -45.2525     9.4754     5.2249
 1212.5000     9.5565    95.6871     2.5015     0.0326     0.2994   -45.2941    10.2927     5.1920
 1213.0000     9.5577    87.0969     2.5061     0.0357     0.2994   -45.3358     8.9704     5.1226
 1213.5000     9.5740    84.1616     2.5069     0.0374     0.2990   -45.3736     9.4145     5.3233
 1214.0000     9.5752    85.3613     2.5041     0.0376     0.2987   -45.3743     9.6122     5.6289
 1214.5000     9.5763    87.3856     2.5072     0.0377     0.2981   -45.3710     9.3524     5.5527
 1215.0000     9.5626    89.4099     2.5125     0.0379     0.2974   -45.3431     9.3539     5.4012
 1215.5000     9.5638    92.1621     2.5186     0.0395     0.2971   -45.3149     9.3552     5.4840
 1216.0000     9.5500    93.3851     2.5239     0.0397     0.2985   -45.2867     9.4211     5.7276
 1216.5000     9.5661    92.5446     2.5248     0.0384     0.2997   -45.2586     9.2932     5.9398
 1217.0000     9.5673    95.8634     2.5241     0.0386     0.2994   -45.2305     9.2947     6.0296
 1217.5000     9.5687    99.8659     2.5220     0.0372     0.3033   -45.2024     9.3602     5.9914
 1218.0000     9.5698   102.1999     2.5098     0.0359     0.3075   -45.1743     9.3615     5.9973
 1218.5000     9.5710    99.5754     2.5020     0.0345     0.3104   -45.1462     9.2350     6.0020
 1219.0000     9.5870   100.5116     2.5014     0.0347     0.3131   -45.1181     8.8622     5.8383
 1219.5000     9.5882   103.2334     2.5067     0.0334     0.3155   -45.0899     8.6229     5.5988
 1220.0000     9.5893   104.7648     2.5113     0.0319     0.3168   -45.0618     8.5059     5.3286
 1220.5000     9.6054   103.3200     2.5054     0.0292     0.3156   -45.0336     8.5073     5.1499
 1221.0000     9.6214   101.5775     2.4965     0.0294     0.3138   -45.0055     8.6860     5.0812
 1221.5000     9.6226   102.8461     2.4877     0.0280     0.3113   -44.9796     8.8766     5.0491
 1222.0000     9.6240   104.9487     2.4817     0.0267     0.3083   -44.9802     9.2439     5.0892
 1222.5000     9.6100   106.1824     2.4811     0.0269     0.3050   -44.9803     9.7685     5.1662
 1223.0000     9.6114   108.0114     2.4805     0.0240     0.3013   -44.9803     9.3745     5.2817
 1223.5000     9.5974   109.8404     2.4806     0.0242     0.2998   -44.9803     9.5714     5.5661
 1224.0000     9.5989   105.4194     2.4822     0.0260     0.2982   -44.9803     9.9760     5.8868
 1224.5000     9.5851   101.5936     2.4853     0.0306     0.2964   -44.9803     9.6802     6.0615
 1225.0000     9.5863   100.4464     2.4907     0.0352     0.2945   -44.9803     9.5752     5.9806
 1225.5000     9.5875    97.2159     2.4997     0.0369     0.2922   -44.9803    10.1886     5.6946
 1226.0000     9.5889   101.4366     2.5105     0.0355     0.2903   -44.9803     9.1275     5.7397
 1226.5000     9.5901   103.2656     2.5164     0.0341     0.2894   -44.9810     9.7793     5.8682
 1227.0000     9.5912   105.0946     2.5105     0.0343     0.2900   -44.9696     9.5149     5.9159
 1227.5000     9.5924   106.3284     2.4979     0.0330     0.2917   -44.9446    10.1943     5.9205
 1228.0000     9.5784   104.8836     2.4860     0.0300     0.2941   -45.5633     9.7832     5.8415
 1228.5000     9.5649   105.2244     2.4921     0.0243     0.2962   -45.4184    10.3384     5.6821
 1229.0000     9.5512   106.7598     2.4990     0.0260     0.2985   -44.9986     9.9500     5.4880
 1229.5000     9.5375   108.3720     2.5043     0.0307     0.2991   -44.9766    11.7057     5.3763
 1230.0000     9.5389   111.6151     2.5105     0.0323     0.2990   -44.9976     9.9241     5.5359
 1230.5000     9.5401   115.8250     2.5158     0.0355     0.2993   -45.4856    11.5468     5.8242
 1231.0000     9.5412   121.5230     2.5174     0.0372     0.2993   -45.5818    10.8565     5.9970
 1231.5000     9.5424   130.4949     2.5137     0.0373     0.2992   -45.5728    10.0658     6.0445
 1232.0000     9.5584   132.9191     2.5071     0.0390     0.2992   -45.5575     9.8614     5.9638
 1232.5000     9.5745   134.1529     2.5019     0.0407     0.2994   -45.4795     9.9311     5.5985
 1233.0000     9.5756   132.0897     2.5065     0.0423     0.2997   -45.4025     9.9325     5.3304
 1233.5000     9.5917   129.3425     2.5134     0.0425     0.3015   -45.3257     9.8656     5.2165
 1234.0000     9.5952   125.6626     2.5150     0.0426     0.3029   -45.2489     9.7993     5.1164
 1234.5000     9.6091   125.0998     2.5114     0.0443     0.3035   -45.1722     9.1489     5.0478
 1235.0000     9.6401   125.4515     2.5070     0.0460     0.3044   -45.0954     9.0247     5.0160
 1235.5000     9.6412   125.1971     2.5033     0.0476     0.3053   -45.0186    10.1468     5.1292
 1236.0000     9.6572   123.7523     2.5094     0.0493     0.3065   -44.9419    11.2516     5.2814
 1236.5000     9.6584   117.8432     2.5200     0.0495     0.3079   -44.8651     9.0286     5.5218
 1237.0000     9.6893   113.0431     2.5246     0.0481     0.3087   -44.7883     8.7846     5.8864
 1237.5000     9.7054   103.2993     2.5269     0.0468     0.3096   -44.7115     8.2013     5.6050
 1238.0000     9.7363    99.5315     2.5300     0.0469     0.3116   -44.6348    10.5092     5.1505
 1238.5000     9.7526   100.4676     2.5254     0.0456     0.3143   -44.5580     8.4908     5.0808
 1239.0000     9.7686   102.5942     2.5205     0.0458     0.3155   -44.4810    10.2974     5.2325
 1239.5000     9.7698   103.5303     2.5154     0.0460     0.3154   -44.4031     8.9126     5.4262
 1240.0000     9.7709   101.7879     2.5132     0.0446     0.3157   -44.3897     8.6714     5.4305
 1240.5000     9.7870    99.1526     2.5193     0.0448     0.3165   -44.3896     8.6729     5.2460
 1241.0000     9.7732    96.2197     2.5232     0.0419     0.3171   -44.3897     8.7943     5.1018
 1241.5000     9.7893   100.7380     2.5248     0.0391     0.3168   -44.3898     8.9256     5.0697
 1242.0000     9.7905   103.7575     2.5158     0.0363     0.3170   -44.3898     9.7538     5.0377
 1242.5000     9.7919   102.0151     2.5036     0.0335     0.3182   -44.3898     9.8903     5.1882
 1243.0000     9.8079   100.5702     2.4967     0.0352     0.3200   -44.3898    13.4832     5.3422
 1243.5000     9.8091    99.1254     2.5095     0.0383     0.3220   -44.3898     9.9431     5.6203
 1244.0000     9.8102    98.5626     2.5276     0.0430     0.3235   -44.3898     9.1726     5.8284
 1244.5000     9.8114    98.0208     2.5396     0.0476     0.3246   -44.3898     8.9250     5.3940
 1245.0000     9.7974   101.1010     2.5464     0.0493     0.3246   -44.3898     8.3324     5.0997
 1245.5000     9.7840   107.3450     2.5398     0.0479     0.3240   -44.3898     8.1629     4.9254
 1246.0000     9.7851   110.9597     2.5294     0.0466     0.3239   -44.3898     8.2207     4.8597
 1246.5000     9.7863   112.4911     2.5168     0.0468     0.3248   -44.3897     8.3933     4.9333
 1247.0000     9.7877   113.4272     2.5170     0.0469     0.3257   -44.3898     8.8697     5.0088
 1247.5000     9.7737   115.8515     2.5193     0.0471     0.3262   -44.3929     8.8100     5.0485
 1248.0000     9.7751   118.5733     2.5239     0.0473     0.3250   -44.4089     8.3391     5.0157
 1248.5000     9.7763   120.4023     2.5203     0.0474     0.3244   -44.4245     8.5145     4.9498
 1249.0000     9.7775   123.5173     2.5151     0.0446     0.3234   -44.4401     8.5156     4.8147
 1249.5000     9.7637   125.5484     2.5122     0.0403     0.3225   -44.4558     8.4581     4.8534
 1250.0000     9.7649   117.5624     2.5101     0.0389     0.3216   -44.4714     8.4012     4.9323
 1250.5000     9.7659   112.2226     2.5079     0.0376     0.3197   -44.4870     8.2884     5.0735
