~VERSION INFORMATION
 VERS.                2.0:   CWLS LOG ASCII STANDARD - VERSION 2.0
 WRAP.                 NO:   ONE LINE PER DEPTH STEP
~WELL INFORMATION
#MNEM.UNIT      DATA TYPE    INFORMATION
#----------   ------------   ------------------------------
 STRT.F           31.5000:   START DEPTH
 STOP.F         4204.0000:   STOP DEPTH
 STEP.F            0.5000:   STEP LENGTH
 NULL.          -999.2500:   NO VALUE
 COMP.   LAWRENCE ALLISON:   COMPANY
 WELL. LAWRENCE 3 "X" #32-10:   WELL
 FLD .                NPR:   FIELD
 LOC .      S10 T38N R78W:   LOCATION
 CNTY.            NATRONA:   COUNTY
 STAT.            WYOMING:   STATE
 CTRY. UNITED STATES OF AMERICA:   COUNTRY
 SRVC.      DRESSER ATLAS:   SERVICE COMPANY
 DATE.        05-NOV-1983:   LOGDATE
 API .     49025109460000:   API NUMBER
~CURVE INFORMATION
#MNEM.UNIT       API CODE    CURVE DESCRIPTION
#----------   ------------   ------------------------------
 DEPT.F                  :   
 CALD.IN     45 280 60 00:   CALIPER FROM DENSITY LOG
 CNC .DEC    42 890 01 00:   NEUTRON POROSITY LIMESTONE
 CORR.G/C3   45 356 01 00:   DENSITY CORRECTION
 TEND.LBS    45 635 01 00:   TENSION FORM DENSITY LOG
 RHOB.G/C3   45 350 01 00:   BULK DENSITY
 DT  .US/F   60 520 00 00:   DELTA TIME
 TENS.LBS    60 635 01 00:   TENSION FROM SONIC
 GRR .GAPI   07 310 01 00:   GAMMA RAY FROM RESISTIVITY
 TENR.LBS    06 635 01 00:   TENSION FROM RESISTIVITY
 RFOC.OHMM   07 220 04 00:   RESISTIVITY FOCUSED LOG RES.
 RILM.OHMM   07 120 44 00:   INDUCTION LOG MEDIUM RESISTIVITY
 RILD.OHMM   07 120 46 00:   DEEP INDUCTION RESISTIVITY
 SPR .MV     07 010 01 00:   SPONTANEOUS POTENTIAL
~PARAMETER INFORMATION
#MNEM.UNIT          VALUE    DESCRIPTION
#----------   ------------   ------------------------------
 EKB .F         5237.0000:   Kelly bushing
 EGL .F         5227.0000:   Ground level
 TD  .F         4202.0000:   Total depth
 CLNT.            A2DTECH:   Client Code
 SL  . 1871' FWL & 1152' FNL:   Surface Location
 PD  .                 GL:   Permanent Datum
 EPD .F              5227:   Elevation Permanent Datum
 LMF .                 KB:   Log Measured From
 DMF .                 KB:   Drilling Measured From
 DAPD.F                10:   Feet Above Permanent Datum
 DATE.        05-NOV-1983:   Date Logged [DD-MMM-YYYY]
 DD  .F              4200:   Depth driller
 DL  .F              4202:   Depth logger
 BLI .F              4200:   Bottom log interval
 TLI .F                30:   Top log interval
 CS1 .IN            8.625:   Casing size
 CBD1.      8.625" @ 545':   Casing driller 1
 CBL1.F               545:   Casing logger 1
 BS1 .IN            7.875:   Bit size
 BSD1.F              4200:   Depth drilled with bit1
 DFT .            GEL KCL:   Type fluid in hole
 DFD .                8.9:   Density
 DFV .                 42:   Viscosity
 DFPH.                8.5:   pH
 DFL .               12.4:   Fluid loss
 MSS .           FLOWLINE:   Source of sample
 RMS .OHMM           0.43:   Rm
 MST .F                97:   Rm Meas. temp.
 RMF .OHMM           0.42:   Rmf
 MFST.F                74:   Rmf Meas. temp.
 MFSS.               MEAS:   Source Rmf.
 RMC .OHMM           0.53:   Rmc
 MCST.F                97:   Rmc Meas. temp.
 MCSS.               CALC:   Source Rmc.
 RMB .OHMM           0.32:   Rm. at BHT
 BHT .F               131:   BHT.
 TCS .HRS               3:   Time Circ. stopped
 MRT .F               131:   Maximum recorded temp.
 LUN .               6307:   Logging unit number
 LUL .               GLTE:   Logging unit location
 ENGI.            DEYOUNG:   Recorded By
 WITN.             STRONG:   Witnessed by
 ORIG.        2" 5" PRINT:   Origin of data
 UWI .     49025109460000:   Unique Well ID
 DICO. A2D TECHNOLOGIES, INC.:   Digitizing Company
~OTHER INFORMATION
~A   DEPT     CALD        CNC       CORR       TEND       RHOB         DT       TENS         GRR      TENR       RFOC       RILM       RILD        SPR   
# ...
 1279.5000     9.8414     0.2575     0.0339   -20.4325     2.5289  -999.2500  -999.2500    99.2946   -21.8617     8.4087     8.0413     7.9630   -36.9249
 1280.0000     9.8388     0.2658     0.0263   -20.4931     2.5154  -999.2500  -999.2500    98.5533   -21.6827     8.4688     8.0642     8.0163   -37.0784
 1280.5000     9.8361     0.2677    -0.0014   -20.5665     2.4992  -999.2500  -999.2500    98.2477   -21.5037     8.5520     8.1185     8.0380   -37.5332
 1281.0000     9.8335     0.2597    -0.0275   -20.6163     2.4861  -999.2500  -999.2500    98.8457   -21.3456     8.5487     8.1162     8.0687   -37.8434
 1281.5000     9.8308     0.2550    -0.0336   -20.6780     2.4769  -999.2500  -999.2500   101.1003   -21.1457     8.6065     8.1713     8.1231   -38.2922
 1282.0000     9.8281     0.2544    -0.0351   -20.7452     2.4760  -999.2500  -999.2500   105.0116   -20.9667     8.6160     8.2016     8.1298   -37.6934
 1282.5000     9.8255     0.2772    -0.0274   -20.8012     2.4777  -999.2500  -999.2500   107.7180   -20.7877     8.6626     8.2247     8.1766   -36.6421
 1283.0000     9.8228     0.2800    -0.0151   -23.9509     2.4777  -999.2500  -999.2500   104.4003   -20.6116     8.6592     8.2219     8.1739   -35.8920
 1283.5000     9.8202     0.2832    -0.0090   -24.0062     2.4800  -999.2500  -999.2500   102.4380   -23.4863     8.6566     8.1621     8.1142   -35.4432
 1284.0000     9.8176     0.2861    -0.0074   -24.0678     2.4877  -999.2500  -999.2500   103.7890   -23.3027     8.6539     8.1598     8.1119   -34.6931
 1284.5000     9.8173     0.2835    -0.0028   -24.1345     2.4985  -999.2500  -999.2500   104.9894   -23.1193     8.7738     8.1575     8.1096   -33.9430
 1285.0000     9.8221     0.2810     0.0222   -24.9393     2.5077  -999.2500  -999.2500   104.6535   -22.9358     8.8324     8.1552     8.1073   -33.7954
 1285.5000     9.8267     0.2794     0.0572   -27.3344     2.5169  -999.2500  -999.2500   102.4783   -22.7269     8.8920     8.1529     8.1050   -33.7983
 1286.0000     9.8313     0.2784     0.0633   -27.3960     2.5200  -999.2500  -999.2500    99.5534   -22.5688     8.9527     8.1507     8.1025   -33.8013
 1286.5000     9.8360     0.2778     0.0341   -24.3777     2.5240  -999.2500  -999.2500    97.2899   -22.3853     8.9493     8.2061     8.1381   -33.8042
 1287.0000     9.8406     0.2778     0.0219   -24.4376     2.5293  -999.2500  -999.2500    99.5445   -22.1899     8.8838     8.2036     8.1559   -33.9578
 1287.5000     9.8452     0.2784     0.0157   -24.4992     2.5339  -999.2500  -999.2500   103.1548   -25.0765     8.7570     8.2590     8.1531   -33.9859
 1288.0000     9.8499     0.2778     0.0188   -27.6528     2.5393  -999.2500  -999.2500   112.3369   -24.8930     8.5113     8.2568     8.2086   -34.4162
 1288.5000     9.8545     0.2721     0.0265   -24.6307     2.5455  -999.2500  -999.2500   113.3878   -24.7095     8.3898     8.2545     8.2063   -34.8710
 1289.0000     9.8591     0.2658     0.0127   -24.6903     2.5539  -999.2500  -999.2500   111.5750   -24.5260     8.3973     8.2522     8.2035   -35.3257
 1289.5000     9.8638     0.2607     0.0189   -24.7498     2.5632  -999.2500  -999.2500   108.1068   -24.3082     8.7455     8.2500     8.2013   -35.7805
 1290.0000     9.8684     0.2582     0.0281   -24.8143     2.5818  -999.2500  -999.2500   105.3915   -24.1292     9.0559     8.3648     8.2576   -36.0846
 1290.5000     9.8730     0.2572     0.0281   -24.8690     2.5786  -999.2500  -999.2500   103.5738   -23.9502     9.1177     8.4211     8.3138   -36.3888
 1291.0000     9.8777     0.2613     0.0159   -24.9307     2.5624  -999.2500  -999.2500   102.9730   -23.7712     9.0503     8.4783     8.3828   -36.5423
 1291.5000     9.8823     0.2601     0.0050   -25.0029     2.5416  -999.2500  -999.2500   105.0759   -26.6950     8.9843     8.4760     8.4269   -36.6959
 1292.0000     9.8869     0.2645     0.0067   -25.0625     2.5316  -999.2500  -999.2500   105.5244   -26.4713     8.9813     8.5341     8.4618   -36.8494
 1292.5000     9.8916     0.2740     0.0159   -25.1156     2.5324  -999.2500  -999.2500   104.9165   -26.2922     8.9785     8.5312     8.4817   -36.8524
 1293.0000     9.8962     0.2721     0.0205   -25.1772     2.5339  -999.2500  -999.2500   103.5566   -26.1132     9.1723     8.5289     8.4794   -36.5541
 1293.5000     9.9008     0.2670     0.0405   -25.2411     2.5354  -999.2500  -999.2500   102.0462   -28.9923     9.4919     8.5869     8.5371   -36.4065
 1294.0000     9.9055     0.2632     0.0513   -25.3007     2.5385  -999.2500  -999.2500   100.3851   -28.8073     9.5567     8.5242     8.4746   -36.1082
 1294.5000     9.9101     0.2658     0.0544   -22.2804     2.5408  -999.2500  -999.2500    98.8747   -28.5895     9.4860     8.5218     8.4719   -35.8100
 1295.0000     9.9147     0.2700     0.0463   -19.2564     2.5316  -999.2500  -999.2500    98.1184   -31.4686     9.2850     8.5190     8.4695   -35.3618
 1295.5000     9.9194     0.2803     0.0129   -19.3220     2.5200  -999.2500  -999.2500   100.5225   -31.3150     9.1525     8.5166     8.4674   -34.7624
 1296.0000     9.9240     0.2892    -0.0132   -19.3904     2.5023  -999.2500  -999.2500   102.4759   -31.1106     8.9587     8.5143     8.4649   -34.1629
 1296.5000     9.9286     0.2911    -0.0208   -19.4453     2.4969  -999.2500  -999.2500   103.8448   -33.9897     8.7687     8.5122     8.4626   -33.7133
 1297.0000     9.9333     0.2845    -0.0039   -19.5095     2.4985  -999.2500  -999.2500   104.8986   -33.8107     8.7660     8.5704     8.4904   -33.4151
 1297.5000     9.9374     0.2765    -0.0070   -19.5691     2.5008  -999.2500  -999.2500   105.1734   -33.6317     8.7018     8.6286     8.5781   -33.1175
 1298.0000     9.9373     0.2727    -0.0225   -19.6302     2.5015  -999.2500  -999.2500   104.2643   -36.5137     8.8218     8.6867     8.6365   -33.1205
 1298.5000     9.9372     0.2880    -0.0331   -22.7847     2.5015  -999.2500  -999.2500   103.0551   -36.3303     8.9447     8.6843     8.6335   -33.1235
 1299.0000     9.9372     0.3061    -0.0392   -22.8443     2.4969  -999.2500  -999.2500   102.1470   -36.1468     9.1965     8.6818     8.6311   -33.1265
 1299.5000     9.9372     0.3136    -0.0407   -22.9038     2.4923  -999.2500  -999.2500   101.5402   -35.9290     9.3898     8.6789     8.6288   -33.1301
 1300.0000     9.9372     0.3113     0.0100   -22.9634     2.4892  -999.2500  -999.2500   102.5903   -38.0650     9.6549     8.6156     8.5657   -33.2836
 1300.5000     9.9372     0.2899     0.0330   -23.0229     2.4938  -999.2500  -999.2500   106.0508   -35.5049     9.7894     8.4927     8.5032   -33.4372
 1301.0000     9.9372     0.2860     0.0346   -23.0825     2.4977  -999.2500  -999.2500   107.5539   -32.9447     9.7171     8.4308     8.4411   -33.4401
 1301.5000     9.9372     0.2873     0.0243   -26.2250     2.5009  -999.2500  -999.2500   104.5389   -30.3845     9.5783     8.4285     8.3794   -33.7443
 1302.0000     9.9372     0.3108     0.0090   -25.0737     2.5031  -999.2500  -999.2500    99.1142   -29.2844     9.4493     8.4262     8.3771   -34.0484
 1302.5000     9.9372     0.3146    -0.0044   -22.8802     2.5061  -999.2500  -999.2500   100.4667   -29.1952     9.1861     8.3647     8.3154   -34.6841
 1303.0000     9.9372     0.2939    -0.0076   -20.6867     2.5085  -999.2500  -999.2500   103.3252   -29.1060     9.0568     8.3029     8.2547   -34.9942
 1303.5000     9.9372     0.2753    -0.0230   -18.4932     2.5146  -999.2500  -999.2500   105.1295   -29.0214     8.9294     8.2357     8.1944   -35.3042
 1304.0000     9.9372     0.2715    -0.0308   -16.2997     2.5246  -999.2500  -999.2500   104.8131   -28.9276     8.9284     8.1824     8.1346   -35.4800
 1304.5000     9.9372     0.2743    -0.0048   -14.8308     2.5262  -999.2500  -999.2500   102.5290   -28.8379     9.0541     8.1489     8.1000   -35.9265
 1305.0000     9.9372     0.2765     0.0066   -17.7561     2.5246  -999.2500  -999.2500   102.4098   -28.7462     9.1814     8.0922     8.0435   -36.3871
