~VERSION INFORMATION
 VERS.                2.0:   CWLS LOG ASCII STANDARD - VERSION 2.0
 WRAP.                 NO:   ONE LINE PER DEPTH STEP
~WELL INFORMATION
#MNEM.UNIT      DATA TYPE    INFORMATION
#----------   ------------   ------------------------------
 STRT.F            3.5000:   START DEPTH
 STOP.F         5648.0000:   STOP DEPTH
 STEP.F            0.5000:   STEP LENGTH
 NULL.          -999.2500:   NO VALUE
 COMP.       FLUOR DANIEL:   COMPANY
 WELL.   FLUOR "X" #46-10:   WELL
 FLD .          N.P.R. #3:   FIELD
 LOC .      S10 T38N R78W:   LOCATION
 CNTY.            NATRONA:   COUNTY
 STAT.            WYOMING:   STATE
 CTRY. UNITED STATES OF AMERICA:   COUNTRY
 SRVC.      WESTERN ATLAS:   SERVICE COMPANY
 DATE.        25-MAR-1996:   LOGDATE
 API .     49025227700000:   API NUMBER
~CURVE INFORMATION
#MNEM.UNIT       API CODE    CURVE DESCRIPTION
#----------   ------------   ------------------------------
 DEPT.F                  :   
 CALD.IN     45 280 60 00:   CALIPER FROM DENSITY LOG
 ZDEN.G/C3   45 350 01 00:   BULK DENSITY
 ZCOR.G/C3   45 356 01 00:   DENSITY CORRECTION
 TEND.LBS    45 635 01 00:   TENSION FORM DENSITY LOG
 GRD .GAPI   45 310 01 00:   GAMMA RAY FROM DENSITY LOG
 CNC .DEC    42 890 01 00:   NEUTRON POROSITY LIMESTONE
 SPR .MV     07 010 01 00:   SPONTANEOUS POTENTIAL
 RD  .OHMM   07 220 10 00:   RESISTIVITY DEEP
 RS  .OHMM   07 220 09 00:   RESISTIVITY SHALLOW
~PARAMETER INFORMATION
#MNEM.UNIT          VALUE    DESCRIPTION
#----------   ------------   ------------------------------
 EKB .F         5216.0000:   Kelly bushing
 EGL .F         5206.0000:   Ground level
 EDF .F         5215.0000:   Drilling floor
 TD  .F         5650.0000:   Total depth
 CLNT.            A2DTECH:   Client Code
 SL  . 1493' FSL & 2330' FWL:   Surface Location
 PD  .                 GL:   Permanent Datum
 EPD .F              5206:   Elevation Permanent Datum
 LMF .                 KB:   Log Measured From
 DMF .                 KB:   Drilling Measured From
 DAPD.F                10:   Feet Above Permanent Datum
 DATE.        25-MAR-1996:   Date Logged [DD-MMM-YYYY]
 DD  .F              5650:   Depth driller
 DL  .F              5648:   Depth logger
 BLI .F              5636:   Bottom log interval
 TLI .F                 0:   Top log interval
 CS1 .IN            9.625:   Casing size
 CBD1.      9.625" @ 498':   Casing driller 1
 CBL1.F               496:   Casing logger 1
 BS1 .IN             8.75:   Bit size
 BSD1.F              5650:   Depth drilled with bit1
 DFT .           CHEM GEL:   Type fluid in hole
 DFD .                9.6:   Density
 DFV .                 54:   Viscosity
 DFPH.                9.5:   pH
 DFL .                8.4:   Fluid loss
 MSS .           FLOWLINE:   Source of sample
 RMS .OHMM          0.635:   Rm
 MST .F                68:   Rm Meas. temp.
 RMF .OHMM          0.483:   Rmf
 MFST.F                68:   Rmf Meas. temp.
 MFSS.               MEAS:   Source Rmf.
 RMC .OHMM          0.789:   Rmc
 MCST.F                68:   Rmc Meas. temp.
 MCSS.               MEAS:   Source Rmc.
 RMB .OHMM           0.26:   Rm. at BHT
 BHT .F               166:   BHT.
 TCS .HRS               6:   Time Circ. stopped
 MRT .F               166:   Maximum recorded temp.
 LUN .            HL-6530:   Logging unit number
 LUL .             CASPER:   Logging unit location
 ENGI.        VERN RAUTIO:   Recorded By
 WITN. LORRAINE LAFRENIERE:   Witnessed by
 ORIG.           5" PRINT:   Origin of data
 UWI .     49025227700000:   Unique Well ID
 DICO. A2D TECHNOLOGIES, INC.:   Digitizing Company
~OTHER INFORMATION
~A  DEPTH     CALD       ZDEN       ZCOR       TEND        GRD        CNC        SPR         RD         RS
# ...
 2522.0000     9.1289     2.3898     0.0169    -5.9761    67.2667     0.1780   -72.0904    23.8789    18.5331
 2522.5000     9.1296     2.3936     0.0139   -15.9363    64.5643     0.1820   -72.0858    22.9048    17.7788
 2523.0000     9.1302     2.4034     0.0109   -35.8566    62.7656     0.1847   -71.9300    23.2217    17.5342
 2523.5000     9.1307     2.4087     0.0169   -35.8566    62.7892     0.1865   -71.7751    23.3791    18.2782
 2524.0000     9.1314     2.4141     0.0290   -35.8566    69.7123     0.1892   -71.1683    23.2141    18.5331
 2524.5000     9.1320     2.4199     0.0335   -35.8566    72.7328     0.1945   -70.5616    22.2671    18.1520
 2525.0000     9.1325     2.4214     0.0260   -35.8566    72.1389     0.2000   -70.2560    21.8068    17.7788
 2525.5000     9.1331     2.4154     0.0169   -45.8167    70.8811     0.2018   -70.1009    21.5042    17.2931
 2526.0000     9.1339     2.4139     0.0170   -35.8566    67.9411     0.2024   -70.0957    21.3530    17.0552
 2526.5000     9.1344     2.4146     0.0214   -35.8566    67.3450     0.2021   -70.0913    21.7975    17.2931
 2527.0000     9.1349     2.4161     0.0229   -25.8964    69.1628     0.1997   -70.0870    22.2518    17.5342
 2527.5000     9.1506     2.4221     0.0214   -35.8566    72.4867     0.1946   -70.6851    22.8733    18.0267
 2528.0000     9.1512     2.4372     0.0214   -35.8566    73.7000     0.1895   -71.4337    23.8625    18.4052
 2528.5000     9.1519     2.4394     0.0169   -35.8566    74.3108     0.1871   -71.2786    23.6716    18.5331
 2529.0000     9.1525     2.4289     0.0109   -25.8964    74.6205     0.1877   -71.1228    22.5494    18.2782
 2529.5000     9.1530     2.4341     0.0049   -19.0239    73.4263     0.1943   -70.9678    20.8939    17.2931
 2530.0000     9.1537     2.4349     0.0004     0.6225    71.3263     0.1967   -70.9635    20.1807    16.1360
 2530.5000     9.1392     2.4334    -0.0011     3.9841    71.0314     0.1904   -70.9592    20.4586    16.5893
 2531.0000     9.1398     2.4198     0.0064    13.9442    72.2690     0.1877   -71.1054    21.9216    17.2931
 2531.5000     9.1404     2.4048     0.0290    33.8645    72.8577     0.1901   -71.2517    23.1671    18.0267
 2532.0000     9.1259     2.4070     0.0455    23.9044    69.5550     0.1937   -71.5486    23.4862    18.6723
 2532.5000     9.1266     2.4108     0.0470     3.9841    68.0572     0.1946   -71.9949    22.8412    18.2782
 2533.0000     9.1271     2.4153     0.0440    -5.9761    69.2729     0.1949   -72.4424    21.9094    17.7788
 2533.5000     9.1428     2.4199     0.0364    -5.9761    71.3898     0.1958   -72.7404    21.4565    17.5342
 2534.0000     9.1435     2.4258     0.0305   -15.9066    72.6031     0.1958   -72.8855    21.0129    17.0552
 2534.5000     9.1440     2.4288     0.0320   -16.0704    72.9127     0.1940   -72.7304    20.8652    17.0552
 2535.0000     9.1446     2.4311     0.0320   -15.4803    72.0197     0.1903   -72.7252    20.7180    17.0552
 2535.5000     9.1452     2.4326     0.0350   -27.8088    71.7248     0.1856   -72.5702    20.7153    17.2931
 2536.0000     9.1307     2.4348     0.0365   -45.8167    72.6390     0.1817   -72.5659    20.7126    17.0552
 2536.5000     9.1313     2.4408     0.0410   -45.8167    73.2626     0.1807   -72.5616    20.7099    17.0552
 2537.0000     9.1320     2.4603     0.0440   -35.8566    74.1641     0.1817   -72.2560    21.8851    17.2931
 2537.5000     9.1325     2.5205     0.0395   -25.8964    75.6786     0.1763   -72.1009    23.1277    18.3047
 2538.0000     9.1332     2.5400     0.0139   -15.9363    76.6343     0.1598   -71.9451    24.9537    20.4721
 2538.5000     9.1338     2.5370     0.0169   -15.9363    72.5724     0.1450   -72.2419    27.8716    23.7803
 2539.0000     9.1344     2.5114     0.0214   -15.9363    68.4772     0.1372   -72.5388    33.1311    26.9373
 2539.5000     9.1199     2.4393     0.0229   -14.6414    66.6784     0.1432   -72.9874    30.9110    27.3129
 2540.0000     9.1356     2.4347     0.0245    -8.0594    67.2893     0.1556   -73.4337    25.4630    23.7803
 2540.5000     9.1361     2.4422     0.0260    -6.2342    68.5047     0.1766   -74.0818    20.4025    20.5746
 2541.0000     9.1368     2.4438     0.0260   -15.6917    70.9228     0.1872   -74.6299    19.3011    16.5893
 2541.5000     9.1373     2.4415     0.0275   -15.9363    76.0518     0.1893   -74.4739    19.2981    16.0247
 2542.0000     9.1381     2.4415     0.0275   -14.6215    80.2815     0.1911   -74.0177    19.2955    16.3611
 2542.5000     9.1386     2.4430     0.0290   -25.8964    80.5889     0.1890   -74.1642    19.5625    16.5893
 2543.0000     9.1392     2.4498     0.0290   -15.9363    80.2940     0.1830   -75.0632    19.5593    16.5893
 2543.5000     9.1398     2.4580     0.0290   -15.9363    79.7001     0.1776   -75.6862    19.8287    16.5893
 2544.0000     9.1405     2.4602     0.0290   -15.9363    80.3132     0.1758   -75.9582    20.1024    16.8206
 2544.5000     9.1410     2.4505     0.0259   -25.8964    79.1188     0.1773   -76.2551    19.8235    16.8409
 2545.0000     9.1416     2.4421     0.0229   -16.4599    78.2215     0.1806   -76.4013    19.1468    16.3314
 2545.5000     9.1271     2.4407     0.0229   -16.6376    78.2030     0.1851   -76.8477    18.3651    15.6952
 2546.0000     9.1278     2.4459     0.0245   -16.7797    80.6524     0.1878   -77.1446    17.9855    15.2664
 2546.5000     9.1283     2.4542     0.0168   -24.4069    84.2753     0.1902   -77.4414    17.4922    15.2664
 2547.0000     9.1289     2.4588     0.0109   -32.0359    85.4886     0.1914   -77.5877    17.7337    15.1610
 2547.5000     9.1295     2.4572     0.0109   -47.1818    84.5934     0.1900   -78.0341    18.2290    15.2664
 2548.0000     9.1302     2.4527     0.0124   -54.8089    82.1944     0.1824   -78.7828    18.8676    15.4793
 2548.5000     9.1309     2.4496     0.0124   -47.4660    80.6968     0.1782   -79.6820    19.2609    15.8043
 2549.0000     9.1317     2.4499     0.0124   -47.6081    78.8980     0.1746   -80.4307    19.5267    16.1360
 2549.5000     9.1321     2.4587     0.0139   -47.7545    77.0993     0.1759   -80.7276    19.5378    16.2482
 2550.0000     9.1326     2.4647     0.0094   -40.4428    75.9029     0.1830   -80.1198    19.1103    15.9402
 2550.5000     9.1330     2.4699     0.0064   -33.0644    78.6243     0.1875   -79.3624    17.5920    14.6451
 2551.0000     9.1334     2.4699     0.0049   -25.7215    81.9460     0.1899   -79.5098    16.8761    14.4436
 2551.5000     9.1340     2.4699     0.0034   -18.4132    84.1066     0.1917   -79.8055    16.7576    14.4436
 2552.0000     9.1495     2.4706     0.0019    -3.5862    84.0714     0.1914   -80.1024    16.6399    14.5440
 2552.5000     9.1499     2.4738     0.0019   -11.2489    84.8407     0.1893   -80.5748    16.4086    14.4436
 2553.0000     9.1503     2.4768     0.0019   -11.3910    87.0113     0.1920   -80.6961    16.0694    14.0202
 2553.5000     9.1357     2.4768     0.0019   -19.0181    90.0177     0.1939   -80.8424    15.6283    13.2002
 2554.0000     9.1362     2.4768     0.0109   -19.4697    90.9157     0.1939   -80.8370    15.8440    13.0186
 2554.5000     9.1366     2.4806     0.0199   -26.8230    87.8965     0.1897   -80.8326    16.2867    13.7602
 2555.0000     9.1371     2.4904     0.0229   -34.4501    84.8788     0.1842   -80.9789    16.7416    14.4436
 2555.5000     9.1375     2.4964     0.0199   -34.5922    84.2707     0.1821   -81.3613    16.5089    14.6451
 2556.0000     9.1380     2.4972     0.0184   -34.7343    85.4698     0.1854   -81.8112    16.2799    13.8558
 2556.5000     9.1385     2.4994     0.0184   -27.3914    91.1856     0.1870   -82.2612    16.0536    13.5709
 2557.0000     9.1389     2.5122     0.0221   -20.0485    94.1934     0.1818   -82.7137    16.9652    13.8558
 2557.5000     9.1393     2.5326     0.0266   -12.7056    90.2707     0.1728   -82.6944    18.5598    15.2664
 2558.0000     9.1398     2.5322     0.0282   -12.8832    83.3373     0.1671   -82.0836    20.5865    17.0552
