~VERSION INFORMATION
 VERS.                2.0:   CWLS LOG ASCII STANDARD - VERSION 2.0
 WRAP.                 NO:   ONE LINE PER DEPTH STEP
~WELL INFORMATION
#MNEM.UNIT      DATA TYPE    INFORMATION
#----------   ------------   ------------------------------
 STRT.F          200.0000:   START DEPTH
 STOP.F         3135.5000:   STOP DEPTH
 STEP.F            0.5000:   STEP LENGTH
 NULL.          -999.2500:   NO VALUE
 COMP.    FENOX & SCISSON:   COMPANY
 WELL. FENIX NPR 23 "AX" #3-11:   WELL
 FLD .                NPR:   FIELD
 LOC .      S11 T38N R78W:   LOCATION
 CNTY.            NATRONA:   COUNTY
 STAT.            WYOMING:   STATE
 CTRY. UNITED STATES OF AMERICA:   COUNTRY
 SRVC.       SCHLUMBERGER:   SERVICE COMPANY
 DATE.        06-NOV-1977:   LOGDATE
 API .     49025104320000:   API NUMBER
~CURVE INFORMATION
#MNEM.UNIT       API CODE    CURVE DESCRIPTION
#----------   ------------   ------------------------------
 DEPT.F                  :   
 CALD.IN     45 280 60 00:   CALIPER FROM DENSITY LOG
 GRD .GAPI   45 310 01 00:   GAMMA RAY FROM DENSITY LOG
 RHOB.G/C3   45 350 01 00:   BULK DENSITY
 CORR.G/C3   45 356 01 00:   DENSITY CORRECTION
 SPR .MV     07 010 01 00:   SPONTANEOUS POTENTIAL
 LL8 .OHMM   07 220 08 00:   LATEROLOG-8 RES.
 ILD .OHMM   07 120 46 00:   DEEP INDUCTION RESISTIVITY
 ILM .OHMM   07 120 44 00:   INDUCTION LOG MEDIUM RESISTIVITY
~PARAMETER INFORMATION
#MNEM.UNIT          VALUE    DESCRIPTION
#----------   ------------   ------------------------------
 EKB .F         5176.0000:   Kelly bushing
 EGL .F         5171.0000:   Ground level
 TD  .F         3138.0000:   Total depth
 DATE.        06-NOV-1977:   Date logged
 CLNT.            A2DTECH:   Client Code
 SL  . 1650' FNL & 750' FWL:   Surface Location
 PD  .                 GL:   Permanent Datum
 EPD .F              5171:   Elevation Permanent Datum
 LMF .                 KB:   Log Measured From
 DMF .                 KB:   Drilling Measured From
 DAPD.F                 5:   Feet Above Permanent Datum
 DD  .F              3138:   Depth driller
 DL  .F              3135:   Depth logger
 BLI .F              3134:   Bottom log interval
 TLI .F               196:   Top log interval
 CS1 .IN            8.625:   Casing size
 CBD1.      8.625" @ 205':   Casing driller 1
 CBL1.F               205:   Casing logger 1
 BS1 .IN            7.875:   Bit size
 BSD1.F              3138:   Depth drilled with bit1
 DFT .            KCL/MUD:   Type fluid in hole
 DFD .                8.8:   Density
 DFV .                 34:   Viscosity
 DFPH.                 11:   pH
 DFL .                  6:   Fluid loss
 MSS .            MUD/PIT:   Source of sample
 RMS .OHMM           0.27:   Rm
 MST .F                48:   Rm Meas. temp.
 RMF .OHMM           0.29:   Rmf
 MFST.F                48:   Rmf Meas. temp.
 RMC .OHMM           0.39:   Rmc
 MCST.F                48:   Rmc Meas. temp.
 MFSS.               MEAS:   Source Rmf.
 MCSS.               CALC:   Source Rmc.
 RMB .OHMM           0.12:   Rm. at BHT
 BHT .F               104:   BHT.
 TCS .HRS            1500:   Time Circ. stopped
 TLAB.HRS            1930:   Time logger at bottom
 MRT .F               104:   Maximum recorded temp.
 LUN .               7711:   Logging unit number
 LUL .               CSPR:   Logging unit location
 ENGI.       CRAIG/SAYLER:   Recorded By
 WITN.         PETTINGILL:   Witnessed by
 ORIG.           5" PRINT:   Origin of data
 UWI .     49025104320000:   Unique Well ID
 DICO. A2D TECHNOLOGIES, INC.:   Digitizing Company
~OTHER INFORMATION
~A   DEPT     CALD        GRD       RHOB       CORR        SPR        LL8        ILD        ILM   
  200.0000  -999.2500  -999.2500  -999.2500  -999.2500   -70.3395  -999.2500  -999.2500  -999.2500
  200.5000  -999.2500    73.1841  -999.2500  -999.2500   -70.3345  -999.2500  -999.2500  -999.2500
  201.0000  -999.2500    72.8823  -999.2500  -999.2500   -70.9295  -999.2500  -999.2500  -999.2500
  201.5000  -999.2500    74.6975  -999.2500  -999.2500   -71.3257  -999.2500  -999.2500  -999.2500
  202.0000  -999.2500    74.6982  -999.2500  -999.2500   -71.5186  -999.2500  -999.2500  -999.2500
  202.5000  -999.2500    74.6990  -999.2500  -999.2500   -71.5124  -999.2500  -999.2500  -999.2500
  203.0000  -999.2500    75.0021  -999.2500  -999.2500   -71.5062  -999.2500  -999.2500  -999.2500
  203.5000  -999.2500    75.0029  -999.2500  -999.2500   -71.2995  -999.2500  -999.2500  -999.2500
  204.0000  -999.2500    75.0037  -999.2500  -999.2500   -70.8925  -999.2500  -999.2500  -999.2500
  204.5000  -999.2500    75.3068  -999.2500  -999.2500   -70.6872  -999.2500  -999.2500  -999.2500
  205.0000  -999.2500    75.3075  -999.2500  -999.2500   -70.6809  -999.2500  -999.2500  -999.2500
  205.5000  -999.2500    74.4013  -999.2500  -999.2500   -70.6747  -999.2500  -999.2500  -999.2500
  206.0000  -999.2500    72.8905  -999.2500  -999.2500   -72.8717  -999.2500     7.0030  -999.2500
  206.5000  -999.2500    72.8910  -999.2500  -999.2500   -79.8798  -999.2500     7.0044  -999.2500
  207.0000  -999.2500    78.8288  -999.2500  -999.2500   -85.4865  -999.2500     6.1585  -999.2500
  207.5000  -999.2500    84.7666  -999.2500  -999.2500   -88.8874    10.1698     4.3008  -999.2500
  208.0000  -999.2500    88.9144  -999.2500  -999.2500   -88.8814     8.4662     3.8164  -999.2500
  208.5000     9.1267    88.0079  -999.2500  -999.2500   -88.2741     7.5841     7.0997  -999.2500
  209.0000     9.1872    87.1015  -999.2500  -999.2500   -87.8672     7.1789     9.6072  -999.2500
  209.5000     9.4075    86.4974  -999.2500  -999.2500   -87.2587     7.2469    14.5667  -999.2500
  210.0000     9.5299    86.4979  -999.2500  -999.2500   -86.4509     7.5198    14.7011  -999.2500
  210.5000    10.5981    86.4983  -999.2500  -999.2500   -86.2444     7.9478    11.6218  -999.2500
  211.0000    11.4197    87.1031  -999.2500  -999.2500   -86.2383     8.4001     9.5527  -999.2500
  211.5000    11.9479    89.8234  -999.2500  -999.2500   -86.6331     9.2108     9.7327    17.6389
  212.0000    11.8875    93.7523  -999.2500  -999.2500   -86.4266     9.6460    10.0998    12.0938
  212.5000    11.2430    96.1700  -999.2500  -999.2500   -86.6210     9.4727     9.6479    11.3403
  213.0000     9.9334    97.9855     2.2277  -999.2500   -86.6149     8.8038    12.0302    10.8325
  213.5000     8.7853    99.1942     2.3492     0.0009   -86.6089     8.1821    12.0337    10.1600
  214.0000     8.7854    99.7986     2.4743     0.0037   -86.4023     7.2274    12.0361     9.8841
  214.5000     8.7654   101.0072     2.4873     0.0064   -86.3963     7.0968    11.7124     9.7968
  215.0000     8.7655   101.6093     2.4883     0.0092   -86.3902     7.8204    10.6871     9.6203
  215.5000     8.8865   101.9114     2.4884     0.0120   -86.3841     8.1899    10.3051     9.6221
  216.0000     8.8261   102.5156     2.4874     0.0160   -86.1764     8.1170    10.2138     9.5367
  216.5000     8.6047   102.2134     2.4834     0.0190   -85.7694     8.1190    10.1214     9.5381
  217.0000     8.5646   101.6091     2.4794     0.0180   -85.5629     7.9731    10.1239     9.5413
  217.5000     8.5646   101.3070     2.4814     0.0200   -85.3564     7.9021     9.8520     9.5427
  218.0000     8.5648   101.0049     2.4844     0.0220   -85.5508     7.8317     9.8535     9.3731
  218.5000     8.5649   101.3069     2.4834     0.0221   -86.1460     7.9059     9.7657     9.1185
  219.0000     8.5651   102.5152     2.4764     0.0181   -87.1423     7.9078     9.4153     9.0370
  219.5000     8.5471   103.7234     2.4794     0.0141   -87.5371     7.9093     9.4180     8.9555
  220.0000     8.5653   104.6295     2.4805     0.0121   -88.3329     7.6262     9.2488     8.6357
  220.5000     8.5453   104.6293     2.4825     0.0141   -88.3269     7.4892     9.2501     8.6365
  221.0000     8.5655   105.5353     2.4835     0.0251   -88.3208     7.4225     9.2533     8.6378
  221.5000     8.5657   106.1392     2.4855     0.0251   -88.7157     7.4243     9.4759     8.6407
  222.0000     8.5658   107.0451     2.4885     0.0232   -88.9102     7.4946     9.4777     8.7228
  222.5000     8.5659   108.5549     2.4915     0.0152   -88.7036     7.4964     9.6957     8.7253
  223.0000     8.5459   108.5567     2.4926     0.0112   -88.8981     7.5674     9.6980     8.7266
  223.5000     8.5460   106.4425     2.4876     0.0092   -88.8920     7.6391     9.6999     8.8919
  224.0000     8.5461   103.7245     2.4826     0.0042   -89.0864     7.5714     9.7923     9.0594
  224.5000     8.5463   101.3086     2.4796     0.0002   -89.0804     7.7848     9.7947     9.2297
  225.0000     8.5464   100.1007     2.4786     0.0022   -89.2748     7.9311     9.7961     9.3178
  225.5000     8.5667    97.6850     2.4826     0.0072   -88.8666     8.2299     9.9811     9.4934
  226.0000     8.5668    94.9676     2.4916     0.0243   -88.8606     8.4619    10.1691     9.6737
  226.5000     8.5468    94.6638     2.4906     0.0223   -89.0550     8.2339     9.8946     9.6747
  227.0000     8.5469    95.8717     2.4796     0.0133   -89.2495     7.8661     9.8966     9.5878
  227.5000     8.5470    97.0795     2.4685     0.0043   -89.4439     7.7961     9.8985     9.5026
  228.0000     8.5673   100.4006     2.4586    -0.0057   -89.2374     7.9426     9.9932     9.4173
  228.5000     8.5496   102.2120     2.4536    -0.0007   -89.4318     8.0922     9.9956     9.4196
  229.0000     8.5474   103.4195     2.4556     0.0003   -89.8268     8.1685     9.9971     9.4224
  229.5000     8.5677   103.7213     2.4576     0.0013   -90.4223     8.0957    10.0923     9.4242
  230.0000     8.5477   104.0231     2.4576     0.0043   -90.8172     7.9502     9.9114     9.4265
  230.5000     8.5277   103.4193     2.4587     0.0073   -90.6107     7.8794    10.0982     9.5165
  231.0000     8.5278   103.1173     2.4667     0.0094   -90.2037     7.8813    10.1006     9.6074
  231.5000     8.5279   103.7209     2.4717     0.0094   -90.1976     7.8111    10.1021     9.6088
  232.0000     8.5482   105.5318     2.4747     0.0124   -89.9911     7.6708    10.0121     9.4375
  232.5000     8.5483   107.0408     2.4778     0.0144   -89.9850     7.6024     9.9239     9.1815
  233.0000     8.5484   109.7570     2.4708     0.0104   -89.7785     7.4658     9.9254     9.1833
  233.5000     8.5284   111.5676     2.4658     0.0054   -89.7713     7.4676     9.9283     9.1013
  234.0000     8.5487   112.7762     2.4648     0.0095   -89.7652     7.6785     9.8399     8.9377
  234.5000     8.5287   109.1526     2.4628     0.0105   -89.7592     7.5405     9.4876     8.8579
  235.0000     8.5287   108.2469     2.4628     0.0125   -89.7531     7.4734     9.3171     8.6185
  235.5000     8.5289   109.1520     2.4638     0.0155   -89.7471     7.0388     9.1496     8.5423
  236.0000     8.5491   109.4552     2.4628     0.0155   -89.5405     6.9759     9.0686     8.3098
  236.5000     8.5292   107.9462     2.4668     0.0175   -89.5345     6.9776     8.9052     8.2364
  237.0000     8.5494   105.8337     2.4739     0.0206   -89.7290     6.9793     8.9074     8.1628
  237.5000     8.5495   104.0231     2.4809     0.0236   -89.5224     6.9810     8.9917     8.0157
  238.0000     8.5698   103.4196     2.4879     0.0276   -89.5164     6.9833     9.1607     7.9449
  238.5000     8.5699   104.6263     2.4899     0.0306   -89.3098     7.2317     9.2471     7.9460
  239.0000     8.5901   105.8330     2.4900     0.0306   -89.3037     7.3006     9.2511     8.0211
  239.5000     8.5903   106.4362     2.4850     0.0236   -89.4982     7.4373     9.2520     8.1727
  240.0000     8.6105   106.4361     2.4789     0.0166   -89.0911     7.4388     9.2533     8.2504
