~VERSION INFORMATION
 VERS.                2.0:   CWLS LOG ASCII STANDARD - VERSION 2.0
 WRAP.                 NO:   ONE LINE PER DEPTH STEP
~WELL INFORMATION
#MNEM.UNIT      DATA TYPE    INFORMATION
#----------   ------------   ------------------------------
 STRT.F         2676.0000:   START DEPTH
 STOP.F         3016.0000:   STOP DEPTH
 STEP.F            0.5000:   STEP LENGTH
 NULL.          -999.2500:   NO VALUE
 COMP.    FENIX & SCISSON:   COMPANY
 WELL.  FENIX "TX" #56-20:   WELL
 FLD .             NPR #3:   FIELD
 LOC .      S20 T39N R78W:   LOCATION
 CNTY.            NATRONA:   COUNTY
 STAT.            WYOMING:   STATE
 CTRY. UNITED STATES OF AMERICA:   COUNTRY
 SRVC.              WELEX:   SERVICE COMPANY
 DATE.        13-OCT-1980:   LOGDATE
 API .     49025108540000:   API NUMBER
~CURVE INFORMATION
#MNEM.UNIT       API CODE    CURVE DESCRIPTION
#----------   ------------   ------------------------------
 DEPT.F                  :   
 GRD .GAPI   45 310 01 00:   GAMMA RAY FROM DENSITY LOG
 CALD.IN     45 280 60 00:   CALIPER FROM DENSITY LOG
 RHOB.G/C3   45 350 01 00:   BULK DENSITY
 DRHO.G/C3   45 356 01 00:   DENSITY CORRECTION
 SPR .MV     07 010 01 00:   SPONTANEOUS POTENTIAL
 SGRD.OHMM   07 220 05 00:   SHALLOW GUARD
 ILM .OHMM   07 120 44 00:   INDUCTION LOG MEDIUM RESISTIVITY
 ILD .OHMM   07 120 46 00:   DEEP INDUCTION RESISTIVITY
~PARAMETER INFORMATION
#MNEM.UNIT          VALUE    DESCRIPTION
#----------   ------------   ------------------------------
 EKB .F         5035.0000:   Kelly bushing
 EGL .F         5030.0000:   Ground level
 EDF .F            0.0000:   Drilling floor
 TD  .F         3012.0000:   Total depth
 DATE.        13-OCT-1980:   Date logged
 CLNT.            A2DTECH:   Client Code
 PD  .                 GL:   Permanent Datum
 EPD .F              5030:   Elevation Permanent Datum
 LMF .                 KB:   Log Measured From
 DMF .                 KB:   Drilling Measured From
 DD  .F              3012:   Depth driller
 DL  .F              3010:   Depth logger
 BLI .F              3012:   Bottom log interval
 TLI .F              2688:   Top log interval
 CS1 .IN                7:   Casing size
 CBD1.         7" @ 2689':   Casing driller 1
 CBL1.F              2687:   Casing logger 1
 BS1 .IN             6.25:   Bit size
 BSD1.F              3012:   Depth drilled with bit1
 DFT .        FRESH WATER:   Type fluid in hole
 MSS .           FLOWLINE:   Source of sample
 RMS .OHMM           2.86:   Rm
 MST .F                50:   Rm Meas. temp.
 RMF .OHMM           2.29:   Rmf
 MFST.F                50:   Rmf Meas. temp.
 RMC .OHMM           3.43:   Rmc
 MCST.F                50:   Rmc Meas. temp.
 MFSS.               MEAS:   Source Rmf.
 MCSS.               MEAS:   Source Rmc.
 RMB .OHMM           1.21:   Rm. at BHT
 BHT .F               118:   BHT.
 TCS .HRS               5:   Time Circ. stopped
 MRT .F               118:   Maximum recorded temp.
 LUN .               1892:   Logging unit number
 LUL .             CASPER:   Logging unit location
 ENGI.           PERIMMER:   Recorded By
 WITN.              SCOTT:   Witnessed by
 ORIG.           5" PRINT:   Origin of data
 UWI .     49025108540000:   Unique Well ID
 DICO. A2D TECHNOLOGIES, INC.:   Digitizing Company
~OTHER INFORMATION
~A  DEPT        GRD        CALD       RHOB       DRHO      SPR       SGRD        ILM        ILD   
# ...
 2797.5000    97.7480     8.3000     2.4840     0.1040   -25.7390     4.8140     3.5800     1.7960
 2798.0000    98.3300     8.2320     2.4790     0.1120   -25.6080     5.0910     3.4370     1.7620
 2798.5000    99.8600     8.3060     2.4730     0.1250   -25.3800     3.9010     3.1290     1.7220
 2799.0000   101.6220     8.2450     2.4880     0.1270   -24.6810     3.6580     3.3070     1.6640
 2799.5000   101.3910     8.2410     2.5030     0.1340   -24.6960     4.0470     3.1580     1.6070
 2800.0000   100.3620     8.2950     2.5110     0.1450   -24.6940     3.8320     3.0440     1.5430
 2800.5000    99.3200     8.2710     2.5100     0.1270   -24.5540     3.5910     3.0690     1.5520
 2801.0000    98.1470     8.3000     2.5060     0.1080   -24.5160     3.6920     3.1040     1.5710
 2801.5000    94.2150     8.2890     2.5010     0.0890   -24.6510     3.7830     3.1580     1.5900
 2802.0000    91.6100     8.2190     2.5020     0.0760   -25.0800     4.1230     3.3780     1.6090
 2802.5000    88.5260     8.2230     2.5180     0.0790   -25.6480     4.4360     3.5040     1.6530
 2803.0000    87.9150     8.2370     2.5190     0.0820   -25.8490     4.3550     3.5590     1.7350
 2803.5000    87.8260     8.2190     2.5120     0.0800   -24.9330     4.5960     3.6230     1.8160
 2804.0000    89.1450     8.1640     2.5040     0.0690   -26.2430     4.9530     4.1220     1.8980
 2804.5000    90.2260     8.1090     2.4950     0.0640   -25.5470     4.6020     4.1050     1.9770
 2805.0000    89.7580     8.0540     2.4960     0.0680   -25.3670     4.9980     4.0650     2.1100
 2805.5000    89.2920     7.9990     2.5010     0.0730   -25.8880     4.4770     4.0100     2.2400
 2806.0000    88.8300     7.9440     2.5070     0.0850   -25.7490     4.6680     4.1320     2.3700
 2806.5000    88.3680     7.8890     2.5120     0.0970   -26.1160     5.1390     4.3340     2.4990
 2807.0000    88.1130     7.8340     2.5170     0.1040   -26.0090     5.6320     4.5350     2.6290
 2807.5000    88.1490     7.7640     2.5180     0.1080   -25.8920     5.7120     4.7370     2.7580
 2808.0000    89.5870     7.6780     2.4940     0.1050   -25.7790     6.1170     4.9630     2.8880
 2808.5000    90.9160     7.5920     2.4640     0.1000   -25.6650     7.4870     5.1850     3.0180
 2809.0000    92.7470     7.5350     2.4320     0.0940   -25.5470     7.4870     5.1850     3.1010
 2809.5000    94.5230     7.4810     2.3790     0.0980   -25.3740     6.5840     5.2330     3.2260
 2810.0000    97.7910     7.4870     2.3240     0.1030   -24.8780     7.1020     5.3300     3.3680
 2810.5000   103.5260     7.5450     2.2700     0.1110   -25.5350     7.3510     5.2050     3.0490
 2811.0000   109.2650     7.6460     2.2150     0.1200   -25.2820     7.2710     4.9720     2.7700
 2811.5000   116.4680     7.9490     2.1600     0.1280   -25.2800     7.3510     4.4970     2.4900
 2812.0000   122.9000     8.2900     2.1210     0.1300   -25.5420     7.9110     3.9280     2.2930
 2812.5000   122.2530     9.0760     2.0990     0.1090   -25.9110     5.6120     3.3590     2.0970
 2813.0000   118.7710     9.7410     2.1010     0.0890   -25.2680     2.8030     3.0160     1.9410
 2813.5000   102.0770     8.8080     2.0960     0.0710   -24.7960     2.6040     3.0160     1.8040
 2814.0000    91.6280     7.5290     2.3080     0.0810   -24.8690     2.8290     3.2310     1.7170
 2814.5000    91.1250     6.9230     2.2770     0.0980   -24.9190     6.2790     3.4920     1.6610
 2815.0000    91.2960     6.9000     2.2510     0.1120   -25.3920     8.2830     3.7540     1.7870
 2815.5000    90.0600     7.0390     2.2320     0.1100   -25.4350     6.9190     4.0150     1.8860
 2816.0000    83.4640     7.0110     2.2260     0.0950   -26.0380     5.3320     4.3270     2.0680
 2816.5000    79.1360     6.9700     2.5160     0.0810   -26.9440     4.1220     4.7000     2.3520
 2817.0000    77.4340     7.0170     2.5290     0.0700   -25.0530     8.9140     5.0730     2.6360
 2817.5000    80.1960     7.1280     2.5270     0.0680   -26.4700     7.7540     5.1380     2.9210
 2818.0000    79.1570     7.0920     2.5250     0.0640   -26.1330     7.0840     5.2270     3.2050
 2818.5000    78.1560     7.0850     2.5240     0.0620   -26.4090     6.7060     5.6430     3.4300
 2819.0000    76.5550     7.0800     2.5210     0.0640   -25.9200     8.2070     6.0620     3.7920
 2819.5000    79.8340     7.0760     2.5230     0.0680   -26.1880     8.1740     6.0810     4.1250
 2820.0000    79.7850     7.0720     2.5280     0.0650   -25.5090     8.0890     6.1050     4.3440
 2820.5000    79.7160     7.0680     2.5350     0.0590   -24.1540     8.0040     6.1280     4.5010
 2821.0000    80.7200     7.0640     2.5360     0.0560   -26.3170     7.9840     6.1520     4.6150
 2821.5000    81.6900     7.0600     2.5330     0.0540   -24.7340     7.9840     6.1760     4.7020
 2822.0000    82.6320     7.0550     2.5370     0.0600   -26.6370     8.1320     6.2000     4.7440
 2822.5000    84.1790     7.0510     2.5410     0.0660   -25.3010     8.2070     6.2240     4.7860
 2823.0000    85.4010     7.0470     2.5410     0.0650   -26.0150     7.9880     6.2480     4.8280
 2823.5000    87.1080     7.0430     2.5350     0.0640   -25.1800     7.2170     6.2720     4.8700
 2824.0000    86.3800     7.0390     2.5260     0.0430   -26.4530     7.4640     6.3460     4.9080
 2824.5000    85.4740     7.0360     2.5180     0.0380   -27.5780     7.9840     6.3460     4.9080
 2825.0000    84.4480     7.0600     2.5110     0.0350   -25.4880     8.6090     6.4340     4.9080
 2825.5000    84.5270     7.1060     2.5120     0.0320   -27.7080    11.3180     6.7060     4.9080
 2826.0000    83.2420     7.0920     2.5140     0.0370   -26.0960     7.6260     6.1170     4.8050
 2826.5000    82.5040     7.0920     2.5110     0.0430   -26.9920     7.8670     6.3460     4.7110
 2827.0000    83.1560     7.0910     2.5070     0.0400   -26.2240     8.3690     6.5240     4.6170
 2827.5000    83.8270     7.0920     2.5030     0.0370   -26.5190     8.4360     6.3460     4.5230
 2828.0000    83.5940     7.0920     2.5030     0.0430   -26.2000     7.9580     6.1170     4.4280
 2828.5000    83.1600     7.0920     2.5070     0.0450   -25.2650     7.0210     6.2310     4.3200
 2829.0000    83.1830     7.0930     2.5050     0.0420   -26.0670     6.5240     5.8430     4.2030
 2829.5000    83.2990     7.0910     2.5040     0.0390   -25.7720     6.7700     5.7900     4.1050
 2830.0000    82.1820     7.1020     2.5170     0.0470   -26.3320     7.2170     5.8430     4.0100
 2830.5000    81.8790     7.0260     2.5270     0.0560   -25.5600     6.6450     6.0060     3.9370
 2831.0000    81.8570     7.1030     2.5320     0.0650   -26.4130     7.1740     6.1170     3.9690
 2831.5000    82.7460     7.1330     2.5410     0.0730   -26.0160     7.6960     6.1170     4.0470
 2832.0000    83.3260     7.1070     2.5520     0.0780   -24.8680     8.4360     6.0060     3.9660
 2832.5000    83.0490     7.0680     2.5520     0.0820   -25.2400     8.1190     5.8070     3.8410
 2833.0000    82.1560     7.0500     2.5500     0.0850   -25.6630     7.5750     5.6110     3.7380
 2833.5000    81.2080     7.1280     2.5490     0.0890   -26.5910     7.0320     5.4150     3.6350
 2834.0000    81.4710     7.0920     2.5420     0.0920   -25.7840     6.4640     5.2190     3.5330
 2834.5000    80.9170     7.0870     2.5480     0.0960   -25.7270     6.2350     5.1150     3.4300
 2835.0000    79.9980     7.0760     2.5580     0.0990   -26.0540     6.0620     5.2330     3.3270
 2835.5000    79.8510     7.0650     2.5680     0.1020   -25.8460     6.3460     5.2330     3.2240
 2836.0000    79.3320     7.0080     2.5750     0.1040   -26.1970     6.1270     5.0910     3.1220
 2836.5000    78.1850     6.9320     2.5660     0.1050   -25.1920     5.8430     5.0450     3.0610
 2837.0000    79.3730     6.9290     2.5590     0.1060   -26.1640     6.1170     5.1380     3.0390
 2837.5000    79.8560     6.9420     2.5520     0.0990   -26.0720     5.6320     5.0450     3.0170
