~VERSION INFORMATION
 VERS.                2.0:   CWLS LOG ASCII STANDARD - VERSION 2.0
 WRAP.                 NO:   ONE LINE PER DEPTH STEP
~WELL INFORMATION
#MNEM.UNIT      DATA TYPE    INFORMATION
#----------   ------------   ------------------------------
 STRT.F            9.0000:   START DEPTH
 STOP.F         2876.0000:   STOP DEPTH
 STEP.F            0.5000:   STEP LENGTH
 NULL.          -999.2500:   NO VALUE
 COMP.    FENIX & SCISSON:   COMPANY
 WELL. FENIX & SCISSON "AX" #82-29:   WELL
 FLD .        TEAPOT DOME:   FIELD
 LOC .      S29 T39N R78W:   LOCATION
 CNTY.            NATRONA:   COUNTY
 STAT.            WYOMING:   STATE
 CTRY. UNITED STATES OF AMERICA:   COUNTRY
 SRVC.           BIRDWELL:   SERVICE COMPANY
 DATE.        12-JAN-1980:   LOGDATE
 API .     49025107980000:   API NUMBER
~CURVE INFORMATION
#MNEM.UNIT       API CODE    CURVE DESCRIPTION
#----------   ------------   ------------------------------
 DEPT.F                  :   
 GRD .GAPI   45 310 01 00:   GAMMA RAY FROM DENSITY LOG
 CALD.IN     45 280 60 00:   CALIPER FROM DENSITY LOG
 CORR.G/C3   45 356 01 00:   DENSITY CORRECTION
 RHOB.G/C3   45 350 01 00:   BULK DENSITY
 SPR .MV     07 010 01 00:   SPONTANEOUS POTENTIAL
 ILD .OHMM   07 120 46 00:   DEEP INDUCTION RESISTIVITY
 SN  .OHMM   07 220 01 00:   SHALLOW FOCUSED LOG RESISTIVITY
~PARAMETER INFORMATION
#MNEM.UNIT          VALUE    DESCRIPTION
#----------   ------------   ------------------------------
 EKB .F         4985.0000:   Kelly bushing
 EGL .F         4973.0000:   Ground level
 EDF .F         4982.0000:   Drilling floor
 TD  .F         2876.0000:   Total depth
 CLNT.            A2DTECH:   Client Code
 SL  . 1821' FEL & 414' FEL:   Surface Location
 DATE.        12-JAN-1980:   Date Logged [DD-MMM-YYYY]
 DD  .F              2870:   Depth driller
 DL  .F              2876:   Depth logger
 BLI .F              2876:   Bottom log interval
 TLI .F               320:   Top log interval
 CS1 .IN            8.625:   Casing size
 CBD1.      8.625" @ 280':   Casing driller 1
 CBL1.IN              320:   Casing logger 1
 BS1 .IN            7.875:   Bit size
 BSD1.F              2870:   Depth drilled with bit1
 DFT .            GEL MUD:   Type fluid in hole
 DFD .                8.7:   Density
 DFV .                 53:   Viscosity
 DFPH.               10.5:   pH
 DFL .               15.4:   Fluid loss
 MSS .            MUD PIT:   Source of sample
 RMS .OHMM            1.8:   Rm
 MST .F                50:   Rm Meas. temp.
 RMF .OHMM            1.4:   Rmf
 MFST.F                60:   Rmf Meas. temp.
 MFSS.               MEAS:   Source Rmf.
 RMC .OHMM            1.9:   Rmc
 MCST.F                60:   Rmc Meas. temp.
 MCSS.               MEAS:   Source Rmc.
 RMB .OHMM           0.65:   Rm. at BHT
 BHT .F               138:   BHT.
 TCS .HRS              11:   Time Circ. stopped
 MRT .F               138:   Maximum recorded temp.
 LUN .               3029:   Logging unit number
 LUL .             CASPEL:   Logging unit location
 ENGI.           T. VOLFF:   Recorded By
 WITN.          MR. AMEND:   Witnessed by
 ORIG.         2.5" PRINT:   Origin of data
 UWI .     49025107980000:   Unique Well ID
 DICO. A2D TECHNOLOGIES,INC.:   Digitizing Company
 PD  .                 GL:   Permanent Datum
 EPD .F              4973:   Elevation Permanent Datum
 LMF .                 DF:   Log Measured From
 DMF .                 KB:   Drilling Measured From
 DAPD.F                 9:   Feet Above Permanent Datum
~OTHER INFORMATION
~A    DEPT      GRD      CALD       CORR       RHOB        SPR        ILD         SN   
# ...
 1328.5000   107.2295     8.3247     0.0810     2.5639   -15.6102    13.0940    12.4835
 1329.0000   108.7507     8.3245     0.0714     2.5705   -15.7649    13.0949    12.2311
 1329.5000   109.0893     8.2941     0.0565     2.5567   -16.0683    12.8794    11.7918
 1330.0000   109.3617     8.2939     0.0673     2.5688   -16.6766    12.4648    11.3099
 1330.5000   108.4820     8.2938     0.0805     2.5734   -17.2851    11.8167    11.1507
 1331.0000   102.8612     8.2952     0.0793     2.5650   -17.3201    11.4118    11.1492
 1331.5000    98.9281     8.3272     0.0712     2.5626   -16.0625    11.2275    10.9922
 1332.0000   100.9179     8.3592     0.0785     2.5640   -16.0770    11.0720    10.8375
 1332.5000   104.7847     8.4144     0.0800     2.5685   -17.3398    10.9188    10.8360
 1333.0000   105.4195     8.4143     0.0799     2.5715   -18.6028    10.6176    10.6835
 1333.5000   105.2461     8.4141     0.0797     2.5715   -19.4102    10.6183    10.6820
 1334.0000   104.8149     8.4140     0.0796     2.5729   -19.2135    10.4712    10.6805
 1334.5000   103.9045     8.4138     0.0795     2.5744   -18.3725    10.4719    10.5301
 1335.0000   102.6902     8.4136     0.0854     2.5744   -17.2511    10.3220    10.5286
 1335.5000   102.6916     8.4135     0.0914     2.5712   -16.7759    10.1838    10.5271
 1336.0000   105.1247     8.4133     0.0945     2.5742   -15.1339    10.2113    10.5256
 1336.5000   108.4697     8.4132     0.1036     2.5742   -14.8275    10.3290    10.5239
 1337.0000   111.2067     8.4130     0.1062     2.5714   -14.8260    10.4755    10.6713
 1337.5000   111.8161     8.4129     0.0954     2.5583   -16.0441    10.5379    10.8207
 1338.0000   107.5622     8.4127     0.0878     2.5596   -14.5182    10.6249    10.9723
 1338.5000   109.4356     8.4126     0.1142     2.5737   -13.6021    10.7113    11.1259
 1339.0000   109.6930     8.4124     0.1178     2.5808   -14.2266    10.9287    11.2816
 1339.5000   108.5321     8.4123     0.1146     2.5799   -14.8187    11.0838    11.2890
 1340.0000   105.8457     8.4121     0.0994     2.5829   -15.3049    11.2410    11.4380
 1340.5000   103.3804     8.4120     0.0902     2.5950   -17.2548    11.4005    11.4363
 1341.0000   104.1672     8.4118     0.1113     2.5858   -17.5582    11.4012    11.5966
 1341.5000   106.3672     8.4117     0.0899     2.5583   -16.7393    11.4020    11.4331
 1342.0000   108.3951     8.4115     0.0625     2.5521   -15.4167    11.3859    11.2721
 1342.5000   110.9197     8.4114     0.0594     2.5521   -16.3746    11.2448    11.1134
 1343.0000   112.4410     8.4112     0.0654     2.5645   -17.2467    11.0890    10.9566
 1343.5000   112.1385     8.4110     0.0713     2.5735   -17.5501    10.7327    10.9551
 1344.0000   111.2281     8.4109     0.0646     2.5748   -17.8536    10.4255    10.9537
 1344.5000   110.3177     8.4410     0.0582     2.5602   -17.2423    10.4866    10.9522
 1345.0000   109.4074     8.4409     0.0527     2.5563   -16.0213    10.6354    11.1056
 1345.5000   107.8891     8.4710     0.0496     2.5611   -15.1052    10.7864    11.1040
 1346.0000   103.2708     8.4709     0.0495     2.5643   -16.0671    11.0939    11.2679
 1346.5000   100.5972     8.5011     0.0555     2.5507   -17.2364    11.2512    11.4172
 1347.0000   102.6502     8.5009     0.0578     2.5576   -17.2347    11.4109    11.4154
 1347.5000   105.7166     8.5008     0.0521     2.5682   -17.1417    11.7361    11.4139
 1348.0000   107.7549     8.5006     0.0853     2.5758   -16.2033    11.7326    11.4122
 1348.5000   108.8100     8.5005     0.0889     2.5742   -15.7058    11.4132    11.3412
 1349.0000   108.9281     8.5003     0.0760     2.5513   -16.1677    11.3854    11.1695
 1349.5000   109.1170     8.4699     0.0698     2.5543   -14.7878    11.2558    11.0913
 1350.0000   109.4225     8.4394     0.0667     2.5573   -15.0912    11.0999    11.0898
 1350.5000   108.5425     8.4273     0.0764     2.5568   -15.6995    10.8838    10.9337
 1351.0000   105.6514     8.4088     0.0971     2.5445   -16.0029    10.6443    10.7798
 1351.5000   103.6517     8.4086     0.0917     2.5388   -16.0014    10.5616    10.6281
 1352.0000   108.5775     8.3781     0.0783     2.5429   -16.0000    10.3516    10.4785
 1352.5000   110.0633     8.3477     0.0792     2.5574   -14.7586    10.2081    10.4770
 1353.0000   107.1264     8.3476     0.0854     2.5694   -14.4726    10.0667    10.4755
 1353.5000   105.7857     8.3474     0.1051     2.5641   -16.1051    10.0674    10.3281
 1354.0000   105.7875     8.3170     0.1044     2.5552   -16.9858     9.9280    10.3266
 1354.5000   102.1416     8.3168     0.0898     2.5674   -17.7161     9.9286    10.3252
 1355.0000   103.9668     8.3167     0.1018     2.5750   -18.4302     9.9293    10.2613
 1355.5000   111.8710     8.3165     0.1047     2.5779   -18.4284    10.0703    10.1783
 1356.0000   114.3040     8.2861     0.0622     2.5596   -17.6218    10.0709    10.1766
 1356.5000   114.9134     8.2859     0.0560     2.5610   -15.9860    10.0716    10.3193
 1357.0000   113.3951     8.2858     0.0559     2.5549   -15.6797    10.0723    10.3177
 1357.5000   108.8374     8.2856     0.0623     2.5670   -15.0684    10.0730    10.4623
 1358.0000   109.2037     8.2855     0.0738     2.5732   -14.7621    10.0738    10.6087
 1358.5000   111.0162     8.2853     0.0691     2.5745   -14.4557    10.0746    10.7572
 1359.0000   109.1207     8.2852     0.0395     2.5629   -13.8445    10.0753    10.9150
 1359.5000   107.5441     8.2850     0.0290     2.5500   -13.8613    10.0759    11.0606
 1360.0000   107.3250     8.2848     0.0237     2.5550   -14.8375    10.2189    11.0589
 1360.5000   107.0887     8.3150     0.0217     2.5609   -16.0370    10.5102    11.2139
 1361.0000   105.7023     8.3148     0.0215     2.5494   -16.6677    10.8159    11.4275
 1361.5000   104.2852     8.3147     0.0214     2.5440   -16.8859    11.2903    11.6929
 1362.0000   102.9038     8.3145     0.0243     2.5475   -16.5793    11.7887    11.6912
 1362.5000   104.9015     8.3144     0.0333     2.5519   -16.4253    12.0952    11.6895
 1363.0000   107.9425     8.3142     0.0393     2.5635   -15.9665    11.9275    11.8529
 1363.5000   109.1598     8.3141     0.0391     2.5736   -15.6598    11.7623    11.8513
 1364.0000   110.0731     8.3139     0.0360     2.5773   -15.9632    11.3616    11.8497
 1364.5000   113.1141     8.3138     0.0296     2.5773   -16.2666    11.0364    11.6829
 1365.0000   112.5077     8.3136     0.0203     2.5788   -16.8749    10.6653    11.3579
 1365.5000   111.2933     8.3135     0.0114     2.5772   -16.8734    10.5175    11.3494
 1366.0000   111.9641     8.3134     0.0083     2.5665   -16.8680    10.5183    11.3548
 1366.5000   114.9717     8.3132     0.0140     2.5603   -15.0411    10.6675    11.5138
 1367.0000   115.8571     8.3131     0.0315     2.5603   -16.0032    11.2836    11.7199
 1367.5000   111.9692     8.3129     0.0409     2.5679   -16.2578    11.6106    12.2355
 1368.0000   105.0597     8.3128     0.0471     2.5602   -16.4431    11.9679    12.4202
 1368.5000   104.0074     8.3125     0.0470     2.5639   -17.1695    12.6254    12.4307
 1369.0000   105.8071     8.2821     0.0469     2.5745   -17.1677    12.5828    11.7375
 1369.5000   107.9266     8.2819     0.0710     2.5805   -16.8451    11.5647    11.8313
 1370.0000   108.7234     8.2818     0.0588     2.5643   -14.7253    10.9760    12.3386
 1370.5000   108.5730     8.2817     0.0344     2.5396   -13.7098    11.2068    12.3369
 1371.0000   113.7419     8.2815     0.0313     2.5328   -13.8079    11.3781    12.3353
 1371.5000   112.5276     8.2511     0.0281     2.5309   -14.7209    11.9420    12.1616
 1372.0000   104.6263     8.2509     0.0341     2.5338   -15.0243    11.9428    11.6585
 1372.5000   101.2843     8.2508     0.0379     2.5541   -15.0228    11.9436    11.4944
 1373.0000   100.0700     8.2203     0.0436     2.5704   -15.0214    11.2931    11.6553
 1373.5000    99.1596     8.2155     0.0497     2.5749   -15.3939    10.9816    11.8185
