~VERSION INFORMATION
 VERS.                2.0:   CWLS LOG ASCII STANDARD - VERSION 2.0
 WRAP.                 NO:   ONE LINE PER DEPTH STEP
~WELL INFORMATION
#MNEM.UNIT      DATA TYPE    INFORMATION
#----------   ------------   ------------------------------
 STRT.F          212.0000:   START DEPTH
 STOP.F         3042.0000:   STOP DEPTH
 STEP.F            0.5000:   STEP LENGTH
 NULL.          -999.2500:   NO VALUE
 COMP.    FENIX & SCISSON:   COMPANY
 WELL.   FENIX "A" #74-28:   WELL
 FLD .             NPR #3:   FIELD
 LOC .      S28 T39N R78W:   LOCATION
 CNTY.            NATRONA:   COUNTY
 STAT.            WYOMING:   STATE
 CTRY. UNITED STATES OF AMERICA:   COUNTRY
 SRVC.              WELEX:   SERVICE COMPANY
 DATE.        03-AUG-1977:   LOGDATE
 API .     49025104080000:   API NUMBER
~CURVE INFORMATION
#MNEM.UNIT       API CODE    CURVE DESCRIPTION
#----------   ------------   ------------------------------
 DEPT.F                  :   
 SPR .MV     07 010 01 00:   SPONTANEOUS POTENTIAL
 ILD .OHMM   07 120 46 00:   INDUCTION LOG DEEP RESISTIVITY
 ILM .OHMM   07 120 44 00:   INDUCTION LOG MEDIUM RESISTIVITY
 SFLU.OHMM   07 220 01 00:   SPHERICALLY FOCUSED LOG UNAVERAGED RESISTIVITY
 CALD.IN     45 280 60 00:   CALIPER FROM DENSITY LOG
 GRD .GAPI   45 310 01 00:   GAMMA RAY FROM DENSITY LOG
 CORR.G/C3   45 356 01 00:   DENSITY CORRECTION
 RHOB.G/C3   45 350 01 00:   BULK DENSITY
~PARAMETER INFORMATION
#MNEM.UNIT          VALUE    DESCRIPTION
#----------   ------------   ------------------------------
 EKB .F         5050.0000:   Kelly bushing
 EGL .F         5040.0000:   Ground level
 EDF .F            0.0000:   Drilling floor
 TD  .F         3044.0000:   Total depth
 DATE.        03-AUG-1977:   Date logged
 CLNT.            A2DTECH:   Client Code
 SL  . 2310' FNL & 930' FEL:   Surface Location
 PD  .                 GL:   Permanent Datum
 EPD .F              5040:   Elevation Permanent Datum
 LMF .                 KB:   Log Measured From
 DMF .                 KB:   Drilling Measured From
 DAPD.F                10:   Feet Above Permanent Datum
 DD  .F              3044:   Depth driller
 DL  .F              3044:   Depth logger
 BLI .F              3042:   Bottom log interval
 TLI .F               238:   Top log interval
 CS1 .IN            8.625:   Casing size
 CBD1.      8.625" @ 220':   Casing driller 1
 CBL1.F               238:   Casing logger 1
 BS1 .IN            7.875:   Bit size
 BSD1.F              3044:   Depth drilled with bit1
 DFT .            KCL MUD:   Type fluid in hole
 DFV .                 35:   Viscosity
 DFPH.               10.5:   pH
 DFL .                7.2:   Fluid loss
 MSS .           FLOWLINE:   Source of sample
 RMS .OHMM           1.13:   Rm
 MST .F                84:   Rm Meas. temp.
 RMF .OHMM           0.77:   Rmf
 MFST.F                70:   Rmf Meas. temp.
 MFSS.           FANN KIT:   Source Rmf.
 MCSS.           FANN KIT:   Source Rmc.
 RMB .OHMM            .82:   Rm. at BHT
 BHT .F               118:   BHT.
 TCS .HRS               7:   Time Circ. stopped
 MRT .F               116:   Maximum recorded temp.
 LUN .               8611:   Logging unit number
 LUL .             CASPER:   Logging unit location
 ENGI.            C. DOAK:   Recorded By
 WITN.      W. PETTINGILL:   Witnessed by
 ORIG.         2.5" PRINT:   Origin of data
 UWI .     49025104080000:   Unique Well ID
 DICO. A2D TECHNOLOGIES, INC.:   Digitizing Company
~OTHER INFORMATION
~A   DEPT      SPR        ILD        ILM       SFLU         CALD       GRD       CORR        RHOB 
# ...
 1143.5000   -49.4000     6.7150     7.5150    10.7870     9.4480   114.4620     0.0220     2.4650
 1144.0000   -49.4000     6.7090     7.5150    10.7480     9.4530   114.9320     0.0250     2.4710
 1144.5000   -49.4000     6.7030     7.5150    10.7100     9.4580   115.3830     0.0290     2.4710
 1145.0000   -49.4000     6.6980     7.5160    11.3260     9.4630   115.8880     0.0320     2.4750
 1145.5000   -49.4000     6.6920     7.5050    11.2820     9.4690   116.3050     0.0360     2.4800
 1146.0000   -49.4000     6.6860     7.4750    11.1720     9.4740   116.7750     0.0390     2.4850
 1146.5000   -49.4000     6.6800     7.4450    11.0620     9.4790   115.5140     0.0420     2.4900
 1147.0000   -49.4000     6.6740     7.4150    10.9520     9.4840   113.8730     0.0420     2.4910
 1147.5000   -49.4000     6.6680     7.3800    10.8420     9.4890   112.3500     0.0420     2.4920
 1148.0000   -49.4000     6.6630     7.4420    10.7100     9.4940   110.6240     0.0420     2.4930
 1148.5000   -49.4000     6.6570     7.5580    10.7100     9.5000   111.4290     0.0420     2.4940
 1149.0000   -49.4000     6.6510     7.6520    10.7100     9.5050   112.6260     0.0420     2.4950
 1149.5000   -49.4000     6.6450     7.5610    10.7100     9.5100   113.8160     0.0420     2.4930
 1150.0000   -49.4000     6.6390     7.4860    10.7100     9.5150   115.1450     0.0420     2.4900
 1150.5000   -49.4000     6.6330     7.4090    10.7100     9.5260   115.6120     0.0420     2.4870
 1151.0000   -49.4000     6.6280     7.3640    10.7100     9.5360   116.1060     0.0420     2.4840
 1151.5000   -49.4000     6.6220     7.3430    10.7100     9.5470   116.5180     0.0420     2.4830
 1152.0000   -49.4000     6.6160     7.3220    10.5960     9.5570   117.0160     0.0410     2.4830
 1152.5000   -49.4000     6.6100     7.3010    10.4770     9.5670   117.4550     0.0340     2.4760
 1153.0000   -49.4000     6.6040     7.2800    10.3570     9.5770   117.5950     0.0280     2.4660
 1153.5000   -49.4000     6.5990     7.2590    10.2380     9.5870   116.3740     0.0210     2.4570
 1154.0000   -49.4000     6.5910     7.2410    10.1270     9.5970   115.1880     0.0140     2.4550
 1154.5000   -49.4000     6.5810     7.2670    10.3860     9.6070   114.3110     0.0100     2.4680
 1155.0000   -49.4000     6.5710     7.3100    10.6270     9.6170   114.1780     0.0110     2.4650
 1155.5000   -49.4000     6.5610     7.3520    10.9110     9.6270   113.9210     0.0130     2.4640
 1156.0000   -49.4000     6.5510     7.3770    10.7610     9.6380   113.6840     0.0140     2.4630
 1156.5000   -49.4000     6.5410     7.3680    10.5790     9.6480   113.4600     0.0160     2.4690
 1157.0000   -49.4000     6.5310     7.3580    10.3180     9.6580   113.2220     0.0180     2.4730
 1157.5000   -49.4000     6.5210     7.3490    10.4100     9.6680   112.9820     0.0200     2.4770
 1158.0000   -49.4000     6.5110     7.3400    10.5720     9.6780   112.7770     0.0210     2.4630
 1158.5000   -49.4000     6.5010     7.3310    10.7340     9.6880   112.6160     0.0230     2.4570
 1159.0000   -49.4020     6.4910     7.3220    10.9110     9.6980   112.4650     0.0250     2.4690
 1159.5000   -49.3820     6.4810     7.3130    10.4800     9.7090   112.2730     0.0270     2.4680
 1160.0000   -49.3400     6.4740     7.3040     9.7560     9.7160   112.1260     0.0320     2.4740
 1160.5000   -49.3010     6.4740     7.2950     9.9410     9.7250   112.1620     0.0360     2.4850
 1161.0000   -49.2620     6.4740     7.2850    10.3320     9.7360   113.6000     0.0410     2.4970
 1161.5000   -49.2230     6.4740     7.2760    10.7100     9.7460   114.8590     0.0460     2.5030
 1162.0000   -49.1840     6.4740     7.2670    10.4140     9.7570   116.2710     0.0470     2.5010
 1162.5000   -49.1440     6.4740     7.2580    10.1270     9.7680   116.8810     0.0490     2.4960
 1163.0000   -49.1050     6.4730     7.2490    10.4140     9.7780   116.2920     0.0510     2.4920
 1163.5000   -49.0660     6.4720     7.2400    10.7100     9.7890   115.8320     0.0530     2.5010
 1164.0000   -49.0230     6.4770     7.3120    10.6890     9.7990   115.3380     0.0550     2.5110
 1164.5000   -49.0020     6.5130     7.4400    10.6510     9.8100   114.7990     0.0570     2.5130
 1165.0000   -49.0190     6.5460     7.6560    10.6140     9.8210   114.4350     0.0580     2.5070
 1165.5000   -49.0310     6.5790     7.6030    10.5760     9.8310   112.7650     0.0580     2.5020
 1166.0000   -49.0450     6.6140     7.3760    10.5200     9.8420   112.1680     0.0570     2.4990
 1166.5000   -49.0590     6.6470     7.4550    10.5420     9.8530   112.8310     0.0570     2.5060
 1167.0000   -49.0720     6.6790     7.6270    10.6510     9.8630   113.4870     0.0570     2.5070
 1167.5000   -49.0860     6.7170     7.6140    10.7600     9.8740   111.8650     0.0560     2.5010
 1168.0000   -49.0990     6.7330     7.3760    10.8690     9.8840   109.6390     0.0560     2.4990
 1168.5000   -49.1120     6.7690     7.4470    10.9470     9.8950   107.3630     0.0550     2.5020
 1169.0000   -49.1260     6.8030     7.5620    11.1190     9.9060   107.3630     0.0550     2.5060
 1169.5000   -49.1390     6.8380     7.6560    11.2910     9.9160   107.5470     0.0540     2.5090
 1170.0000   -49.1530     6.8460     7.6560    11.5390     9.9270   107.8310     0.0540     2.5080
 1170.5000   -49.1660     6.8460     7.6560    11.3680     9.9380   107.9300     0.0520     2.5050
 1171.0000   -49.1800     6.8460     7.6560    11.0590     9.9480   108.8650     0.0490     2.4980
 1171.5000   -49.1930     6.8460     7.6560    10.9110     9.9570   110.7300     0.0470     2.4900
 1172.0000   -49.2070     6.8460     7.6560    10.8900     9.9630   112.4750     0.0440     2.4830
 1172.5000   -49.2200     6.8460     7.6560    10.8710     9.9690   114.3940     0.0410     2.4760
 1173.0000   -49.2340     6.8460     7.6560    10.8520     9.9750   114.7390     0.0390     2.4780
 1173.5000   -49.2470     6.8460     7.6560    10.8330     9.9810   113.0050     0.0360     2.4700
 1174.0000   -49.2610     6.8460     7.6570    10.8140     9.9870   111.9870     0.0340     2.4570
 1174.5000   -49.2740     6.8460     7.6550    10.7950     9.9930   109.6070     0.0310     2.4630
 1175.0000   -49.2880     6.8470     7.6670    10.7760     9.9980   107.4250     0.0300     2.4720
 1175.5000   -49.3010     6.8440     7.6870    10.7560    10.0040   105.7340     0.0300     2.4810
 1176.0000   -49.3150     6.8730     7.7050    10.7370    10.0100   106.3100     0.0310     2.4890
 1176.5000   -49.3280     6.9270     7.7240    10.7180    10.0160   106.9010     0.0310     2.4930
 1177.0000   -49.3410     6.9780     7.7420    10.7100    10.0220   107.3700     0.0310     2.4900
 1177.5000   -49.3550     7.0290     7.7610    10.7100    10.0270   109.1110     0.0320     2.4880
 1178.0000   -49.3690     7.0790     7.7800    11.0050    10.0340   111.0780     0.0320     2.4830
 1178.5000   -49.3790     7.1300     7.8010    11.3270    10.0360   113.1210     0.0320     2.4800
 1179.0000   -49.4040     7.1810     7.8010    11.7560    10.0360   115.0100     0.0330     2.4850
 1179.5000   -49.3110     7.2400     7.8670    11.5330    10.0360   116.6930     0.0330     2.4940
 1180.0000   -49.1450     7.2400     7.9680    10.7100    10.0360   115.4220     0.0330     2.4970
 1180.5000   -48.9960     7.2540     8.0680    10.9110    10.0360   112.8070     0.0340     2.5000
 1181.0000   -48.8480     7.2680     8.1680    10.9110    10.0360   112.0210     0.0340     2.5030
 1181.5000   -48.6810     7.2810     8.2490    11.2110    10.0360   112.2140     0.0330     2.4960
 1182.0000   -48.6160     7.2940     8.2250    11.5070    10.0360   112.2630     0.0310     2.4820
 1182.5000   -48.6940     7.3080     8.2060    11.7560    10.0360   112.3480     0.0300     2.4660
 1183.0000   -48.7560     7.3210     8.1860    11.5130    10.0360   112.4400     0.0280     2.4680
 1183.5000   -48.8210     7.3340     8.1660    11.1910    10.0360   112.5170     0.0270     2.4730
