~VERSION INFORMATION
 VERS.                2.0:   CWLS LOG ASCII STANDARD - VERSION 2.0
 WRAP.                 NO:   ONE LINE PER DEPTH STEP
~WELL INFORMATION
#MNEM.UNIT      DATA TYPE    INFORMATION
#----------   ------------   ------------------------------
 STRT.F           36.0000:   START DEPTH
 STOP.F         4960.0000:   STOP DEPTH
 STEP.F            0.5000:   STEP LENGTH
 NULL.          -999.2500:   NO VALUE
 COMP.   TESORO PETROLEUM:   COMPANY
 WELL. TESORO NPR 3 "DX" #55-23:   WELL
 FLD .        TEAPOT DOME:   FIELD
 LOC .      S23 T38N R78W:   LOCATION
 CNTY.            NATRONA:   COUNTY
 STAT.            WYOMING:   STATE
 CTRY. UNITED STATES OF AMERICA:   COUNTRY
 SRVC.           BIRDWELL:   SERVICE COMPANY
 DATE.        17-AUG-1975:   LOGDATE
 API .     49025102510000:   API NUMBER
~CURVE INFORMATION
#MNEM.UNIT       API CODE    CURVE DESCRIPTION
#----------   ------------   ------------------------------
 DEPT.F                  :   
 TEND.LBS    45 635 01 00:   TENSION FROM DENSITY LOG
 CALD.IN     45 280 60 00:   CALIPER FROM DENSITY LOG
 CORR.G/C3   45 356 01 00:   DENSITY CORRECTION
 GRD .GAPI   45 310 01 00:   GAMMA RAY FROM DENSITY LOG
 RHOB.G/C3   45 350 01 00:   BULK DENSITY
 SPR .MV     07 010 01 00:   SPONTANEOUS POTENTIAL
 ILM .OHMM   07 120 44 00:   INDUCTION LOG MEDIUM RESISTIVITY
 ILD .OHMM   07 120 46 00:   DEEP INDUCTION RESISTIVITY
 SFL .OHMM   07 220 01 00:   SHALLOW FOCUSED LOG RESISTIVITY
~PARAMETER INFORMATION
#MNEM.UNIT          VALUE    DESCRIPTION
#----------   ------------   ------------------------------
 EKB .F         5371.0000:   Kelly bushing
 EGL .F         5360.0000:   Ground level
 EDF .F            0.0000:   Drilling floor
 TD  .F         4955.0000:   Total depth
 DATE.        17-AUG-1975:   Date logged
 CLNT.            A2DTECH:   Client Code
 SL  . 1980' FSL & 2030' FEL:   Surface Location
 PD  .                 GL:   Permanent Datum
 DD  .F              4955:   Depth driller
 DL  .F              4945:   Depth logger
 BLI .F              4943:   Bottom log interval
 CS1 .IN            8.625:   Casing size
 CBD1.     8.625" @ 1450':   Casing driller 1
 CBL1.F              1457:   Casing logger 1
 BS1 .IN            7.875:   Bit size
 DFT .            KCL/GEL:   Type fluid in hole
 DFD .                9.5:   Density
 DFV .                 53:   Viscosity
 DFPH.                8.5:   pH
 DFL .                7.4:   Fluid loss
 MSS .           FLOWLINE:   Source of sample
 RMS .OHMM            1.2:   Rm
 MST .F                72:   Rm Meas. temp.
 RMF .OHMM            .94:   Rmf
 MFST.F                74:   Rmf Meas. temp.
 MFSS.               MEAS:   Source Rmf.
 RMB .OHMM            .71:   Rm. at BHT
 BHT .F               121:   BHT.
 TCS .HRS               4:   Time Circ. stopped
 MRT .F               121:   Maximum recorded temp.
 LUN .               6078:   Logging unit number
 LUL .              GLTTE:   Logging unit location
 ENGI.      NORDEN/SUTTON:   Recorded By
 WITN.          UNDERWOOD:   Witnessed by
 ORIG.           5" PRINT:   Origin of data
 UWI .     49025102510000:   Unique Well ID
 DICO. A2D TECHNOLOGIES, INC.:   Digitizing Company
 DAPD.F                11:   Feet Above Permanent Datum
 BSD1.F              5360:   Depth drilled with bit1
 EPD .F              5360:   Elevation Permanent Datum
 LMF .                 KB:   Log Measured From
 DMF .                 KB:   Drilling Measured From
 TLI .F              1457:   Top log interval
~OTHER INFORMATION
~A   DEPT     TEND       CALD       CORR        GRD       RHOB        SPR        ILM        ILD          SFL 
# ...
 4927.0000  2023.9280     8.1220     0.0260    60.1880     2.5780   -36.0260     4.0310     4.1790     4.3020
 4927.5000  1973.5240     8.1090     0.0280    60.1480     2.5750   -35.8560     3.9240     4.2120     4.5740
 4928.0000  1943.9680     8.0960     0.0310    58.2200     2.5650   -35.6890     4.0610     4.2520     4.4940
 4928.5000  2035.3380     8.0830     0.0280    56.3610     2.5530   -35.6010     4.1470     4.3020     4.4230
 4929.0000  1978.7300     8.0700     0.0210    55.9410     2.5410   -35.8250     3.9130     4.1570     5.0770
 4929.5000  1922.1230     8.0670     0.0130    56.4440     2.5370   -36.0430     3.7370     3.9580     4.9910
 4930.0000  1865.5150     8.0830     0.0090    56.4130     2.5420   -36.0690     3.5600     3.7580     4.4060
 4930.5000  1844.4670     8.0980     0.0120    54.3410     2.5470   -35.8960     3.3830     3.5590     3.6090
 4931.0000  1844.4670     8.1120     0.0080    53.9210     2.5420   -35.7240     3.2060     3.3600     3.2880
 4931.5000  1874.7510     8.1270     0.0030    53.4790     2.5360   -35.5500     3.0290     3.0890     3.2560
 4932.0000  1944.1670     8.1430     0.0120    53.0380     2.5290   -35.3760     2.8700     3.0920     3.2240
 4932.5000  1949.9630     8.1580     0.0200    52.6050     2.5280   -35.2030     2.8440     3.1000     3.1920
 4933.0000  1956.3311     8.1580     0.0200    52.7360     2.5310   -35.0310     2.9040     3.1070     3.1760
 4933.5000  1962.6990     8.1540     0.0210    54.3210     2.5360   -34.8590     2.9720     3.1140     3.3340
 4934.0000  1933.5840     8.1500     0.0250    55.2520     2.5400   -34.8470     3.0420  -999.2500     3.4180
 4934.5000  1894.3940     8.1450     0.0290    55.1520     2.5430   -35.0350     3.1140  -999.2500     3.4180
 4935.0000  1882.3530     8.1410     0.0330    55.1410     2.5450   -35.2220     3.1860  -999.2500     3.4180
 4935.5000  1958.7740     8.1370     0.0320    55.4450     2.5480   -35.4110     3.2580  -999.2500     3.5350
 4936.0000  2043.8680     8.1330     0.0310    55.0450     2.5520   -35.5970     3.3300  -999.2500     3.7410
 4936.5000  2019.7810     8.1280     0.0420    54.4700     2.5570   -35.7710     3.3870  -999.2500     3.9470
 4937.0000  1992.6090     8.1240     0.0330    55.1400     2.5600   -35.8220     3.4870  -999.2500     4.1470
 4937.5000  1964.1080     8.1200     0.0240    56.0540     2.5550   -35.8780     3.5790  -999.2500     4.0490
 4938.0000  2012.5620     8.1150     0.0230    56.9760     2.5510   -35.9350     3.5640  -999.2500     3.9550
 4938.5000  1995.9890     8.1110     0.0220    57.9170     2.5540   -35.9100     3.5520  -999.2500     3.9240
 4939.0000  1960.0260     8.1070     0.0170    57.4590     2.5500   -35.8030  -999.2500  -999.2500     4.0820
 4939.5000  1924.0630     8.1030     0.0100    57.1380     2.5400   -35.6960  -999.2500  -999.2500     4.3110
 4940.0000  1904.2870     8.0980     0.0000    58.1300     2.5340   -35.5860  -999.2500  -999.2500     4.6530
 4940.5000  1964.0330     8.0940     0.0030    57.4500     2.5310   -35.5600  -999.2500  -999.2500     5.4650
 4941.0000  2180.5581     8.0900  -999.2500    56.1080     2.5290   -35.5950  -999.2500  -999.2500     5.3930
 4941.5000  2493.8259     8.0850  -999.2500    54.1650  -999.2500   -35.7290  -999.2500  -999.2500     4.8540
 4942.0000  2846.5371     8.0810  -999.2500    40.0770  -999.2500   -35.6310  -999.2500  -999.2500     4.3820
 4942.5000  3174.4771     8.0770  -999.2500  -999.2500  -999.2500   -35.1310  -999.2500  -999.2500     4.8970
 4943.0000  3378.2649     8.0730  -999.2500  -999.2500  -999.2500   -34.0160  -999.2500  -999.2500     5.2680
 4943.5000  3466.8230     8.0680  -999.2500  -999.2500  -999.2500   -32.0520  -999.2500  -999.2500  -999.2500
 4944.0000  3478.8110     8.0640  -999.2500  -999.2500  -999.2500   -29.0670  -999.2500  -999.2500  -999.2500
 4944.5000  3490.7981     8.0660  -999.2500  -999.2500  -999.2500  -999.2500  -999.2500  -999.2500  -999.2500
 4945.0000  3502.7859     8.0750  -999.2500  -999.2500  -999.2500  -999.2500  -999.2500  -999.2500  -999.2500
 4945.5000  3514.7729     8.0850  -999.2500  -999.2500  -999.2500  -999.2500  -999.2500  -999.2500  -999.2500
 4946.0000  3526.7610     8.0940  -999.2500  -999.2500  -999.2500  -999.2500  -999.2500  -999.2500  -999.2500
 4946.5000  3538.7480     8.1040  -999.2500  -999.2500  -999.2500  -999.2500  -999.2500  -999.2500  -999.2500
 4947.0000  3550.7361     8.1130  -999.2500  -999.2500  -999.2500  -999.2500  -999.2500  -999.2500  -999.2500
 4947.5000  3562.7241     8.1230  -999.2500  -999.2500  -999.2500  -999.2500  -999.2500  -999.2500  -999.2500
 4948.0000  3574.7109     8.1320  -999.2500  -999.2500  -999.2500  -999.2500  -999.2500  -999.2500  -999.2500
 4948.5000  3586.6990     8.1400  -999.2500  -999.2500  -999.2500  -999.2500  -999.2500  -999.2500  -999.2500
 4949.0000  3598.6860     8.1070  -999.2500  -999.2500  -999.2500  -999.2500  -999.2500  -999.2500  -999.2500
 4949.5000  3610.6741     8.0730  -999.2500  -999.2500  -999.2500  -999.2500  -999.2500  -999.2500  -999.2500
 4950.0000  3621.6580     8.0400  -999.2500  -999.2500  -999.2500  -999.2500  -999.2500  -999.2500  -999.2500
 4950.5000  3630.2280  -999.2500  -999.2500  -999.2500  -999.2500  -999.2500  -999.2500  -999.2500  -999.2500
 4951.0000  3638.7991  -999.2500  -999.2500  -999.2500  -999.2500  -999.2500  -999.2500  -999.2500  -999.2500
 4951.5000  3647.3689  -999.2500  -999.2500  -999.2500  -999.2500  -999.2500  -999.2500  -999.2500  -999.2500
 4952.0000  3655.9390  -999.2500  -999.2500  -999.2500  -999.2500  -999.2500  -999.2500  -999.2500  -999.2500
 4952.5000  3664.5090  -999.2500  -999.2500  -999.2500  -999.2500  -999.2500  -999.2500  -999.2500  -999.2500
 4953.0000  3673.0791  -999.2500  -999.2500  -999.2500  -999.2500  -999.2500  -999.2500  -999.2500  -999.2500
 4953.5000  3681.6489  -999.2500  -999.2500  -999.2500  -999.2500  -999.2500  -999.2500  -999.2500  -999.2500
 4954.0000  3690.2190  -999.2500  -999.2500  -999.2500  -999.2500  -999.2500  -999.2500  -999.2500  -999.2500
 4954.5000  3698.7900  -999.2500  -999.2500  -999.2500  -999.2500  -999.2500  -999.2500  -999.2500  -999.2500
 4955.0000  3707.3601  -999.2500  -999.2500  -999.2500  -999.2500  -999.2500  -999.2500  -999.2500  -999.2500
 4955.5000  3715.9299  -999.2500  -999.2500  -999.2500  -999.2500  -999.2500  -999.2500  -999.2500  -999.2500
 4956.0000  3724.5000  -999.2500  -999.2500  -999.2500  -999.2500  -999.2500  -999.2500  -999.2500  -999.2500
 4956.5000  3733.0701  -999.2500  -999.2500  -999.2500  -999.2500  -999.2500  -999.2500  -999.2500  -999.2500
 4957.0000  3743.0569  -999.2500  -999.2500  -999.2500  -999.2500  -999.2500  -999.2500  -999.2500  -999.2500
 4957.5000  3755.8750  -999.2500  -999.2500  -999.2500  -999.2500  -999.2500  -999.2500  -999.2500  -999.2500
 4958.0000  3758.7241  -999.2500  -999.2500  -999.2500  -999.2500  -999.2500  -999.2500  -999.2500  -999.2500
 4958.5000  3758.7241  -999.2500  -999.2500  -999.2500  -999.2500  -999.2500  -999.2500  -999.2500  -999.2500
 4959.0000  3758.7241  -999.2500  -999.2500  -999.2500  -999.2500  -999.2500  -999.2500  -999.2500  -999.2500
 4959.5000  3758.7241  -999.2500  -999.2500  -999.2500  -999.2500  -999.2500  -999.2500  -999.2500  -999.2500
 4960.0000  3758.7241  -999.2500  -999.2500  -999.2500  -999.2500  -999.2500  -999.2500  -999.2500  -999.2500
