~VERSION INFORMATION
 VERS.                2.0:   CWLS LOG ASCII STANDARD - VERSION 2.0
 WRAP.                 NO:   ONE LINE PER DEPTH STEP
~WELL INFORMATION
#MNEM.UNIT      DATA TYPE    INFORMATION
#----------   ------------   ------------------------------
 STRT.F           60.0000:   START DEPTH
 STOP.F         3178.0000:   STOP DEPTH
 STEP.F            0.5000:   STEP LENGTH
 NULL.          -999.2500:   NO VALUE
 COMP. LAWRENCE-ALLISON & ASSOSCIATES:   COMPANY
 WELL. LAWRENCE "AX" #46-21:   WELL
 FLD .             NPR #3:   FIELD
 LOC .      S21 T39N R78W:   LOCATION
 CNTY.            NATRONA:   COUNTY
 STAT.            WYOMING:   STATE
 CTRY. UNITED STATES OF AMERICA:   COUNTRY
 SRVC.       SCHLUMBERGER:   SERVICE COMPANY
 DATE.        03-JUN-1982:   LOGDATE
 API .     49025108890000:   API NUMBER
~CURVE INFORMATION
#MNEM.UNIT       API CODE    CURVE DESCRIPTION
#----------   ------------   ------------------------------
 DEPT.F                  :   
 TEND.LBS    45 635 01 00:   TENSION FORM DENSITY LOG
 CALD.IN     45 280 60 00:   CALIPER FROM DENSITY LOG
 CORR.G/C3   45 356 01 00:   DENSITY CORRECTION
 RHOB.G/C3   45 350 01 00:   BULK DENSITY
 NPHI.DEC    42 890 03 00:   NEUTRON POROSITY SANDSTONE
 GRR .GAPI   07 310 01 00:   GAMMA RAY FROM RESISTIVITY
 SPR .MV     07 010 01 00:   SPONTANEOUS POTENTIAL
 SFL .OHMM   07 220 01 00:   SHALLOW FOCUSED LOG RESISTIVITY
 ILD .OHMM   07 120 46 00:   DEEP INDUCTION RESISTIVITY
 ILM .OHMM   07 120 44 00:   INDUCTION LOG MEDIUM RESISTIVITY
 TENR.LBS    07 635 01 00:   TENSION FROM RESISTIVITY
~PARAMETER INFORMATION
#MNEM.UNIT          VALUE    DESCRIPTION
#----------   ------------   ------------------------------
 EKB .F         5008.0000:   Kelly bushing
 EGL .F         4998.0000:   Ground level
 EDF .F         5007.0000:   Drilling floor
 TD  .F         3230.0000:   Total depth
 CLNT.            A2DTECH:   Client Code
 SL  . 1864' FSL & 2484' FWL:   Surface Location
 PD  .                 GL:   Permanent Datum
 EPD .F              4998:   Elevation Permanent Datum
 LMF .                 KB:   Log Measured From
 DMF .                 KB:   Drilling Measured From
 DAPD.F                10:   Feet Above Permanent Datum
 DATE.        03-JUN-1982:   Date Logged [DD-MMM-YYYY]
 DD  .F              3230:   Depth driller
 DL  .F              3200:   Depth logger
 BLI .F              3190:   Bottom log interval
 TLI .F               475:   Top log interval
 CS1 .IN            9.625:   Casing size
 CBD1.      9.625" @ 465':   Casing driller 1
 CBL1.F               475:   Casing logger 1
 BS1 .IN             8.75:   Bit size
 BSD1.F              3230:   Depth drilled with bit1
 DFT .   FORM WATER / AIR:   Type fluid in hole
 TCS .HRS            1530:   Time Circ. stopped
 TLAB.HRS            1900:   Time logger at bottom
 MRT .F               135:   Maximum recorded temp.
 LUN .               8035:   Logging unit number
 LUL .               CSPR:   Logging unit location
 ENGI.              PENNY:   Recorded By
 WITN.           JENNINGS:   Witnessed by
 ORIG.      2.5" 5" PRINT:   Origin of data
 UWI .     49025108890000:   Unique Well ID
 DICO. A2D TECHNOLOGIES, INC.:   Digitizing Company
~OTHER INFORMATION
~A   DEPT     TEND       CALD       CORR       RHOB       NPHI        GRR        SPR        SFL        ILD        ILM       TENR   
# ...
 2622.0000  1814.3535     9.0799     0.0154     2.5303     0.2726   126.3910   -46.0242     5.6247     5.6744     5.5331  1772.2489
 2622.5000  1812.4066     9.0658     0.0177     2.5379     0.2750   127.6806   -46.0196     5.4857     5.5955     5.4556  1773.5834
 2623.0000  1824.9755     9.0666     0.0163     2.5379     0.2750   124.9138   -46.0151     5.6421     5.4410     5.4268  1774.9180
 2623.5000  1822.8700     9.0525     0.0133     2.5328     0.2744   122.0656   -46.0098     5.7222     5.3654     5.3784  1776.2524
 2624.0000  1828.4043     9.0534     0.0104     2.5215     0.2737   121.5999   -46.0054     5.7226     5.3654     5.3030  1777.5869
 2624.5000  1833.4341     9.0540     0.0105     2.5179     0.2725   121.9657   -45.6990     5.7230     5.2908     5.3021  1778.9214
 2625.0000  1846.0388     9.0548     0.0136     2.5255     0.2707   120.4556   -45.6947     5.8042     5.2173     5.2278  1780.2559
 2625.5000  1843.7966     9.0703     0.0167     2.5338     0.2689   119.1007   -45.6857     5.9697     5.2173     5.2271  1781.5905
 2626.0000  1841.5544     9.0710     0.0197     2.5429     0.2683   120.0184   -45.3837     5.9701     5.2173     5.2264  1782.9249
 2626.5000  1839.0092     9.0717     0.0221     2.5482     0.2712   120.0273   -45.3792     5.9705     5.2173     5.2257  1784.2594
 2627.0000  1837.2068     9.0725     0.0222     2.5408     0.2742   120.0364   -45.0725     5.8058     5.2908     5.2986  1785.5939
 2627.5000  1849.7759     9.0733     0.0176     2.5386     0.2724   120.0455   -45.0680     5.7253     5.3654     5.3146  1786.9285
 2628.0000  1847.5333     9.0740     0.0193     2.5432     0.2650   120.2000   -44.7613     5.7258     5.4410     5.4473  1788.2629
 2628.5000  1845.2915     9.0747     0.0231     2.5440     0.2616   120.9727   -44.4538     5.9699     5.5955     5.5553  1789.5974
 2629.0000  1857.9969     9.0755     0.0255     2.5426     0.2609   122.3548   -43.8453     6.3913     5.8384     5.7197  1790.9319
 2629.5000  1871.0555     9.0762     0.0263     2.5419     0.2594   125.5381   -43.5388     6.8246     6.0242     6.0044  1792.2665
 2630.0000  1883.8409     9.0621     0.0256     2.5502     0.2531   126.9104   -42.9303     7.1676     6.3000     6.2607  1793.6010
 2630.5000  1895.9041     9.0480     0.0272     2.5615     0.2468   125.5554   -42.6239     7.2693     6.5884     6.6198  1794.9354
 2631.0000  1893.8712     9.0489     0.0280     2.5759     0.2447   123.7459   -42.3172     7.4765     6.9445     7.0980  1796.2699
 2631.5000  1891.5784     9.0496     0.0243     2.5635     0.2435   121.0273   -42.0106     8.2479     7.3069     7.4009  1797.4011
 2632.0000  1889.3872     9.0503     0.0206     2.5535     0.2386   119.1819   -42.0060     9.3577     7.6134     7.7254  1795.5530
 2632.5000  1886.7120     9.0510     0.0185     2.5506     0.2288   118.7720   -42.0015    10.4788     7.7207     7.9345  1793.9492
 2633.0000  1884.5497     9.0518     0.0178     2.5537     0.2195   119.8136   -41.9970    10.7673     7.6134     7.6571  1792.3455
 2633.5000  1882.5669     9.0526     0.0186     2.5583     0.2225   120.1530   -41.9916     9.9727     7.4032     7.2206  1790.7416
 2634.0000  1880.4186     9.0533     0.0203     2.5636     0.2311   119.7091   -42.2900     8.1333     6.9942     6.8092  1789.1378
 2634.5000  1878.1760     9.0541     0.0255     2.5621     0.2388   119.9703   -42.2850     6.8065     6.5057     6.4210  1787.5341
 2635.0000  1875.5372     9.0548     0.0241     2.5450     0.2457   123.3652   -42.2807     6.1835     6.1347     6.0796  1785.9303
 2635.5000  1888.6396     9.0407     0.0144     2.5181     0.2523   127.4647   -42.2764     5.6521     5.7847     5.7482  1784.3264
 2636.0000  1886.3397     9.0266     0.0062     2.5121     0.2624   132.0189   -42.2719     5.4962     5.4860     5.4350  1782.7227
 2636.5000  1884.1552     9.0275     0.0063     2.5257     0.2740   133.4207   -41.9653     5.3446     5.2161     5.2111  1781.1189
 2637.0000  1881.4735     9.0430     0.0124     2.5415     0.2827   131.9945   -41.8771     5.3449     5.0732     5.2083  1779.5151
 2637.5000  1879.6715     9.0437     0.0113     2.5349     0.2842   130.0572   -41.5408     5.4973     5.0732     5.1374  1777.9113
 2638.0000  1877.4291     9.0296     0.0005     2.5222     0.2829   128.4172   -41.0453     5.8225     5.0027     5.1367  1776.3075
 2638.5000  1874.8049     9.0006    -0.0055     2.5231     0.2820   129.9341   -40.7387     5.9805     4.9332     5.0647  1774.7037
 2639.0000  1857.9968     8.9867    -0.0024     2.5321     0.2826   130.7091   -40.4313     6.0653     4.9330     4.9937  1773.1000
 2639.5000  1855.7550     8.9726    -0.0008     2.5367     0.2841   131.1727   -40.4270     5.8674     4.8646     4.9580  1771.4961
 2640.0000  1853.1885     8.9585    -0.0008     2.5277     0.2876   132.0926   -40.1206     5.5826     4.8510     4.8545  1769.8923
 2640.5000  1851.2710     8.9594    -0.0015     2.5218     0.3148   135.7377   -40.1162     5.4230     4.7970     4.8539  1768.2886
 2641.0000  1842.2563     8.9601    -0.0006     2.5249     0.3193   137.1100   -40.1118     5.3479     4.7303     4.7859  1766.6848
 2641.5000  1831.8389     8.9756     0.0108     2.5332     0.3130   137.1702   -40.1073     5.2005     4.6646     4.7188  1765.0809
 2642.0000  1829.5966     8.9763     0.0161     2.5394     0.3111   135.3092   -39.8006     4.9866     4.6646     4.6527  1763.4772
 2642.5000  1827.0660     8.9623     0.0169     2.5461     0.3132   134.8633   -39.7961     4.7816     4.5997     4.5875  1761.8734
 2643.0000  1825.0831     8.9632     0.0155     2.5507     0.3165   134.3410   -39.7915     4.7153     4.5997     4.5760  1760.2697
 2643.5000  1808.3331     8.9787     0.0156     2.5553     0.3033   132.7021   -39.6194     4.7156     4.6646     4.5226  1758.6658
 2644.0000  1820.6283     8.9793     0.0212     2.5568     0.2989   128.6184   -39.1775     4.7970     5.0027     4.8131  1757.0620
 2644.5000  1818.3857     8.9801     0.0301     2.5569     0.2820   123.4116   -38.2668     5.3418     5.8789     5.7140  1755.4583
 2645.0000  1815.7106     8.9808     0.0286     2.5540     0.2524   118.9089   -37.6583     7.3920     6.8015     6.9103  1753.8545
 2645.5000  1829.0365     8.9815     0.0234     2.5463     0.2294   116.7379   -37.0497     9.9967     7.6294     7.9054  1752.2506
 2646.0000  1826.8730     8.9822     0.0212     2.5331     0.2236   115.8375   -36.7290    11.5704     8.6283     8.4765  1750.6469
 2646.5000  1839.3127     8.9831     0.0206     2.5212     0.2296   114.0280   -36.1344    11.9002     9.5197     8.9626  1749.0431
 2647.0000  1842.0920     8.9822     0.0198     2.5146     0.2338   112.6730   -35.7541    11.7353     9.9330     9.3452  1747.4393
 2647.5000  1849.7760     8.9696     0.0169     2.5116     0.2320   111.3070   -35.2190    11.4117    10.0730     9.6121  1745.8354
 2648.0000  1847.5336     8.9557     0.0178     2.5207     0.2307   110.8722   -35.0455    11.0969    10.0730     9.7427  1744.2317
 2648.5000  1844.8735     8.9564     0.0276     2.5298     0.2319   112.9928   -35.3725    10.9431    10.0730     9.7413  1742.6279
 2649.0000  1842.7102     8.9571     0.0315     2.5275     0.2343   115.2638   -35.3912    10.7915     9.9330     9.7399  1742.0988
 2649.5000  1856.0361     8.9580     0.0210     2.5074     0.2381   116.7226   -34.7490    11.0992     9.9330     9.7386  1742.2727
 2650.0000  1837.3976     8.9574     0.0136     2.5015     0.2402   117.7273   -34.1390    11.1000     9.9330     9.7372  1742.4243
 2650.5000  1827.8893     8.9545     0.0209     2.5196     0.2352   119.5563   -34.1329    11.1008     9.7949     9.6005  1742.5758
 2651.0000  1818.3811     8.9516     0.0325     2.5400     0.2309   123.2014   -34.1792    11.1015     9.6099     9.4660  1743.3270
 2651.5000  1808.8728     8.9487     0.0394     2.5453     0.2265   125.9373   -34.5014    11.2592     9.3318     9.3333  1745.3010
 2652.0000  1800.2990     8.9458     0.0237     2.5393     0.2222   126.0543   -35.0222    11.4189     8.9918     8.9489  1747.2751
