~VERSION INFORMATION
 VERS.                2.0:   CWLS LOG ASCII STANDARD - VERSION 2.0
 WRAP.                 NO:   ONE LINE PER DEPTH STEP
~WELL INFORMATION
#MNEM.UNIT      DATA TYPE    INFORMATION
#----------   ------------   ------------------------------
 STRT.F          397.0000:   START DEPTH
 STOP.F         5516.0000:   STOP DEPTH
 STEP.F            0.5000:   STEP LENGTH
 NULL.          -999.2500:   NO VALUE
 COMP.  FENIX AND SCISSON:   COMPANY
 WELL.   FENIX TPX #54-10:   WELL
 FLD . NAVAL PETROLEUM RESERVE=3:   FIELD
 LOC .      S10 T38N R78W:   LOCATION
 CNTY.            NATRONA:   COUNTY
 STAT.            WYOMING:   STATE
 CTRY. UNITED STATES OF AMERICA:   COUNTRY
 SRVC.       SCHLUMBERGER:   SERVICE COMPANY
 DATE.        03-APR-1981:   LOGDATE
 API .     49025108690000:   API NUMBER
~CURVE INFORMATION
#MNEM.UNIT       API CODE    CURVE DESCRIPTION
#----------   ------------   ------------------------------
 DEPT.F                  :   
 SPR .MV     11 010 01 00:   SPONTANEOUS POTENTIAL FROM RES.
 TENR.LBS    11 635 01 00:   TENSION FROM RES.
 LLD .OHMM   11 220 10 00:   LATEROLOG DEEP
 LLS .OHMM   11 220 09 00:   LATEROLOG LOG SHALLOW
 TEND.LBS    45 635 01 00:   TENSION FORM DENSITY LOG
 GRD .GAPI   45 310 01 00:   GAMMA RAY FROM DENSITY LOG
 NPHI.DEC    42 890 03 00:   NEUTRON POROSITY SANDSTONE
 CALD.IN     45 280 60 00:   CALIPER FROM DENSITY LOG
 CORR.G/C3   45 356 01 00:   DENSITY CORRECTION
 RHOB.G/C3   45 350 01 00:   BULK DENSITY
~PARAMETER INFORMATION
#MNEM.UNIT          VALUE    DESCRIPTION
#----------   ------------   ------------------------------
 EKB .F         5206.0000:   Kelly bushing
 EGL .F         5196.0000:   Ground level
 EDF .F            0.0000:   Drilling floor
 TD  .F         5498.0000:   Total depth
 CLNT.            A2DTECH:   Client Code
 SL  . 2080' FNL & 2150' FEL:   Surface Location
 PD  .                 GL:   Permanent Datum
 EPD .F              5196:   Elevation Permanent Datum
 LMF .                 KB:   Log Measured From
 DMF .                 KB:   Drilling Measured From
 DAPD.F                10:   Feet Above Permanent Datum
 DATE.         3-APR-1981:   Date Logged [DD-MMM-YYYY]
 DD  .F              5485:   Depth driller
 DL  .F              5498:   Depth logger
 BLI .F              5496:   Bottom log interval
 TLI .F               397:   Top log interval
 CS1 .IN                7:   Casing size
 CBD1.         7" @ 3891':   Casing driller 1
 CBL1.F              3889:   Casing logger 1
 BS1 .IN            6.125:   Bit size
 BSD1.F              5485:   Depth drilled with bit1
 DFT .           CHEM GEL:   Type fluid in hole
 DFD .                9.1:   Density
 DFV .                 42:   Viscosity
 DFPH.                9.0:   pH
 DFL .                5.0:   Fluid loss
 MSS .           MUD TANK:   Source of sample
 RMS .OHMM           0.81:   Rm
 MST .F                62:   Rm Meas. temp.
 RMF .OHMM           0.64:   Rmf
 MFST.F                62:   Rmf Meas. temp.
 MFSS.               MEAS:   Source Rmf.
 RMB .OHMM          0.031:   Rm. at BHT
 BHT .F               174:   BHT.
 TCS .HRS            0830:   Time Circ. stopped
 TLAB.HRS            2130:   Time logger at bottom
 MRT .F               174:   Maximum recorded temp.
 LUN .               8035:   Logging unit number
 LUL .               CSPR:   Logging unit location
 ENGI.             BEATIE:   Recorded By
 WITN.              FIVAS:   Witnessed by
 ORIG.           5" PRINT:   Origin of data
 UWI .     49025108690000:   Unique Well ID
 DICO. A2D TECHNOLOGIES, INC:   Digitizing Company
~OTHER INFORMATION
~A   DEPT      SPR       TENR        LLD        LLS       TEND         GRD        NPHI     CALD       CORR       RHOB   
# ...
 4618.0000   -33.2697  1561.7687    42.4959    38.6733  1659.4584    88.3025     0.1053     7.2132    -0.0056     2.6411
 4618.5000   -33.2660  1561.9038    41.9069    38.4051  1660.4692    91.0144     0.1066     7.2278    -0.0030     2.6403
 4619.0000   -33.2614  1562.0389    38.5238    35.0552  1661.5641   100.3743     0.1156     7.2424     0.0004     2.6485
 4619.5000   -33.2568  1562.1742    32.3250    28.9857  1662.7430   110.9426     0.1347     7.2420     0.0026     2.6478
 4620.0000   -33.1941  1562.3093    24.5847    23.5690  1663.7539   128.1560     0.1679     7.2716     0.0063     2.6470
 4620.5000   -33.0955  1562.4445    21.7956    17.4395  1664.6968   137.5158     0.1924     7.2919     0.0093     2.6470
 4621.0000   -33.0264  1562.5796    20.3429    16.4864  1680.9280   142.3439     0.2106     7.3009     0.0107     2.6492
 4621.5000   -32.9347  1562.7147    19.7809    16.4864  1681.9700   142.0361     0.2184     7.3305     0.0107     2.6537
 4622.0000   -32.8369  1562.8499    19.6435    16.9577  1683.2019   135.2514     0.2039     7.3600     0.0092     2.6597
 4622.5000   -32.7732  1562.9850    20.6347    18.4477  1699.3641   118.7604     0.1764     7.3746     0.0054     2.6619
 4623.0000   -32.7689  1563.1201    24.1178    21.2307  1700.3750   108.7849     0.1635     7.4042    -0.0014     2.6548
 4623.5000   -32.6125  1563.2552    31.0093    25.6652  1701.3868   100.0179     0.1354     7.4188    -0.0067     2.6461
 4624.0000   -32.6072  1563.3904    36.1905    32.5898  1702.4241    95.7450     0.1264     7.4506    -0.0097     2.6438
 4624.5000   -32.6029  1563.5255    41.3571    39.5540  1703.6606    92.7542     0.1164     7.4805    -0.0052     2.6460
 4625.0000   -32.7517  1563.6606    44.9950    45.0228  1704.6715    90.6337     0.1116     7.5075    -0.0015     2.6498
 4625.5000   -32.7462  1563.7959    49.6459    47.6257  1705.6824    87.9090     0.1080     7.5370     0.0026     2.6573
 4626.0000   -32.7416  1563.9310    50.3512    49.3284  1691.5153    87.2990     0.1035     7.5666     0.0052     2.6632
 4626.5000   -32.7371  1564.0662    45.3218    45.3402  1677.4020    94.2405     0.1108     7.5961     0.0074     2.6715
 4627.0000   -32.7323  1564.2013    38.0291    35.9581  1678.6650   106.6215     0.1241     7.6257     0.0074     2.6745
 4627.5000   -32.6274  1564.3364    30.2925    29.9550  1679.6759   120.5131     0.1507     7.6552     0.0066     2.6674
 4628.0000   -32.5706  1564.4716    24.7860    24.4335  1680.6064   133.1962     0.1945     7.6848     0.0013     2.6526
 4628.5000   -32.5669  1564.6067    21.3900    18.5778  1681.6975   138.6620     0.2067     7.7143    -0.0017     2.6466
 4629.0000   -32.5623  1564.7418    19.6632    16.8375  1682.7271   137.7151     0.2180     7.7439    -0.0025     2.6496
 4629.5000   -32.5576  1564.8770    19.1200    17.4395  1683.7875   131.9692     0.2202     7.7735    -0.0018     2.6556
 4630.0000   -32.4451  1565.0121    19.1569    18.4477  1684.8480   126.5254     0.2199     7.8030    -0.0003     2.6653
 4630.5000   -32.3960  1565.1472    20.0860    19.3776  1685.9940   122.5747     0.2178     7.8325     0.0012     2.6705
 4631.0000   -32.3917  1565.2823    20.8050    20.0704  1687.0889   121.3780     0.2113     7.8502     0.0019     2.6683
 4631.5000   -32.3875  1565.4176    21.1006    20.3544  1682.6902   125.9026     0.2045     7.8618    -0.0011     2.6615
 4632.0000   -32.3830  1565.5590    20.8078    19.7903  1672.0142   130.1265     0.2003     7.8913    -0.0027     2.6522
 4632.5000   -32.4652  1565.7100    20.0917    18.8406  1659.8485   133.7462     0.1982     7.9071    -0.0020     2.6434
 4633.0000   -32.5258  1565.8611    19.5367    18.3186  1660.9983   138.5728     0.2070     7.9206     0.0010     2.6457
 4633.5000   -32.6730  1566.0121    19.4010    18.4477  1661.9692   142.1925     0.2179     7.9353     0.0040     2.6516
 4634.0000   -32.8207  1566.1632    19.4026    19.2419  1663.0305   144.9058     0.2203     7.9499     0.0062     2.6621
 4634.5000   -32.8160  1566.3142    19.8319    20.0704  1664.2839   148.3143     0.2197     7.9495     0.0084     2.6599
 4635.0000   -32.8109  1566.4653    21.2598    20.7879  1665.2948   151.6809     0.2059     7.9574     0.0084     2.6591
 4635.5000   -32.8066  1566.6163    22.1759    20.7952  1666.3055   154.5559     0.1893     7.9788     0.0084     2.6598
 4636.0000   -32.8703  1566.7675    21.7152    19.5142  1658.0535   153.9445     0.2014     7.9785     0.0099     2.6620
 4636.5000   -32.9507  1566.9185    19.8225    17.9365  1653.1758   152.7303     0.2259     7.9782     0.0121     2.6705
 4637.0000   -32.9446  1567.0696    17.7982    16.2563  1654.4398   151.5162     0.2407     7.9779     0.0135     2.6778
 4637.5000   -32.7883  1567.2206    16.4024    15.5853  1640.1517   149.6978     0.2482     7.9776     0.0120     2.6762
 4638.0000   -32.7842  1567.3716    15.8377    15.3679  1656.4614   147.1872     0.2522     7.9773     0.0090     2.6717
 4638.5000   -32.7796  1567.5227    15.9503    15.8059  1657.4723   143.3405     0.2537     7.9770     0.0074     2.6702
 4639.0000   -32.7751  1567.6737    16.6376    16.8375  1658.4851   138.8031     0.2501     7.9916     0.0082     2.6702
 4639.5000   -32.7700  1567.8248    17.9748    17.9365  1674.6971   136.3804     0.2296     7.9764     0.0115     2.6716
 4640.0000   -32.6137  1567.9758    19.4191    18.3271  1675.9094   135.1662     0.2139     7.9463     0.0111     2.6709
 4640.5000   -32.6094  1568.1270    20.3986    17.7729  1676.9203   135.4612     0.2073     7.9310     0.0118     2.6716
 4641.0000   -32.6040  1568.2780    20.5433    16.9562  1677.9310   135.4555     0.2176     7.9158     0.0141     2.6746
 4641.5000   -32.5997  1568.5615    19.4129    16.8375  1678.9419   133.6371     0.2309     7.9155     0.0193     2.6798
 4642.0000   -32.5954  1569.2489    18.6231    17.9365  1680.2059   128.9516     0.2351     7.9152     0.0207     2.6820
 4642.5000   -32.4391  1569.9363    19.8394    19.9629  1681.2168   120.5445     0.2349     7.9299     0.0192     2.6813
 4643.0000   -32.4347  1570.6237    22.6717    24.7793  1682.1213   112.4710     0.2122     7.9445     0.0177     2.6707
 4643.5000   -32.4301  1571.3110    26.6461    28.9210  1683.2384   105.8038     0.1657     7.9442     0.0154     2.6600
 4644.0000   -32.4251  1571.9984    31.0229    32.5898  1684.2422   102.1862     0.1422     7.9438     0.0127     2.6534
 4644.5000   -32.4208  1572.6858    36.0410    34.7170  1685.3441   101.2756     0.1353     7.9585     0.0153     2.6504
 4645.0000   -32.4164  1573.3732    36.0434    33.8970  1686.3638   104.2896     0.1329     7.9582     0.0221     2.6631
 4645.5000   -32.5630  1574.0605    34.5591    28.1196  1687.5349   110.0241     0.1404     7.9579     0.0258     2.6789
 4646.0000   -32.7107  1574.7479    30.2458    23.0982  1688.4850   117.2677     0.1737     7.9576     0.0250     2.6864
 4646.5000   -32.7064  1575.4353    26.1021    21.8358  1689.6406   121.4916     0.1897     7.9573     0.0237     2.6893
 4647.0000   -32.8541  1576.1228    25.0272    21.3804  1690.6061   123.9028     0.1979     7.9421     0.0219     2.6901
 4647.5000   -33.0006  1576.8102    24.8534    21.5311  1691.8314   125.7098     0.2042     7.9418     0.0197     2.6833
 4648.0000   -32.9963  1577.4976    24.8554    22.6774  1692.7268   127.2146     0.1949     7.9266     0.0181     2.6787
 4648.5000   -32.9920  1578.1849    25.0410    24.9540  1693.7882   126.3011     0.1867     7.8964     0.0166     2.6772
 4649.0000   -32.8359  1578.8723    27.6197    26.9589  1679.7124   123.8785     0.1822     7.8812     0.0166     2.6810
 4649.5000   -32.8313  1579.5597    30.4741    29.1964  1680.7578   119.3411     0.1797     7.8809     0.0180     2.6862
 4650.0000   -32.8267  1580.2471    30.6908    31.2446  1666.5825   111.2650     0.1752     7.8806     0.0197     2.6882
 4650.5000   -32.7628  1580.9344    33.6257    34.2326  1667.7269    99.9891     0.1628     7.8504     0.0202     2.6892
 4651.0000   -32.6654  1581.6218    41.0990    38.3052  1668.8574    98.1678     0.1503     7.8289     0.0202     2.6876
