~VERSION INFORMATION
 VERS.                2.0:   CWLS LOG ASCII STANDARD - VERSION 2.0
 WRAP.                 NO:   ONE LINE PER DEPTH STEP
~WELL INFORMATION
#MNEM.UNIT      DATA TYPE    INFORMATION
#----------   ------------   ------------------------------
 STRT.F            0.0000:   START DEPTH
 STOP.F         4700.0000:   STOP DEPTH
 STEP.F            0.5000:   STEP LENGTH
 NULL.          -999.2500:   NO VALUE
 COMP. LAWRENCE ALLISON & ASSOCIATES:   COMPANY
 WELL. LAWRENCE NPR 3 "X" #33-23:   WELL
 FLD .                NPR:   FIELD
 LOC .      S23 T38N R78W:   LOCATION
 CNTY.            NATRONA:   COUNTY
 STAT.            WYOMING:   STATE
 CTRY. UNITED STATES OF AMERICA:   COUNTRY
 SRVC.      DRESSER ATLAS:   SERVICE COMPANY
 DATE.        12-NOV-1984:   LOGDATE
 API .     49025109930000:   API NUMBER
~CURVE INFORMATION
#MNEM.UNIT       API CODE    CURVE DESCRIPTION
#----------   ------------   ------------------------------
 DEPT.F                  :   
 TEND.LBS    45 635 01 00:   TENSION FROM DENSITY LOG
 CALD.IN     45 280 60 00:   CALIPER FROM DENSITY LOG
 CORR.G/C3   45 356 01 00:   DENSITY CORRECTION
 DEN .G/C3   45 350 01 00:   BULK DENSITY
 CNC .DEC    42 890 03 00:   NEUTRON PORISITY SANDSTONE
 SPR .MV     07 010 01 00:   SPONTANEOUS POTENTIAL
 GRR .GAPI   07 310 01 00:   GAMMA RAY FROM RESISTIVITY
 RFOC.OHMM   07 220 01 00:   RESISTIVITY FOCUSED LOG RES.
 ILM .OHMM   07 120 44 00:   INDUCTION LOG MEDIUM RESISTIVITY
 ILD .OHMM   07 120 46 00:   INDUCTION LOG DEEP RESISTIVITY
 TENS.LBS    60 635 01 00:   TENSION FROM SONIC LOG
 DT  .US/F   60 520 00 00:   DELTA TIME
 TENR.LBS    07 635 01 00:   TENSION
~PARAMETER INFORMATION
#MNEM.UNIT          VALUE    DESCRIPTION
#----------   ------------   ------------------------------
 EKB .F         5308.0000:   Kelly bushing
 EGL .F         5296.0000:   Ground level
 EDF .F            0.0000:   Drilling floor
 EPD .F            0.0000:   Permanent datum
 TD  .F         4695.0000:   Total depth
 DATE.        12-NOV-1984:   Date logged
 CLNT.            A2DTECH:   Client Code
 SL  . 1415' FNL & 1874' FWL:   Surface Location
 PD  .                 GL:   Permanent Datum
 LMF .                 KB:   Log Measured From
 DMF .                 KB:   Drilling Measured From
 DAPD.F                12:   Feet Above Permanent Datum
 DD  .F              4695:   Depth driller
 DL  .F              4694:   Depth logger
 BLI .F              4691:   Bottom log interval
 TLI .F              1205:   Top log interval
 CS1 .IN            8.625:   Casing size
 CBD1.     8.625" @ 1206':   Casing driller 1
 CBL1.F              1205:   Casing logger 1
 BS1 .IN            7.875:   Bit size
 BSD1.F              4695:   Depth drilled with bit1
 DFT .     GFL/KCL/STAFLO:   Type fluid in hole
 DFD .                9.2:   Density
 DFV .                 45:   Viscosity
 DFPH.                  8:   pH
 DFL .                 10:   Fluid loss
 MSS .           FLOWLINE:   Source of sample
 RMS .OHMM            .51:   Rm
 MST .F                72:   Rm Meas. temp.
 RMF .OHMM            .43:   Rmf
 MFST.F                70:   Rmf Meas. temp.
 RMC .OHMM            .64:   Rmc
 MCST.F                72:   Rmc Meas. temp.
 MFSS.               MEAS:   Source Rmf.
 MCSS.               CALC:   Source Rmc.
 RMB .OHMM           .272:   Rm. at BHT
 BHT .F               135:   BHT.
 TCS .HRS               4:   Time Circ. stopped
 MRT .F               135:   Maximum recorded temp.
 LUN .               6274:   Logging unit number
 LUL .               GLTE:   Logging unit location
 ENGI.             RAUTIO:   Recorded By
 ORIG.           5" PRINT:   Origin of data
 UWI .     49025109930000:   Unique Well ID
 DICO. A2D TECHNOLOGIES, INC.:   Digitizing Company
~OTHER INFORMATION
~A    DEPT    TEND       CALD       CORR        DEN        CNC        SPR         GRR      RFOC        ILM        ILD       TENS         DT       TENR   
# ...
  676.0000   -38.7320    12.4260    -0.0040     2.4110     0.2800   -53.9620    78.8460     5.2170     4.9690     5.4570   -19.0760   103.7510   -20.3010
  676.5000   -38.7320    12.4270     0.0000     2.4100     0.2820   -53.5110    83.9770     5.2430     4.9690     5.4470   -19.0760   103.5540   -20.3270
  677.0000   -38.7320    12.4280     0.0110     2.4190     0.2840   -53.0600    88.5030     5.2690     4.9690     5.4790   -19.0760   103.7370   -20.3520
  677.5000   -38.7320    12.4300     0.0250     2.4240     0.2960   -52.6080    86.9580     5.2950     4.9690     5.5030   -19.0760   103.9540   -20.3770
  678.0000   -38.7320    12.4310     0.0380     2.4290     0.2920   -52.1620    84.9660     5.3200     4.9690     5.5270   -19.0760   104.1570   -20.4020
  678.5000   -38.7320    12.4330     0.0360     2.4340     0.2810   -51.7780    82.9440     5.3460     4.9680     5.5510   -19.0760   103.8440   -20.4270
  679.0000   -38.7320    12.4340     0.0330     2.4360     0.2830   -51.7620    83.8310     5.3720     4.9830     5.5750   -19.0760   103.3830   -20.4520
  679.5000   -38.7320    12.4330     0.0290     2.4370     0.2890   -51.7300    86.1470     5.3970     5.0010     5.5990   -19.0760   102.9210   -20.4770
  680.0000   -38.7320    12.4320     0.0260     2.4340     0.3000   -51.6960    85.9250     5.3400     5.0190     5.6230   -19.0760   102.4590   -20.5020
  680.5000   -38.7320    12.4310     0.0040     2.4310     0.3060   -51.6630    85.7800     5.2500     5.0370     5.6470   -19.0760   102.1210   -20.5280
  681.0000   -38.7320    12.4290     0.0020     2.4390     0.3200   -51.6280    85.6170     5.2890     5.0550     5.6710   -19.0760   102.0360   -20.5530
  681.5000   -38.7320    12.4280     0.0120     2.4440     0.3200   -51.5960    85.3360     5.3780     5.0730     5.6950   -19.0760   101.9480   -20.5780
  682.0000   -38.7320    12.4270     0.0210     2.4430     0.3010   -51.8340    85.5970     5.4660     5.0910     5.7160   -19.0760   100.7330   -20.6030
  682.5000   -38.7320    12.4260     0.0300     2.4340     0.2860   -52.1160    86.4410     5.5480     5.1080     5.7420   -19.0760    99.4630   -20.6280
  683.0000   -38.7320    12.4240     0.0390     2.4290     0.2860   -52.3990    88.0520     5.4220     5.1080     5.7690   -19.0760    98.7350   -20.6530
  683.5000   -38.7320    12.4230     0.0430     2.4340     0.2880   -52.6820    88.3260     5.3060     5.1080     5.7950   -19.0760    99.6080   -20.6780
  684.0000   -38.7320    12.4220     0.0480     2.4390     0.2910   -52.9640    86.7110     5.2020     5.1080     5.8220   -19.0760   100.3420   -20.7030
  684.5000   -38.7320    12.4210     0.0520     2.4490     0.2980   -53.2470    83.2670     5.4070     5.1080     5.8490   -19.0760   101.0760   -20.7290
  685.0000   -38.7320    12.4190     0.0550     2.4500     0.2990   -53.4130    80.5360     5.6510     5.1070     5.8750   -19.0760   101.4370   -20.7540
  685.5000   -38.7320    12.4180     0.0430     2.4440     0.2970   -53.4790    78.3220     5.5760     5.1620     5.9020   -19.0760   101.5820   -20.7790
  686.0000   -38.7320    12.4170     0.0140     2.4400     0.2940   -53.5440    78.2650     5.4970     5.2610     5.9280   -19.0760   101.7470   -20.8040
  686.5000   -38.7320    12.4160    -0.0030     2.4510     0.3120   -53.6090    81.3480     5.4470     5.3610     5.9550   -19.0760   101.7470   -20.8290
  687.0000   -38.7320    12.4140     0.0030     2.4600     0.3120   -53.6730    86.3750     5.6310     5.4600     6.0020   -19.0760   101.7470   -20.8540
  687.5000   -38.7320    12.4130     0.0060     2.4660     0.3110   -53.7360    90.0140     5.7880     5.5600     6.0810   -19.0760   101.7470   -20.8790
  688.0000   -38.7320    12.4120     0.0360     2.4650     0.3050   -53.6660    90.9800     5.9440     5.6490     6.1600   -19.0760   101.4290   -20.9050
  688.5000   -38.7320    12.4100     0.0610     2.4610     0.2980   -53.3900    89.7430     6.1010     5.7300     6.2390   -19.0760   100.9780   -20.9300
  689.0000   -38.7320    12.4090     0.0420     2.4560     0.2860   -53.1170    90.4440     6.2520     5.8090     6.3180   -19.0760   100.5260   -20.9550
  689.5000   -38.7320    12.4080     0.0270     2.4490     0.2770   -52.8430    90.1910     6.0490     5.7590     6.3970   -19.0760   100.1410   -20.9800
  690.0000   -38.7320    12.4070     0.0340     2.4490     0.3030   -52.5680    88.7430     5.9170     5.7080     6.4760   -19.0760   100.2130   -21.0050
  690.5000   -38.7320    12.4050     0.0440     2.4510     0.3020   -52.2940    86.6660     5.9440     5.7380     6.5410   -19.0760   100.2770   -21.0300
  691.0000   -38.7320    12.4040     0.0550     2.4640     0.2920   -52.0190    86.0100     5.9750     5.7790     6.6040   -19.0760   100.3410   -21.0550
  691.5000   -38.7320    12.4030     0.0520     2.4720     0.2810   -51.7450    85.8440     6.0060     5.8200     6.6670   -19.0760   100.0780   -21.0800
  692.0000   -38.7320    12.4020     0.0440     2.4810     0.2710   -51.4700    85.6700     6.0370     5.8610     6.7300   -19.0760    99.8110   -21.1060
  692.5000   -38.7320    12.4000     0.0360     2.4800     0.2640   -51.0840    86.8660     6.0680     5.9010     6.7930   -19.0760    99.5430   -21.1310
  693.0000   -38.7320    12.3990     0.0310     2.4780     0.2700   -50.6530    90.0850     6.1120     5.9420     6.8560   -19.0760    99.2760   -21.1560
  693.5000   -38.7320    12.3980     0.0430     2.4760     0.2810   -50.2190    93.5560     6.1680     5.9830     6.9200   -19.0760    99.0090   -21.1810
  694.0000   -38.7320    12.3960     0.0550     2.4790     0.2910   -50.4500    94.1340     6.2230     6.0240     6.9830   -19.0760    98.7410   -21.2060
  694.5000   -38.7320    12.3960     0.0560     2.4820     0.2990   -50.9020    87.9700     6.2790     6.0650     7.0460   -19.0760    98.4740   -21.2310
  695.0000   -38.7320    12.3860     0.0390     2.4830     0.2970   -51.3560    89.5230     6.3350     6.1050     7.1090   -19.0760    98.0920   -21.2560
  695.5000   -38.7320    12.3630     0.0260     2.4810     0.2940   -51.8110    91.3670     6.3910     6.1950     7.1720   -19.0760    97.5840   -21.2810
  696.0000   -38.7320    12.3410     0.0390     2.4790     0.2840   -52.4480    92.9840     6.4470     6.2720     7.2350   -19.0760    97.1290   -21.3070
  696.5000   -38.7320    12.3100     0.0620     2.4780     0.2720   -53.1770    89.8350     6.5030     6.3490     7.2980   -19.0760    97.2690   -21.3320
  697.0000   -38.7320    12.2680     0.0630     2.4760     0.2670   -53.5790    86.6710     6.5590     6.4260     7.3860   -19.0760    97.3960   -21.3570
  697.5000   -38.7320    12.3020     0.0490     2.4730     0.2710   -53.9660    83.7960     6.6150     6.5030     7.5100   -19.0760    97.5300   -21.3820
  698.0000   -38.7320    12.3430     0.0420     2.4680     0.2790   -54.3540    82.1630     6.6680     6.5800     7.6330   -19.0760    96.9090   -21.4070
  698.5000   -38.7320    12.3910     0.0800     2.4610     0.2880   -54.3300    80.9740     6.7040     6.6330     7.7400   -19.0760    96.2480   -21.4320
  699.0000   -38.7320    12.3940     0.1040     2.4540     0.2760   -53.8050    81.9890     6.7380     6.6730     7.8010   -19.0760    95.5880   -21.4570
  699.5000   -38.7320    12.3950     0.0930     2.4560     0.2630   -53.2840    85.1460     6.7720     6.7140     7.8610   -19.0760    94.9200   -21.4830
  700.0000   -38.7320    12.3940     0.0200     2.4620     0.2620   -52.7610    88.6720     6.8060     6.7540     7.9400   -19.0760    95.2760   -21.5080
  700.5000   -38.7320    12.3950     0.0170     2.4670     0.2840   -52.2370    86.8850     6.8400     6.7940     7.9140   -19.0760    95.6370   -21.5330
  701.0000   -38.7320    12.3940     0.0170     2.4730     0.2810   -51.7130    84.6570     6.8740     6.8540     7.8750   -19.0760    95.9240   -21.5580
  701.5000   -38.7320    12.3940     0.0300     2.4790     0.2780   -51.1890    82.4240     6.9080     6.8390     7.8370   -19.0760    95.7210   -21.5830
