~VERSION INFORMATION
 VERS.                2.0:   CWLS LOG ASCII STANDARD - VERSION 2.0
 WRAP.                 NO:   ONE LINE PER DEPTH STEP
~WELL INFORMATION
#MNEM.UNIT      DATA TYPE    INFORMATION
#----------   ------------   ------------------------------
 STRT.F          150.0000:   START DEPTH
 STOP.F         2980.0000:   STOP DEPTH
 STEP.F            0.5000:   STEP LENGTH
 NULL.          -999.2500:   NO VALUE
 COMP. FENIX & SCISSION U.S. NAVY:   COMPANY
 WELL.   FENIX "A" #84-20:   WELL
 FLD .             NPR #3:   FIELD
 LOC .      S20 T39N R78W:   LOCATION
 CNTY.            NATRONA:   COUNTY
 STAT.            WYOMING:   STATE
 CTRY. UNITED STATES OF AMERICA:   COUNTRY
 SRVC.       SCHLUMBERGER:   SERVICE COMPANY
 DATE.        21-FEB-1977:   LOGDATE
 API .     49025103020000:   API NUMBER
~CURVE INFORMATION
#MNEM.UNIT       API CODE    CURVE DESCRIPTION
#----------   ------------   ------------------------------
 DEPT.F                  :   
 NPHI.DEC    42 890 03 00:   NEUTRON POROSITY SANDSTONE
 GRD .GAPI   45 310 01 00:   GAMMA RAY FROM DENSITY LOG
 CALD.IN     45 280 60 00:   CALIPER FROM DENSITY LOG
 RHOB.G/C3   45 350 01 00:   BULK DENSITY
 DCOR.G/C3   45 356 01 00:   DENSITY CORRECTION
 SPR .MV     07 010 01 00:   SPONTANEOUS POTENTIAL
 LLD .OHMM   11 220 10 00:   LATEROLOG DEEP
 LLS .OHMM   11 220 09 00:   LATEROLOG SHALLOW
 MSFL.OHMM   07 270 04 00:   MICRO SPHERICALLY FOCUSED RES.
~PARAMETER INFORMATION
#MNEM.UNIT          VALUE    DESCRIPTION
#----------   ------------   ------------------------------
 EKB .F         5006.0000:   Kelly bushing
 EGL .F         4996.0000:   Ground level
 EDF .F            0.0000:   Drilling floor
 TD  .F         2973.0000:   Total depth
 DATE.        21-FEB-1977:   Date logged
 CLNT.            A2DTECH:   Client Code
 SL  . 330' FEL & 2310' FNL:   Surface Location
 PD  .                 GL:   Permanent Datum
 EPD .F              4996:   Elevation Permanent Datum
 LMF .                 KB:   Log Measured From
 DMF .                 KB:   Drilling Measured From
 DAPD.F                10:   Feet Above Permanent Datum
 DD  .F              2973:   Depth driller
 DL  .F              2971:   Depth logger
 BLI .F              2970:   Bottom log interval
 TLI .F               164:   Top log interval
 CS1 .IN            8.625:   Casing size
 CBD1.      8.625" @ 167':   Casing driller 1
 CBL1.F               164:   Casing logger 1
 BS1 .IN            7.875:   Bit size
 BSD1.F              2973:   Depth drilled with bit1
 DFT .            KCL MUD:   Type fluid in hole
 DFD .                9.5:   Density
 DFV .                 35:   Viscosity
 DFPH.                6.5:   pH
 DFL .                 11:   Fluid loss
 MSS .              CIRC.:   Source of sample
 RMS .OHMM           0.27:   Rm
 MST .F                72:   Rm Meas. temp.
 RMF .OHMM           0.19:   Rmf
 MFST.F                72:   Rmf Meas. temp.
 RMC .OHMM           0.35:   Rmc
 MCST.F                72:   Rmc Meas. temp.
 MFSS.               MEAS:   Source Rmf.
 MCSS.               CALC:   Source Rmc.
 RMB .OHMM           0.18:   Rm. at BHT
 BHT .F               110:   BHT.
 TCS .HRS            0300:   Time Circ. stopped
 TLAB.HRS            1000:   Time logger at bottom
 MRT .F               110:   Maximum recorded temp.
 LUN .               7711:   Logging unit number
 LUL .               CSPR:   Logging unit location
 ENGI.             SAYLER:   Recorded By
 WITN.               JAPP:   Witnessed by
 ORIG.           5" PRINT:   Origin of data
 UWI .     49025103020000:   Unique Well ID
 DICO. A2D TECHNOLOGIES, INC.:   Digitizing Company
~OTHER INFORMATION
~A   DEPT       NPHI       GRD      CALD       RHOB       DCOR        SPR        LLD        LLS       MSFL   
# ...
 1829.0000     0.3460   117.9980    11.0520     2.4880     0.0310   -38.9790    10.2430    11.5220    14.9030
 1829.5000     0.3400   115.7720    11.0280     2.4860     0.0410   -38.9180    10.3180    11.4670    14.7520
 1830.0000     0.3340   116.0750    11.0270     2.4910     0.0510   -38.8480    10.2240    11.3710    14.4840
 1830.5000     0.3270   116.8840    11.0380     2.5070     0.0560   -38.7140    10.1430    11.2750    14.3130
 1831.0000     0.3240   116.1450    11.0500     2.5140     0.0520   -38.5450    10.0620    11.1780    14.2200
 1831.5000     0.3230   114.5960    11.0610     2.5150     0.0470   -38.3800     9.9800    11.0820    14.1270
 1832.0000     0.3190   113.6170    11.0720     2.5130     0.0390   -38.2140     9.8990    10.9860    13.7520
 1832.5000     0.3160   113.1830    11.0760     2.4990     0.0320   -38.0480     9.7650    10.9030    13.3470
 1833.0000     0.3290   112.7850    11.0710     2.4930     0.0310   -37.8820     9.8340    11.1370    13.9250
 1833.5000     0.3360   111.7930    11.0650     2.4840     0.0240   -37.7160    10.0380    11.3420    14.3650
 1834.0000     0.3410   110.5410    11.0590     2.4750     0.0180   -37.5500    10.2420    11.5470    13.7910
 1834.5000     0.3420   109.3600    11.0530     2.4800     0.0220   -37.3850    10.4470    11.7510    13.3470
 1835.0000     0.3400   108.6240    11.0470     2.4920     0.0190   -37.2140    10.6510    11.9560    14.8290
 1835.5000     0.3340   108.4590    11.0410     2.5090     0.0340   -37.0580    10.8560    12.1610    16.6410
 1836.0000     0.3280   107.6780    11.0650     2.5130     0.0410   -36.8700    11.0600    12.3660    14.9030
 1836.5000     0.3290   105.9920    11.1030     2.5140     0.0360   -36.9170    11.2650    12.5710    15.1790
 1837.0000     0.3290   105.3800    11.1420     2.5290     0.0390   -36.9930    11.4690    12.6820    15.7200
 1837.5000     0.3290   105.6120    11.1810     2.5240     0.0290   -37.0780    11.7350    12.7550    16.6410
 1838.0000     0.3290   106.2630    11.2200     2.5140     0.0190   -37.1540    11.6300    12.8650    16.5310
 1838.5000     0.3220   107.1030    11.2560     2.5110     0.0160   -37.2350    11.4790    12.6630    16.1610
 1839.0000     0.3120   107.8990    11.2690     2.5100     0.0220   -37.3150    11.3120    12.2530    15.7480
 1839.5000     0.3060   107.2410    11.2820     2.5210     0.0290   -37.3930    10.9200    11.8440    15.7480
 1840.0000     0.3090   105.2860    11.2940     2.5210     0.0270   -37.4780    10.4800    11.4350    15.3180
 1840.5000     0.3110   103.5890    11.3060     2.5280     0.0220   -37.5480    10.0390    11.0250    14.6880
 1841.0000     0.3110   103.6780    11.3130     2.5270     0.0300   -37.6390     9.5980    10.6160    14.0580
 1841.5000     0.3120   103.8150    11.3020     2.5210     0.0190   -37.4210     9.1570    10.2060    13.4280
 1842.0000     0.3130   103.9460    11.2910     2.5140     0.0240   -37.1420     8.7160     9.7970    12.7980
 1842.5000     0.3180   104.0750    11.2790     2.5040     0.0230   -36.8660     8.1250     9.4120    12.1680
 1843.0000     0.3170   104.3500    11.2820     2.5150     0.0310   -36.8580     8.2760     9.4120    10.9830
 1843.5000     0.3180   104.7900    11.2900     2.5170     0.0330   -36.8460     8.5200     9.4120     9.5870
 1844.0000     0.3200   105.7700    11.2990     2.5110     0.0280   -36.8560     8.8050     9.6120    13.5950
 1844.5000     0.3220   106.8840    11.3070     2.5090     0.0320   -36.8720     9.0900    10.7050    13.3870
 1845.0000     0.3230   106.8080    11.3160     2.5080     0.0260   -37.1870     9.3750    10.6270    13.4470
 1845.5000     0.3120   106.7240    11.3240     2.5060     0.0220   -37.5090     9.7650    10.5070    13.8470
 1846.0000     0.3140   107.8460    11.3330     2.5120     0.0330   -37.8720     9.7300    10.3180    13.7380
 1846.5000     0.3130   109.1280    11.3200     2.5070     0.0300   -38.0620     9.5840    10.3520    13.5950
 1847.0000     0.3150   109.2160    11.2980     2.5060     0.0240   -38.0430     9.4120    10.4320    13.7530
 1847.5000     0.3160   107.8110    11.2760     2.5070     0.0270   -38.0530     9.0850    10.5100    14.1040
 1848.0000     0.3140   106.5330    11.2530     2.5110     0.0310   -38.0310     8.6880     9.9490    13.7960
 1848.5000     0.3130   105.8450    11.2310     2.5070     0.0260   -38.0870     8.2910     9.4000    13.2980
 1849.0000     0.3130   105.7120    11.2090     2.4960     0.0270   -37.7280     7.9770     8.7450    12.0450
 1849.5000     0.3070   105.7450    11.1870     2.4920     0.0350   -37.6460     7.9770     9.7310    10.3180
 1850.0000     0.3020   106.2860    11.1640     2.4960     0.0320   -37.6430     9.1160    10.9530    13.3470
 1850.5000     0.2990   106.8110    11.1710     2.4980     0.0300   -37.6680    10.7050    12.1750    14.4240
 1851.0000     0.2990   107.3380    11.1880     2.4960     0.0310   -37.8560    10.6090    11.9050    16.0410
 1851.5000     0.3020   108.0700    11.2060     2.4930     0.0280   -38.0650    10.4490    11.6350    16.0410
 1852.0000     0.3070   108.7930    11.2240     2.4950     0.0240   -38.2760    10.2900    11.3120    15.6140
 1852.5000     0.3110   109.1760    11.2420     2.5000     0.0150   -38.4840    10.1300    11.6700    14.9030
 1853.0000     0.3130   109.4420    11.2590     2.4960     0.0090   -38.6920    10.7000    12.1180    16.3380
 1853.5000     0.3170   109.2880    11.2750     2.4900     0.0150   -38.9000    11.2690    12.5660    16.7880
 1854.0000     0.3200   108.3600    11.2680     2.4840     0.0160   -39.1210    11.9530    13.1040    17.3490
 1854.5000     0.3200   107.3190    11.2600     2.4870     0.0220   -39.3000    11.5150    12.7520    17.9110
 1855.0000     0.3190   106.8260    11.2350     2.4920     0.0200   -39.4190    10.9680    12.3130    16.7400
 1855.5000     0.3150   107.5400    11.2030     2.4930     0.0240   -39.5520    10.4210    11.8730    15.5690
 1856.0000     0.3210   108.2400    11.1700     2.5050     0.0430   -39.6830     9.7650    11.5220    14.6320
 1856.5000     0.3280   108.9450    11.1390     2.5310     0.0530   -39.8120     9.9460    11.3140    11.7350
 1857.0000     0.3340   109.1830    11.1470     2.5260     0.0460   -39.9440     9.9460    11.1060    13.8880
 1857.5000     0.3330   109.0320    11.1550     2.5150     0.0460   -40.0740     9.9460    11.3910    16.0410
 1858.0000     0.3300   108.2800    11.1640     2.5000     0.0380   -40.2040    10.2490    11.7480    13.3470
 1858.5000     0.3280   107.3280    11.1720     2.4970     0.0370   -40.3350    10.5520    12.1050    14.2600
 1859.0000     0.3250   107.3700    11.1810     2.4950     0.0400   -40.4650    10.8550    12.4620    17.9110
 1859.5000     0.3300   108.2840    11.1890     2.5090     0.0510   -40.5960    11.1580    12.8180    17.3870
 1860.0000     0.3350   109.6820    11.1980     2.5280     0.0560   -40.7270    11.5220    13.1040    16.3380
 1860.5000     0.3400   111.3610    11.2060     2.5110     0.0420   -40.8560    11.3140    12.6480    16.5660
 1861.0000     0.3410   112.7990    11.2150     2.5070     0.0390   -40.9900    11.1060    12.2690    16.6410
 1861.5000     0.3400   113.7880    11.2170     2.5100     0.0350   -41.1180    10.5750    11.8900    15.1240
 1862.0000     0.3350   114.3730    11.2170     2.5110     0.0290   -41.2250    10.1330    11.5100    14.2540
 1862.5000     0.3250   114.1050    11.2170     2.5090     0.0310   -41.1480     9.6910    11.1310    14.0690
 1863.0000     0.3140   113.2790    11.2170     2.5190     0.0340   -41.0770     9.2480    10.7510    13.8470
 1863.5000     0.3060   111.7520    11.2170     2.5150     0.0270   -40.9970     8.8060    10.3720    12.9170
 1864.0000     0.3020   110.0550    11.2170     2.5140     0.0210   -40.9220     8.2760     9.7650    11.5220
 1864.5000     0.3050   108.3570    11.2220     2.5050     0.0140   -40.8450     8.3780     9.8230    12.8650
 1865.0000     0.3090   107.2540    11.2310     2.4930     0.0180   -40.7700     8.5450     9.9700    12.1590
