~VERSION INFORMATION
 VERS.                2.0:   CWLS LOG ASCII STANDARD - VERSION 2.0
 WRAP.                 NO:   ONE LINE PER DEPTH STEP
~WELL INFORMATION
#MNEM.UNIT      DATA TYPE    INFORMATION
#----------   ------------   ------------------------------
 STRT.F           60.0000:   START DEPTH
 STOP.F         3758.0000:   STOP DEPTH
 STEP.F            0.5000:   STEP LENGTH
 NULL.          -999.2500:   NO VALUE
 COMP. LAWRENCE ALLISON & ASSOCIATES:   COMPANY
 WELL. LAWRENCE "MX" #72-10:   WELL
 FLD .            N P R 3:   FIELD
 LOC .      S10 T38N R78W:   LOCATION
 CNTY.            NATRONA:   COUNTY
 STAT.            WYOMING:   STATE
 CTRY. UNITED STATES OF AMERICA:   COUNTRY
 SRVC.       SCHLUMBERGER:   SERVICE COMPANY
 DATE.        03-JUL-1982:   LOGDATE
 API .     49025108910000:   API NUMBER
~CURVE INFORMATION
#MNEM.UNIT       API CODE    CURVE DESCRIPTION
#----------   ------------   ------------------------------
 DEPT.F                  :   
 GRD .GAPI   45 310 01 00:   GAMMA RAY FROM DENSITY LOG
 NPHI.DEC    42 890 03 00:   NEUTRON POROSITY SANDSTONE
 CALD.IN     45 280 60 00:   CALIPER FROM DENSITY LOG
 RHOB.G/C3   45 350 01 00:   BULK DENSITY
 DRHO.G/C3   45 356 01 00:   DENSITY CORRECTION
 TEND.LBS    45 635 01 00:   TENSION FROM DENSITY LOG
 SPR .MV     07 010 01 00:   SPONTANEOUS POTENTIAL
 SFL .OHMM   07 220 01 00:   SHALLOW FOCUSED LOG RESISTIVITY
 ILD .OHMM   07 120 46 00:   DEEP INDUCTION RESISTIVITY
 ILM .OHMM   07 120 44 00:   INDUCTION LOG MEDIUM RESISTIVITY
 TENR.LBS    07 635 01 00:   TENSION FROM RESISTIVITY
~PARAMETER INFORMATION
#MNEM.UNIT          VALUE    DESCRIPTION
#----------   ------------   ------------------------------
 EKB .F         5182.0000:   Kelly bushing
 EGL .F         5172.0000:   Ground level
 EDF .F            0.0000:   Drilling floor
 EPD .F            0.0000:   Permanent datum
 TD  .F         3770.0000:   Total depth
 DATE.        03-JUL-1982:   Date logged
 CLNT.            A2DTECH:   Client Code
 SL  . 1119' FNL & 21' FEL:   Surface Location
 PD  .                 GL:   Permanent Datum
 DD  .F              3770:   Depth driller
 DL  .F              3750:   Depth logger
 BLI .F              3744:   Bottom log interval
 CS1 .IN            9.625:   Casing size
 CBD1.      9.625" @ 473':   Casing driller 1
 CBL1.F               482:   Casing logger 1
 BS1 .IN            7.875:   Bit size
 DFT .                GEL:   Type fluid in hole
 DFD .                9.1:   Density
 DFV .                 34:   Viscosity
 DFPH.               10.5:   pH
 DFL .                 12:   Fluid loss
 MSS .            MUD PIT:   Source of sample
 RMS .OHMM           1.50:   Rm
 MST .F                84:   Rm Meas. temp.
 RMF .OHMM           1.37:   Rmf
 MFST.F                83:   Rmf Meas. temp.
 RMC .OHMM           1.20:   Rmc
 MCST.F                83:   Rmc Meas. temp.
 MFSS.               MEAS:   Source Rmf.
 RMB .OHMM              1:   Rm. at BHT
 BHT .F               130:   BHT.
 TCS .HRS            1500:   Time Circ. stopped
 MRT .F               130:   Maximum recorded temp.
 LUN .               8039:   Logging unit number
 LUL .               CSPR:   Logging unit location
 ENGI. CONOSCENTI/PIRAKIS:   Recorded By
 WITN.             STRONG:   Witnessed by
 ORIG.       2.5"5" PRINT:   Origin of data
 UWI .     49025108910000:   Unique Well ID
 DICO. A2D TECHNOLOGIES, INC.:   Digitizing Company
 DAPD.                 10:   Feet Above Permanent Datum
 BSD1.               3770:   Depth drilled with bit1
 MCSS.               CALC:   Source Rmc.
 TLI .                482:   Top log interval
 TLAB.HR             1800:   Time logger at bottom
~OTHER INFORMATION
~A   DEPT      GRD       NPHI       CALD       RHOB       DRHO       TEND        SPR        SFL        ILD        ILM       TENR   
# ...
 1554.5000    93.2320     0.2710    11.9110     2.5790     0.0850  1258.7500   -62.5350     9.6030     8.4910     7.9950  1166.3621
 1555.0000    95.0360     0.2740    11.9820     2.5880     0.1210  1259.1410   -62.5280     9.3570     8.4310     7.8750  1166.5620
 1555.5000    97.0000     0.2780    12.0490     2.5690     0.1370  1259.5310   -62.5200     9.0320     8.3700     7.7550  1166.7620
 1556.0000    99.0340     0.2800    12.1150     2.5500     0.1220  1259.9220   -62.5130     8.7060     8.3100     7.6340  1166.9630
 1556.5000   100.0680     0.2930    12.1550     2.5430     0.0970  1260.3130   -62.5060     8.4270     8.1990     7.5140  1167.1630
 1557.0000    97.3350     0.2960    12.1770     2.5340     0.0740  1260.7030   -62.4980     8.3580     8.0510     7.3940  1167.3630
 1557.5000    96.5650     0.3080    12.2070     2.5260     0.0490  1261.0940   -62.4910     8.2900     7.9030     7.2740  1167.5640
 1558.0000    95.8100     0.3160    12.1900     2.5190     0.0330  1261.4840   -62.4840     8.2220     7.6950     7.1540  1167.7640
 1558.5000    95.0450     0.3330    12.1220     2.5260     0.0260  1261.8750   -62.4770     8.1530     7.7240     7.0820  1167.9640
 1559.0000    93.1150     0.3510    12.0640     2.5390     0.0190  1262.2660   -62.4690     8.0680     7.7980     7.2480  1168.1650
 1559.5000    91.2750     0.3530    11.9980     2.5520     0.0290  1262.6560   -62.4620     8.1620     7.8720     7.3730  1168.3650
 1560.0000    91.1550     0.3300    11.9490     2.5610     0.0290  1263.0470   -62.4550     8.3310     7.9460     7.4980  1168.5649
 1560.5000    91.0430     0.2980    11.9110     2.5510     0.0200  1263.4380   -62.4470     8.7660     8.0200     7.6230  1168.7660
 1561.0000    92.1540     0.2800    11.9150     2.5390     0.0120  1263.8280   -62.4400     9.2580     8.0930     7.6950  1168.9659
 1561.5000    93.9210     0.2770    11.9340     2.5430     0.0090  1264.2190   -62.4330     9.4270     8.1670     7.7660  1169.1660
 1562.0000    92.9150     0.2770    11.9540     2.5540     0.0220  1264.6090   -62.4250     9.4270     8.2080     7.6530  1169.3669
 1562.5000    91.5600     0.2800    11.9690     2.5610     0.0390  1265.0000   -62.4180     9.0400     8.2080     7.5620  1169.5670
 1563.0000    91.8060     0.2830    11.9810     2.5470     0.0460  1265.3910   -62.4110     8.5830     8.2080     7.4700  1169.7670
 1563.5000    93.4170     0.2880    12.0050     2.5260     0.0420  1265.7810   -62.4040     8.4610     8.2080     7.3480  1169.9680
 1564.0000    94.7070     0.2960    12.2350     2.5180     0.0330  1266.1720   -62.3960     8.3960     8.2080     7.4320  1170.1680
 1564.5000    96.0040     0.2950    12.1590     2.5400     0.0280  1266.5630   -62.3890     8.3310     8.2080     7.4670  1170.3680
 1565.0000    95.6980     0.2910    12.0630     2.5630     0.0340  1266.9530   -62.3820     8.2840     8.0630     7.5020  1170.5680
 1565.5000    95.2940     0.2890    12.0130     2.5800     0.0410  1267.3440   -62.3740     8.6790     7.9110     7.5360  1170.7690
 1566.0000    94.8680     0.2910    12.0230     2.5800     0.0480  1267.7340   -62.3670     8.8370     7.8380     7.5540  1170.9690
 1566.5000    94.4420     0.2900    12.0180     2.5830     0.0550  1268.1250   -62.3600     8.6300     7.9970     7.5360  1171.1689
 1567.0000    94.1990     0.2880    12.0200     2.5810     0.0640  1268.5160   -62.3530     8.3660     8.0690     7.5190  1171.3700
 1567.5000    94.9040     0.2860    12.0190     2.5720     0.0600  1268.9060   -62.3450     8.4120     8.1050     7.5030  1171.5699
 1568.0000    95.4110     0.2880    12.0200     2.5630     0.0430  1269.2970   -62.3380     8.4580     8.1410     7.4850  1171.7700
 1568.5000    96.4890     0.2900    12.0320     2.5550     0.0250  1269.6880   -62.3310     8.5040     8.1770     7.5450  1171.9709
 1569.0000    98.9340     0.2900    12.0460     2.5460     0.0120  1270.0780   -62.3230     8.6960     8.2130     7.6240  1172.1710
 1569.5000    99.8380     0.2890    12.0600     2.5390     0.0050  1270.4690   -62.3160     9.0370     8.2490     7.6660  1172.3450
 1570.0000    98.7260     0.2870    12.0740     2.5380     0.0030  1270.8590   -62.3090     9.3790     8.2860     7.7460  1172.4041
 1570.5000    96.6130     0.2910    12.0880     2.5370     0.0080  1271.2500   -62.3010     9.6030     8.3220     7.8380  1172.4670
 1571.0000    93.0740     0.3020    12.0980     2.5360     0.0170  1271.6410   -62.2940     9.2720     8.3580     7.8380  1172.5300
 1571.5000    93.4240     0.3090    12.0980     2.5350     0.0240  1272.0310   -62.2870     9.0290     8.3940     7.8380  1172.5930
 1572.0000    95.5110     0.3100    12.0980     2.5410     0.0320  1272.4220   -62.2800     8.8700     8.4300     7.8380  1172.6560
 1572.5000    98.0650     0.3070    12.0980     2.5480     0.0400  1272.8130   -62.2720     8.6760     8.4660     7.8850  1172.7190
 1573.0000    97.0940     0.3020    12.0980     2.5570     0.0450  1273.2030   -62.2650     8.7200     8.5020     7.9470  1172.7820
 1573.5000    94.6580     0.2970    12.0980     2.5540     0.0450  1273.5940   -62.2580     8.9420     8.5380     8.0080  1172.8459
 1574.0000    94.1240     0.2910    12.0980     2.5380     0.0310  1273.9840   -62.2500     9.3700     8.5740     8.0580  1172.9091
 1574.5000    94.0820     0.2880    12.0980     2.5130     0.0070  1274.3750   -62.2430     9.5310     8.5960     8.2080  1172.9720
 1575.0000    94.6410     0.2900    12.0980     2.5130     0.0170  1274.7660   -62.2360     9.6920     8.5820     8.1100  1173.0350
 1575.5000    95.7640     0.2920    12.1090     2.5380     0.0620  1275.1560   -62.2290     9.6110     8.5650     7.9860  1173.0980
 1576.0000    96.6580     0.2990    12.1230     2.5600     0.1270  1275.5470   -62.2210     9.5300     8.5480     7.8620  1173.1610
 1576.5000    97.8030     0.3060    12.1370     2.5320     0.1200  1275.9380   -62.2140     9.2520     8.5300     7.7380  1173.2240
 1577.0000    97.4090     0.3090    12.1510     2.4940     0.0760  1276.3280   -62.2070     8.9300     8.4790     7.6140  1173.2870
 1577.5000    95.8480     0.3100    12.1660     2.5290     0.0890  1276.7190   -62.1990     8.6080     8.3060     7.4900  1173.3510
 1578.0000    94.5130     0.3060    12.1690     2.6210     0.1280  1277.1090   -62.1920     8.3610     8.1330     7.3660  1173.4139
 1578.5000    93.2510     0.3150    12.0870     2.6130     0.1630  1277.5000   -62.1850     8.3610     7.9600     7.2420  1173.4771
 1579.0000    93.0390     0.3280    12.0750     2.5450     0.1250  1277.8910   -62.2040     8.2550     7.7870     7.1190  1173.5400
 1579.5000    93.9520     0.3410    12.2600     2.4920     0.0590  1278.2810   -62.2560     8.1290     7.6140     6.9520  1173.6030
 1580.0000    96.1130     0.3610    12.4140     2.4540     0.0230  1278.6720   -62.3080     8.0030     7.5540     7.0210  1173.6660
 1580.5000    98.2870     0.3560    12.4320     2.4890     0.0090  1279.0630   -62.3600     7.9110     7.5540     7.1710  1173.7290
 1581.0000    98.8270     0.3430    12.3860     2.5410     0.0380  1279.4530   -62.4120     8.1670     7.5540     7.2800  1173.7930
 1581.5000    96.6920     0.3310    12.3510     2.5880     0.0820  1279.8440   -62.4640     8.3700     7.5540     7.2580  1173.8560
 1582.0000    94.1970     0.3160    12.3360     2.6140     0.1370  1280.2340   -62.5160     8.5730     7.5540     7.2130  1173.9189
 1582.5000    94.1540     0.3160    12.3910     2.5590     0.1600  1280.6250   -62.5680     8.3870     7.5540     7.2130  1173.9821
 1583.0000    94.0960     0.3250    12.4450     2.5000     0.1030  1281.0160   -62.6200     8.1500     7.5540     7.2130  1174.0450
 1583.5000    94.1400     0.3360    12.4950     2.4730     0.0520  1281.4060   -62.6720     7.9840     7.5540     7.2800  1174.1080
 1584.0000    94.1150     0.3270    12.5550     2.4800     0.0200  1281.7970   -62.7240     8.0790     7.5540     7.2480  1174.1710
 1584.5000    94.1220     0.3140    12.5240     2.5070     0.0330  1282.1880   -62.7760     8.1850     7.5540     7.2030  1174.2340
