~VERSION INFORMATION
 VERS.                2.0:   CWLS LOG ASCII STANDARD - VERSION 2.0
 WRAP.                 NO:   ONE LINE PER DEPTH STEP
~WELL INFORMATION
#MNEM.UNIT      DATA TYPE    INFORMATION
#----------   ------------   ------------------------------
 STRT.F          728.0000:   START DEPTH
 STOP.F         3296.0000:   STOP DEPTH
 STEP.F            0.5000:   STEP LENGTH
 NULL.          -999.2500:   NO VALUE
 COMP.    FENIX & SCISSON:   COMPANY
 WELL. FENIX TX "AX" #55-34:   WELL
 FLD . N. P. R. - WILDCAT:   FIELD
 LOC .      S34 T39N R78W:   LOCATION
 CNTY.            NATRONA:   COUNTY
 STAT.            WYOMING:   STATE
 CTRY. UNITED STATES OF AMERICA:   COUNTRY
 SRVC.       SCHLUMBERGER:   SERVICE COMPANY
 DATE.        22-JUL-1981:   LOGDATE
 API .     49025108770000:   API NUMBER
~CURVE INFORMATION
#MNEM.UNIT       API CODE    CURVE DESCRIPTION
#----------   ------------   ------------------------------
 DEPT.F                  :   
 TENS.LBS    60 635 01 00:   TENSION FROM SONIC LOG
 DT  .US/F   60 520 00 00:   DELTA TIME
 RHOB.G/C3   45 350 01 00:   BULK DENSITY
 TEND.LBS    45 635 01 00:   TENSION FROM DENSITY LOG
 CORR.G/C3   45 356 01 00:   DENSITY CORRECTION
 CALD.IN     45 280 60 00:   CALIPER FROM DENSITY LOG
 NPHI.DEC    42 890 03 00:   NEUTRON POROSITY SANDSTONE
 TENR.LBS    07 635 01 00:   TENSION FROM RESISTIVITY
 SPR .MV     07 010 01 00:   SPONTANEOUS POTENTIAL
 GRR .GAPI   07 310 01 00:   GAMMA RAY FROM RESISTIVITY
 SFL .OHMM   07 220 01 00:   SHALLOW FOCUSED LOG RESISTIVITY
 ILM .OHMM   07 120 44 00:   INDUCTION LOG MEDIUM RESISTIVITY
 ILD .OHMM   07 120 46 00:   DEEP INDUCTION RESISTIVITY
~PARAMETER INFORMATION
#MNEM.UNIT          VALUE    DESCRIPTION
#----------   ------------   ------------------------------
 EKB .F         5092.0000:   Kelly bushing
 EGL .F         5082.0000:   Ground level
 EDF .F            0.0000:   Drilling floor
 TD  .F         3170.0000:   Total depth
 DATE.        22-JUL-1981:   Date logged
 CLNT.            A2DTECH:   Client Code
 SL  . 2012' FSL & 2774' FWL:   Surface Location
 PD  .                 GL:   Permanent Datum
 EPD .F              5082:   Elevation Permanent Datum
 LMF .                 KB:   Log Measured From
 DMF .                 KB:   Drilling Measured From
 DAPD.F                10:   Feet Above Permanent Datum
 DD  .F              3170:   Depth driller
 DL  .F              3110:   Depth logger
 BLI .F              3104:   Bottom log interval
 TLI .F               753:   Top log interval
 CS1 .IN            9.625:   Casing size
 CBD1.      9.625" @ 751':   Casing driller 1
 CBL1.F               753:   Casing logger 1
 BS1 .IN            7.875:   Bit size
 BSD1.F              3170:   Depth drilled with bit1
 DFT .                FGM:   Type fluid in hole
 DFD .                  9:   Density
 DFV .                  9:   Viscosity
 DFPH.                9.8:   pH
 DFL .                8.6:   Fluid loss
 MSS .           MUD/TANK:   Source of sample
 RMS .OHMM           1.72:   Rm
 MST .F                72:   Rm Meas. temp.
 RMF .OHMM           1.17:   Rmf
 MFST.F                70:   Rmf Meas. temp.
 MFSS.               MEAS:   Source Rmf.
 RMB .OHMM           0.90:   Rm. at BHT
 BHT .F               144:   BHT.
 TCS .HRS            1215:   Time Circ. stopped
 TLAB.HRS            0400:   Time logger at bottom
 MRT .F               144:   Maximum recorded temp.
 LUN .               8035:   Logging unit number
 LUL .               CSPR:   Logging unit location
 ENGI.            PURPICH:   Recorded By
 WITN.           R. SCOTT:   Witnessed by
 ORIG.           5" PRINT:   Origin of data
 UWI .     49025108770000:   Unique Well ID
 DICO. A2D TECHNOLOGIES, INC.:   Digitizing Company
~OTHER INFORMATION
~A   DEPT     TENS         DT         RHOB      TEND      CORR       CALD         NPHI     TENR        SPR         GRR       SFL        ILM        ILD   
# ...
 3068.0000  1967.4780    89.2950     2.4800  1293.5200     0.0560     7.4780     0.2920   727.4320  -999.2500   148.7840     4.3020     3.7720     3.8960
 3068.5000  1956.1560    88.5810     2.4790  1294.0590     0.0550     7.4680     0.2900   726.9200  -999.2500   148.8050     4.4040     3.8440     4.0620
 3069.0000  1944.8350    87.6470     2.4810  1294.5980     0.0540     7.5180     0.2910   726.4080  -999.2500   148.8280     4.4890     3.9170     4.2240
 3069.5000  1943.6050    86.7130     2.4830  1295.1370     0.0590     7.5790     0.2920   725.8960  -999.2500   148.8500     4.5730     3.9980     4.2630
 3070.0000  1943.6050    85.8710     2.4850  1295.6760     0.0610     7.6420     0.2930   725.3840  -999.2500   148.8720     4.6580     3.9610     4.2110
 3070.5000  1943.6050    85.7700     2.4890  1296.2159     0.0560     7.7020     0.2940   724.8720  -999.2500   148.8950     4.7430     3.9190     4.1630
 3071.0000  1944.5720    86.0170     2.4930  1296.7550     0.0510     7.7650     0.2870   724.3600  -999.2500   148.9170     4.8030     3.8770     4.1140
 3071.5000  1951.1910    86.3650     2.4910  1297.2939     0.0450     7.7870     0.2810   723.8480  -999.2500   148.9390     4.8030     3.8350     4.0660
 3072.0000  1957.8090    86.7130     2.4860  1297.8330     0.0400     7.7750     0.2750   723.3360  -999.2500   148.9620     4.7590     3.7840     4.0180
 3072.5000  1964.4280    87.0800     2.4790  1298.3719     0.0350     7.7670     0.2780   722.8240  -999.2500   148.9840     4.5460     3.8160     3.9700
 3073.0000  1971.0470    87.0800     2.4730  1298.9110     0.0330     7.7580     0.2850   722.3120  -999.2500   149.0060     4.0720     3.8570     3.9250
 3073.5000  1977.6650    85.6780     2.4750  1299.4500     0.0380     7.7490     0.2920   721.8000  -999.2500   149.0280     4.3860     3.8990     3.9650
 3074.0000  1984.2841    83.5270     2.4920  1299.9890     0.0580     7.7400     0.3000   721.2880  -999.2500   149.0510     4.7410     3.9610     3.9920
 3074.5000  1990.9020    82.3190     2.5180  1300.5280     0.0760     7.7310     0.3000   720.7750  -999.2500   149.0730     5.0960     3.9610     4.0350
 3075.0000  1997.5210    82.6550     2.5450  1301.0670     0.1020     7.7210     0.2990   720.2630  -999.2500   149.0950     5.2160     3.9410     4.0330
 3075.5000  2004.1400    82.7510     2.5310  1301.6060     0.0940     7.7120     0.2990   719.7510  -999.2500   149.1180     5.1610     3.9180     4.0260
 3076.0000  2010.7581    82.1450     2.5020  1302.1460     0.0720     7.7090     0.2990   719.2390  -999.2500   149.1400     4.7850     3.8940     4.0200
 3076.5000  2017.3770    82.8480     2.4820  1302.6851     0.0590     7.7470     0.2990   718.7270  -999.2500   149.1620     4.5040     3.8710     4.0130
 3077.0000  2024.1689    83.6800     2.4860  1303.2240     0.0940     7.7840     0.2990   718.2150  -999.2500   149.1840     4.5040     3.8470     4.0070
 3077.5000  1983.8870    84.0580     2.4810  1303.7629     0.1270     7.7820     0.2990   717.7030  -999.2500   149.2070     4.4750     3.8190     3.9970
 3078.0000  1966.0620    83.2230     2.4680  1304.3020     0.1440     7.7040     0.3000   717.1910  -999.2500   149.2290     4.3010     3.8540     4.0490
 3078.5000  1939.1740    81.4660     2.4570  1304.8409     0.1290     7.5730     0.3020   716.6790  -999.2500   149.2510     4.1090     3.9220     4.1710
 3079.0000  1923.4640    79.7090     2.4550  1305.3800     0.1200     7.4350     0.3030   716.1670  -999.2500   149.2740     4.3660     3.9980     4.2940
 3079.5000  1903.3230    78.8220     2.4790  1305.9189     0.1200     7.2970     0.3040   715.6550  -999.2500   149.2960     4.8620     4.0720     4.4170
 3080.0000  1903.3230    79.2040     2.5030  1306.4580     0.1340     7.1410     0.3060   715.1430  -999.2500   149.3180     5.3570     4.0720     4.4630
 3080.5000  1903.3230    80.2800     2.5350  1306.9969     0.1460     6.9810     0.3070   714.6310  -999.2500   149.3400     5.8520     4.0160     4.2780
 3081.0000  1906.8040    81.3550     2.5290  1307.5360     0.1490     6.8110     0.3080   714.1190  -999.2500   149.3630     6.3250     3.9770     4.1490
 3081.5000  1910.8630    82.2460     2.5130  1308.0760     0.1470     6.7300     0.3090   713.6070  -999.2500   149.3850     5.7370     3.9250     4.0720
 3082.0000  1914.9210    82.3460     2.5060  1308.6150     0.1460     6.6970     0.3100   713.0940  -999.2500   149.4070     4.7480     3.9250     4.0720
 3082.5000  1918.9800    81.3540     2.5040  1309.1541     0.1450     6.6910     0.3100   712.5820  -999.2500   149.4300     3.7590     3.9610     4.2730
 3083.0000  1923.0389    79.8820     2.4940  1309.6930     0.1430     6.6790     0.3100   712.0700  -999.2500   149.4520     3.4840     4.0800     4.4990
 3083.5000  1927.0970    78.4110     2.4930  1310.2321     0.1430     6.6700     0.3100   711.5580  -999.2500   149.4770     5.1430     4.3240     4.7250
 3084.0000  1931.1560    77.1100     2.5000  1310.7710     0.1500     6.6590     0.3100   711.0460  -999.2500   149.4860     6.7440     4.5680     4.9510
 3084.5000  1935.2140    77.5260     2.5110  1311.3101     0.1590     6.6490     0.3100   710.5340  -999.2500   149.2180     6.5940     4.8130     5.1770
 3085.0000  1939.2729    77.4850     2.5150  1311.8490     0.1640     6.6400     0.3100   710.0220  -999.2500  -999.2500     6.2100     5.0570     5.4030
 3085.5000  1943.3320    76.5440     2.5100  1312.3879     0.1640     6.6270     0.3100   709.5100  -999.2500  -999.2500     6.4330     5.3010     5.6290
 3086.0000  1947.3900    75.5990     2.5090  1312.9270     0.1690     6.6220     0.3090   708.9980  -999.2500  -999.2500     6.7820     5.5450     5.8550
 3086.5000  1951.4490    76.0450     2.5120  1313.4659     0.1770     6.6270     0.3090   708.4860  -999.2500  -999.2500     7.1310     5.7900     6.0410
 3087.0000  1955.5070    76.8080     2.5110  1314.0050     0.1850     6.5800     0.3090   707.9740  -999.2500  -999.2500     7.4810     6.0410     6.2100
 3087.5000  1959.5660    76.7570     2.5010  1314.5450     0.1670     6.5630     0.3100   707.4620  -999.2500  -999.2500     7.5980     6.0970     6.3250
 3088.0000  1963.6250    76.8150     2.4310  1315.0840     0.1250     6.2560     0.3130   706.9500  -999.2500  -999.2500     7.3800     5.9310     6.3250
 3088.5000  1967.6830    77.2450     2.3040  1315.6230     0.0850     6.0420     0.3260   706.4380  -999.2500  -999.2500     7.1810     5.9550     6.3250
 3089.0000  1971.7419    77.5130     2.1740  1315.0520     0.0730  -999.2500     0.3390   705.9260  -999.2500  -999.2500     6.9820     5.9860     6.2670
 3089.5000  1975.8000    77.5130     2.0740  1313.9840     0.0910  -999.2500     0.3510   705.4130  -999.2500  -999.2500     6.8060     5.9860     6.1610
 3090.0000  1979.8590    77.5130     2.0530  1312.9170     0.1150  -999.2500     0.3600   704.9010  -999.2500  -999.2500     6.8060     5.7700     6.0040
 3090.5000  1983.8870    78.2960     2.0520  1311.8490     0.1190  -999.2500     0.3600   704.3890  -999.2500  -999.2500     6.9890     5.6050     5.8460
 3091.0000  1983.8870    79.3170     2.0500  1310.7820     0.1190  -999.2500     0.3600   703.8770  -999.2500  -999.2500     7.0610     5.4400     5.6880
 3091.5000  1963.7460    80.3390     2.0500  1309.7140     0.1190  -999.2500     0.3600   703.3650  -999.2500  -999.2500     6.7300     5.2750     5.5300
 3092.0000  1963.7460    81.3610     2.0500  1308.6460     0.1200  -999.2500     0.3600   702.8530  -999.2500  -999.2500     6.1170     5.1100     5.3730
 3092.5000  1943.6050    81.6410     2.0500  1307.5790     0.1200  -999.2500     0.3600   702.3410  -999.2500  -999.2500     5.5040     4.9450     5.2150
 3093.0000  1943.6050    81.1250     2.0500  1306.5110     0.1200  -999.2500     0.3600   701.8290  -999.2500  -999.2500     5.0280     4.8470     5.0750
 3093.5000  1943.6050    79.5750     2.0500  1305.4430     0.1210  -999.2500     0.3600   701.3170  -999.2500  -999.2500     4.9820     4.9000     5.0750
