~VERSION INFORMATION
 VERS.                2.0:   CWLS LOG ASCII STANDARD - VERSION 2.0
 WRAP.                 NO:   ONE LINE PER DEPTH STEP
~WELL INFORMATION
#MNEM.UNIT      DATA TYPE    INFORMATION
#----------   ------------   ------------------------------
 STRT.F            4.5000:   START DEPTH
 STOP.F         3216.0000:   STOP DEPTH
 STEP.F            0.5000:   STEP LENGTH
 NULL.          -999.2500:   NO VALUE
 COMP. LAWRENCE ALLISON & ASSCOCIATES:   COMPANY
 WELL. LAWRENCE ALLISON #38-34:   WELL
 FLD . NAVAL PET. RES. NO. 3:   FIELD
 LOC .      S34 T39N R78W:   LOCATION
 CNTY.            NATRONA:   COUNTY
 STAT.            WYOMING:   STATE
 CTRY. UNITED STATES OF AMERICA:   COUNTRY
 SRVC.      DRESSER ATLAS:   SERVICE COMPANY
 DATE.        12-OCT-1986:   LOGDATE
 API .     49025111120000:   API NUMBER
~CURVE INFORMATION
#MNEM.UNIT       API CODE    CURVE DESCRIPTION
#----------   ------------   ------------------------------
 DEPT.F                  :   
 CALD.IN     45 280 60 00:   CALIPER FROM DENSITY LOG
 RHOB.G/C3   45 350 01 00:   BULK DENSITY
 CORR.G/C3   45 356 01 00:   DENSITY CORRECTION
 CNC .DEC    42 890 01 00:   NEUTRON POROSITY
 SPR .MV     07 010 01 00:   SPONTANEOUS POTENTIAL
 TENR.LBS    06 635 01 00:   TENSION FROM RESISTIVITY
 GRR .GAPI   07 310 01 00:   GAMMA RAY FROM RESISTIVITY
 ILD .OHMM   07 120 46 00:   DEEP INDUCTION RESISTIVITY
 ILM .OHMM   07 120 44 00:   INDUCTION LOG MEDIUM RESISTIVITY
 SFL .OHMM   07 220 01 00:   SHALLOW FOCUSED LOG RESISITIVITY
~PARAMETER INFORMATION
#MNEM.UNIT          VALUE    DESCRIPTION
#----------   ------------   ------------------------------
 EKB .F         5229.5000:   Kelly bushing
 EGL .F         5217.7000:   Ground level
 TD  .F         3200.0000:   Total depth
 CLNT.            A2DTECH:   Client Code
 SL  . 1338' FWL & 132' FSL:   Surface Location
 PD  .                 GL:   Permanent Datum
 EPD .F            5217.7:   Elevation Permanent Datum
 LMF .                 KB:   Log Measured From
 DMF .                 KB:   Drilling Measured From
 DAPD.F              11.8:   Feet Above Permanent Datum
 DATE.        12-OCT-1986:   Date Logged [DD-MMM-YYYY]
 DD  .F              3200:   Depth driller
 DL  .F              3200:   Depth logger
 BLI .F              3194:   Bottom log interval
 TLI .F                 0:   Top log interval
 CS1 .IN            8.625:   Casing size
 CBD1.      8.625" @ 668':   Casing driller 1
 CBL1.F               668:   Casing logger 1
 BS1 .IN            7.875:   Bit size
 BSD1.F              3200:   Depth drilled with bit1
 DFT .        KCL POLYMER:   Type fluid in hole
 DFD .                  9:   Density
 DFV .                 36:   Viscosity
 DFPH.                9.5:   pH
 MSS .           FLOWLINE:   Source of sample
 RMS .OHMM           0.25:   Rm
 MST .F                70:   Rm Meas. temp.
 RMF .OHMM          0.191:   Rmf
 MFST.F                70:   Rmf Meas. temp.
 MFSS.               MEAS:   Source Rmf.
 RMB .OHMM          0.132:   Rm. at BHT
 BHT .F               132:   BHT.
 TCS .HRS               3:   Time Circ. stopped
 MRT .F               132:   Maximum recorded temp.
 LUN .               6274:   Logging unit number
 ENGI.             RAUTIO:   Recorded By
 ORIG.   1" 2.5" 5" PRINT:   Origin of data
 UWI .     49025111120000:   Unique Well ID
 DICO. A2D TECHNOLOGIES, INC.:   Digitizing Company
 LUL .               CLIT:   Logging unit location
 RMC .OHMM           0.31:   Rmc
 MCST.F                70:   Rmc Meas. temp.
 MCSS.               CALC:   Source Rmc.
~OTHER INFORMATION
~A    DEPT    CALD       RHOB       CORR        CNC        SPR       TENR        GRR        ILD        ILM        SFL   
# ...
  674.5000  -999.2500  -999.2500  -999.2500  -999.2500   -77.9303   -43.4542    93.5040     8.7132     4.3889     4.9981
  675.0000  -999.2500  -999.2500  -999.2500  -999.2500   -79.8859   -43.5549    94.7457    16.4603     5.3518     4.6566
  675.5000  -999.2500  -999.2500  -999.2500  -999.2500   -81.8646   -43.6556    98.7116    18.6560     6.0637     4.4031
  676.0000  -999.2500  -999.2500  -999.2500  -999.2500   -83.8166   -43.7563   100.4800    14.5230     6.2328     4.2808
  676.5000  -999.2500  -999.2500  -999.2500  -999.2500   -85.8172   -43.8570   101.0743     6.1296     6.3180     4.7833
  677.0000  -999.2500  -999.2500  -999.2500  -999.2500   -87.9227   -43.9577    96.2438     5.0448     6.3158     5.3484
  677.5000  -999.2500  -999.2500  -999.2500  -999.2500   -89.0073   -44.0584    96.8365     5.9351     6.4170     5.8495
  678.0000  -999.2500  -999.2500  -999.2500  -999.2500   -88.8780   -44.1591    98.6341     6.6459     6.7228     6.7847
  678.5000  -999.2500  -999.2500  -999.2500  -999.2500   -88.2398   -44.2598    99.8293     6.9473     7.0882     7.6701
  679.0000  -999.2500  -999.2500  -999.2500  -999.2500   -87.4475   -44.3605   100.4220     6.8513     7.3980     8.3196
  679.5000  -999.2500  -999.2500  -999.2500  -999.2500   -86.6239   -44.4612    99.1199     6.9473     7.5095     8.4442
  680.0000  -999.2500  -999.2500  -999.2500  -999.2500   -85.8265   -44.5619    97.1218     7.1433     7.5521     8.2092
  680.5000  -999.2500  -999.2500  -999.2500  -999.2500   -85.0242   -44.6626    95.2108     7.5521     7.5492     7.9813
  681.0000  -999.2500  -999.2500  -999.2500  -999.2500   -84.2226   -44.7633    93.1526     8.0962     7.7597     7.8684
  681.5000  -999.2500  -999.2500  -999.2500  -999.2500   -83.3724   -44.8640    97.2522     8.6795     7.8658     7.6499
  682.0000  -999.2500  -999.2500  -999.2500  -999.2500   -82.5911   -44.9648   101.0040     9.0494     8.2059     7.5416
  682.5000  -999.2500  -999.2500  -999.2500  -999.2500   -81.9953   -45.0655   100.3495     9.0494     8.5646     7.5390
  683.0000  -999.2500  -999.2500  -999.2500  -999.2500   -81.3074   -45.1662    97.9302     9.0832     8.6617     7.5364
  683.5000  -999.2500  -999.2500  -999.2500  -999.2500   -81.5848   -45.2669    97.3182     9.1762     8.6583     7.5786
  684.0000  -999.2500  -999.2500  -999.2500  -999.2500   -81.9282   -45.3676    96.7061     9.3047     8.7119     7.8015
  684.5000  -999.2500  -999.2500  -999.2500  -999.2500   -82.3037   -45.4683    97.9012     9.5100     8.8432     8.4144
  685.0000  -999.2500  -999.2500  -999.2500  -999.2500   -82.6557   -45.5690   105.1205     9.7013     9.1443     8.8930
  685.5000  -999.2500  -999.2500  -999.2500  -999.2500   -83.0137   -45.6697   107.5205     9.8372     9.3987     9.2690
  686.0000  -999.2500  -999.2500  -999.2500  -999.2500   -83.3796   -45.7704   106.9084    10.1148     9.5272     9.0116
  686.5000  -999.2500  -999.2500  -999.2500  -999.2500   -83.6771   -45.8711   107.6406    10.1148     9.5241     8.3945
  687.0000  -999.2500  -999.2500  -999.2500  -999.2500   -83.8678   -45.9718   107.3026    10.0963     9.2510     8.0569
  687.5000  -999.2500  -999.2500  -999.2500  -999.2500   -84.0381   -46.0725   105.2041     9.7013     8.8575     8.3495
  688.0000  -999.2500  -999.2500  -999.2500  -999.2500   -84.2177   -46.1732   104.1366     9.5320     8.6313     8.7528
  688.5000  -999.2500  -999.2500  -999.2500  -999.2500   -84.3515   -46.2739   105.3781     9.2576     8.3915     8.7492
  689.0000  -999.2500  -999.2500  -999.2500  -999.2500   -84.9225   -46.3746   106.8456     8.9335     8.2727     8.5056
  689.5000  -999.2500  -999.2500  -999.2500  -999.2500   -86.1194   -46.4753   107.4398     8.6115     8.2698     8.3853
  690.0000  -999.2500  -999.2500  -999.2500  -999.2500   -87.1700   -46.5760   108.6335     8.2096     8.2665     8.0398
  690.5000  -999.2500  -999.2500  -999.2500  -999.2500   -88.3901   -46.6767   109.8293     8.0962     8.2637     7.9261
  691.0000  -999.2500  -999.2500  -999.2500  -999.2500   -87.5674   -46.7774   109.8595     7.8740     7.9233     7.8140
  691.5000  -999.2500  -999.2500  -999.2500  -999.2500   -86.5041   -46.8781   109.1799     7.8740     7.8112     7.7033
  692.0000  -999.2500  -999.2500  -999.2500  -999.2500   -85.3461   -46.9789   104.2170     7.8740     7.5943     7.5943
  692.5000  -999.2500  -999.2500  -999.2500  -999.2500   -84.2806   -47.0796   102.5602     8.0030     7.7160     7.6315
  693.0000  -999.2500  -999.2500  -999.2500  -999.2500   -83.3273   -47.1803   102.5502     8.0962     7.8035     7.8031
  693.5000  -999.2500  -999.2500  -999.2500  -999.2500   -83.6170   -47.2810   100.9471     8.2096     7.8004     7.9097
  694.0000  -999.2500  -999.2500  -999.2500  -999.2500   -83.8946   -47.3817   100.1224     8.2096     7.7977     7.9066
  694.5000  -999.2500  -999.2500  -999.2500  -999.2500   -84.2230   -47.4824   106.0811     8.3246     7.6271     7.9039
  695.0000  -999.2500  -999.2500  -999.2500  -999.2500   -84.5272   -47.5831   110.4752     8.5595     7.4733     7.9013
  695.5000  -999.2500  -999.2500  -999.2500  -999.2500   -84.8360   -47.6838   113.5642     8.5595     7.4708     7.8987
  696.0000  -999.2500  -999.2500  -999.2500  -999.2500   -85.1477   -47.7804   110.3199     8.5595     7.4684     8.0068
  696.5000  -999.2500  -999.2500  -999.2500  -999.2500   -85.4591   -47.3486   107.2982     8.4413     7.6766     8.0038
  697.0000  -999.2500  -999.2500  -999.2500  -999.2500   -85.7651   -46.9338   104.2765     8.3170     7.7815     8.0010
  697.5000  -999.2500  -999.2500  -999.2500  -999.2500   -86.0801   -46.5190   104.2001     8.2096     7.7787     7.9982
  698.0000  -999.2500  -999.2500  -999.2500  -999.2500   -86.2926   -46.1042   106.6801     8.0962     7.7760     8.1718
  698.5000  -999.2500  -999.2500  -999.2500  -999.2500   -86.5105   -45.6894   106.4760     8.0962     7.8133     8.2182
  699.0000  -999.2500  -999.2500  -999.2500  -999.2500   -86.7195   -45.2747   104.2369     8.0962     7.8795     8.3301
  699.5000  -999.2500  -999.2500  -999.2500  -999.2500   -86.9393   -44.8599   105.1373     8.0962     7.8768     8.3274
  700.0000  -999.2500  -999.2500  -999.2500  -999.2500   -87.1473   -44.4451   107.8313     8.2096     7.8743     8.3246
  700.5000  -999.2500  -999.2500  -999.2500  -999.2500   -87.3574   -44.0303   109.5511     8.2096     7.8726     8.0933
  701.0000  -999.2500  -999.2500  -999.2500  -999.2500   -87.6093   -43.6155   106.0177     8.2096     7.8709     7.8729
  701.5000  -999.2500  -999.2500  -999.2500  -999.2500   -87.4679   -43.2007   105.8985     8.2096     7.8691     7.8724
  702.0000  -999.2500  -999.2500  -999.2500  -999.2500   -86.7870   -42.7860   109.6263     8.2173     7.8102     7.8718
  702.5000  -999.2500  -999.2500  -999.2500  -999.2500   -86.1519   -42.3712   107.2137     8.4610     7.7571     7.8713
  703.0000  -999.2500  -999.2500  -999.2500  -999.2500   -85.4865   -41.9564   104.1987     8.7119     7.8639     7.8707
  703.5000  -999.2500  -999.2500  -999.2500  -999.2500   -84.8698   -41.5416   101.7861     9.0959     7.8623     8.0183
  704.0000  -999.2500  -999.2500  -999.2500  -999.2500   -84.1325   -41.1268   106.6506     9.3047     7.9710     8.2495
  704.5000  -999.2500  -999.2500  -999.2500  -999.2500   -84.2048   -40.7121   106.4950     9.3612     8.0810     8.4215
  705.0000  -999.2500  -999.2500  -999.2500  -999.2500   -84.3455   -40.2973   103.5845     9.1762     8.0792     8.7321
  705.5000  -999.2500  -999.2500  -999.2500  -999.2500   -84.5240   -39.8825   105.4971     8.9244     8.1908     8.8520
  706.0000  -999.2500  -999.2500  -999.2500  -999.2500   -84.6770   -39.4677   105.9883     8.8011     8.0759     8.6027
  706.5000  -999.2500  -999.2500  -999.2500  -999.2500   -84.8312   -39.0529   105.3825     8.6559     7.9627     8.4335
  707.0000  -999.2500  -999.2500  -999.2500  -999.2500   -85.0068   -38.6381   104.7771     8.6541     7.8510     8.3164
  707.5000  -999.2500  -999.2500  -999.2500  -999.2500   -85.1513   -38.2234   104.7741     8.5916     7.8431     8.3159
