~VERSION INFORMATION
 VERS.                2.0:   CWLS LOG ASCII STANDARD - VERSION 2.0
 WRAP.                 NO:   ONE LINE PER DEPTH STEP
~WELL INFORMATION
#MNEM.UNIT      DATA TYPE    INFORMATION
#----------   ------------   ------------------------------
 STRT.F            0.0000:   START DEPTH
 STOP.F         3358.0000:   STOP DEPTH
 STEP.F            0.5000:   STEP LENGTH
 NULL.          -999.2500:   NO VALUE
 COMP. LAWRENCE ALLISON & ASSOC.:   COMPANY
 WELL. LAWRENCE NPR 3 "X" #14-11:   WELL
 FLD .                NPR:   FIELD
 LOC .      S11 T38N R78W:   LOCATION
 CNTY.            NATRONA:   COUNTY
 STAT.            WYOMING:   STATE
 CTRY. UNITED STATES OF AMERICA:   COUNTRY
 SRVC.      DRESSER ATLAS:   SERVICE COMPANY
 DATE.        25-SEP-1985:   LOGDATE
 API .     49025110470000:   API NUMBER
~CURVE INFORMATION
#MNEM.UNIT       API CODE    CURVE DESCRIPTION
#----------   ------------   ------------------------------
 DEPT.F                  :   
 TENR.LBS    07 635 01 00:   TENSION
 SPR .MV     07 010 01 00:   SPONTANEOUS POTENTIAL
 SFL .OHMM   07 220 01 00:   SHALLOW FOCUSED LOG RESISTIVITY
 ILD .OHMM   07 120 46 00:   DEEP INDUCTION RESISTIVITY
 ILM .OHMM   07 120 44 00:   INDUCTION LOG MEDIUM RESISTIVITY
 TENS.LBS    60 635 01 00:   TENSION FROM SONIC LOG
 DT  .US/F   60 520 00 00:   DELTA TIME
 TEND.LBS    45 635 01 00:   TENSION FROM DENSITY LOG
 RHOB.G/C3   45 350 01 00:   BULK DENSITY
 CORR.G/C3   45 356 01 00:   DENSITY CORRECTION
 NPHI.DEC    42 890 01 00:   NEUTRON POROSITY LIMESTONE
 GRR .GAPI   07 310 01 00:   GAMMA RAY FROM RESISTIVITY
~PARAMETER INFORMATION
#MNEM.UNIT          VALUE    DESCRIPTION
#----------   ------------   ------------------------------
 EKB .F         5184.0000:   Kelly bushing
 EGL .F         5173.0000:   Ground level
 EDF .F            0.0000:   Drilling floor
 TD  .F         3353.0000:   Total depth
 DATE.        25-SEP-1985:   Date logged
 CLNT.            A2DTECH:   Client Code
 SL  . 473' FWL & 2360' FNL:   Surface Location
 PD  .                 GL:   Permanent Datum
 EPD .F              5173:   Elevation Permanent Datum
 LMF .                 KB:   Log Measured From
 DMF .                 KB:   Drilling Measured From
 DAPD.F                11:   Feet Above Permanent Datum
 DD  .F              3353:   Depth driller
 DL  .F              3346:   Depth logger
 BLI .F              3344:   Bottom log interval
 CS1 .IN            8.625:   Casing size
 CBD1.      8.625" @ 586':   Casing driller 1
 CBL1.F               585:   Casing logger 1
 BS1 .IN            7.875:   Bit size
 BSD1.F              3353:   Depth drilled with bit1
 DFT .     GEL/KCL/STAFLO:   Type fluid in hole
 DFD .                8.9:   Density
 DFV .                 39:   Viscosity
 DFPH.                  8:   pH
 DFL .                8.9:   Fluid loss
 MSS .           FLOWLINE:   Source of sample
 RMS .OHMM            .45:   Rm
 MST .F                80:   Rm Meas. temp.
 RMF .OHMM            .33:   Rmf
 MFST.F                80:   Rmf Meas. temp.
 RMC .OHMM            .56:   Rmc
 MCST.F                80:   Rmc Meas. temp.
 MFSS.               CALC:   Source Rmf.
 MCSS.               CALC:   Source Rmc.
 RMB .OHMM            .27:   Rm. at BHT
 BHT .F               130:   BHT.
 TCS .HRS               3:   Time Circ. stopped
 MRT .F               135:   Maximum recorded temp.
 LUN .               6274:   Logging unit number
 LUL .               GLTE:   Logging unit location
 ENGI.               MACK:   Recorded By
 WITN.             STRONG:   Witnessed by
 ORIG.           5" PRINT:   Origin of data
 UWI .     49025110470000:   Unique Well ID
 DICO. A2D TECHNOLOGIES, INC.:   Digitizing Company
~OTHER INFORMATION
~A    DEPT    TENR        SPR        SFL        ILD        ILM       TENS         DT       TEND       RHOB       CORR       NPHI         GRR  
# ...
 1316.0000   -61.6880   -58.3000     7.0950     6.9680     6.8420  -999.2500  -999.2500  -999.2500  -999.2500  -999.2500  -999.2500    44.6490
 1316.5000   -61.9020   -58.5340     7.1640     7.0220     6.8940  -999.2500  -999.2500  -999.2500  -999.2500  -999.2500  -999.2500    45.1280
 1317.0000   -62.1150   -58.4930     7.2330     7.0430     6.9150  -999.2500  -999.2500  -999.2500  -999.2500  -999.2500  -999.2500    45.2830
 1317.5000   -62.3290   -58.8420     7.3020     7.0430     6.9150  -999.2500  -999.2500  -999.2500  -999.2500  -999.2500  -999.2500    45.4760
 1318.0000   -62.5420   -58.9300     7.3710     7.0680     6.9400  -999.2500  -999.2500  -999.2500  -999.2500  -999.2500  -999.2500    45.6520
 1318.5000   -62.7560   -58.7580     7.4410     7.0930     6.9640  -999.2500  -999.2500  -999.2500  -999.2500  -999.2500  -999.2500    45.8020
 1319.0000   -62.9690   -58.5260     7.2920     7.1180     6.9890  -999.2500  -999.2500  -999.2500  -999.2500  -999.2500  -999.2500    45.2740
 1319.5000   -63.1830   -58.3130     7.2700     7.1430     7.0130  -999.2500  -999.2500  -999.2500  -999.2500  -999.2500  -999.2500    43.8670
 1320.0000   -63.3960   -58.1350     7.2480     7.1730     7.0430  -999.2500  -999.2500  -999.2500  -999.2500  -999.2500  -999.2500    42.4390
 1320.5000   -63.6100   -58.1800     7.2260     7.0430     6.9150  -999.2500  -999.2500  -999.2500  -999.2500  -999.2500  -999.2500    42.8940
 1321.0000   -63.8240   -58.2900     7.2040     7.0430     6.9150  -999.2500  -999.2500  -999.2500  -999.2500  -999.2500  -999.2500    43.7550
 1321.5000   -64.0370   -58.4000     7.1820     6.9680     6.8410  -999.2500  -999.2500  -999.2500  -999.2500  -999.2500  -999.2500    44.5670
 1322.0000   -64.2510   -58.5100     7.1730     6.9050     6.7800  -999.2500  -999.2500  -999.2500  -999.2500  -999.2500  -999.2500    45.4120
 1322.5000   -64.4640   -58.6200     7.0180     6.8420     6.7180  -999.2500  -999.2500  -999.2500  -999.2500  -999.2500  -999.2500    46.2180
 1323.0000   -64.6780   -58.7290     6.9150     6.7790     6.6560  -999.2500  -999.2500  -999.2500  -999.2500  -999.2500  -999.2500    46.3880
 1323.5000   -64.8910   -58.8410     6.9620     6.7170     6.5950  -999.2500  -999.2500  -999.2500  -999.2500  -999.2500  -999.2500    44.2370
 1324.0000   -65.1050   -58.9290     7.0810     6.6660     6.5450  -999.2500  -999.2500  -999.2500  -999.2500  -999.2500  -999.2500    42.1660
 1324.5000   -65.3180   -58.8390     7.1990     6.7680     6.6450  -999.2500  -999.2500  -999.2500  -999.2500  -999.2500  -999.2500    41.0280
 1325.0000   -65.5320   -58.5550     7.3180     6.8520     6.7280  -999.2500  -999.2500  -999.2500  -999.2500  -999.2500  -999.2500    41.4330
 1325.5000   -65.7450   -58.5350     7.4360     6.9370     6.8110  -999.2500  -999.2500  -999.2500  -999.2500  -999.2500  -999.2500    41.5650
 1326.0000   -65.9590   -58.5250     7.7180     7.0210     6.8940  -999.2500  -999.2500  -999.2500  -999.2500  -999.2500  -999.2500    41.8080
 1326.5000   -66.1720   -58.5410     7.6860     7.1050     6.9770  -999.2500  -999.2500  -999.2500  -999.2500  -999.2500  -999.2500    42.0230
 1327.0000   -66.3860   -58.5260     7.6070     7.1730     7.0430  -999.2500  -999.2500  -999.2500  -999.2500  -999.2500  -999.2500    42.2180
 1327.5000   -66.5990   -58.5280     7.5280     7.1880     7.0580  -999.2500  -999.2500  -999.2500  -999.2500  -999.2500  -999.2500    42.5880
 1328.0000   -66.8130   -58.6140     7.4480     7.2010     7.0710  -999.2500  -999.2500  -999.2500  -999.2500  -999.2500  -999.2500    43.4700
 1328.5000   -67.0260   -58.9560     7.3690     7.2140     7.0830  -999.2500  -999.2500  -999.2500  -999.2500  -999.2500  -999.2500    44.2650
 1329.0000   -67.2400   -58.9910     7.3060     7.2270     7.0960  -999.2500  -999.2500  -999.2500  -999.2500  -999.2500  -999.2500    45.0700
 1329.5000   -67.4530   -59.3720     7.4710     7.2400     7.1090  -999.2500  -999.2500  -999.2500  -999.2500  -999.2500  -999.2500    45.7740
 1330.0000   -67.6670   -59.2960     7.7180     7.2530     7.1210  -999.2500  -999.2500  -999.2500  -999.2500  -999.2500  -999.2500    46.5210
 1330.5000   -67.8800   -59.3360     7.6150     7.2660     7.1340  -999.2500  -999.2500  -999.2500  -999.2500  -999.2500  -999.2500    47.2560
 1331.0000   -68.0940   -59.3160     7.3060     7.2780     7.1460  -999.2500  -999.2500  -999.2500  -999.2500  -999.2500  -999.2500    47.5290
 1331.5000   -68.3070   -59.2900     7.4410     7.2910     7.1590  -999.2500  -999.2500  -999.2500  -999.2500  -999.2500  -999.2500    45.1440
 1332.0000   -68.5210   -58.8240     7.6170     7.3040     7.1720  -999.2500  -999.2500  -999.2500  -999.2500  -999.2500  -999.2500    43.2860
 1332.5000   -68.7340   -58.3350     7.7940     7.3170     7.1840  -999.2500  -999.2500  -999.2500  -999.2500  -999.2500  -999.2500    43.1930
 1333.0000   -68.9480   -57.8340     8.0060     7.3300     7.1970  -999.2500  -999.2500  -999.2500  -999.2500  -999.2500  -999.2500    43.3730
 1333.5000   -69.1620   -57.3420     8.0060     7.3430     7.2100  -999.2500  -999.2500  -999.2500  -999.2500  -999.2500  -999.2500    42.2220
 1334.0000   -69.3750   -56.8490     8.0060     7.3560     7.2220  -999.2500  -999.2500  -999.2500  -999.2500  -999.2500  -999.2500    40.5700
 1334.5000   -69.5890   -56.3470     7.9100     7.3690     7.2350  -999.2500  -999.2500  -999.2500  -999.2500  -999.2500  -999.2500    39.9440
 1335.0000   -69.8020   -55.8620     7.6480     7.3820     7.2480  -999.2500  -999.2500  -999.2500  -999.2500  -999.2500  -999.2500    43.2330
 1335.5000   -70.0160   -55.3860     7.5780     7.3940     7.2600  -999.2500  -999.2500  -999.2500  -999.2500  -999.2500  -999.2500    46.7790
 1336.0000   -70.2290   -55.4390     7.6630     7.4080     7.2730  -999.2500  -999.2500  -999.2500  -999.2500  -999.2500  -999.2500    47.0520
 1336.5000   -70.4430   -55.5860     7.8040     7.4200     7.2850  -999.2500  -999.2500  -999.2500  -999.2500  -999.2500  -999.2500    46.5760
 1337.0000   -70.6560   -55.7300     7.8610     7.4330     7.2980  -999.2500  -999.2500  -999.2500  -999.2500  -999.2500  -999.2500    44.6120
 1337.5000   -70.8700   -55.8680     7.8040     7.4410     7.3060  -999.2500  -999.2500  -999.2500  -999.2500  -999.2500  -999.2500    44.2090
 1338.0000   -71.0830   -56.0100     7.7180     7.4980     7.3620  -999.2500  -999.2500  -999.2500  -999.2500  -999.2500  -999.2500    43.8360
 1338.5000   -71.2970   -56.1410     7.8080     7.5550     7.4180  -999.2500  -999.2500  -999.2500  -999.2500  -999.2500  -999.2500    43.4310
 1339.0000   -71.5100   -56.1500     8.0320     7.6740     7.5350  -999.2500  -999.2500  -999.2500  -999.2500  -999.2500  -999.2500    43.9440
 1339.5000   -71.7240   -56.1510     8.2560     7.8340     7.6920  -999.2500  -999.2500  -999.2500  -999.2500  -999.2500  -999.2500    44.9350
 1340.0000   -71.9370   -56.1490     8.6140     7.9940     7.8490  -999.2500  -999.2500  -999.2500  -999.2500  -999.2500  -999.2500    45.8410
 1340.5000   -72.1510   -56.1510     8.5760     8.1540     8.0060  -999.2500  -999.2500  -999.2500  -999.2500  -999.2500  -999.2500    46.7140
 1341.0000   -72.3640   -56.1510     8.4790     8.1140     7.9390  -999.2500  -999.2500  -999.2500  -999.2500  -999.2500  -999.2500    47.7630
 1341.5000   -72.5780   -56.1520     8.3820     8.0730     7.8710  -999.2500  -999.2500  -999.2500  -999.2500  -999.2500  -999.2500    47.8140
 1342.0000   -72.7910   -56.1540     8.3050     8.0330     7.8040  -999.2500  -999.2500  -999.2500  -999.2500  -999.2500  -999.2500    46.6080
 1342.5000   -73.0050   -56.1500     8.1540     7.9930     7.7370  -999.2500  -999.2500  -999.2500  -999.2500  -999.2500  -999.2500    45.4780
 1343.0000   -73.2180   -56.1580     8.1540     7.9520     7.6690  -999.2500  -999.2500  -999.2500  -999.2500  -999.2500  -999.2500    45.1310
 1343.5000   -73.4320   -56.1440     8.1540     7.9120     7.6020  -999.2500  -999.2500  -999.2500  -999.2500  -999.2500  -999.2500    45.9200
