~VERSION INFORMATION
 VERS.                2.0:   CWLS LOG ASCII STANDARD - VERSION 2.0
 WRAP.                 NO:   ONE LINE PER DEPTH STEP
~WELL INFORMATION
#MNEM.UNIT      DATA TYPE    INFORMATION
#----------   ------------   ------------------------------
 STRT.F           22.5000:   START DEPTH
 STOP.F         4120.0000:   STOP DEPTH
 STEP.F            0.5000:   STEP LENGTH
 NULL.          -999.2500:   NO VALUE
 COMP. LAWRENCE ALLISON & ASSOCIATES:   COMPANY
 WELL. LAWRENCE-ALLISON SHX #37-10:   WELL
 FLD .              N P R:   FIELD
 LOC .      S10 T38N R78W:   LOCATION
 CNTY.            NATRONA:   COUNTY
 STAT.            WYOMING:   STATE
 CTRY. UNITED STATES OF AMERICA:   COUNTRY
 SRVC.      DRESSER ATLAS:   SERVICE COMPANY
 DATE.        29-JUN-1983:   LOGDATE
 API .     49025107370001:   API NUMBER
~CURVE INFORMATION
#MNEM.UNIT       API CODE    CURVE DESCRIPTION
#----------   ------------   ------------------------------
 DEPT.F                  :   
 TEND.LBS    45 635 01 00:   TENSION FROM DENSITY LOG
 CORR.G/C3   45 356 01 00:   DENSITY CORRECTION
 NPHI.DEC    42 890 03 00:   NEUTRON POROSITY SANDSTONE
 CALD.IN     45 280 60 00:   CALIPER FROM DENSITY LOG
 GRR .GAPI   07 310 01 00:   GAMMA RAY FROM RESISTIVITY
 SPR .MV     07 010 01 00:   SPONTANEOUS POTENTIAL
 TENR.LBS    07 635 01 00:   TENSION FROM RESISTIVITY
 RILD.OHMM   07 120 46 00:   DEEP INDUCTION RESISTIVITY
 RILM.OHMM   07 120 44 00:   INDUCTION LOG MEDIUM RESISTIVITY
 RFOC.OHMM   07 220 04 00:   RESISTIVITY FOCUSED LOG RES.
 RHOB.G/C3   45 350 01 00:   BULK DENSITY
~PARAMETER INFORMATION
#MNEM.UNIT          VALUE    DESCRIPTION
#----------   ------------   ------------------------------
 EKB .F         5228.0000:   Kelly bushing
 EGL .F         5218.0000:   Ground level
 EDF .F            0.0000:   Drilling floor
 EPD .F         5218.0000:   Permanent datum
 TD  .F         4125.0000:   Total depth
 DATE.        29-JUN-1983:   Date logged
 CLNT.            A2DTECH:   Client Code
 SL  . 984' FWL & 1620' FEL:   Surface Location
 PD  .                 GL:   Permanent Datum
 DD  .F              4125:   Depth driller
 DL  .F              4107:   Depth logger
 BLI .F              4105:   Bottom log interval
 CS1 .IN              4.5:   Casing size
 CBD1.       4.5" @ 2213':   Casing driller 1
 CBL1.F              2213:   Casing logger 1
 BS1 .IN             6.25:   Bit size
 DFT .                KCL:   Type fluid in hole
 DFD .                8.8:   Density
 DFV .                 45:   Viscosity
 DFPH.                  9:   pH
 DFL .               10.8:   Fluid loss
 MSS .            MUDTANK:   Source of sample
 RMS .OHMM            .44:   Rm
 MST .F               108:   Rm Meas. temp.
 RMF .OHMM            .37:   Rmf
 MFST.F               108:   Rmf Meas. temp.
 RMC .OHMM            .55:   Rmc
 MCST.F               108:   Rmc Meas. temp.
 MFSS.               MEAS:   Source Rmf.
 RMB .OHMM            .36:   Rm. at BHT
 BHT .F               126:   BHT.
 TCS .HRS               2:   Time Circ. stopped
 MRT .F               126:   Maximum recorded temp.
 LUN .               6343:   Logging unit number
 LUL .                 FM:   Logging unit location
 ENGI.          I. GOVETT:   Recorded By
 WITN.          G. STRONG:   Witnessed by
 ORIG.     2.5", 5" PRINT:   Origin of data
 UWI .     49025107370001:   Unique Well ID
 DICO. A2D TECHNOLOGIES, INC.:   Digitizing Company
 DAPD.                 10:   Feet Above Permanent Datum
 BSD1.               4125:   Depth drilled with bit1
 MCSS.               CALC:   Source Rmc.
 TLI .               2213:   Top log interval
~OTHER INFORMATION
~A   DEPT     TEND       CORR       NPHI       CALD         GRR       SPR       TENR       RILD       RILM       RFOC       RHOB   
# ...
 3469.0000     0.0000     0.1110     0.2130     7.8170   147.2040   -36.7420    13.7330     3.9360     3.8650     3.3650     2.5350
 3469.5000     0.0000     0.0380     0.2080     7.8170   150.6070   -36.8380    13.5720     3.7720     3.9360     3.7210     2.5290
 3470.0000     0.0000    -0.0590     0.2000     7.8150   149.0900   -36.9530    13.4110     3.5020     3.6450     4.0760     2.5170
 3470.5000     0.0000    -0.0360     0.2040     7.8190   148.0050   -37.7060    13.2500     3.2330     3.4060     4.5330     2.4910
 3471.0000     0.0000     0.0060     0.2170     7.8290   151.2270   -37.8000    13.0890     2.9630     3.1660     4.4360     2.4580
 3471.5000     0.0000     0.0180     0.2310     7.8390   157.3810   -37.0330    12.9280     2.6940     2.9260     4.2700     2.4250
 3472.0000     0.0000     0.0160     0.2440     7.8500   167.7110   -36.2240    12.7670     2.4380     2.6860     3.9150     2.3590
 3472.5000     0.0000     0.0100     0.2590     7.8600   192.4720   -35.4110    12.6060     2.3930     2.4610     3.0890     2.2950
 3473.0000     0.0000     0.0460     0.2510     7.8700   203.9940   -34.5970    12.4450     2.5570     2.5340     2.2630     2.2440
 3473.5000     0.0000     0.1000     0.2420     7.8800   206.6660   -34.4250    12.2840     2.8030     2.6030     1.9910     2.3090
 3474.0000     0.0000     0.1280     0.2330     7.8900   186.4920   -34.9960    12.1230     3.0130     2.6720     2.6150     2.3930
 3474.5000     0.0000     0.0900     0.2220     7.9000   166.9250   -36.1380    11.9620     3.1840     2.7410     3.3060     2.4800
 3475.0000     0.0000     0.0590     0.2200     7.9110   141.2990   -37.2480    11.8010     3.3040     2.9310     3.9980     2.5180
 3475.5000     0.0000     0.0240     0.2160     7.9200   127.3650   -38.3460    11.6400     3.2440     3.1360     4.4770     2.5240
 3476.0000     0.0000     0.0250     0.2130     7.9320   132.9510   -39.1250    11.4790     3.3810     3.3410     4.2990     2.5240
 3476.5000     0.0000     0.0200     0.2090     7.9300   137.7580   -39.1080    11.3180     3.7240     3.5460     4.1630     2.5200
 3477.0000     0.0000     0.0180     0.2060     7.9260   142.4920   -39.1080    11.1570     3.6930     3.7040     4.0260     2.5200
 3477.5000     0.0000     0.0340     0.2130     7.9220   147.2500   -39.1150    10.9960     3.6280     3.5540     3.9360     2.5220
 3478.0000     0.0000     0.0490     0.2280     7.9190   150.1970   -38.8930    10.8360     3.4250     3.4030     4.0930     2.5480
 3478.5000     0.0000     0.0500     0.2420     7.9150   142.3040   -38.4230    10.6750     3.2220     3.2520     4.2220     2.5710
 3479.0000     0.0000     0.0270     0.2580     7.9110   135.3740   -37.5690    10.5140     2.9310     3.1260     4.3550     2.5340
 3479.5000     0.0000     0.0210     0.2540     7.9080   132.0050   -36.6930    10.3530     2.9640     3.2500     3.5260     2.4610
 3480.0000     0.0000     0.0350     0.2450     7.9040   142.9010   -37.1980    10.1920     3.0230     3.4280     2.6490     2.4000
 3480.5000     0.0000     0.0460     0.2360     7.9000   151.7200   -38.0260    10.0310     3.0820     3.3940     2.9320     2.4380
 3481.0000     0.0000     0.0590     0.2270     7.8960   154.2820   -38.7940     9.8700     3.1410     3.3510     3.3770     2.4860
 3481.5000     0.0000     0.0710     0.2180     7.8930   155.3820   -39.1060     9.7090     3.2000     3.3080     3.8210     2.5380
 3482.0000     0.0000     0.0800     0.2100     7.8890   156.3810   -39.3280     9.5480     3.2590     3.2740     4.4140     2.5340
 3482.5000     0.0000     0.0870     0.2100     7.8850   158.6220   -39.3880     9.3870     3.3180     3.3760     4.3190     2.5330
 3483.0000     0.0000     0.0730     0.2090     7.8810   161.0410   -39.4480     9.2260     3.3760     3.4600     4.1270     2.5290
 3483.5000     0.0000     0.0380     0.2090     7.8780   163.2260   -39.5070     9.0650     3.4350     3.4920     3.8290     2.5310
 3484.0000     0.0000     0.0430     0.2100     7.8740   160.8360   -39.5660     8.9040     3.4920     3.5100     3.8470     2.5410
 3484.5000     0.0000     0.0470     0.2100     7.8700   154.3370   -39.6240     8.7430     3.5130     3.5270     3.8890     2.5490
 3485.0000     0.0000     0.0520     0.2130     7.8670   148.0570   -39.6860     8.5820     3.5340     3.5450     3.9310     2.5490
 3485.5000     0.0000     0.0580     0.2170     7.8630   148.4870   -39.6790     8.4210     3.5540     3.5630     3.9740     2.5500
 3486.0000     0.0000     0.0630     0.2200     7.8590   149.7940   -39.6440     8.2600     3.5750     3.5800     4.0160     2.5480
 3486.5000     0.0000     0.0680     0.2170     7.8550   151.1860   -39.6080     8.0990     3.6420     3.6620     4.0460     2.5440
 3487.0000     0.0000     0.0800     0.2120     7.8520   148.5360   -39.5730     7.9380     3.8300     3.8120     3.8770     2.5270
 3487.5000     0.0000     0.0640     0.2060     7.8480   144.3120   -39.5370     7.7770     4.0170     3.9630     3.7590     2.5090
 3488.0000     0.0000     0.0360     0.2000     7.8440   139.9160   -39.4740     7.6160     4.2040     4.1130     3.8650     2.4940
 3488.5000     0.0000     0.0380     0.1940     7.8400   139.4130   -39.2060     7.4550     4.3920     4.2760     3.9610     2.4400
 3489.0000     0.0000     0.0520     0.1910     7.8370   140.1710   -38.9100     7.2940     4.5190     4.4220     4.0570     2.3970
 3489.5000     0.0000     0.1150     0.1920     7.8330   139.8760   -38.0540     7.1330     4.5190     4.6270     4.1540     2.3490
 3490.0000     0.0000     0.1990     0.1940     7.8290   134.5050   -37.1280     6.9720     4.3240     4.8320     4.3100     2.3650
 3490.5000     0.0000     0.1510     0.1940     7.8260   128.1530   -36.2740     6.8110     4.0460     5.0470     4.8390     2.3940
 3491.0000     0.0000     0.0670     0.2030     7.8210   120.6270   -35.8450     6.6500     3.6780     4.4330     5.3670     2.4230
 3491.5000     0.0000     0.0050     0.2140     7.8180   121.9200   -35.4180     6.4890     3.2910     3.7870     6.1240     2.4510
 3492.0000     0.0000     0.0810     0.2250     7.8190   138.7530   -34.9870     6.3280     2.9030     3.1400     5.8240     2.4730
 3492.5000     0.0000     0.1980     0.2360     7.8570   159.6370   -34.5700     6.1670     2.5160     2.4930     4.3950     2.4420
 3493.0000     0.0000     0.2770     0.2460     7.8900   180.5840   -34.6550     6.0060     2.1230     2.1610     2.9670     2.4120
 3493.5000     0.0000     0.2360     0.2570     7.9250   185.7750   -34.7640     5.8450     2.0610     2.0540     1.7890     2.3210
 3494.0000     0.0000     0.1660     0.2690     7.9600   179.2390   -34.8650     5.6840     1.9970     1.8840     1.6260     2.2460
 3494.5000     0.0000     0.0870     0.2640     7.9930   183.2440   -34.7250     5.5230     1.9330     1.9390     1.6810     2.1710
 3495.0000     0.0000     0.0300     0.2240     8.0300   195.2500   -33.5390     5.3630     1.8840     2.2190     1.7490     2.1390
 3495.5000     0.0000     0.0160     0.1980     8.0630   191.1870   -33.9840     5.2020     1.9370     2.5890     1.8160     2.2340
 3496.0000     0.0000     0.0220     0.1820     8.0810   162.5870   -35.0520     5.0410     2.1360     2.9600     3.4420     2.3530
 3496.5000     0.0000     0.0420     0.1650     7.9820   129.9980   -36.1270     4.9500     2.3870     3.3300     5.0250     2.4720
 3497.0000     0.0000     0.0610     0.1590     7.8970   107.5170   -37.1990     4.9500     2.6240     3.7010     6.9030     2.5400
 3497.5000     0.0000     0.0830     0.1680     7.8050    94.4170   -38.2650     4.9500     3.2050     4.0080     6.6330     2.5360
 3498.0000     0.0000     0.0740     0.1790     7.7380    99.7060   -39.3300     4.9500     3.7560     4.2830     5.8330     2.5320
 3498.5000     0.0000     0.0630     0.1890     7.7370   110.8160   -40.0070     4.9500     4.3110     4.5580     5.0330     2.5270
 3499.0000     0.0000     0.0520     0.1960     7.7360   122.0590   -40.2440     4.9500     4.8200     4.8330     4.7530     2.5250
