~VERSION INFORMATION
 VERS.                2.0:   CWLS LOG ASCII STANDARD - VERSION 2.0
 WRAP.                 NO:   ONE LINE PER DEPTH STEP
~WELL INFORMATION
#MNEM.UNIT      DATA TYPE    INFORMATION
#----------   ------------   ------------------------------
 STRT.F            5.5000:   START DEPTH
 STOP.F         3261.0000:   STOP DEPTH
 STEP.F            0.5000:   STEP LENGTH
 NULL.          -999.2500:   NO VALUE
 COMP. LAWRENCE ALLISON & ASSOCIATES:   COMPANY
 WELL. LAWRENCE "X" #12-14:   WELL
 FLD .              NPR 3:   FIELD
 LOC .      S14 T38N R78W:   LOCATION
 CNTY.            NATRONA:   COUNTY
 STAT.            WYOMING:   STATE
 CTRY. UNITED STATES OF AMERICA:   COUNTRY
 SRVC.      DRESSER ATLAS:   SERVICE COMPANY
 DATE.        18-AUG-1986:   LOGDATE
 API .     49025111080000:   API NUMBER
~CURVE INFORMATION
#MNEM.UNIT       API CODE    CURVE DESCRIPTION
#----------   ------------   ------------------------------
 DEPT.F                  :   
 RILM.OHMM   07 120 44 00:   INDUCTION LOG MEDIUM RESISTIVITY
 GRR .GAPI   07 310 01 00:   GAMMA RAY FROM RESISTIVITY
 SPR .MV     07 010 01 00:   SPONTANEOUS POTENTIAL
 NPHI.DEC    42 890 03 00:   NEUTRON POROSITY SANDSTONE
 CALD.IN     45 280 60 00:   CALIPER FROM DENSITY LOG
 TEND.LBS    45 635 01 00:   TENSION FORM DENSITY LOG
 DRHO.G/C3   45 356 01 00:   DENSITY CORRECTION
 DEN .G/C3   45 350 01 00:   BULK DENSITY
 RILD.OHMM   07 120 46 00:   DEEP INDUCTION RESISTIVITY
 RFOC.OHMM   07 220 04 00:   RESISTIVITY FOCUSED LOG RES.
~PARAMETER INFORMATION
#MNEM.UNIT          VALUE    DESCRIPTION
#----------   ------------   ------------------------------
 EKB .F         5245.0000:   Kelly bushing
 EGL .F         5234.0000:   Ground level
 TD  .F         3250.0000:   Total depth
 CLNT.            A2DTECH:   Client Code
 SL  . 901' FNL & 485' FWL:   Surface Location
 PD  .                 GL:   Permanent Datum
 EPD .F              5234:   Elevation Permanent Datum
 LMF .                 KB:   Log Measured From
 DMF .                 KB:   Drilling Measured From
 DAPD.F                11:   Feet Above Permanent Datum
 DATE.        18-AUG-1986:   Date Logged [DD-MMM-YYYY]
 DD  .F              3250:   Depth driller
 DL  .F              3246:   Depth logger
 BLI .F              3244:   Bottom log interval
 TLI .F                 0:   Top log interval
 CS1 .IN            8.625:   Casing size
 CBD1.      8.625" @ 733':   Casing driller 1
 CBL1.F               735:   Casing logger 1
 BS1 .IN            7.875:   Bit size
 BSD1.F              3250:   Depth drilled with bit1
 DFT .            KCL-GEL:   Type fluid in hole
 DFD .                8.8:   Density
 DFV .                 36:   Viscosity
 DFPH.                8.5:   pH
 DFL .               12.8:   Fluid loss
 MSS .           FLOWLINE:   Source of sample
 RMS .OHMM          0.292:   Rm
 MST .F                73:   Rm Meas. temp.
 RMF .OHMM          0.224:   Rmf
 MFST.F                73:   Rmf Meas. temp.
 MFSS.               MEAS:   Source Rmf.
 RMC .OHMM          0.365:   Rmc
 MCST.F                73:   Rmc Meas. temp.
 MCSS.               CALC:   Source Rmc.
 RMB .OHMM          0.154:   Rm. at BHT
 BHT .F               138:   BHT.
 TCS .HRS               5:   Time Circ. stopped
 MRT .F               138:   Maximum recorded temp.
 LUN .            HL-6214:   Logging unit number
 LUL .           GILLETTE:   Logging unit location
 ENGI.             RAUTIO:   Recorded By
 WITN.             STRONG:   Witnessed by
 ORIG.        2" 5" PRINT:   Origin of data
 UWI .     49025111080000:   Unique Well ID
 DICO. A2D TECHNOLOGIES, INC.:   Digitizing Company
~OTHER INFORMATION
~A    DEPT    RILM         GRR       SPR       NPHI       CALD       TEND       DRHO        DEN       RILD       RFOC   
# ...
 2719.0000    32.9193    60.5098   -21.8644     0.1132     8.8882   -29.0969     0.0294     2.5367    77.1073    87.7462
 2719.5000    25.8082    60.5279   -20.6714     0.1476     8.8880   -74.1373     0.0490     2.4943    62.1669    54.3117
 2720.0000    22.9323    61.7472   -19.4565     0.1688     8.8879  -119.1597     0.0686     2.4385    51.0369    33.3520
 2720.5000    19.1795    66.3350   -18.2415     0.1960     8.8877  -104.0497     0.0837     2.4000    35.9068    24.3778
 2721.0000    15.0060    68.7076   -16.8759     0.2129     8.8876  -103.9774     0.0912     2.3932    29.1514    17.5717
 2721.5000    14.4947    67.8184   -15.6610     0.2159     8.8874  -118.9426     0.0957     2.3909    23.9982    15.8291
 2722.0000    14.2956    67.8329   -15.1988     0.2105     8.8873  -118.8702     0.0926     2.3932    22.3892    15.3908
 2722.5000    14.1000    69.6546   -15.0357     0.2042     8.8871  -103.3781     0.0866     2.3962    21.1805    15.1831
 2723.0000    14.0038    73.2836   -14.8750     0.2070     8.8870   -73.5947     0.0745     2.4022    20.4484    15.1844
 2723.5000    13.9038    74.5030   -14.7142     0.2084     8.8868   -66.0035     0.0563     2.4113    19.7632    15.1854
 2724.0000    13.8134    74.5210   -14.8546     0.2063     8.8866   -65.9312     0.0533     2.4218    19.6281    15.2926
 2724.5000    13.6245    75.7403   -14.8445     0.2002     8.9017   -73.3776     0.0754     2.4264    19.3596    15.2936
 2725.0000    13.4374    78.4657   -14.9849     0.2026     8.9015   -73.3053     0.1045     2.4248    19.2271    15.2947
 2725.5000    13.0704    80.5886   -14.9744     0.2105     8.9014   -88.2707     0.0758     2.4173    19.0965    15.2789
 2726.0000    12.7131    81.2055   -14.9621     0.2099     8.9012  -103.2357     0.0365     2.4019    18.8292    13.8754
 2726.5000    12.4520    80.9187   -14.9519     0.1996     8.9010  -103.1453     0.0139     2.3976    18.1942    13.2158
 2727.0000    12.3670    78.7873   -14.9418     0.1960     8.9009   -65.4790     0.0244     2.3961    18.0129    13.0338
 2727.5000    12.3687    72.8189   -14.9316     0.1972     8.9007     9.7814     0.0576     2.3931    17.8080    13.0347
 2728.0000    12.4565    71.3273   -14.9215     0.2008     8.9158    47.4477     0.0772     2.3810    17.5786    12.9451
 2728.5000    12.5448    72.2454   -14.7605     0.2052     8.9005   -12.6303     0.0651     2.3749    17.5805    13.0365
 2729.0000    12.7220    72.8623   -14.5974     0.2105     8.9003   -81.5372     0.0590     2.3750    17.8286    13.4997
 2729.5000    12.7377    72.8768   -14.4367     0.2093     8.9001  -102.7112     0.0680     2.3787    17.9555    14.1753
 2730.0000    12.9034    72.2889   -14.2759     0.1996     8.9000  -102.6207     0.0786     2.3825    18.2089    14.2754
 2730.5000    12.9049    72.3070   -14.2658     0.1948     8.8998  -102.5484     0.0634     2.3870    18.4659    13.9811
 2731.0000    12.9063    72.9239   -13.6532     0.1924     8.8997  -102.4760     0.0302     2.3930    18.8571    13.3165
 2731.5000    12.9979    73.8420   -12.8900     0.1955     8.8995  -102.4037     0.0256     2.4028    19.1232    13.0419
 2732.0000    12.9993    73.5553   -12.1265     0.2005     8.8994  -102.3308     0.0286     2.4113    19.3931    13.0430
 2732.5000    13.0011    71.4614   -11.9636     0.2093     8.8992  -117.2965     0.0346     2.4142    19.6668    13.3194
 2733.0000    12.9121    70.5723   -11.8028     0.2069     8.8991  -132.2618     0.0422     2.4142    19.6695    13.4134
 2733.5000    12.9138    71.5399   -11.7927     0.2023     8.8989  -124.6525     0.0499     2.4126    19.4001    13.4143
 2734.0000    12.9153    73.6169   -11.7825     0.2039     8.8988  -102.0238     0.0617     2.4043    19.1339    13.4152
 2734.5000    12.9167    75.1338   -11.7724     0.2008     8.8986   -56.8387     0.0707     2.3975    18.7416    13.2267
 2735.0000    13.0085    70.6339   -11.7620     0.1948     8.9000   108.6472     0.0707     2.3928    18.6138    12.8679
 2735.5000    13.1007    69.7447   -10.5447     0.1936     8.9135   146.3136     0.0677     2.3899    18.8905    12.6905
 2736.0000    13.4842    69.1568    -8.7273     0.2002     8.9133    93.7724     0.0359     2.3839    19.4114    12.4290
 2736.5000    14.4444    66.1285    -8.4160     0.2020     8.9132    18.6568     0.0253     2.3809    20.3816    12.3434
 2737.0000    15.7037    65.8726    -8.5590     0.2011     8.8979   -71.4964     0.0313     2.3854    21.2520    12.2587
 2737.5000    16.1486    67.9991    -8.5463     0.1912     8.8977  -109.0180     0.0389     2.4020    21.4794    12.3452
 2738.0000    15.9272    68.9172    -8.5361     0.1848     8.8824  -123.9833     0.0494     2.4327    21.7820    15.0226
 2738.5000    15.3845    68.3257    -8.5256     0.1839     8.8822  -131.4297     0.0509     2.4594    21.9357    21.8612
 2739.0000    15.0580    69.5486    -8.5133     0.1857     8.8821  -131.3393     0.0493     2.4548    21.9375    21.4104
 2739.5000    14.4544    71.6974    -8.5031     0.1927     8.8820  -146.3226     0.0511     2.4352    22.0922    19.9709
 2740.0000    13.8651    76.2077    -8.4930     0.2126     8.8874  -146.2322     0.0614     2.4110    21.9401    14.6992
 2740.5000    13.2998    79.2343    -8.4828     0.2102     8.9120  -138.6410     0.0734     2.4004    20.8983    13.4273
 2741.0000    12.9362    79.2487    -8.4727     0.2033     8.9118  -131.0499     0.0885     2.4066    19.4942    13.3239
 2741.5000    12.7589    79.2632    -8.7727     0.2002     8.9116  -130.9774     0.0854     2.4110    18.1839    13.2433
 2742.0000    12.5840    80.4826    -9.3534     0.1990     8.8963  -100.8271     0.0763     2.4080    17.5635    13.4302
 2742.5000    12.5858    81.7019    -9.7951     0.1990     8.8962  -100.7395     0.0718     2.4095    17.2017    13.4311
 2743.0000    12.5872    81.4152   -10.2367     0.2008     8.8961  -100.6672     0.0687     2.4102    17.0835    13.5260
 2743.5000    12.5886    81.7345   -10.8290     0.2078     8.8959  -123.1512     0.0611     2.4027    17.0849    13.6214
 2744.0000    12.5900    83.2550   -11.4212     0.2069     8.9109  -130.6158     0.0430     2.3959    17.0860    13.7176
 2744.5000    12.5914    84.4743   -12.0135     0.2033     8.9108  -130.5253     0.0249     2.3959    17.2066    13.5289
 2745.0000    12.6810    84.1876   -12.4750     0.2039     8.9106  -130.4511     0.0248     2.3989    18.0796    13.2500
 2745.5000    12.7710    83.8780   -13.1955     0.2104     8.9256  -130.3625     0.0329     2.4026    18.9709    13.1586
 2746.0000    13.1328    84.2646   -13.3385     0.2196     8.9406  -130.2901     0.0610     2.4079    19.6442    14.7115
 2746.5000    14.3774    86.3431   -13.3258     0.2169     8.9404  -130.2178     0.0881     2.4192    20.0601    14.8154
 2747.0000    15.5539    86.6588   -13.4688     0.2057     8.9100  -130.1454     0.1047     2.4337    20.0614    15.3584
 2747.5000    14.6810    85.7697   -13.3055     0.1902     8.9098  -130.0731     0.0971     2.4713    19.9236    20.2738
 2748.0000    13.8909    83.9770   -12.6848     0.1857     8.9097  -130.0000     0.0639     2.4774    19.5022    19.8558
 2748.5000    13.3246    83.0873   -11.7766     0.1878     8.9095  -122.3915     0.0407     2.4472    19.2446    17.7626
 2749.0000    12.8705    82.1927   -11.1640     0.1990     8.8942  -114.8003     0.0367     2.4230    19.1124    13.9198
 2749.5000    12.4319    80.7072   -10.4009     0.2090     8.8941  -129.7656     0.0487     2.4094    18.7189    12.6271
 2750.0000    12.0921    79.8181    -9.9389     0.2196     8.8939  -174.8060     0.0608     2.4048    18.2061    12.6279
 2750.5000    11.7616    80.4386    -9.4770     0.2178     8.8938  -189.7893     0.0728     2.4105    17.2210    12.7314
 2751.0000    11.6004    81.6579    -8.7138     0.2096     8.8936  -167.1425     0.0848     2.4169    17.1026    13.0776
 2751.5000    11.5212    83.4796    -8.0820     0.2011     8.8935  -112.3883     0.0911     2.4161    16.1620    13.1699
 2752.0000    11.6033    83.7953    -7.4861     0.1984     8.9085   -69.2354     0.0938     2.4131    15.8440    13.0791
