~VERSION INFORMATION
 VERS.                2.0:   CWLS LOG ASCII STANDARD - VERSION 2.0
 WRAP.                 NO:   ONE LINE PER DEPTH STEP
~WELL INFORMATION
#MNEM.UNIT      DATA TYPE    INFORMATION
#----------   ------------   ------------------------------
 STRT.F           16.0000:   START DEPTH
 STOP.F         4208.0000:   STOP DEPTH
 STEP.F            0.5000:   STEP LENGTH
 NULL.          -999.2500:   NO VALUE
 COMP.    FENIX & SCISSON:   COMPANY
 WELL. FENIX NPR 3 "MX" #41-10:   WELL
 FLD .                NPR:   FIELD
 LOC .      S10 T38N R78W:   LOCATION
 CNTY.            NATRONA:   COUNTY
 STAT.            WYOMING:   STATE
 CTRY. UNITED STATES OF AMERICA:   COUNTRY
 SRVC.       SCHLUMBERGER:   SERVICE COMPANY
 DATE.        04-NOV-1978:   LOGDATE
 API .     49025107260000:   API NUMBER
~CURVE INFORMATION
#MNEM.UNIT       API CODE    CURVE DESCRIPTION
#----------   ------------   ------------------------------
 DEPT.F                  :   
 TENR.LBS    07 635 01 00:   TENSION FROM RESISTIVITY
 SPR .MV     07 010 01 00:   SPONTANEOUS POTENTIAL
 SFL .OHMM   07 220 01 00:   SHALLOW FOCUSED LOG RESISTIVITY
 ILD .OHMM   07 120 46 00:   DEEP INDUCTION RESISTIVITY
 ILM .OHMM   07 120 44 00:   INDUCTION LOG MEDIUM RESISTIVITY
 CALD.IN     45 280 60 00:   CALIPER FROM DENSITY LOG
 GRD .GAPI   45 310 01 00:   GAMMA RAY FROM DENSITY LOG
 TEND.LBS    45 635 01 00:   TENSION FROM DENSITY LOG
 RHOB.G/C3   45 350 01 00:   BULK DENSITY
 CORR.G/C3   45 356 01 00:   DENSITY CORRECTION
 NPHI.DEC    42 890 03 00:   NEUTRON POROSITY SANDSTONE
~PARAMETER INFORMATION
#MNEM.UNIT          VALUE    DESCRIPTION
#----------   ------------   ------------------------------
 EKB .F         5237.0000:   Kelly bushing
 EGL .F         5227.0000:   Ground level
 EDF .F            0.0000:   Drilling floor
 TD  .F         4200.0000:   Total depth
 DATE.        04-NOV-1978:   Date logged
 CLNT.            A2DTECH:   Client Code
 SL  . 70' FNL & 2370' FWL:   Surface Location
 PD  .                 GL:   Permanent Datum
 EPD .F              5227:   Elevation Permanent Datum
 LMF .                 KB:   Log Measured From
 DMF .                 KB:   Drilling Measured From
 DAPD.F                10:   Feet Above Permanent Datum
 DD  .F              4200:   Depth driller
 DL  .F              4191:   Depth logger
 BLI .F              4185:   Bottom log interval
 TLI .F               506:   Top log interval
 CS1 .IN            9.625:   Casing size
 CBD1.      9.625" @ 500':   Casing driller 1
 CBL1.F               506:   Casing logger 1
 BS1 .IN             8.75:   Bit size
 BSD1.F              4200:   Depth drilled with bit1
 DFT .                FGM:   Type fluid in hole
 DFD .                9.3:   Density
 DFV .                 42:   Viscosity
 DFPH.               11.5:   pH
 DFL .                6.4:   Fluid loss
 MSS .               TANK:   Source of sample
 RMS .OHMM           1.08:   Rm
 MST .F                67:   Rm Meas. temp.
 RMF .OHMM           0.83:   Rmf
 MFST.F                67:   Rmf Meas. temp.
 MFSS.               MEAS:   Source Rmf.
 RMB .OHMM           0.58:   Rm. at BHT
 BHT .F               125:   BHT.
 TCS .HRS            0430:   Time Circ. stopped
 TLAB.HRS            0830:   Time logger at bottom
 MRT .F               125:   Maximum recorded temp.
 LUN .               8039:   Logging unit number
 LUL .               CSPR:   Logging unit location
 ENGI.          STADULLIS:   Recorded By
 WITN.              AMEND:   Witnessed by
 ORIG.           5" PRINT:   Origin of data
 UWI .     49025107260000:   Unique Well ID
 DICO. A2D TECHNOLOGIES, INC.:   Digitizing Company
~OTHER INFORMATION
~A   DEPT     TENR        SPR        SFL        ILD        ILM       CALD         GRD      TEND       RHOB       CORR       NPHI   
# ...
 2944.0000  1195.5690   -22.9560     8.6100     7.7160     8.1450     9.9700   120.5300  1465.8630     2.5250     0.0130     0.2560
 2944.5000  1196.0240   -23.4350     8.9460     7.7160     8.0970     9.9370   121.5400  1465.8630     2.5180     0.0080     0.2510
 2945.0000  1196.4780   -23.9240     8.9780     7.7160     8.0490     9.9070   122.6150  1465.8630     2.5220     0.0080     0.2460
 2945.5000  1196.9330   -24.4990     9.0250     7.7160     8.0060     9.8760   123.5390  1465.8630     2.5250     0.0080     0.2400
 2946.0000  1197.3879   -25.1220     9.0730     7.9990     8.3230     9.8460   122.6640  1465.8630     2.5260     0.0090     0.2360
 2946.5000  1197.8430   -25.7500     9.1130     8.3920     8.6080     9.8150   119.8880  1465.8630     2.5310     0.0110     0.2360
 2947.0000  1198.2970   -26.3700     9.3960     8.7820     8.8940     9.7850   117.0980  1465.8630     2.5360     0.0190     0.2370
 2947.5000  1198.7520   -27.3190     9.8130     9.5050     9.4350     9.7400   116.4170  1465.8630     2.5440     0.0280     0.2360
 2948.0000  1199.2070   -28.4440    12.3380    10.6710    10.8180     9.6940   116.0160  1465.8630     2.5570     0.0350     0.2330
 2948.5000  1199.6620   -29.5210    15.3270    11.8370    12.2020     9.6330   111.8720  1465.8630     2.5740     0.0510     0.2310
 2949.0000  1200.1160   -30.5810    18.3150    13.0030    13.5850     9.5400   100.3010  1465.8630     2.5670     0.0670     0.2200
 2949.5000  1200.5710   -31.8140    22.5550    14.2050    14.9690     9.4460    89.2860  1465.8630     2.5490     0.0690     0.2080
 2950.0000  1201.0260   -33.1100    21.4460    14.9090    16.3520     9.3520    82.8320  1465.8630     2.5280     0.0610     0.1950
 2950.5000  1201.4800   -34.3820    19.5380    15.6370    17.7350     9.2560    83.6950  1465.8630     2.5080     0.0540     0.1780
 2951.0000  1201.9351   -35.6720    17.4100    16.5700    19.0960     9.2070    86.0650  1465.8630     2.4850     0.0500     0.1810
 2951.5000  1202.3900   -37.0260    18.6870    18.0620    19.1700     9.1760    82.6280  1465.8630     2.4510     0.0460     0.1910
 2952.0000  1202.8450   -38.1460    21.2410    19.5540    19.3160     9.1420    75.9980  1465.8630     2.4020     0.0270     0.2020
 2952.5000  1203.2990   -38.9320    24.2870    20.1860    19.4630     9.1070    69.3880  1466.1180     2.3430     0.0090     0.2100
 2953.0000  1203.7540   -39.6230    24.7400    20.6450    19.6100     9.0720    65.9360  1466.3950     2.3370     0.0020     0.2000
 2953.5000  1204.2090   -40.1010    24.4970    21.0300    19.7560     9.0550    65.9880  1466.6730     2.3340     0.0100     0.1900
 2954.0000  1204.6639   -40.5940    24.2640    21.4150    19.9030     9.0570    66.2270  1466.9510     2.3540     0.0240     0.1900
 2954.5000  1205.1180   -41.1010    24.0300    21.8000    20.0490     9.0570    66.9780  1467.2290     2.3860     0.0370     0.1880
 2955.0000  1205.5730   -41.5960    23.8420    22.1850    20.1960     9.0560    67.7250  1467.5070     2.4070     0.0490     0.1860
 2955.5000  1206.0280   -42.0960    23.5360    22.5550    20.3430     9.0570    68.4620  1467.7850     2.4080     0.0500     0.1840
 2956.0000  1206.4830   -42.5960    22.9760    22.0850    20.4890     9.0570    69.1920  1468.0620     2.4030     0.0530     0.1830
 2956.5000  1206.9370   -43.0960    23.6770    21.6330    21.2270     9.0570    70.0190  1468.3400     2.4180     0.0550     0.1840
 2957.0000  1207.3920   -43.5960    25.0790    21.3370    22.5550     9.0570    69.6530  1468.6180     2.4390     0.0550     0.1900
 2957.5000  1207.8470   -44.0940    25.6720    23.8330    23.8840     9.0580    68.9540  1468.8960     2.4460     0.0530     0.1950
 2958.0000  1208.3020   -44.5980    27.9820    26.4280    25.6720     9.0610    66.7880  1469.1740     2.4340     0.0490     0.1980
 2958.5000  1208.7560   -45.0970    29.9190    29.0240    25.5540     9.0650    63.1600  1469.4520     2.4150     0.0430     0.1910
 2959.0000  1209.2111   -45.5310    31.4640    30.8360    25.3740     9.0680    60.3020  1469.7300     2.3940     0.0380     0.1840
 2959.5000  1209.6660   -45.6500    31.0460    31.8640    25.1940     9.0720    58.7670  1470.0070     2.3810     0.0320     0.1760
 2960.0000  1210.1210   -45.7600    30.8880    32.8920    25.0140     9.0750    58.7580  1470.2850     2.3620     0.0270     0.1700
 2960.5000  1210.5750   -45.8580    33.2590    33.8800    24.8340     9.0790    58.2190  1470.5630     2.3430     0.0220     0.1740
 2961.0000  1211.0300   -45.9620    32.4730    32.7260    24.6540     9.0820    56.8470  1470.8409     2.3320     0.0160     0.1810
 2961.5000  1211.4850   -46.0760    29.5530    31.6140    24.4740     9.0860    56.2890  1471.1190     2.3190     0.0100     0.1830
 2962.0000  1211.9399   -46.1000    27.1370    30.8880    24.2870     9.0890    56.3610  1471.3970     2.3060     0.0100     0.1840
 2962.5000  1212.3940   -45.9750    26.1690    33.3570    25.3440     9.0930    59.8430  1471.6750     2.2980     0.0180     0.1880
 2963.0000  1212.8490   -45.8640    25.2020    37.6360    27.1770     9.0960    59.6210  1471.9520     2.3110     0.0260     0.1950
 2963.5000  1213.3040   -45.7380    26.7540    40.0160    29.2210     9.1000    57.8300  1472.2300     2.3220     0.0340     0.2030
 2964.0000  1213.7581   -45.5840    29.1270    49.7450    48.0480     9.1030    55.6950  1472.5081     2.3350     0.0400     0.2070
 2964.5000  1214.2130   -45.4110    33.9450    60.7430    69.3310     9.1070    53.8220  1472.7860     2.3380     0.0300     0.2020
 2965.0000  1214.6680   -45.2290    40.7630    71.7420    90.6140     9.1100    51.9050  1473.0640     2.3390     0.0190     0.1880
 2965.5000  1215.1230   -45.1300    54.9040    82.3170   111.8970     9.1140    50.0690  1473.3420     2.3390     0.0080     0.1760
 2966.0000  1215.5770   -45.1400    72.4110    95.5020   133.1800     9.1170    48.0070  1473.6200     2.4020    -0.0010     0.1440
 2966.5000  1216.0320   -45.1410    89.9180   108.1990   154.4630     9.1210    50.6920  1473.8970     2.4650    -0.0040     0.1140
 2967.0000  1216.4871   -45.1130   107.4260   121.3840   160.1930     9.1240    54.1010  1474.1750     2.5430    -0.0030     0.0840
 2967.5000  1216.9420   -45.0390   114.8330   121.3840   139.4630     9.1280    54.6540  1474.4530     2.5670    -0.0030     0.0670
 2968.0000  1217.3960   -44.9660   102.3920   112.8610   103.5310     9.1310    53.3970  1474.7310     2.5810     0.0160     0.0720
 2968.5000  1217.8510   -44.8930    77.9610    97.9710    67.5990     9.1350    51.9280  1475.0090     2.5880     0.0360     0.0850
 2969.0000  1218.3060   -44.8190    53.5300    83.0820    35.8130     9.1380    52.3410  1475.2870     2.5590     0.0570     0.0970
 2969.5000  1218.7610   -44.7450    28.1590    68.1920    34.9890     9.1400    54.6870  1475.5649     2.4840     0.0610     0.1280
 2970.0000  1219.2150   -44.6720    26.8970    53.3030    34.5130     9.1410    56.5110  1475.8420     2.4090     0.0610     0.1570
 2970.5000  1219.6700   -44.5980    25.6720    38.4130    31.2650     9.1430    59.7980  1476.1200     2.3710     0.0400     0.1870
 2971.0000  1220.1250   -44.5120    25.7540    31.6680    28.8150     9.1440    62.5700  1476.3979     2.3630     0.0280     0.1880
 2971.5000  1220.5800   -44.3920    25.8780    29.2350    25.2840     9.1460    65.5690  1476.6760     2.3570     0.0290     0.1890
 2972.0000  1221.0341   -44.2740    26.0030    27.6430    22.5550     9.1470    68.5610  1476.9540     2.3570     0.0350     0.1910
 2972.5000  1221.4890   -44.1550    26.1510    27.2560    22.4040     9.1490    71.5320  1477.2321     2.3640     0.0410     0.1960
 2973.0000  1221.9440   -44.0360    25.7120    26.5850    22.1430     9.1510    71.7820  1477.5090     2.3700     0.0470     0.2020
 2973.5000  1222.3990   -43.9170    24.6730    25.9130    21.8810     9.1520    70.2140  1477.7870     2.3720     0.0540     0.2020
 2974.0000  1222.8530   -43.7980    23.6340    25.2420    21.6200     9.1540    67.6630  1478.0649     2.3620     0.0480     0.2020
