~VERSION INFORMATION
 VERS.                2.0:   CWLS LOG ASCII STANDARD - VERSION 2.0
 WRAP.                 NO:   ONE LINE PER DEPTH STEP
~WELL INFORMATION
#MNEM.UNIT      DATA TYPE    INFORMATION
#----------   ------------   ------------------------------
 STRT.F           80.0000:   START DEPTH
 STOP.F         2730.0000:   STOP DEPTH
 STEP.F            0.5000:   STEP LENGTH
 NULL.          -999.2500:   NO VALUE
 COMP.          U.S. NAVY:   COMPANY
 WELL. US NPR 3 "AX" #57-20:   WELL
 FLD .             TEAPOT:   FIELD
 LOC .      S20 T39N R78W:   LOCATION
 CNTY.            NATRONA:   COUNTY
 STAT.            WYOMING:   STATE
 CTRY. UNITED STATES OF AMERICA:   COUNTRY
 SRVC.       SCHLUMBERGER:   SERVICE COMPANY
 DATE.        31-JUL-1964:   LOGDATE
 API .     49025066320000:   API NUMBER
~CURVE INFORMATION
#MNEM.UNIT       API CODE    CURVE DESCRIPTION
#----------   ------------   ------------------------------
 DEPT.F                  :   
 SPR .MV     01 010 01 00:   SPONTANEOUS POTENTIAL FROM RES.
 LN  .OHMM   01 060 39 00:   LONG NORMAL 39"
 ASN .OHMM   01 041 16 00:   AMPLIFIED SHORT NORMAL 16"
 LAT .OHMM   01 070 00 00:   LATERAL
 GRN .GAPI   35 310 30 00:   GAMMA RAY
 NEUT.NAPI   35 330 01 00:   NEUTRON
~PARAMETER INFORMATION
#MNEM.UNIT          VALUE    DESCRIPTION
#----------   ------------   ------------------------------
 EKB .F         5019.0000:   Kelly bushing
 EGL .F         5011.0000:   Ground level
 TD  .F         2696.0000:   Total depth
 DATE.        31-JUL-1964:   Date logged
 CLNT.            A2DTECH:   Client Code
 PD  .                 GL:   Permanent Datum
 EPD .F              5011:   Elevation Permanent Datum
 LMF .                 KB:   Log Measured From
 DMF .                 KB:   Drilling Measured From
 DAPD.F                 8:   Feet Above Permanent Datum
 DD  .F              2690:   Depth driller
 DL  .F              2696:   Depth logger
 BLI .F              2695:   Bottom log interval
 TLI .F                82:   Top log interval
 CS1 .IN            12.25:   Casing size
 CBD1.       12.25" @ 15':   Casing driller 1
 BS1 .IN               11:   Bit size
 BSD1.F              2690:   Depth drilled with bit1
 DFT .                GEL:   Type fluid in hole
 MSS .           FLOWLINE:   Source of sample
 RMS .OHMM           2.48:   Rm
 MST .F                83:   Rm Meas. temp.
 RMF .OHMM           1.87:   Rmf
 MFST.F                83:   Rmf Meas. temp.
 MFSS.                 FP:   Source Rmf.
 MCSS.                 FP:   Source Rmc.
 TCS .HRS               4:   Time Circ. stopped
 LUN .               3527:   Logging unit number
 LUL .               CSPR:   Logging unit location
 ENGI.            WINKLER:   Recorded By
 WITN.          GORGENSEN:   Witnessed by
 ORIG.         2.5" PRINT:   Origin of data
 UWI .     49025066320000:   Unique Well ID
 DICO.   A2D TECHNOLOGIES:   Digitizing Company
~OTHER INFORMATION
~A   DEPT      SPR         LN        ASN        LAT        GRN       NEUT   
# ...
  652.0000   -45.9800     9.9620     8.3750    11.1880  -999.2500  -999.2500
  652.5000   -45.9680     9.9720     8.4590    11.1520  -999.2500  -999.2500
  653.0000   -45.9550     9.9810     8.4960    11.1160  -999.2500  -999.2500
  653.5000   -45.9430     9.9910     8.4850    11.0800  -999.2500  -999.2500
  654.0000   -45.9300    10.0000     8.4810    11.0440  -999.2500  -999.2500
  654.5000   -45.9180    10.0090     8.4750    11.0080  -999.2500  -999.2500
  655.0000   -45.9040    10.0190     8.4690    10.9740  -999.2500  -999.2500
  655.5000   -45.9040    10.0280     8.4660    10.9410  -999.2500  -999.2500
  656.0000   -45.9200    10.0380     8.4550    10.9080  -999.2500  -999.2500
  656.5000   -45.9330    10.0470     8.4920    10.8740  -999.2500  -999.2500
  657.0000   -45.9470    10.0570     8.5740    10.8430  -999.2500  -999.2500
  657.5000   -45.9610    10.0660     8.6560    10.8060  -999.2500  -999.2500
  658.0000   -45.9750    10.0750     8.7000    10.8060  -999.2500  -999.2500
  658.5000   -45.9890    10.0860     8.7030    10.8430  -999.2500  -999.2500
  659.0000   -46.0030    10.0930     8.7130    10.8740  -999.2500  -999.2500
  659.5000   -46.0170    10.1240     8.7200    10.9080  -999.2500  -999.2500
  660.0000   -46.0310    10.1810     8.7310    10.9380  -999.2500  -999.2500
  660.5000   -46.0450    10.2340     8.7150    10.9790  -999.2500  -999.2500
  661.0000   -46.0590    10.2880     8.6750    10.9460  -999.2500  -999.2500
  661.5000   -46.0730    10.3420     8.6300    10.8390  -999.2500  -999.2500
  662.0000   -46.0870    10.3960     8.6340    10.7430  -999.2500  -999.2500
  662.5000   -46.1010    10.4500     8.6680    10.6430  -999.2500  -999.2500
  663.0000   -46.1150    10.5050     8.7890    10.5450  -999.2500  -999.2500
  663.5000   -46.1290    10.5580     9.0040    10.4450  -999.2500  -999.2500
  664.0000   -46.1430    10.6150     9.2030    10.3500  -999.2500  -999.2500
  664.5000   -46.1570    10.6600     9.4120    10.2410  -999.2500  -999.2500
  665.0000   -46.1700    10.7860     9.6080    10.2340  -999.2500  -999.2500
  665.5000   -46.1840    10.9920     9.8310    10.3290  -999.2500  -999.2500
  666.0000   -46.1980    11.1880     9.9050    10.4100  -999.2500  -999.2500
  666.5000   -46.2120    11.3820     9.9290    10.4960  -999.2500  -999.2500
  667.0000   -46.2260    11.5920    10.0650    10.5800  -999.2500  -999.2500
  667.5000   -46.2400    11.6900    10.1640    10.6660  -999.2500  -999.2500
  668.0000   -46.2540    11.6810    10.2590    10.7490  -999.2500  -999.2500
  668.5000   -46.2680    11.6610    10.3470    10.8460  -999.2500  -999.2500
  669.0000   -46.2830    11.6070    10.4750    10.9580  -999.2500  -999.2500
  669.5000   -46.2900    11.5590    10.6440    11.0670  -999.2500  -999.2500
  670.0000   -46.2890    11.5090    10.8060    11.1770  -999.2500  -999.2500
  670.5000   -46.2890    11.4600    10.9760    11.2870  -999.2500  -999.2500
  671.0000   -46.2890    11.4110    11.1280    11.3970  -999.2500  -999.2500
  671.5000   -46.2890    11.3610    11.3500    11.5070  -999.2500  -999.2500
  672.0000   -46.2890    11.3120    11.2380    11.6150  -999.2500  -999.2500
  672.5000   -46.2890    11.2620    10.8700    11.7310  -999.2500  -999.2500
  673.0000   -46.2890    11.2130    10.5500    11.7950  -999.2500  -999.2500
  673.5000   -46.2890    11.1630    10.1980    11.8080  -999.2500  -999.2500
  674.0000   -46.2890    11.1140     9.9620    11.8300  -999.2500  -999.2500
  674.5000   -46.2890    11.0640     9.8360    11.8480  -999.2500  -999.2500
  675.0000   -46.2890    11.0150     9.6920    11.8670  -999.2500  -999.2500
  675.5000   -46.2890    10.9650     9.5550    11.8860  -999.2500  -999.2500
  676.0000   -46.2890    10.9160     9.4190    11.9050  -999.2500  -999.2500
  676.5000   -46.2890    10.8660     9.2740    11.9240  -999.2500  -999.2500
  677.0000   -46.2890    10.8170     9.1850    11.9420  -999.2500  -999.2500
  677.5000   -46.2900    10.7670     9.1510    11.9610  -999.2500  -999.2500
  678.0000   -46.2820    10.7180     9.1090    11.9800  -999.2500  -999.2500
  678.5000   -46.2670    10.6690     9.0690    11.9990  -999.2500  -999.2500
  679.0000   -46.2530    10.6190     9.0420    12.0180  -999.2500  -999.2500
  679.5000   -46.2380    10.5700     9.0310    12.0370  -999.2500  -999.2500
  680.0000   -46.2240    10.5180     9.0160    12.0560  -999.2500  -999.2500
  680.5000   -46.2090    10.4890     9.0160    12.0740  -999.2500  -999.2500
  681.0000   -46.1950    10.4820     9.0300    12.0930  -999.2500  -999.2500
  681.5000   -46.1810    10.4720     9.0430    12.1120  -999.2500  -999.2500
  682.0000   -46.1660    10.4640     9.0560    12.1310  -999.2500  -999.2500
  682.5000   -46.1520    10.4550     9.0690    12.1490  -999.2500  -999.2500
  683.0000   -46.1370    10.4460     9.0820    12.1700  -999.2500  -999.2500
  683.5000   -46.1230    10.4370     9.0960    12.1740  -999.2500  -999.2500
  684.0000   -46.1080    10.4280     9.1070    12.1610  -999.2500  -999.2500
  684.5000   -46.0940    10.4190     9.1250    12.1510  -999.2500  -999.2500
  685.0000   -46.0790    10.4100     9.1030    12.1400  -999.2500  -999.2500
  685.5000   -46.0650    10.4010     9.0410    12.1290  -999.2500  -999.2500
  686.0000   -46.0500    10.3920     8.9860    12.1180  -999.2500  -999.2500
  686.5000   -46.0360    10.3830     8.9280    12.1070  -999.2500  -999.2500
  687.0000   -46.0210    10.3740     8.8710    12.0960  -999.2500  -999.2500
  687.5000   -46.0070    10.3650     8.8140    12.0850  -999.2500  -999.2500
  688.0000   -45.9930    10.3560     8.7570    12.0740  -999.2500  -999.2500
  688.5000   -45.9780    10.3470     8.7000    12.0630  -999.2500  -999.2500
  689.0000   -45.9640    10.3380     8.6430    12.0520  -999.2500  -999.2500
  689.5000   -45.9490    10.3290     8.5920    12.0410  -999.2500  -999.2500
  690.0000   -45.9340    10.3190     8.5740    12.0300  -999.2500  -999.2500
  690.5000   -45.9210    10.3120     8.5750    12.0190  -999.2500  -999.2500
  691.0000   -45.9040    10.3000     8.5910    12.0080  -999.2500  -999.2500
  691.5000   -45.9140    10.3130     8.6540    11.9960  -999.2500  -999.2500
  692.0000   -45.9530    10.3520     8.7330    11.9870  -999.2500  -999.2500
  692.5000   -45.9870    10.3870     8.8210    11.9630  -999.2500  -999.2500
  693.0000   -46.0230    10.4230     8.9220    11.9260  -999.2500  -999.2500
  693.5000   -46.0580    10.4590     9.0200    11.8900  -999.2500  -999.2500
  694.0000   -46.0930    10.4950     9.1190    11.8540  -999.2500  -999.2500
  694.5000   -46.1290    10.5310     9.2180    11.8180  -999.2500  -999.2500
  695.0000   -46.1640    10.5660     9.3170    11.7820  -999.2500  -999.2500
  695.5000   -46.2000    10.6020     9.4150    11.7460  -999.2500  -999.2500
  696.0000   -46.2350    10.6380     9.5170    11.7100  -999.2500  -999.2500
  696.5000   -46.2710    10.6740     9.5870    11.6740  -999.2500  -999.2500
  697.0000   -46.3060    10.7100     9.6150    11.6390  -999.2500  -999.2500
  697.5000   -46.3410    10.7460     9.6390    11.6010  -999.2500  -999.2500
  698.0000   -46.3770    10.7820     9.6630    11.5790  -999.2500  -999.2500
  698.5000   -46.4120    10.8180     9.6870    11.5710  -999.2500  -999.2500
  699.0000   -46.4480    10.8540     9.7090    11.5620  -999.2500  -999.2500
  699.5000   -46.4830    10.8900     9.7480    11.5530  -999.2500  -999.2500
  700.0000   -46.5180    10.9260     9.8000    11.5440  -999.2500  -999.2500
  700.5000   -46.5540    10.9610     9.8570    11.5350  -999.2500  -999.2500
  701.0000   -46.5900    10.9980     9.8680    11.5260  -999.2500  -999.2500
  701.5000   -46.6240    11.0320     9.8280    11.5170  -999.2500  -999.2500
  702.0000   -46.6630    11.0720     9.7960    11.5080  -999.2500  -999.2500
  702.5000   -46.6710    11.0810     9.7610    11.4990  -999.2500  -999.2500
  703.0000   -46.6450    11.0540     9.7270    11.4900  -999.2500  -999.2500
  703.5000   -46.6240    11.0330     9.6930    11.4810  -999.2500  -999.2500
