~VERSION INFORMATION
 VERS.                2.0:   CWLS LOG ASCII STANDARD - VERSION 2.0
 WRAP.                 NO:   ONE LINE PER DEPTH STEP
~WELL INFORMATION
#MNEM.UNIT      DATA TYPE    INFORMATION
#----------   ------------   ------------------------------
 STRT.F          200.0000:   START DEPTH
 STOP.F         3050.0000:   STOP DEPTH
 STEP.F            0.5000:   STEP LENGTH
 NULL.          -999.2500:   NO VALUE
 COMP.     FENIX & SISSON:   COMPANY
 WELL. FENIX & SISSON "AX" #16-28:   WELL
 FLD .              NPR 3:   FIELD
 LOC .      S28 T39N R78W:   LOCATION
 CNTY.            NATRONA:   COUNTY
 STAT.            WYOMING:   STATE
 CTRY. UNITED STATES OF AMERICA:   COUNTRY
 SRVC.      DRESSER ATLAS:   SERVICE COMPANY
 DATE.        01-JUL-1977:   LOGDATE
 API .     49025103930000:   API NUMBER
~CURVE INFORMATION
#MNEM.UNIT       API CODE    CURVE DESCRIPTION
#----------   ------------   ------------------------------
 DEPT.F                  :   
 CALD.IN     45 280 60 00:   CALIPER FROM DENSITY LOG
 GRD .GAPI   45 310 01 00:   GAMMA RAY FROM DENSITY LOG
 CORR.G/C3   45 356 01 00:   DENSITY CORRECTION
 TEND.LBS    45 635 01 00:   TENSION FROM DENSITY LOG
 SPR .MV     07 010 01 00:   SPONTANEOUS POTENTIAL
 ILD .OHMM   07 120 46 00:   DEEP INDUCTION RESISTIVITY
 ILM .OHMM   07 120 44 00:   INDUCTION LOG MEDIUM RESISTIVITY
 SFL .OHMM   07 220 01 00:   SHALLOW FOCUSED LOG RESISTIVITY
 RHOB.G/C3   45 350 01 00:   BULK DENSITY
~PARAMETER INFORMATION
#MNEM.UNIT          VALUE    DESCRIPTION
#----------   ------------   ------------------------------
 EKB .F         5067.0000:   Kelly bushing
 EGL .F         5057.0000:   Ground level
 EDF .F         5066.0000:   Drilling floor
 EPD .F            0.0000:   Permanent datum
 TD  .F         3036.0000:   Total depth
 DATE.        01-JUL-1977:   Date logged
 CLNT.            A2DTECH:   Client Code
 SL  . 1220' FSL & 330' FWL:   Surface Location
 PD  .                 GL:   Permanent Datum
 DAPD.F                10:   Feet Above Permanent Datum
 DD  .F              3034:   Depth driller
 DL  .F              3036:   Depth logger
 BLI .F              3034:   Bottom log interval
 TLI .F               214:   Top log interval
 CS1 .IN            8.625:   Casing size
 CBD1.      8.625" @ 204':   Casing driller 1
 CBL1.F               214:   Casing logger 1
 BS1 .IN            7.875:   Bit size
 BSD1.F              3034:   Depth drilled with bit1
 DFT .                KCL:   Type fluid in hole
 DFD .                  9:   Density
 DFV .                 34:   Viscosity
 DFPH.                7.2:   pH
 DFL .                8.8:   Fluid loss
 MSS .         CIRCULATED:   Source of sample
 RMS .OHMM           .112:   Rm
 MST .F                75:   Rm Meas. temp.
 RMF .OHMM           .085:   Rmf
 MFST.F                75:   Rmf Meas. temp.
 RMC .OHMM           .141:   Rmc
 MCST.F                75:   Rmc Meas. temp.
 MFSS.               MEAS:   Source Rmf.
 MCSS.               MEAS:   Source Rmc.
 RMB .OHMM           .067:   Rm. at BHT
 BHT .F               124:   BHT.
 TCS .HRS               1:   Time Circ. stopped
 MRT .F               124:   Maximum recorded temp.
 LUN .               6134:   Logging unit number
 LUL .              GLTTE:   Logging unit location
 ENGI.              GOULD:   Recorded By
 WITN.         PETTINGILL:   Witnessed by
 ORIG.       2.5"5" PRINT:   Origin of data
 UWI .     49025103930000:   Unique Well ID
 DICO. A2D TECHNOLOGIES, INC.:   Digitizing Company
~OTHER INFORMATION
~A   DEPT     CALD         GRD      CORR       TEND        SPR        ILD        ILM        SFL       RHOB   
# ...
 2463.0000     7.8880   100.5960     0.0740    -8.6640   -62.6590     8.8250     8.6180    11.2430     2.6070
 2463.5000     7.9120    99.8220     0.0690   -41.7990   -63.1900     8.2640     9.2080    11.4510     2.6060
 2464.0000     7.9620    99.6760     0.0730   -76.3890   -63.6930     7.7030     9.7070    12.0080     2.6110
 2464.5000     7.9840   100.8900     0.0810   -44.7090   -64.2140     7.1050     9.7070    12.5650     2.6270
 2465.0000     7.9410   102.5800     0.0790   -20.5280   -64.7400     7.1050     9.7070    13.1230     2.6300
 2465.5000     7.8990   102.0440     0.0690   -43.4680   -65.2510     7.1050     9.7070    13.5080     2.6160
 2466.0000     7.8870   100.1960     0.0650   -66.4070   -65.7880     7.1050     9.7070    13.5080     2.6100
 2466.5000     7.9310   100.2270     0.0630   -67.7500   -65.9120     7.1050     9.7070    12.4960     2.6110
 2467.0000     7.9860    99.9470     0.0590   -52.4570   -65.8180     7.1050     9.7070    11.2430     2.6030
 2467.5000     7.9850    98.6490     0.0540   -36.7060   -65.7440     7.1050     9.7070    11.2930     2.5930
 2468.0000     7.9520    97.3870     0.0490   -38.3130   -65.6730     6.9480     9.6670    11.5000     2.5800
 2468.5000     7.9210    97.3930     0.0440   -39.9700   -65.5920     6.7240     9.6180    11.6630     2.5640
 2469.0000     7.8890    98.4950     0.0460   -41.6270   -65.5480     6.7460     9.5700    11.6630     2.5650
 2469.5000     7.9020    98.0240     0.0520   -43.2840   -65.5340     6.8010     9.5310    11.6630     2.5750
 2470.0000     7.9580    98.9480     0.0610   -44.9400   -64.9980     6.8570     9.2860    12.0690     2.5940
 2470.5000     8.0070   100.4350     0.0610   -46.6270   -64.4450     6.9120     9.0790    12.4140     2.5960
 2471.0000     7.9340   100.1120     0.0610   -41.7460   -65.0550     6.9670     8.8560    12.7840     2.5920
 2471.5000     7.9080    99.5370     0.0650   -36.7060   -65.4980     7.0220     8.9030    12.4720     2.5930
 2472.0000     7.9180    99.7950     0.0680  -165.9600   -65.2750     7.0770     8.9530    12.0990     2.5980
 2472.5000     7.9350   100.1270     0.0700   -63.3930   -65.0510     7.1100     9.0200    11.8790     2.6020
 2473.0000     7.9550   100.0250     0.0710   112.1030   -64.7830     7.1190     8.9320    12.3850     2.6070
 2473.5000     7.9840    99.4800     0.0670   -12.9300   -64.5660     7.1270     8.8010    12.8530     2.6080
 2474.0000     8.0640    98.8330     0.0610   -96.2300   -64.3920     7.1360     8.6700    13.0970     2.6080
 2474.5000     8.1740    97.9340     0.0540   -87.9910   -65.1370     7.1450     8.5390    13.2620     2.5930
 2475.0000     8.0210    98.0790     0.0470   -74.1840   -65.7360     7.1540     8.4100    12.9960     2.5750
 2475.5000     7.9840    98.6980     0.0480   -60.3780   -66.3460     7.1630     8.4590    12.5520     2.5680
 2476.0000     8.0310    99.2640     0.0500   -46.6270   -66.8960     7.1720     8.5560    12.7390     2.5690
 2476.5000     8.1200    99.8100     0.0550   -34.8860   -67.4760     7.1810     8.6530    13.5540     2.5770
 2477.0000     8.1780    99.5200     0.0600   -23.1910   -67.3600     7.1900     8.7510    14.0130     2.5840
 2477.5000     8.2060    98.7530     0.0610   -11.4960   -67.2150     7.1990     8.8560    14.0130     2.5770
 2478.0000     8.1550   100.2270     0.0570   -13.9500   -67.0370     7.2080     9.0200    13.4570     2.5650
 2478.5000     8.0690   103.6980     0.0490   -25.4200   -66.8850     7.2170     8.8030    12.7840     2.5500
 2479.0000     7.9560   104.8220     0.0520   -36.7060   -66.7460     7.2250     8.4930    13.4330     2.5500
 2479.5000     7.8870   105.5820     0.0570   -16.8650   -66.8340     7.2340     8.1830    14.2730     2.5750
 2480.0000     7.9460   103.4300     0.0620   -53.0050   -66.9210     7.2050     7.8730    14.5370     2.5870
 2480.5000     8.1730   101.6660     0.0630   -66.4680   -67.0170     7.1700     7.5070    13.1760     2.5940
 2481.0000     8.2310   102.8130     0.0630   -66.4680   -67.1070     7.1340     7.5420    11.8790     2.5930
 2481.5000     8.0550   102.8720     0.0620   -47.8370   -67.2010     7.1050     7.5850    10.8910     2.5820
 2482.0000     8.0470   102.1130     0.0630   -18.0160   -67.2930     6.8780     7.6460     9.8870     2.5700
 2482.5000     8.1150   101.8770     0.0640   -53.8190   -67.3790     6.6880     7.4570     9.8870     2.5640
 2483.0000     8.1790   102.2530     0.0690  -125.9920   -67.4940     6.4980     7.1050    15.0810     2.5740
 2483.5000     8.2200   101.4830     0.0740    47.1110   -67.3690     6.3080     7.0800    13.3920     2.5850
 2484.0000     8.1220   100.3130     0.0770   141.8650   -67.0120     6.1170     7.0540    10.9780     2.5970
 2484.5000     8.0460    99.1700     0.0780   -26.7860   -66.7100     6.0230     7.0270     9.8870     2.6140
 2485.0000     8.0430    98.0630     0.0770   -52.5790   -66.3740     6.0230     7.0010    10.2910     2.6180
 2485.5000     8.1650    96.5330     0.0740   -66.4680   -66.5830     6.0230     6.9760    10.8370     2.6150
 2486.0000     8.2540    96.9190     0.0640   -66.4680   -66.8530     6.0230     7.2790    10.8370     2.6000
 2486.5000     8.1190    98.0750     0.0590   -66.4680   -67.1360     6.0230     7.9700     9.7230     2.5890
 2487.0000     8.0260    98.1410     0.0590   -66.4680   -67.4140     6.0660     8.2290     8.6950     2.5920
 2487.5000     8.0790    98.0700     0.0590   -66.4680   -67.6890     6.1360     8.1100    11.8290     2.5970
 2488.0000     8.1510    96.8100     0.0600   -74.5540   -67.8930     6.2050     7.9640    15.6910     2.5950
 2488.5000     8.2030    95.8280     0.0620   -83.4490   -67.7030     6.3440     8.1930    14.1940     2.5960
 2489.0000     8.1340    95.7560     0.0640   -91.7330   -67.5450     6.6000     8.5280    11.6630     2.6020
 2489.5000     7.9920    96.3060     0.0630   -50.7940   -67.3670     6.8550     8.8620    11.4510     2.6000
 2490.0000     7.9880    96.8830     0.0620    42.6590   -67.1990     6.9810     9.0340    12.0620     2.5970
 2490.5000     8.0240    97.3740     0.0610    -6.2570   -67.0280     6.9900     9.0590    13.2190     2.5980
 2491.0000     8.0590    97.5500     0.0650   -52.4090   -66.8530     6.9990     9.0850    14.2730     2.6040
 2491.5000     8.0950    96.9480     0.0650   -58.4550   -66.7330     7.0080     9.1110    13.9770     2.6060
 2492.0000     8.1240    98.1620     0.0610    46.4730   -66.7340     7.0170     9.1360    12.9070     2.5920
 2492.5000     8.1530    98.2440     0.0610   113.8390   -66.7310     7.0260     9.1620    11.6630     2.5840
 2493.0000     8.1820    97.9340     0.0680   121.8250   -66.7320     7.0350     9.1870    11.4510     2.5880
 2493.5000     8.1450    98.1840     0.0760    84.5490   -66.7320     7.0440     8.9220    12.4240     2.6110
 2494.0000     8.0980    98.3600     0.0760    47.2720   -66.7320     7.0530     8.6640    14.0130     2.6130
 2494.5000     8.0850    97.6670     0.0690    12.8970   -66.7320     7.0620     8.4060    13.7080     2.5910
 2495.0000     8.1070    96.9700     0.0620   -28.7700   -66.7310     7.0710     8.1480    13.2620     2.5730
 2495.5000     8.1520    96.3280     0.0560   -51.3020   -66.7330     7.0810     7.8890    13.3290     2.5660
 2496.0000     8.1640    97.2190     0.0560   -32.6640   -66.7330     7.0900     7.5070    13.5080     2.5670
 2496.5000     8.1640    97.0910     0.0590   -34.6380   -66.7260     7.0990     7.6670    12.9870     2.5730
 2497.0000     8.1640    97.2580     0.0640   -46.1080   -66.8270     7.1060     7.9740    11.8790     2.5820
 2497.5000     8.1640    98.4980     0.0680   -56.5480   -67.1580     7.1050     8.3810    11.6630     2.5940
 2498.0000     8.1600    97.3750     0.0720   -56.5480   -67.4730     7.1050     8.3670    13.1760     2.6080
 2498.5000     8.1440    96.4970     0.0740   -56.5480   -67.7930     7.1050     8.3460    14.5750     2.6110
 2499.0000     8.1280    96.3840     0.0680   -48.3470   -68.1470     7.1050     8.3250    15.9340     2.6000
