~VERSION INFORMATION
 VERS.                2.0:   CWLS LOG ASCII STANDARD - VERSION 2.0
 WRAP.                 NO:   ONE LINE PER DEPTH STEP
~WELL INFORMATION
#MNEM.UNIT      DATA TYPE    INFORMATION
#----------   ------------   ------------------------------
 STRT.F            0.0000:   START DEPTH
 STOP.F         5576.0000:   STOP DEPTH
 STEP.F            0.5000:   STEP LENGTH
 NULL.          -999.2500:   NO VALUE
 COMP.      FLUCOR DANIEL:   COMPANY
 WELL.  FLUCOR "X" #76-10:   WELL
 FLD .          N.P.R. #3:   FIELD
 LOC .      S10 T38N R78W:   LOCATION
 CNTY.            NATRONA:   COUNTY
 STAT.            WYOMING:   STATE
 CTRY. UNITED STATES OF AMERICA:   COUNTRY
 SRVC. ATLAS WIRELINE SERVICES:   SERVICE COMPANY
 DATE.        16-MAR-1995:   LOGDATE
 API .     49025226860000:   API NUMBER
~CURVE INFORMATION
#MNEM.UNIT       API CODE    CURVE DESCRIPTION
#----------   ------------   ------------------------------
 DEPT.F                  :   
 CNC .DEC    42 890 01 00:   NEUTRON POROSITY LIMESTONE
 CALD.IN     45 280 60 00:   CALIPER FROM DENSITY LOG
 ZDEN.G/C3   45 350 01 00:   BULK DENSITY
 ZCOR.G/C3   45 356 01 00:   DENSITY CORRECTION
 RILD.OHMM   07 120 46 00:   INDUCTION LOG DEEP RESISTIVITY
 RILM.OHMM   07 120 44 00:   INDUCTION LOG MEDIUM RESISTIVITY
 RS  .OHMM   11 220 10 00:   RESISTIVITY SHALLOW
 RD  .OHMM   11 220 09 00:   RESISTIVITY DEEP
 GRR .GAPI   07 310 01 00:   GAMMA RAY
 TENR.LBS    07 635 01 00:   TENSION FROM RESISTIVITY
~PARAMETER INFORMATION
#MNEM.UNIT          VALUE    DESCRIPTION
#----------   ------------   ------------------------------
 EKB .F         5191.0000:   Kelly bushing
 EGL .F         5101.0000:   Ground level
 EDF .F         5190.0000:   Drilling floor
 TD  .F         5582.0000:   Total depth
 CLNT.            A2DTECH:   Client Code
 SL  . 1896' FSL & 832' FEL:   Surface Location
 PD  .                 GL:   Permanent Datum
 EPD .F              5181:   Elevation Permanent Datum
 LMF .                 KB:   Log Measured From
 DMF .                 KB:   Drilling Measured From
 DAPD.F                10:   Feet Above Permanent Datum
 DATE.        16-MAR-1995:   Date Logged [DD-MMM-YYYY]
 DD  .F              5582:   Depth driller
 DL  .F              5578:   Depth logger
 BLI .F              5566:   Bottom log interval
 TLI .F               518:   Top log interval
 CS1 .IN            8.625:   Casing size
 CBD1.      8.625" @ 519':   Casing driller 1
 CBL1.F               518:   Casing logger 1
 BS1 .IN             8.75:   Bit size
 BSD1.F              5582:   Depth drilled with bit1
 DFT .               LSND:   Type fluid in hole
 DFD .               10.1:   Density
 DFV .                 52:   Viscosity
 DFPH.                9.5:   pH
 DFL .                7.2:   Fluid loss
 MSS .           FLOWLINE:   Source of sample
 RMS .OHMM          0.536:   Rm
 MST .F                70:   Rm Meas. temp.
 RMF .OHMM          0.415:   Rmf
 MFST.F                70:   Rmf Meas. temp.
 MFSS.               MEAS:   Source Rmf.
 RMC .OHMM          0.646:   Rmc
 MCST.F                70:   Rmc Meas. temp.
 MCSS.               MEAS:   Source Rmc.
 RMB .OHMM          0.228:   Rm. at BHT
 BHT .F               165:   BHT.
 TCS .HRS             6.5:   Time Circ. stopped
 MRT .F               165:   Maximum recorded temp.
 LUN .            HL-6530:   Logging unit number
 LUL .             CASPER:   Logging unit location
 ENGI.      PAT RASMUSSEN:   Recorded By
 WITN.        GARY STRONG:   Witnessed by
 ORIG.           5" PRINT:   Origin of data
 UWI .     49025226860000:   Unique Well ID
 DICO. A2D TECHNOLOGIES, INC.:   Digitizing Company
~OTHER INFORMATION
~A  DEPTH      CNC       CALD       ZDEN       ZCOR       RILD       RILM         RS         RD        GRR       TENR
# ...
 4154.0000     0.1424    10.0157     2.4884     0.0039  -999.2500  -999.2500     9.7198    12.4057    41.6692   -36.1028
 4154.5000     0.1448    10.0154     2.4876    -0.0067  -999.2500  -999.2500     9.5799    12.3992    41.6518   -13.0909
 4155.0000     0.1478    10.0302     2.4853    -0.0038  -999.2500  -999.2500     9.2456    12.0527    41.9419     9.8519
 4155.5000     0.1526    10.0451     2.4852     0.0022  -999.2500  -999.2500     8.9243    11.5345    41.0111    25.2418
 4156.0000     0.1563    10.0447     2.4860     0.0066  -999.2500  -999.2500     8.5544    10.7704    39.4786    40.6344
 4156.5000     0.1599    10.0292     2.4806     0.0050  -999.2500  -999.2500     8.3147    10.2532    39.1166    40.9868
 4157.0000     0.1626    10.0139     2.4723     0.0020  -999.2500  -999.2500     7.9690     9.8975    38.8378    26.0940
 4157.5000     0.1672    10.0136     2.4595    -0.0026  -999.2500  -999.2500     7.8542     9.6207    39.1235    11.2725
 4158.0000     0.1660    10.0133     2.4495    -0.0042  -999.2500  -999.2500     7.9608     9.5479    39.1018    -3.4782
 4158.5000     0.1648    10.0255     2.4518    -0.0041  -999.2500  -999.2500     8.0664     9.6108    40.5996    -3.1229
 4159.0000     0.1648    10.0251     2.4555    -0.0029  -999.2500  -999.2500     8.2879     9.8070    42.7552   -10.4627
 4159.5000     0.1602    10.0246     2.4615    -0.0105  -999.2500  -999.2500     8.4577    10.0293    45.4090   -17.7314
 4160.0000     0.1596    10.0242     2.4691    -0.0136  -999.2500  -999.2500     8.6912    10.4284    50.2401   -24.9292
 4160.5000     0.1575    10.0237     2.4833    -0.0091  -999.2500  -999.2500     8.9935    10.8672    50.2227   -17.0213
 4161.0000     0.1475    10.0233     2.4961    -0.0077  -999.2500  -999.2500     9.7693    11.4831    50.2054    -9.1843
 4161.5000     0.1321    10.0228     2.5074    -0.0108  -999.2500  -999.2500    10.9131    12.8266    50.1879    -8.9001
 4162.0000     0.1109    10.0224     2.5272    -0.0199  -999.2500  -999.2500    12.1062    15.6855    48.6512   -16.1688
 4162.5000     0.0936    10.0219     2.5506    -0.0230  -999.2500  -999.2500    14.8035    18.9165    45.3005   -61.1310
 4163.0000     0.0885    10.0215     2.5642    -0.0216  -999.2500  -999.2500    19.2686    22.6550    41.3437   -83.5763
 4163.5000     0.0867    10.0210     2.5718    -0.0156  -999.2500  -999.2500    21.0799    25.6603    39.5082   -68.1155
 4164.0000     0.0852    10.0205     2.5724    -0.0202  -999.2500  -999.2500    21.6619    27.4945    40.7030   -60.2719
 4164.5000     0.0852    10.0201     2.5701    -0.0233  -999.2500  -999.2500    22.1057    28.2592    40.9887   -59.9234
 4165.0000     0.0855    10.0196     2.5648    -0.0264  -999.2500  -999.2500    22.7128    28.2407    40.6639   -59.6392
 4165.5000     0.0855    10.0192     2.5504    -0.0235  -999.2500  -999.2500    23.0208    27.8323    38.8284   -59.3550
 4166.0000     0.0883    10.0187     2.5360    -0.0190  -999.2500  -999.2500    22.6860    26.6805    36.6898   -59.0635
 4166.5000     0.1067    10.0183     2.5254    -0.0161  -999.2500  -999.2500    21.1345    25.2231    38.1876   -58.7158
 4167.0000     0.1242    10.0178     2.5231    -0.0146  -999.2500  -999.2500    17.6369    21.0388    43.1332   -58.4316
 4167.5000     0.1378    10.0174     2.5269    -0.0102  -999.2500  -999.2500    14.1088    15.1615    48.7546   -58.1478
 4168.0000     0.1410    10.0169     2.5413    -0.0057  -999.2500  -999.2500    12.7033    13.2774    53.2827   -57.8550
 4168.5000     0.1425    10.0165     2.5533    -0.0103  -999.2500  -999.2500    11.8365    12.0390    56.9017   -57.5082
 4169.0000     0.1410    10.0160     2.5593    -0.0104  -999.2500  -999.2500    11.2715    11.8665    57.7939   -57.2243
 4169.5000     0.1384    10.0156     2.5645    -0.0060  -999.2500  -999.2500    11.2649    12.0264    55.3045   -72.0544
 4170.0000     0.1370    10.0151     2.5743    -0.0030  -999.2500  -999.2500    11.3368    12.0185    52.9059   -71.7523
 4170.5000     0.1370    10.0147     2.5918     0.0014  -999.2500  -999.2500    11.3301    11.8463    53.1916   -79.0304
 4171.0000     0.1367    10.0142     2.5984     0.0044  -999.2500  -999.2500    11.2433    11.6765    54.6894   -78.6754
 4171.5000     0.1510    10.0137     2.6014    -0.0033  -999.2500  -999.2500    10.9284    11.2700    57.3993   -85.9517
 4172.0000     0.1549    10.0133     2.6006    -0.0094  -999.2500  -999.2500    10.4028    10.2901    61.9645   -93.2128
 4172.5000     0.1531    10.0128     2.5855    -0.0110  -999.2500  -999.2500     9.8293     9.7280    68.8754   -85.3757
 4173.0000     0.1473    10.0124     2.5724    -0.0095  -999.2500  -999.2500     9.3596     9.5221    68.5550  -100.1264
 4173.5000     0.1401    10.0119     2.5681    -0.0081  -999.2500  -999.2500     9.2906     9.8527    64.5983   -99.8422
 4174.0000     0.1340    10.0115     2.5544    -0.0066  -999.2500  -999.2500    10.5222    10.7049    59.1263   -99.4872
 4174.5000     0.1316    10.0110     2.5280    -0.0052  -999.2500  -999.2500    12.0286    11.6307    51.8363   -99.2030
 4175.0000     0.1310    10.0106     2.5181     0.0007  -999.2500  -999.2500    13.3122    12.8138    47.8752   -98.9188
 4175.5000     0.1297    10.0101     2.5173     0.0067  -999.2500  -999.2500    13.7753    14.1152    46.9487   -98.6347
 4176.0000     0.1256    10.0097     2.5369     0.0082  -999.2500  -999.2500    13.9621    14.8118    46.3253   -98.2796
 4176.5000     0.1219    10.0092     2.5558     0.0066  -999.2500  -999.2500    14.1562    15.2218    46.3079   -97.9954
 4177.0000     0.1207    10.0088     2.5656     0.0018  -999.2500  -999.2500    14.3371    15.2138    46.5939  -105.3353
 4177.5000     0.1220    10.0083     2.5678    -0.0057  -999.2500  -999.2500    14.1286    14.9938    46.5757  -112.5378
 4178.0000     0.1389    10.0079     2.5580    -0.0118  -999.2500  -999.2500    13.1714    13.8820    47.4637  -112.1777
 4178.5000     0.1488    10.0074     2.5489    -0.0119  -999.2500  -999.2500    11.1075    12.5000    51.3857  -111.8939
 4179.0000     0.1510    10.0069     2.5398    -0.0118  -999.2500  -999.2500    10.0984    11.1752    55.6108  -111.6097
 4179.5000     0.1483    10.0065     2.5284    -0.0075  -999.2500  -999.2500    10.0924    10.8636    57.1091   -96.2198
 4180.0000     0.1383    10.0060     2.5146    -0.0045  -999.2500  -999.2500    10.8131    11.0869    53.0522   -88.3119
 4180.5000     0.1277    10.0056     2.5102    -0.0016  -999.2500  -999.2500    12.4619    11.8794    44.9483   -95.5806
 4181.0000     0.1238    10.0051     2.5110    -0.0018  -999.2500  -999.2500    14.4632    13.2905    39.1734   -95.2964
 4181.5000     0.1219    10.0047     2.5140    -0.0093  -999.2500  -999.2500    15.0730    15.2421    38.8530   -95.0122
 4182.0000     0.1199    10.0041     2.5154    -0.0169  -999.2500  -999.2500    14.8538    16.3337    41.5629   -87.1043
 4182.5000     0.1244    10.0037     2.5048    -0.0170  -999.2500  -999.2500    14.4374    15.9859    43.3637   -79.2673
 4183.0000     0.1271    10.0033     2.5010    -0.0125  -999.2500  -999.2500    14.3271    15.6475    43.3420   -63.8773
 4183.5000     0.1277    10.0029     2.5010    -0.0036  -999.2500  -999.2500    14.7226    15.5310    42.4156   -56.0403
 4184.0000     0.1229    10.0175     2.5040    -0.0006  -999.2500  -999.2500    15.4485    16.7573    41.4891   -48.1324
 4184.5000     0.1211    10.0170     2.5223    -0.0022  -999.2500  -999.2500    15.5469    16.7463    41.1731   -25.1896
 4185.0000     0.1217    10.0015     2.5455    -0.0053  -999.2500  -999.2500    15.0044    15.8169    41.7576    -2.2468
 4185.5000     0.1277     9.9859     2.5568    -0.0084  -999.2500  -999.2500    13.0479    14.1547    45.5645    13.1428
 4186.0000     0.1411     9.9855     2.5620    -0.0130  -999.2500  -999.2500    11.1121    11.7247    54.4457    36.1568
 4186.5000     0.1550     9.9850     2.5650    -0.0131  -999.2500  -999.2500    10.1439    10.8553    60.7919    28.8881
 4187.0000     0.1613     9.9996     2.5650    -0.0131  -999.2500  -999.2500     9.9285    10.4060    63.5062    13.9953
