~VERSION INFORMATION
 VERS.                2.0:   CWLS LOG ASCII STANDARD - VERSION 2.0
 WRAP.                 NO:   ONE LINE PER DEPTH STEP
~WELL INFORMATION
#MNEM.UNIT      DATA TYPE    INFORMATION
#----------   ------------   ------------------------------
 STRT.F          210.0000:   START DEPTH
 STOP.F         2998.0000:   STOP DEPTH
 STEP.F            0.5000:   STEP LENGTH
 NULL.          -999.2500:   NO VALUE
 COMP.    FENIX & SCISSON:   COMPANY
 WELL. FENIX & SCISSON "A" #41-28:   WELL
 FLD .          N.P.R. #3:   FIELD
 LOC .      S28 T39N R78W:   LOCATION
 CNTY.            NATRONA:   COUNTY
 STAT.            WYOMING:   STATE
 CTRY. UNITED STATES OF AMERICA:   COUNTRY
 SRVC.       SCHLUMBERGER:   SERVICE COMPANY
 DATE.        08-MAY-1977:   LOGDATE
 API .     49025103670000:   API NUMBER
~CURVE INFORMATION
#MNEM.UNIT       API CODE    CURVE DESCRIPTION
#----------   ------------   ------------------------------
 DEPT.F                  :   
 CALD.IN     45 280 60 00:   CALIPER FROM DENSITY LOG
 GRD .GAPI   45 310 01 00:   GAMMA RAY FROM DENSITY LOG
 CORR.G/C3   45 356 01 00:   DENSITY CORRECTION
 RHOB.G/C3   45 350 01 00:   BULK DENSITY
 SPR .MV     07 010 01 00:   SPONTANEOUS POTENTIAL
 LL8 .OHMM   07 220 08 00:   LATEROLOG-8 RES.
 ILM .OHMM   07 120 44 00:   INDUCTION LOG MEDIUM RESISTIVITY
 ILD .OHMM   07 120 46 00:   DEEP INDUCTION RESISTIVITY
~PARAMETER INFORMATION
#MNEM.UNIT          VALUE    DESCRIPTION
#----------   ------------   ------------------------------
 EKB .F         5012.0000:   Kelly bushing
 EGL .F         5002.0000:   Ground level
 TD  .F         3000.0000:   Total depth
 CLNT.            A2DTECH:   Client Code
 SL  . 330' FNL & 2310' FWL:   Surface Location
 DATE.        08-MAY-1977:   Date Logged [DD-MMM-YYYY]
 DD  .F              3000:   Depth driller
 DL  .F              2999:   Depth logger
 BLI .F              2993:   Bottom log interval
 TLI .F               222:   Top log interval
 CS1 .              8.625:   Casing size
 CBD1.      8.625" @ 112':   Casing driller 1
 CBL1.IN              222:   Casing logger 1
 BS1 .IN            7.875:   Bit size
 BSD1.F              3000:   Depth drilled with bit1
 DFT .                KCL:   Type fluid in hole
 DFD .                8.8:   Density
 DFV .                 32:   Viscosity
 DFPH.                8.0:   pH
 DFL .                8.8:   Fluid loss
 MSS .           FLOWLINE:   Source of sample
 RMS .OHMM          0.124:   Rm
 MST .F                80:   Rm Meas. temp.
 RMF .OHMM          0.117:   Rmf
 MFST.F                80:   Rmf Meas. temp.
 MFSS.               MEAS:   Source Rmf.
 RMB .OHMM         0.0886:   Rm. at BHT
 BHT .F               112:   BHT.
 TCS .HRS            0200:   Time Circ. stopped
 TLAB.HRS            0515:   Time logger at bottom
 MRT .F               112:   Maximum recorded temp.
 LUN .               5642:   Logging unit number
 LUL .               CSPR:   Logging unit location
 ENGI.            MARATIN:   Recorded By
 WITN.         PETTINGILL:   Witnessed by
 ORIG.      2.5" 5" PRINT:   Origin of data
 UWI .     49025103670000:   Unique Well ID
 DICO. A2D TECHNOLOGIES, INC.:   Digitizing Company
 PD  .                 GL:   Permanent Datum
 EPD .               5002:   Elevation Permanent Datum
 LMF .                 KB:   Log Measured From
 DMF .                 KB:   Drilling Measured From
 DAPD.                 10:   Feet Above Permanent Datum
~OTHER INFORMATION
~A   DEPT     CALD         GRD      CORR       RHOB        SPR        LL8        ILM        ILD   
  210.0000  -999.2500    77.3043  -999.2500  -999.2500  -999.2500  -999.2500  -999.2500  -999.2500
  210.5000  -999.2500    79.1124  -999.2500  -999.2500  -999.2500  -999.2500  -999.2500  -999.2500
  211.0000  -999.2500    80.6238  -999.2500  -999.2500  -999.2500  -999.2500  -999.2500  -999.2500
  211.5000  -999.2500    80.5032  -999.2500  -999.2500  -999.2500  -999.2500  -999.2500  -999.2500
  212.0000  -999.2500    78.1570  -999.2500  -999.2500  -999.2500  -999.2500  -999.2500  -999.2500
  212.5000  -999.2500    73.4369  -999.2500  -999.2500  -999.2500  -999.2500  -999.2500  -999.2500
  213.0000  -999.2500    70.6456  -999.2500  -999.2500  -999.2500  -999.2500  -999.2500  -999.2500
  213.5000  -999.2500    68.7445  -999.2500  -999.2500  -999.2500  -999.2500  -999.2500  -999.2500
  214.0000  -999.2500    68.1718  -999.2500  -999.2500  -999.2500  -999.2500  -999.2500  -999.2500
  214.5000  -999.2500    68.0512  -999.2500  -999.2500  -999.2500  -999.2500  -999.2500  -999.2500
  215.0000  -999.2500    68.6793  -999.2500  -999.2500  -999.2500  -999.2500  -999.2500  -999.2500
  215.5000  -999.2500    70.3390  -999.2500  -999.2500  -999.2500  -999.2500  -999.2500  -999.2500
  216.0000  -999.2500    71.8504  -999.2500  -999.2500  -999.2500  -999.2500  -999.2500  -999.2500
  216.5000  -999.2500    73.2134  -999.2500  -999.2500  -999.2500  -999.2500  -999.2500  -999.2500
  217.0000  -999.2500    74.2797  -999.2500  -999.2500  -999.2500  -999.2500  -999.2500  -999.2500
  217.5000  -999.2500    74.3074  -999.2500  -999.2500  -999.2500  -999.2500  -999.2500  -999.2500
  218.0000  -999.2500    72.4063  -999.2500  -999.2500  -999.2500  -999.2500  -999.2500  -999.2500
  218.5000  -999.2500    65.7575  -999.2500  -999.2500  -999.2500  -999.2500  -999.2500  -999.2500
  219.0000  -999.2500    56.5864  -999.2500  -999.2500  -999.2500  -999.2500  -999.2500  -999.2500
  219.5000  -999.2500    50.9761  -999.2500  -999.2500  -999.2500  -999.2500  -999.2500  -999.2500
  220.0000  -999.2500    49.2211  -999.2500  -999.2500  -999.2500  -999.2500  -999.2500  -999.2500
  220.5000  -999.2500    48.6553  -999.2500  -999.2500  -999.2500  -999.2500  -999.2500  -999.2500
  221.0000  -999.2500    48.6882  -999.2500  -999.2500  -999.2500  -999.2500  -999.2500  -999.2500
  221.5000  -999.2500    48.8594  -999.2500  -999.2500  -999.2500  -999.2500  -999.2500  -999.2500
  222.0000  -999.2500    49.0356  -999.2500  -999.2500    49.1448     0.9304    14.4285    13.9170
  222.5000  -999.2500    49.1503  -999.2500  -999.2500    42.8326     7.3792    13.7935    12.8708
  223.0000     8.7286    55.1451     0.1084     2.2662    36.9523    15.5090    12.4276    11.0657
  223.5000     9.1216    58.5353     0.1354     2.3224    30.4742    15.2923    10.5991     9.6986
  224.0000     9.3170    60.4624     0.1017     2.2641    24.1018     6.3106     9.7813     4.7460
  224.5000     9.4678    61.5115     0.1169     2.2672    19.6172     2.9613     9.4087     2.6295
  225.0000     9.5448    61.8384     0.1035     2.2732    14.0028     2.7187     9.1768     2.6858
  225.5000     9.6817    62.1655     0.1112     2.2815     8.0594     3.0972     9.3304     8.1617
  226.0000     9.8335    64.1005     0.1188     2.2898     4.6880     4.6927     9.7526    17.6129
  226.5000     9.9703    67.5407     0.1269     2.2974     2.6247     5.4830    10.2852    19.4771
  227.0000    10.0176    70.5357     0.1118     2.3154     1.1378     5.9866    10.5513    12.7717
  227.5000    10.0202    69.0798     0.1068     2.3252    -1.0571     6.5031    10.5557    10.3605
  228.0000    10.0526    63.4695     0.1153     2.2812    -3.2535     6.4972    10.3888     9.6969
  228.5000    10.0999    63.9423     0.1265     2.2857    -5.5295     6.1052     9.8349     9.3336
  229.0000    10.1771    70.2014     0.1264     2.3045    -7.3166     5.5530     9.5710     8.9863
  229.5000    10.2543    75.8671     0.1183     2.3008    -9.1036     5.8684     9.3389     8.6535
  230.0000    10.3464    77.9720     0.1094     2.2979   -10.8908     6.7786    10.0138     7.9922
  230.5000    10.4086    78.4448     0.1155     2.3062   -12.8643     8.0036    11.5019     7.6197
  231.0000    10.4708    78.0274     0.1208     2.3100   -13.9384     8.5824    12.3200     7.5180
  231.5000    10.5331    76.2262     0.1096     2.2951   -14.4146     9.0695    12.0869     7.5216
  232.0000    10.5804    73.1132     0.1037     2.2885   -14.4012     9.3111    11.4752     7.5247
  232.5000    10.6427    70.2058     0.1082     2.2953   -13.9751     9.3131    11.3222     7.5278
  233.0000    10.6601    68.1340     0.1174     2.2984   -13.1325     9.3150    11.6253     7.7061
  233.5000    10.7224    66.4065     0.1137     2.2962   -11.4396     9.3170    12.7699     8.0006
  234.0000    10.7846    66.1712     0.1092     2.2903   -10.0474     9.3512    13.7323     8.3853
  234.5000    10.8320    67.3723     0.1154     2.2888    -9.1373     9.8739    14.7205     8.9929
  235.0000    10.8942    71.9892     0.1164     2.2972    -8.4082    10.8372    15.9462     9.5613
  235.5000    10.9266    75.0239     0.1139     2.3309    -7.6166    11.7425    16.8589    10.3107
  236.0000    10.9739    78.4551     0.1171     2.3586    -7.0060    12.6955    18.0713    11.3089
  236.5000    10.9765    79.6697     0.1246     2.3714    -6.8151    13.6433    19.1714    12.0621
  237.0000    10.9790    80.4393     0.1308     2.3857    -6.8039    14.4539    20.4796    12.6551
  237.5000    10.9660    81.0605     0.1323     2.3559    -6.7926    15.6087    21.4309    13.8732
  238.0000    10.9841    81.3849     0.1061     2.3739    -6.7814    16.8476    22.6585    14.3854
  238.5000    11.0463    79.4838     0.1181     2.3882    -6.7702    17.0081    23.7842    14.2203
  239.0000    11.1235    77.4344     0.1010     2.3778    -6.7590    16.0439    24.4604    13.8356
  239.5000    11.1858    76.2751     0.1041     2.3442    -7.0472    14.8819    25.0642    13.7354
  240.0000    11.2331    75.7094     0.1080     2.3428    -7.3354    14.5451    25.0746    13.7411
  240.5000    11.2655    76.0338     0.1013     2.3444    -7.7489    14.8458    24.9922    13.8383
  241.0000    11.2830    77.5452     0.0976     2.3557    -9.3137    15.2821    24.0771    14.0390
  241.5000    11.3004    79.0566     0.1081     2.3774   -11.7003    16.0593    23.6686    14.7449
  242.0000    11.3179    80.5657     0.1202     2.3947   -14.0867    16.6626    23.1206    15.8206
  242.5000    11.3204    79.1097     0.1292     2.3985   -17.4995    17.3990    23.2224    17.3208
  243.0000    11.3074    77.6537     0.1159     2.3874   -20.3567    18.1679    25.4412    18.0705
  243.5000    11.2951    75.3075     0.1085     2.3859   -22.7433    19.2439    27.1606    19.5049
  244.0000    11.2528    74.1483     0.1205     2.3920   -25.6886    22.0631    28.7151    21.3735
  244.5000    11.2262    74.1760     0.1236     2.3981   -28.6750    23.6983    29.8189    22.9251
  245.0000    11.1690    73.9069     0.1080     2.4101   -31.9985    24.5606    31.0925    24.2018
  245.5000    11.1118    73.0444     0.0952     2.4476   -34.6844    25.4460    31.5386    24.3570
  246.0000    11.0988    72.7754     0.1029     2.4656   -36.5070    24.3105    31.8556    23.4106
  246.5000    11.1319    72.6539     0.1059     2.4724   -37.2624    21.1660    31.1673    19.6222
  247.0000    11.1792    72.5334     0.0985     2.4702   -37.9840    17.9920    29.3802    12.5452
  247.5000    11.3011    72.5618     0.1024     2.4501   -38.7382    16.3592    27.8115    11.0796
  248.0000    11.3932    76.0019     0.1144     2.3993   -39.3263    14.3893    25.2595    11.3955
  248.5000    11.4555    78.8486     0.1123     2.3717   -39.9145    13.0233    22.9420    11.2434
  249.0000    11.5326    78.8811     0.1055     2.3710   -40.0674    13.2134    21.3140    11.0925
  249.5000    11.5949    77.4204     0.1026     2.3846   -40.0561    15.6865    20.4578    10.7947
  250.0000    11.6422    76.4095     0.1027     2.3929   -40.0449    15.4674    19.9986    10.2172
