~VERSION INFORMATION
 VERS.                2.0:   CWLS LOG ASCII STANDARD - VERSION 2.0
 WRAP.                 NO:   ONE LINE PER DEPTH STEP
~WELL INFORMATION
#MNEM.UNIT      DATA TYPE    INFORMATION
#----------   ------------   ------------------------------
 STRT.F           11.5000:   START DEPTH
 STOP.F         1726.0000:   STOP DEPTH
 STEP.F            0.5000:   STEP LENGTH
 NULL.          -999.2500:   NO VALUE
 COMP. LAWRENCE ALLISON & ASSOC WEST:   COMPANY
 WELL. LAWRENCE NPR 3 "X" #51-26:   WELL
 FLD .                NPR:   FIELD
 LOC .      S26 T38N R78W:   LOCATION
 CNTY.            NATRONA:   COUNTY
 STAT.            WYOMING:   STATE
 CTRY. UNITED STATES OF AMERICA:   COUNTRY
 SRVC.      DRESSER ATLAS:   SERVICE COMPANY
 DATE.        13-AUG-1983:   LOGDATE
 API .     49025109270000:   API NUMBER
~CURVE INFORMATION
#MNEM.UNIT       API CODE    CURVE DESCRIPTION
#----------   ------------   ------------------------------
 DEPT.F                  :   
 CALD.IN     45 280 60 00:   CALIPER FROM DENSITY LOG
 RHOB.G/C3   45 350 01 00:   BULK DENSITY
 CORR.G/C3   45 356 01 00:   DENSITY CORRECTION
 TEND.LBS    45 635 01 00:   TENSION FROM DENSITY LOG
 GRR .GAPI   07 310 01 00:   GAMMA RAY FROM RESISTIVITY
 RILD.OHMM   07 120 46 00:   INDUCTION LOG DEEP RESISTIVITY
 RILM.OHMM   07 120 44 00:   INDUCTION LOG MEDIUM RESISTIVITY
 TENR.LBS    07 635 01 00:   TENSION
~PARAMETER INFORMATION
#MNEM.UNIT          VALUE    DESCRIPTION
#----------   ------------   ------------------------------
 EKB .F         5455.0000:   Kelly bushing
 EGL .F         5444.0000:   Ground level
 EDF .F            0.0000:   Drilling floor
 EPD .F         5444.0000:   Permanent datum
 TD  .F         1726.0000:   Total depth
 DATE.        13-AUG-1983:   Date logged
 CLNT.            A2DTECH:   Client Code
 PD  .                 GL:   Permanent Datum
 LMF .                 KB:   Log Measured From
 DMF .                 KB:   Drilling Measured From
 DAPD.F                11:   Feet Above Permanent Datum
 DD  .F              1726:   Depth driller
 DL  .F              1724:   Depth logger
 BLI .F              1718:   Bottom log interval
 CBD1.F                47:   Casing driller 1
 CBL1.F                48:   Casing logger 1
 BS1 .IN            12.25:   Bit size
 BSD1.F              1726:   Depth drilled with bit1
 DFT .           AIR/FOAM:   Type fluid in hole
 TCS .HRS               1:   Time Circ. stopped
 MRT .F                85:   Maximum recorded temp.
 LUN .               6270:   Logging unit number
 LUL .              WLSTN:   Logging unit location
 ENGI.            QUICKEL:   Recorded By
 WITN.           JENNINGS:   Witnessed by
 ORIG.           5" PRINT:   Origin of data
 UWI .     49025109270000:   Unique Well ID
 DICO. A2D TECHNOLOGIES, INC.:   Digitizing Company
~OTHER INFORMATION
~A   DEPT     CALD       RHOB       CORR       TEND         GRR      RILD       RILM       TENR   
# ...
  376.0000    13.1070     2.3540     0.0390   -70.5030   122.1690     4.1340     4.2280   -81.9960
  376.5000    13.1070     2.3500     0.0490   -70.3770   122.2320     4.0970     4.1610   -81.9960
  377.0000    13.1070     2.3460     0.0590   -70.2510   122.0950     4.0600     4.0930   -81.9960
  377.5000    13.1070     2.3400     0.0710   -70.1260   122.2560     4.0230     4.0260   -81.9960
  378.0000    13.1070     2.3350     0.0480   -70.0000   122.6230     3.9860     3.9590   -81.9960
  378.5000    13.1070     2.3300     0.0160   -69.8740   122.9960     3.9150     3.8920   -81.9960
  379.0000    13.1070     2.3260     0.0100   -69.7490   123.0010     3.8220     3.8250   -81.9960
  379.5000    13.1070     2.3230     0.0170   -69.6230   120.8780     3.7300     3.7570   -81.9960
  380.0000    13.1070     2.3250     0.0220   -69.4970   118.6100     3.5870     3.6540   -81.9960
  380.5000    13.1070     2.3260     0.0260   -69.3720   117.3630     3.6210     3.6960   -81.9960
  381.0000    13.1070     2.3260     0.0220   -69.2460   119.9140     3.7020     3.7860   -81.9960
  381.5000    13.1070     2.3250     0.0180   -69.1200   123.9670     3.7950     3.8760   -81.9960
  382.0000    13.1070     2.3250     0.0140   -68.9950   126.3570     3.8870     3.9660   -81.9960
  382.5000    13.1070     2.3250     0.0100   -68.8690   128.2860     3.9800     4.0550   -81.9960
  383.0000    13.1070     2.3330     0.0030   -68.7430   128.0190     4.0730     4.1450   -81.9960
  383.5000    13.1070     2.3420    -0.0030   -68.6180   127.2600     4.1650     4.2350   -81.9960
  384.0000    13.1070     2.3500     0.0040   -68.4920   125.7530     4.2580     4.3240   -81.9960
  384.5000    13.1070     2.3590     0.0110   -68.3660   123.0650     4.3510     4.4120   -81.9960
  385.0000    13.1070     2.3670     0.0220   -68.2410   121.6240     4.4430     4.4900   -81.9960
  385.5000    13.1070     2.3710     0.0370   -68.1150   120.2460     4.4980     4.5690   -81.9960
  386.0000    13.1070     2.3690     0.0520   -67.9890   119.1100     4.5450     4.6470   -81.9960
  386.5000    13.1070     2.3640     0.0640   -67.8630   118.5540     4.5930     4.7080   -81.9960
  387.0000    13.1070     2.3590     0.0640   -67.7380   118.6470     4.6400     4.7460   -81.9960
  387.5000    13.1070     2.3570     0.0640   -67.6120   117.7030     4.6870     4.7850   -81.9960
  388.0000    13.1070     2.3600     0.0640   -67.4860   116.9720     4.7340     4.8240   -81.9960
  388.5000    13.1070     2.3610     0.0650   -67.3610   117.6900     4.7810     4.8630   -81.9960
  389.0000    13.1070     2.3600     0.0650   -67.2350   120.4610     4.8250     4.9020   -81.9960
  389.5000    13.1070     2.3590     0.0650   -67.1090   126.4500     4.8460     4.9400   -81.9960
  390.0000    13.1070     2.3580     0.0620   -66.9840   132.7400     4.8680     4.9790   -81.9960
  390.5000    13.1070     2.3570     0.0590   -66.8580   135.8170     4.8890     5.0050   -81.9960
  391.0000    13.1070     2.3610     0.0560   -66.7320   134.4980     4.9110     5.0100   -81.9960
  391.5000    13.1070     2.3630     0.0530   -66.6070   131.9880     4.9320     5.0150   -81.9960
  392.0000    13.1070     2.3600     0.0330   -66.4810   130.2960     4.9570     5.0210   -81.9960
  392.5000    13.1070     2.3560     0.0100   -66.3550   134.1760     4.9520     5.0260   -81.9960
  393.0000    13.1070     2.3560    -0.0200   -66.2300   137.3150     4.9440     5.0310   -81.9960
  393.5000    13.1070     2.3620    -0.0070   -66.1040   136.2630     4.9360     5.0360   -81.9960
  394.0000    13.1070     2.3710     0.0150   -65.9780   134.2690     4.9280     5.0420   -81.9960
  394.5000    13.1070     2.3830     0.0370   -65.8530   132.1550     4.9200     5.0490   -81.9960
  395.0000    13.1070     2.3790     0.0490   -65.7270   128.9770     4.9110     5.0260   -81.9960
  395.5000    13.1070     2.3730     0.0360   -65.6010   125.5930     4.8800     4.9820   -81.9960
  396.0000    13.1070     2.3660     0.0220   -65.4760   124.0930     4.8390     4.9370   -81.9960
  396.5000    13.1070     2.3610     0.0110   -65.3500   125.8520     4.7980     4.8930   -81.9960
  397.0000    13.1070     2.3670     0.0270   -65.2240   126.7240     4.7560     4.8490   -81.9960
  397.5000    13.1070     2.3710     0.0480   -65.0980   125.1890     4.7150     4.8050   -81.9960
  398.0000    13.1070     2.3730     0.0570   -64.9730   124.0340     4.6730     4.7600   -81.9960
  398.5000    13.1070     2.3750     0.0590   -64.8470   125.9660     4.6320     4.7160   -81.9960
  399.0000    13.1070     2.3770     0.0520   -64.7210   127.2230     4.5900     4.6720   -81.9960
  399.5000    13.1070     2.3740     0.0390   -64.5960   128.4680     4.5490     4.6270   -81.9960
  400.0000    13.1070     2.3700     0.0330   -64.4700   131.1960     4.5050     4.5830   -81.9960
  400.5000    13.1070     2.3670     0.0330   -64.3440   134.6900     4.4560     4.5390   -81.9960
  401.0000    13.1070     2.3630     0.0330   -64.2190   132.0290     4.4070     4.4950   -81.9960
  401.5000    13.1070     2.3580     0.0330   -64.0930   126.5810     4.3580     4.4500   -81.9960
  402.0000    13.1070     2.3520     0.0290   -63.9670   122.5890     4.3090     4.4060   -81.9960
  402.5000    13.1070     2.3430     0.0180   -63.8420   121.0440     4.2600     4.3620   -81.9960
  403.0000    13.1070     2.3350     0.0070   -63.7160   122.2590     4.2110     4.3180   -81.9960
  403.5000    13.1070     2.3260    -0.0050   -63.5900   124.5300     4.1620     4.2730   -81.9960
  404.0000    13.1070     2.3240    -0.0170   -63.4650   126.7560     4.1130     4.2290   -81.9960
  404.5000    13.1070     2.3330     0.0010   -63.3390   128.5150     4.0450     4.1590   -81.9960
  405.0000    13.1070     2.3420     0.0250   -63.2130   127.9820     4.0830     4.1840   -81.9960
  405.5000    13.1070     2.3470     0.0530   -63.0880   128.2000     4.1210     4.2440   -81.9960
  406.0000    13.1070     2.3500     0.0460   -62.9620   127.6230     4.1810     4.3040   -81.9960
  406.5000    13.1070     2.3530     0.0330   -62.8360   125.9300     4.2420     4.3640   -81.9960
  407.0000    13.1070     2.3560     0.0200   -62.7110   125.3690     4.3020     4.4250   -81.9960
  407.5000    13.1070     2.3630     0.0070   -62.5850   126.1630     4.3630     4.4850   -81.9960
  408.0000    13.1070     2.3750    -0.0040   -62.4590   125.1000     4.4240     4.5450   -81.9960
  408.5000    13.1070     2.3880     0.0190   -62.3340   122.0280     4.4790     4.6050   -81.9960
  409.0000    13.1070     2.3960     0.0420   -62.2080   118.7160     4.4860     4.6470   -81.9960
  409.5000    13.1070     2.3920     0.0350   -62.0820   121.5970     4.4930     4.6470   -81.9960
  410.0000    13.1070     2.3850     0.0240   -61.9560   125.8350     4.5000     4.6470   -81.9960
  410.5000    13.1070     2.3770     0.0150   -61.8310   130.0290     4.5080     4.6470   -81.9960
  411.0000    13.1070     2.3730     0.0050   -61.7470   126.5500     4.5150     4.6470   -81.9960
  411.5000    13.1070     2.3720    -0.0050   -61.7470   124.8860     4.5370     4.6770   -81.9960
  412.0000    13.1070     2.3730     0.0050   -61.7470   123.7100     4.6360     4.7080   -81.9960
  412.5000    13.1070     2.3750     0.0200   -61.7470   122.5360     4.7350     4.7580   -81.9960
  413.0000    13.1070     2.3760     0.0380   -61.7470   121.9130     4.8340     4.8870   -81.9960
  413.5000    13.1070     2.3750     0.0290   -61.7470   124.2730     4.9330     5.0150   -81.9960
  414.0000    13.1070     2.3740     0.0180   -61.7470   126.7460     5.0320     5.1430   -81.9960
  414.5000    13.1070     2.3800     0.0110   -61.7470   127.0590     5.1310     5.2640   -81.9960
  415.0000    13.1070     2.3880     0.0270   -61.7470   123.8100     5.2300     5.3620   -81.9960
  415.5000    13.1070     2.3940     0.0420   -61.9030   121.2220     5.3290     5.4600   -81.9960
  416.0000    13.1070     2.3960     0.0560   -62.2090   119.4240     5.4280     5.5580   -81.9960
