~VERSION INFORMATION
 VERS.                2.0:   CWLS LOG ASCII STANDARD - VERSION 2.0
 WRAP.                 NO:   ONE LINE PER DEPTH STEP
~WELL INFORMATION
#MNEM.UNIT      DATA TYPE    INFORMATION
#----------   ------------   ------------------------------
 STRT.F          482.0000:   START DEPTH
 STOP.F         4000.0000:   STOP DEPTH
 STEP.F            0.5000:   STEP LENGTH
 NULL.          -999.2500:   NO VALUE
 COMP.    FENIX & SCISSON:   COMPANY
 WELL. FENIX  NPR 3 "LX" #56-10:   WELL
 FLD .              N P R:   FIELD
 LOC .      S10 T38N R78W:   LOCATION
 CNTY.            NATRONA:   COUNTY
 STAT.            WYOMING:   STATE
 CTRY. UNITED STATES OF AMERICA:   COUNTRY
 SRVC.       SCHLUMBERGER:   SERVICE COMPANY
 DATE.        11-JUL-1978:   LOGDATE
 API .     49025107100000:   API NUMBER
~CURVE INFORMATION
#MNEM.UNIT       API CODE    CURVE DESCRIPTION
#----------   ------------   ------------------------------
 DEPT.F                  :   
 GRD .GAPI   45 310 01 00:   GAMMA RAY FROM DENSITY LOG
 CALD.IN     45 280 60 00:   CALIPER FROM DENSITY LOG
 RHOB.G/C3   45 350 01 00:   BULK DENSITY
 NPHI.DEC    42 890 03 00:   NEUTRON POROSITY SANDSTONE
 DRHO.G/C3   45 356 01 00:   DENSITY CORRECTION
 TEND.LBS    45 635 01 00:   TENSION FROM DENSITY LOG
 SPR .MV     07 010 01 00:   SPONTANEOUS POTENTIAL
 TENR.LBS    07 635 01 00:   TENSION FROM RESISTIVITY
 ILD .OHMM   07 120 46 00:   DEEP INDUCTION RESISTIVITY
 ILM .OHMM   07 120 44 00:   INDUCTION LOG MEDIUM RESISTIVITY
 SFLU.OHMM   07 220 01 00:   SPHERICALLY FOCUSED LOG UNAVERAGED RESISTIVITY
~PARAMETER INFORMATION
#MNEM.UNIT          VALUE    DESCRIPTION
#----------   ------------   ------------------------------
 EKB .F         5212.0000:   Kelly bushing
 EGL .F         5202.0000:   Ground level
 EDF .F            0.0000:   Drilling floor
 TD  .F         4000.0000:   Total depth
 DATE.        11-JUL-1978:   Date logged
 CLNT.            A2DTECH:   Client Code
 SL  . 1144' FSL & 2183' FEL:   Surface Location
 PD  .                 GL:   Permanent Datum
 EPD .F              5202:   Elevation Permanent Datum
 LMF .                 KB:   Log Measured From
 DMF .                 KB:   Drilling Measured From
 DD  .F              4000:   Depth driller
 DL  .F              3990:   Depth logger
 BLI .F              3985:   Bottom log interval
 TLI .F               501:   Top log interval
 CS1 .IN            9.625:   Casing size
 CBD1.      9.625" @ 500':   Casing driller 1
 CBL1.F               501:   Casing logger 1
 BS1 .IN            7.875:   Bit size
 DFT .                FGM:   Type fluid in hole
 DFD .                9.1:   Density
 DFV .                 50:   Viscosity
 DFPH.                 12:   pH
 DFL .                4.4:   Fluid loss
 MSS .           MUD/TANK:   Source of sample
 RMS .OHMM           .714:   Rm
 MST .F                83:   Rm Meas. temp.
 RMF .OHMM           .585:   Rmf
 MFST.F                83:   Rmf Meas. temp.
 MFSS.               MEAS:   Source Rmf.
 RMB .OHMM            .42:   Rm. at BHT
 BHT .F               140:   BHT.
 TCS .HRS            1000:   Time Circ. stopped
 MRT .F               140:   Maximum recorded temp.
 LUN .               8035:   Logging unit number
 LUL .       ROCK SPRINGS:   Logging unit location
 ENGI.             MARTIN:   Recorded By
 WITN.           MCCINLEY:   Witnessed by
 ORIG.           5" PRINT:   Origin of data
 UWI .     49025107100000:   Unique Well ID
 DICO. A2D TECHNOLOGIES, INC.:   Digitizing Company
 DAPD.F                10:   Feet Above Permanent Datum
 BSD1.F              4000:   Depth drilled with bit1
 TLAB.HRS            1300:   Time logger at bottom
~OTHER INFORMATION
~A   DEPT       GRD      CALD       RHOB         NPHI     DRHO       TEND        SPR       TENR        ILD        ILM       SFLU   
# ...
 2800.0000   115.1300    10.0250     2.5920     0.2320     0.0970  1130.9520   -49.9050   996.3830     6.0540     6.5420     7.0580
 2800.5000   117.3540    10.1940     2.5880     0.2260     0.1270  1130.9520   -49.9920   996.8240     5.6070     6.2760     6.9360
 2801.0000   121.5810    10.3390     2.5690     0.2400     0.1720  1130.9520   -50.0810   997.2640     5.0490     6.1670     6.8860
 2801.5000   132.9380    10.4910     2.5480     0.2760     0.2330  1130.9520   -50.1490   997.7050     4.4910     5.5190     6.5230
 2802.0000   144.3730    10.6350     2.4540     0.3210     0.2500  1130.9520   -50.3740   998.1450     3.9330     4.8040     5.5650
 2802.5000   155.7610    10.8920     2.3450     0.3860     0.2370  1130.9520   -50.7220   998.5860     3.3750     4.0670     4.6080
 2803.0000   167.3770    11.2700     2.2380     0.4780     0.1820  1130.9520   -51.0530   999.0260     2.9020     3.3300     3.6500
 2803.5000   176.4250    11.7000     2.1560     0.5400     0.1030  1130.9520   -51.3800   999.4670     3.1460     2.5520     2.6930
 2804.0000   164.7300    12.3390     2.1630     0.5080     0.0110  1130.9520   -51.7090   999.9070     3.3570     2.5050     1.8670
 2804.5000   144.0670    12.1690     2.2300     0.3940    -0.0040  1130.9520   -52.0610  1000.3480     3.5680     3.0030     3.5490
 2805.0000   125.2120     9.9710     2.3640     0.3190    -0.0040  1130.9520   -52.1560  1000.7880     3.7540     3.6820     5.0280
 2805.5000   108.1980    10.0660     2.4670     0.2490    -0.0010  1130.9520   -52.0140  1001.2290     4.2940     4.3610     6.5070
 2806.0000   102.8430     9.9860     2.5190     0.1950     0.0090  1130.9520   -51.8970  1001.6690     4.7760     5.0400     7.8310
 2806.5000   101.6710     9.9990     2.5340     0.1880     0.0200  1130.9520   -51.7790  1002.1100     5.2590     5.7190     8.7450
 2807.0000   100.4660     9.9370     2.5440     0.1920     0.0240  1130.9520   -51.6560  1002.5500     5.7410     6.3980     8.5750
 2807.5000   100.6260     9.9300     2.5410     0.1980     0.0220  1130.9520   -51.5370  1002.9910     6.2810     7.0140     8.2290
 2808.0000   101.2770     9.9340     2.5360     0.2040     0.0210  1130.9520   -51.4160  1003.4310     6.4200     7.1440     7.8840
 2808.5000   100.1560     9.9310     2.5380     0.2110     0.0190  1130.9520   -51.2950  1003.8720     6.5160     7.0140     7.5390
 2809.0000   102.1980     9.9370     2.5400     0.2170     0.0170  1130.9520   -51.1750  1004.3120     6.5160     6.8830     7.1930
 2809.5000   105.0310     9.9530     2.5460     0.2230     0.0190  1130.9520   -51.0540  1004.7530     6.1470     6.5980     6.8480
 2810.0000   107.7160     9.9680     2.5490     0.2290     0.0230  1130.9520   -50.9350  1005.1930     5.7640     6.3140     6.5160
 2810.5000   108.6460     9.9830     2.5490     0.2350     0.0280  1130.9520   -50.8130  1005.6340     5.5230     6.0300     6.3710
 2811.0000   109.6430     9.9980     2.5460     0.2380     0.0220  1130.9520   -50.6910  1006.0740     5.4870     5.7450     6.2320
 2811.5000   111.9900    10.0120     2.5350     0.2350     0.0170  1130.9520   -50.6220  1006.5150     5.4220     5.4870     6.0930
 2812.0000   115.1660    10.0270     2.5320     0.2310     0.0200  1130.9520   -50.7130  1006.9550     5.2260     5.3260     5.9530
 2812.5000   118.8040    10.0430     2.5290     0.2380     0.0320  1130.9520   -50.8010  1007.3960     4.9720     5.1640     5.8140
 2813.0000   122.6910    10.0520     2.5230     0.2440     0.0380  1130.9520   -50.8940  1007.8360     4.5510     4.8560     5.5580
 2813.5000   127.8170    10.0520     2.5160     0.2510     0.0410  1130.9520   -50.9860  1008.2770     4.1290     4.4430     5.1250
 2814.0000   132.7510    10.0500     2.5180     0.2580     0.0640  1130.9520   -51.0770  1008.7170     3.7080     4.0260     4.6800
 2814.5000   143.2240    10.0510     2.5250     0.2690     0.1180  1130.9520   -51.1690  1009.1580     3.2870     3.6100     4.1090
 2815.0000   153.3620    10.1260     2.4870     0.3230     0.1690  1130.9520   -51.2610  1009.5980     2.8490     3.1940     3.5240
 2815.5000   163.9850    10.5260     2.3910     0.3730     0.2110  1130.9520   -51.3520  1010.0390     2.6850     2.7770     2.9390
 2816.0000   172.0610    10.9580     2.2040     0.4450     0.1520  1130.9520   -51.4440  1010.4790     2.5050     2.5050     2.3540
 2816.5000   159.7750    11.3340     2.1630     0.4400     0.0770  1130.9520   -51.5360  1010.9200     2.4600     2.5050     1.9370
 2817.0000   138.8090    11.6350     2.0720     0.3780    -0.0080  1130.9520   -51.6270  1011.3600     2.7850     2.5990     3.0540
 2817.5000   123.1910    10.8130     2.2180     0.2740    -0.0190  1130.9520   -51.7190  1011.8010     3.2890     3.1120     4.3750
 2818.0000   115.6720    10.0040     2.4350     0.2590    -0.0050  1130.9520   -51.8100  1012.2410     3.7940     3.6650     5.6960
 2818.5000   109.9710     9.7100     2.5030     0.2420     0.0210  1130.9520   -51.9020  1012.6820     4.2980     4.2180     7.3850
 2819.0000   109.7960     9.7380     2.5500     0.2330     0.0370  1130.9520   -51.9930  1013.1220     4.8560     4.7710     7.3210
 2819.5000   112.3550     9.7380     2.5480     0.2300     0.0340  1130.9520   -52.0850  1013.5630     5.1280     5.3240     7.1940
 2820.0000   114.8750     9.7320     2.5360     0.2280     0.0320  1130.9520   -52.1770  1014.0030     5.4320     5.9440     7.0660
 2820.5000   117.5340     9.7360     2.5320     0.2340     0.0300  1130.9520   -52.2680  1014.4440     5.7350     6.1670     6.9380
 2821.0000   119.6860     9.7340     2.5280     0.2400     0.0280  1130.9520   -52.3600  1014.8840     6.0850     6.3980     6.8100
 2821.5000   119.7310     9.7270     2.5290     0.2450     0.0270  1130.9520   -52.4510  1015.3250     6.1980     6.5160     6.6820
 2822.0000   119.7020     9.7210     2.5370     0.2510     0.0270  1130.9520   -52.5430  1015.7650     6.3110     6.7280     6.6370
 2822.5000   120.8410     9.7140     2.5470     0.2510     0.0330  1130.9520   -52.6350  1016.2060     6.4240     6.8680     6.8590
 2823.0000   123.7710     9.7070     2.5570     0.2500     0.0450  1130.9520   -52.7260  1016.6460     6.5380     7.0080     7.1200
 2823.5000   129.8190     9.7010     2.5490     0.2490     0.0520  1130.9520   -52.8200  1017.0870     6.6510     7.1440     7.3810
 2824.0000   133.1460     9.6940     2.5390     0.2470     0.0360  1130.9520   -52.9080  1017.5270     6.7640     7.4110     7.6430
 2824.5000   135.5510     9.6870     2.5380     0.2440     0.0260  1130.9520   -52.9990  1017.9640     6.8770     7.6050     7.9040
 2825.0000   133.3120     9.6800     2.5450     0.2390     0.0230  1130.9520   -52.9980  1017.9640     6.9910     7.8430     8.1650
 2825.5000   132.9310     9.6740     2.5510     0.2340     0.0230  1130.9520   -52.9900  1017.9640     6.9250     8.0820     8.4270
 2826.0000   131.9320     9.6670     2.5540     0.2300     0.0250  1130.9520   -52.7790  1017.9640     6.8150     8.2760     8.6880
 2826.5000   131.3020     9.6600     2.5550     0.2250     0.0290  1130.9520   -52.5650  1017.9640     6.7040     8.4290     8.4440
 2827.0000   130.3350     9.6540     2.5560     0.2380     0.0290  1130.9520   -52.3320  1017.9640     6.5940     7.9770     8.0600
 2827.5000   130.3250     9.6470     2.5530     0.2510     0.0280  1130.9520   -52.0890  1017.9640     6.4830     7.6240     7.6760
 2828.0000   130.9320     9.6400     2.5440     0.2630     0.0280  1130.9520   -51.8170  1017.9640     6.3730     7.3220     7.2920
 2828.5000   134.0810     9.6330     2.5310     0.2710     0.0230  1130.9520   -51.5210  1017.9640     6.2620     7.0200     6.8860
 2829.0000   132.0320     9.6270     2.5190     0.2710     0.0150  1130.9520   -51.3880  1017.9640     6.1670     6.7180     6.8860
 2829.5000   132.8100     9.6200     2.5050     0.2710     0.0070  1130.9520   -51.4010  1017.9640     6.0970     6.5160     6.8860
 2830.0000   130.2510     9.6130     2.5060     0.2670     0.0060  1130.9520   -51.3990  1017.9640     6.0360     6.5160     6.9600
