~VERSION INFORMATION
 VERS.                2.0:   CWLS LOG ASCII STANDARD - VERSION 2.0
 WRAP.                 NO:   ONE LINE PER DEPTH STEP
~WELL INFORMATION
#MNEM.UNIT      DATA TYPE    INFORMATION
#----------   ------------   ------------------------------
 STRT.F           42.0000:   START DEPTH
 STOP.F         2778.0000:   STOP DEPTH
 STEP.F            0.5000:   STEP LENGTH
 NULL.          -999.2500:   NO VALUE
 COMP.    FENIX & SCISSON:   COMPANY
 WELL. FENIX & SCISSON SHX #56-23:   WELL
 FLD .        TEAPOT DOME:   FIELD
 LOC .      S23 T38N R78W:   LOCATION
 CNTY.            NATRONA:   COUNTY
 STAT.            WYOMING:   STATE
 CTRY. UNITED STATES OF AMERICA:   COUNTRY
 SRVC.           BIRDWELL:   SERVICE COMPANY
 DATE.        29-AUG-1979:   LOGDATE
 API .     49025107920000:   API NUMBER
~CURVE INFORMATION
#MNEM.UNIT       API CODE    CURVE DESCRIPTION
#----------   ------------   ------------------------------
 DEPT.F                  :   
 GRD .GAPI   45 310 01 00:   GAMMA RAY FROM DENSITY LOG
 CALD.IN     45 280 60 00:   CALIPER FROM DENSITY LOG
 RHOB.G/C3   45 350 01 00:   BULK DENSITY
 CORR.G/C3   45 356 01 00:   DENSITY CORRECTION
 ILD .OHMM   07 120 46 00:   DEEP INDUCTION RESISTIVITY
 SFL .OHMM   07 220 01 00:   SHALLOW FOCUSED LOG RESISTIVITY
 SPR .MV     07 010 01 00:   SPONTANEOUS POTENTIAL
~PARAMETER INFORMATION
#MNEM.UNIT          VALUE    DESCRIPTION
#----------   ------------   ------------------------------
 EKB .F         5361.0000:   Kelly bushing
 EGL .F         5351.0000:   Ground level
 EDF .F         5360.0000:   Drilling floor
 TD  .F         1465.0000:   Total depth
 DATE.        29-AUG-1979:   Date logged
 CLNT.            A2DTECH:   Client Code
 PD  .                 GL:   Permanent Datum
 EPD .F              5351:   Elevation Permanent Datum
 LMF .                 KB:   Log Measured From
 DMF .                 KB:   Drilling Measured From
 DAPD.F                 9:   Feet Above Permanent Datum
 DD  .F              1465:   Depth driller
 DL  .F              1462:   Depth logger
 BLI .F              1457:   Bottom log interval
 TLI .F                40:   Top log interval
 CBD1.F                40:   Casing driller 1
 CBL1.F                40:   Casing logger 1
 BS1 .IN            12.25:   Bit size
 BSD1.F              1465:   Depth drilled with bit1
 DFT .            GEL/MUD:   Type fluid in hole
 DFD .                9.5:   Density
 DFV .                 40:   Viscosity
 DFPH.                9.0:   pH
 DFL .                 40:   Fluid loss
 MSS .            MUD PIT:   Source of sample
 RMS .OHMM            2.6:   Rm
 MST .F                68:   Rm Meas. temp.
 RMF .OHMM            1.8:   Rmf
 MFST.F                78:   Rmf Meas. temp.
 RMC .OHMM            2.8:   Rmc
 MCST.F                76:   Rmc Meas. temp.
 MFSS.               MEAS:   Source Rmf.
 MCSS.               MEAS:   Source Rmc.
 RMB .OHMM           1.96:   Rm. at BHT
 BHT .F                90:   BHT.
 TCS .HRS               5:   Time Circ. stopped
 MRT .F                90:   Maximum recorded temp.
 LUN .               2959:   Logging unit number
 LUL .             CASPER:   Logging unit location
 ENGI.         B. ROLLINS:   Recorded By
 WITN.              AMEND:   Witnessed by
 ORIG.           5" PRINT:   Origin of data
 UWI .     49025107920000:   Unique Well ID
 DICO. A2D TECHNOLOGIES, INC.:   Digitizing Company
~OTHER INFORMATION
~A   DEPT       GRD      CALD       RHOB         CORR      ILD        SFL         SPR  
# ...
 2317.0000   149.2390    10.5560     2.4850     0.4970  -999.2500  -999.2500  -999.2500
 2317.5000   144.9760    10.5620     2.6220     0.4920  -999.2500  -999.2500  -999.2500
 2318.0000   145.8630    10.6040     2.5910     0.4860  -999.2500  -999.2500  -999.2500
 2318.5000   152.0910    10.6530     2.5190     0.4780  -999.2500  -999.2500  -999.2500
 2319.0000   152.2600    10.7020     2.4470     0.4740  -999.2500  -999.2500  -999.2500
 2319.5000   152.5030    10.7500     2.3760     0.4730  -999.2500  -999.2500  -999.2500
 2320.0000   152.0720    10.7940     2.3060     0.4550  -999.2500  -999.2500  -999.2500
 2320.5000   151.4620    10.7950     2.2820     0.4820  -999.2500  -999.2500  -999.2500
 2321.0000   150.3810    10.7700     2.3460     0.4910  -999.2500  -999.2500  -999.2500
 2321.5000   149.4290    10.7330     2.4250     0.4930  -999.2500  -999.2500  -999.2500
 2322.0000   148.4790    10.7000     2.5030     0.4940  -999.2500  -999.2500  -999.2500
 2322.5000   148.4940    10.6630     2.5820     0.4980  -999.2500  -999.2500  -999.2500
 2323.0000   149.0710    10.6300     2.6680     0.4890  -999.2500  -999.2500  -999.2500
 2323.5000   151.4370    10.6070     2.6390     0.4580  -999.2500  -999.2500  -999.2500
 2324.0000   153.8770    10.7020     2.6250     0.4370  -999.2500  -999.2500  -999.2500
 2324.5000   152.1960    10.8000     2.6030     0.4210  -999.2500  -999.2500  -999.2500
 2325.0000   146.5990    10.8960     2.5330     0.4040  -999.2500  -999.2500  -999.2500
 2325.5000   145.1140    10.9830     2.5410     0.4040  -999.2500  -999.2500  -999.2500
 2326.0000   145.8170    10.9010     2.5530     0.4150  -999.2500  -999.2500  -999.2500
 2326.5000   149.3400    10.8020     2.5680     0.4350  -999.2500  -999.2500  -999.2500
 2327.0000   152.2730    10.7440     2.5220     0.4360  -999.2500  -999.2500  -999.2500
 2327.5000   155.5990    10.7120     2.4520     0.4210  -999.2500  -999.2500  -999.2500
 2328.0000   157.5040    10.6870     2.4740     0.4320  -999.2500  -999.2500  -999.2500
 2328.5000   154.8940    10.6400     2.5640     0.4430  -999.2500  -999.2500  -999.2500
 2329.0000   150.6660    10.6320     2.5600     0.4360  -999.2500  -999.2500  -999.2500
 2329.5000   147.4850    10.5400     2.5310     0.4250  -999.2500  -999.2500  -999.2500
 2330.0000   145.3280    10.4410     2.5570     0.4350  -999.2500  -999.2500  -999.2500
 2330.5000   143.4010    10.3940     2.6260     0.4770  -999.2500  -999.2500  -999.2500
 2331.0000   143.9870    10.4000     2.6120     0.4710  -999.2500  -999.2500  -999.2500
 2331.5000   145.6260    10.4020     2.5520     0.4570  -999.2500  -999.2500  -999.2500
 2332.0000   145.3710    10.4460     2.4800     0.4880  -999.2500  -999.2500  -999.2500
 2332.5000   148.8330    10.4880     2.5940     0.5000  -999.2500  -999.2500  -999.2500
 2333.0000   148.0190    10.5350     2.6180     0.4990  -999.2500  -999.2500  -999.2500
 2333.5000   146.7120    10.5590     2.6100     0.5000  -999.2500  -999.2500  -999.2500
 2334.0000   150.8310    10.5560     2.5820     0.4870  -999.2500  -999.2500  -999.2500
 2334.5000   151.6460    10.5160     2.5550     0.4650  -999.2500  -999.2500  -999.2500
 2335.0000   150.2460    10.4550     2.5600     0.4430  -999.2500  -999.2500  -999.2500
 2335.5000   150.8120    10.4370     2.5420     0.4220  -999.2500  -999.2500  -999.2500
 2336.0000   151.9860    10.4440     2.5370     0.4120  -999.2500  -999.2500  -999.2500
 2336.5000   150.2650    10.5180     2.5540     0.4530  -999.2500  -999.2500  -999.2500
 2337.0000   148.8240    10.5890     2.5230     0.4550  -999.2500  -999.2500  -999.2500
 2337.5000   148.0180    10.6180     2.5060     0.4590  -999.2500  -999.2500  -999.2500
 2338.0000   147.7040    10.6390     2.5130     0.4690  -999.2500  -999.2500  -999.2500
 2338.5000   149.8980    10.6360     2.4940     0.4910  -999.2500  -999.2500  -999.2500
 2339.0000   147.0510    10.5740     2.4700     0.4630  -999.2500  -999.2500  -999.2500
 2339.5000   143.0220    10.4870     2.5160     0.4590  -999.2500  -999.2500  -999.2500
 2340.0000   139.0290    10.4010     2.6040     0.4540  -999.2500  -999.2500  -999.2500
 2340.5000   135.4830    10.3140     2.6890     0.4510  -999.2500  -999.2500  -999.2500
 2341.0000   135.6960    10.2880     2.6830     0.4440  -999.2500  -999.2500  -999.2500
 2341.5000   135.2690    10.3410     2.6500     0.4180  -999.2500  -999.2500  -999.2500
 2342.0000   134.2760    10.3880     2.5820     0.3840  -999.2500  -999.2500  -999.2500
 2342.5000   135.0180    10.4370     2.5120     0.3800  -999.2500  -999.2500  -999.2500
 2343.0000   138.1860    10.4770     2.5220     0.3930  -999.2500  -999.2500  -999.2500
 2343.5000   140.0770    10.4650     2.5300     0.4080  -999.2500  -999.2500  -999.2500
 2344.0000   142.1760    10.4480     2.5410     0.3940  -999.2500  -999.2500  -999.2500
 2344.5000   139.4350    10.4300     2.5410     0.3440  -999.2500  -999.2500  -999.2500
 2345.0000   139.4750    10.4120     2.5370     0.3510  -999.2500  -999.2500  -999.2500
 2345.5000   141.0010    10.3990     2.5550     0.3640  -999.2500  -999.2500  -999.2500
 2346.0000   143.6950    10.3970     2.5740     0.3910  -999.2500  -999.2500  -999.2500
 2346.5000   145.2070    10.4180     2.6030     0.4240  -999.2500  -999.2500  -999.2500
 2347.0000   141.5290    10.4620     2.5770     0.4300  -999.2500  -999.2500  -999.2500
 2347.5000   139.9670    10.4800     2.6380     0.4250  -999.2500  -999.2500  -999.2500
 2348.0000   147.1090    10.4760     2.6220     0.4420  -999.2500  -999.2500  -999.2500
 2348.5000   152.5840    10.4810     2.5850     0.4080  -999.2500  -999.2500  -999.2500
 2349.0000   155.9680    10.4450     2.6120     0.4160  -999.2500  -999.2500  -999.2500
 2349.5000   158.1260    10.3840     2.6180     0.4260  -999.2500  -999.2500  -999.2500
 2350.0000   154.0950    10.3310     2.6270     0.4080  -999.2500  -999.2500  -999.2500
 2350.5000   150.1410    10.2740     2.6290     0.3980  -999.2500  -999.2500  -999.2500
 2351.0000   145.6430    10.2200     2.6240     0.4020  -999.2500  -999.2500  -999.2500
 2351.5000   142.6100    10.1640     2.6270     0.4040  -999.2500  -999.2500  -999.2500
 2352.0000   141.0710    10.1600     2.5380     0.3940  -999.2500  -999.2500  -999.2500
 2352.5000   139.3780    10.1590     2.5450     0.3690  -999.2500  -999.2500  -999.2500
 2353.0000   139.4010    10.1600     2.5740     0.4000  -999.2500  -999.2500  -999.2500
 2353.5000   142.2280    10.1590     2.5780     0.4090  -999.2500  -999.2500  -999.2500
 2354.0000   142.0910    10.1650     2.5330     0.3990  -999.2500  -999.2500  -999.2500
 2354.5000   142.4120    10.1780     2.5420     0.3900  -999.2500  -999.2500  -999.2500
 2355.0000   146.1670    10.1910     2.5660     0.3820  -999.2500  -999.2500  -999.2500
 2355.5000   148.2260    10.2040     2.5770     0.3740  -999.2500  -999.2500  -999.2500
 2356.0000   146.4060    10.2170     2.5850     0.3840  -999.2500  -999.2500  -999.2500
 2356.5000   143.3680    10.2300     2.5800     0.4060  -999.2500  -999.2500  -999.2500
 2357.0000   143.5700    10.2430     2.5780     0.4260  -999.2500  -999.2500  -999.2500
 2357.5000   144.9890    10.2550     2.5840     0.4470  -999.2500  -999.2500  -999.2500
 2358.0000   147.5660    10.2680     2.5970     0.4660  -999.2500  -999.2500  -999.2500
 2358.5000   149.2040    10.2810     2.6030     0.4720  -999.2500  -999.2500  -999.2500
 2359.0000   149.1340    10.2940     2.6000     0.4710  -999.2500  -999.2500  -999.2500
 2359.5000   149.7390    10.3080     2.5930     0.4690  -999.2500  -999.2500  -999.2500
 2360.0000   151.1390    10.3180     2.5980     0.4630  -999.2500  -999.2500  -999.2500
 2360.5000   150.7350    10.3160     2.5250     0.4290  -999.2500  -999.2500  -999.2500
 2361.0000   150.4710    10.2760     2.5300     0.4350  -999.2500  -999.2500  -999.2500
 2361.5000   149.7180    10.2270     2.5310     0.4350  -999.2500  -999.2500  -999.2500
 2362.0000   147.2840    10.1780     2.5480     0.4560  -999.2500  -999.2500  -999.2500
