~VERSION INFORMATION
 VERS.                2.0:   CWLS LOG ASCII STANDARD - VERSION 2.0
 WRAP.                 NO:   ONE LINE PER DEPTH STEP
~WELL INFORMATION
#MNEM.UNIT      DATA TYPE    INFORMATION
#----------   ------------   ------------------------------
 STRT.F           30.0000:   START DEPTH
 STOP.F         3240.0000:   STOP DEPTH
 STEP.F            0.5000:   STEP LENGTH
 NULL.          -999.2500:   NO VALUE
 COMP. LAWRENCE-ALLISON ASSOCIATES WES:   COMPANY
 WELL. LAWRENCE "AX" #87AX28:   WELL
 FLD .   TEAPOT N.P.R. #3:   FIELD
 LOC .      S28 T39N R78W:   LOCATION
 CNTY.            NATRONA:   COUNTY
 STAT.            WYOMING:   STATE
 CTRY. UNITED STATES OF AMERICA:   COUNTRY
 SRVC.       SCHLUMBERGER:   SERVICE COMPANY
 DATE.        28-MAY-1982:   LOGDATE
 API .     49025108860000:   API NUMBER
~CURVE INFORMATION
#MNEM.UNIT       API CODE    CURVE DESCRIPTION
#----------   ------------   ------------------------------
 DEPT.F                  :   
 TENR.LBS    07 635 01 00:   TENSION FROM RESISTIVITY
 GRR .GAPI   07 310 01 00:   GAMMA RAY FROM RESISTIVITY
 SPR .MV     07 010 01 00:   SPONTANEOUS POTENTIAL FROM RES.
 ILD .OHMM   07 120 46 00:   DEEP INDUCTION RESISTIVITY
 ILM .OHMM   07 120 44 00:   INDUCTION LOG MEDIUM RESISTIVITY
 SFL .OHMM   07 220 01 00:   SHALLOW FOCUSED LOG RESISITIVITY
 TEND.LBS    45 635 01 00:   TENSION FORM DENSITY LOG
 NPHI.DEC    42 890 03 00:   NEUTRON POROSITY SANDSTONE
 CALD.IN     45 280 60 00:   CALIPER FROM DENSITY LOG
 CORR.G/C3   45 356 01 00:   DENSITY CORRECTION
 RHOB.G/C3   45 350 01 00:   BULK DENSITY
~PARAMETER INFORMATION
#MNEM.UNIT          VALUE    DESCRIPTION
#----------   ------------   ------------------------------
 EKB .F         5070.0000:   Kelly bushing
 EGL .F         5060.0000:   Ground level
 TD  .F         3220.0000:   Total depth
 CLNT.            A2DTECH:   Client Code
 SL  . 1341' FSL & 162' FEL:   Surface Location
 PD  .                 GL:   Permanent Datum
 EPD .F              5060:   Elevation Permanent Datum
 LMF .                 KB:   Log Measured From
 DMF .                 KB:   Drilling Measured From
 DAPD.F                10:   Feet Above Permanent Datum
 DATE.        28-MAY-1982:   Date Logged [DD-MMM-YYYY]
 DD  .F              3220:   Depth driller
 DL  .F              3215:   Depth logger
 BLI .F              3212:   Bottom log interval
 TLI .F               489:   Top log interval
 CS1 .IN            9.625:   Casing size
 CBD1.      9.625" @ 461':   Casing driller 1
 CBL1.F               489:   Casing logger 1
 BS1 .IN            9.750:   Bit size
 BSD1.F              3220:   Depth drilled with bit1
 DFT .          POLY./KCL:   Type fluid in hole
 DFD .                8.8:   Density
 DFV .                 44:   Viscosity
 DFPH.                7.0:   pH
 DFL .                8.0:   Fluid loss
 MSS .           MUD TANK:   Source of sample
 RMS .OHMM          0.778:   Rm
 MST .F                65:   Rm Meas. temp.
 RMF .OHMM          0.710:   Rmf
 MFST.F                67:   Rmf Meas. temp.
 MFSS.               MEAS:   Source Rmf.
 RMB .OHMM          0.447:   Rm. at BHT
 BHT .F               118:   BHT.
 TCS .HRS            2000:   Time Circ. stopped
 TLAB.HRS            2430:   Time logger at bottom
 MRT .F               118:   Maximum recorded temp.
 LUN .               8043:   Logging unit number
 LUL .               CSPR:   Logging unit location
 ENGI.             DENNIS:   Recorded By
 WITN.             STRONG:   Witnessed by
 ORIG.           5" PRINT:   Origin of data
 UWI .     49025108860000:   Unique Well ID
 DICO. A2D TECHNOLOGIES, INC.:   Digitizing Company
~OTHER INFORMATION
~A   DEPT     TENR         GRR       SPR        ILD        ILM        SFL       TEND       NPHI       CALD       CORR       RHOB   
# ...
 1738.0000  1041.8285   108.8545   -39.2680     7.3003     6.8522     7.3511  1255.7781    -0.0374    11.2097    -0.0035     2.5074
 1738.5000  1039.5739   102.4578   -39.4068     7.3049     6.8578     7.4090  1253.6544    -0.0264    11.2096     0.0042     2.5121
 1739.0000  1037.7705    99.9541   -39.3950     7.2557     6.7672     7.4683  1251.7941    -0.0249    11.2248     0.0098     2.5273
 1739.5000  1035.9666    99.5077   -39.6924     7.0083     6.6292     7.4735  1250.0000    -0.0270    11.2246     0.0114     2.5416
 1740.0000  1034.1627   101.1300   -39.3713     6.6233     6.4941     7.3198  1248.0740    -0.0313    11.2397     0.0122     2.5479
 1740.5000  1032.3589   100.4585   -38.5938     6.1268     6.1390     7.3250  1261.6219    -0.0347    11.2395     0.0139     2.5425
 1741.0000  1046.1313   101.3938   -37.9613     5.3913     5.2520     7.2275  1259.2970    -0.0331    11.2547     0.0210     2.5318
 1741.5000  1043.8767   104.8443   -37.0358     4.2018     4.2381     6.7348  1257.4366    -0.0116    11.3308     0.0538     2.5156
 1742.0000  1042.0729   105.7719   -36.5646     3.4921     3.0606     5.4031  1255.7781     0.0553    11.4070     0.0994     2.4615
 1742.5000  1056.2966   104.6462   -36.0934     3.2729     2.7919     3.1904  1253.7166     0.1037    11.4679     0.0905     2.4043
 1743.0000  1054.0419   102.1426   -36.2347     3.2093     2.6581     2.5596  1251.8562     0.1336    11.4983     0.0447     2.2977
 1743.5000  1052.2380    99.8631   -36.5321     3.2348     2.7765     2.2368  1250.0001     0.1159    11.3559     0.0049     2.2861
 1744.0000  1050.4342    98.0154   -36.8236     3.2600     3.0485     2.2805  1248.0740     0.0546    11.0552    -0.0137     2.3519
 1744.5000  1033.0217   101.5057   -37.2712     3.4048     3.3711     4.0483  1245.8107     0.0049    10.7956    -0.0129     2.4485
 1745.0000  1030.7993   109.9944   -37.7159     3.7117     3.7586     6.1255  1243.9503    -0.0265    10.7649    -0.0105     2.4897
 1745.5000  1028.9955   113.2160   -37.8601     4.4081     4.3034     7.5913  1242.0905    -0.0491    10.7495    -0.0072     2.5153
 1746.0000  1027.1917   115.0635   -38.3077     5.9454     5.0023     7.9852  1240.3699    -0.0653    10.7493    -0.0033     2.5200
 1746.5000  1025.3883   117.8270   -38.7524     7.0715     5.7734     7.9961  1238.3699    -0.0726    10.7492    -0.0001     2.5131
 1747.0000  1023.5844   120.8195   -39.0498     7.8197     6.7590     7.9963  1236.5100    -0.0705    10.7490    -0.0024     2.5062
 1747.5000  1021.7806   117.6327   -39.3415     8.1090     7.0600     8.0030  1234.5918    -0.0614    10.7641    -0.0039     2.5032
 1748.0000  1019.9375   116.2741   -39.6358     7.9420     7.2700     8.0658  1232.3247    -0.0551    10.7640    -0.0015     2.5087
 1748.5000  1033.7491   116.5186   -39.7771     7.8341     7.4365     8.2458  1261.7462    -0.0496    10.7485     0.0003     2.5242
 1749.0000  1031.4945   118.5951   -40.0686     7.7834     7.6012     8.4299  1275.2942    -0.0463    10.7484     0.0026     2.5297
 1749.5000  1029.6907   120.4426   -40.0568     7.7894     7.7164     8.6180  1272.9692    -0.0454    10.7482     0.0027     2.5258
 1750.0000  1027.8872   118.5312   -39.8918     7.9630     7.7778     8.8103  1286.5948    -0.0436    10.7481     0.0004     2.5151
 1750.5000  1026.0834   116.0199   -39.8800     8.0825     7.6738     8.8797  1284.6570    -0.0415    10.7174    -0.0003     2.5059
 1751.0000  1024.2795   116.4949   -39.8439     8.0287     7.3583     8.8871  1282.7426    -0.0398    10.7020    -0.0018     2.5005
 1751.5000  1022.5955   119.0724   -39.7265     8.0349     7.2083     8.8932  1265.0634    -0.0407    10.7171    -0.0033     2.4998
 1752.0000  1021.0529   120.2013   -39.6091     8.0399     7.2141     8.8346  1263.4823    -0.0432    10.7169    -0.0024     2.5030
 1752.5000  1003.8804   116.7751   -39.5176     8.0498     7.2728     8.8421  1261.5562    -0.0457    10.7321    -0.0008     2.5046
 1753.0000  1049.2252   112.8856   -39.5011     8.1669     7.4359     8.8482  1259.4829    -0.0451    10.7319     0.0016     2.5095
 1753.5000  1047.1493   112.2081   -39.3346     8.1720     7.6570     8.8544  1257.7039    -0.0392    10.7317     0.0048     2.5194
 1754.0000  1045.4829   114.5247   -39.0150     8.2356     7.8287     8.9253  1255.7627    -0.0257    10.7316     0.0024     2.5281
 1754.5000  1043.7694   115.4591   -38.8486     8.2998     8.0043     8.9953  1269.3107    -0.0233    10.7315    -0.0052     2.5220
 1755.0000  1041.7516   113.6141   -38.8353     8.4244     8.1256     9.0659  1251.5770    -0.0237    10.7313    -0.0098     2.5143
 1755.5000  1040.0907   109.8603   -38.8219     8.4900     8.0117     9.2682  1249.9999    -0.0240    10.7464    -0.0113     2.5121
 1756.0000  1038.4302   108.1550   -38.8086     8.5563     7.7977     9.5428  1248.0741    -0.0308    10.7463    -0.0081     2.5176
 1756.5000  1036.7693   110.0121   -38.9484     8.5627     7.7485     9.8985  1246.1479    -0.0388    10.7461    -0.0042     2.5231
 1757.0000  1019.5320   114.6218   -39.0849     8.5681     7.8675     9.9735  1244.1367    -0.0513    10.7612    -0.0010     2.5270
 1757.5000  1033.4890   117.8533   -39.2281     8.5734     7.8738     9.7015  1242.2957    -0.0638    10.7610    -0.0024     2.5224
 1758.0000  1031.7759   117.9356   -39.3679     8.3969     7.8800     9.5027  1240.3699    -0.0788    10.7456    -0.0047     2.5024
 1758.5000  1045.7021   113.0605   -39.5044     8.2828     7.8862     9.1762  1238.5562    -0.0858    10.7455    -0.0023     2.5025
 1759.0000  1043.6261   111.9275   -39.7974     8.1706     7.6647     8.9244  1252.1042    -0.0794    10.7301    -0.0007     2.5080
 1759.5000  1041.9653   112.8658   -39.9372     8.1175     7.4623     8.8671  1249.7793    -0.0646    10.7299     0.0003     2.5150
 1760.0000  1056.2963   116.5567   -39.9234     8.0660     7.5217     8.8101  1247.9189    -0.0351    10.7145    -0.0004     2.5213
 1760.5000  1054.3615   119.0990   -40.0604     8.0710     7.6903     8.8808  1246.0586    -0.0294    10.7296     0.0013     2.5237
 1761.0000  1052.5593   120.4928   -40.0471     8.0760     7.7515     9.0790  1259.6301    -0.0291    10.7295     0.0021     2.5145
 1761.5000  1066.5109   122.1164   -40.0337     8.1389     7.5935     9.1502  1242.3385    -0.0307    10.7446     0.0030     2.5068
 1762.0000  1064.7976   119.8348   -40.1769     8.1439     7.3858     9.1565  1256.6743    -0.0329    10.7444     0.0015     2.5023
 1762.5000  1063.0840   116.0612   -40.1602     8.0862     7.2291     8.9689  1272.1505    -0.0344    10.7443     0.0008     2.5015
 1763.0000  1061.0770   108.3844   -40.3002     7.8693     7.1385     8.7183  1282.9829    -0.0315    10.7441     0.0081     2.5094
 1763.5000  1059.4166   105.8731   -40.4399     7.7073     7.1967     8.6667  1280.6576    -0.0239    10.7593     0.0181     2.5218
 1764.0000  1042.1794   107.0372   -40.4232     7.6560     7.2018     8.6742  1294.6711    -0.0224    10.7591     0.0151     2.5312
 1764.5000  1040.5186   112.3361   -40.4099     7.6062     7.2081     8.6801  1307.7812    -0.0273    10.7589     0.0081     2.5295
 1765.0000  1038.8577   118.5537   -40.3966     7.6121     7.1625     8.4419  1305.8551    -0.0356    10.7588     0.0020     2.5159
 1765.5000  1037.1969   126.8388   -40.3833     7.5627     7.1173     8.2689  1303.5688    -0.0317    10.7586     0.0005     2.5074
 1766.0000  1035.5138   133.0928   -40.0476     7.4001     7.1231     8.2151  1302.0029    -0.0235    10.7584    -0.0002     2.4980
 1766.5000  1033.4600   134.4503   -39.7441     7.1019     7.1810     8.1631  1299.8481    -0.0281    10.7583    -0.0009     2.4914
 1767.0000  1031.7996   131.2538   -39.4100     7.0044     7.1867     8.2285  1298.1510    -0.0381    10.7622    -0.0016     2.4883
 1767.5000  1046.1300   126.9049   -39.1016     6.9589     6.7937     8.3524  1280.8165    -0.0431    10.7733     0.0141     2.4822
 1768.0000  1044.0541   121.8668   -39.0883     7.0645     6.3765     8.4165  1278.8594    -0.0319    10.7731     0.0266     2.4730
