~VERSION INFORMATION
 VERS.                2.0:   CWLS LOG ASCII STANDARD - VERSION 2.0
 WRAP.                 NO:   ONE LINE PER DEPTH STEP
~WELL INFORMATION
#MNEM.UNIT      DATA TYPE    INFORMATION
#----------   ------------   ------------------------------
 STRT.F           76.0000:   START DEPTH
 STOP.F         4972.0000:   STOP DEPTH
 STEP.F            0.5000:   STEP LENGTH
 NULL.          -999.2500:   NO VALUE
 COMP.    PENIX & SCISSON:   COMPANY
 WELL. FENIX NPR 3 "LX" #85-9:   WELL
 FLD .                NPR:   FIELD
 LOC .       S9 T38N R78W:   LOCATION
 CNTY.            NATRONA:   COUNTY
 STAT.            WYOMING:   STATE
 CTRY. UNITED STATES OF AMERICA:   COUNTRY
 SRVC.       SCHLUMBERGER:   SERVICE COMPANY
 DATE.        10-OCT-1978:   LOGDATE
 API .     49025107250000:   API NUMBER
~CURVE INFORMATION
#MNEM.UNIT       API CODE    CURVE DESCRIPTION
#----------   ------------   ------------------------------
 DEPT.F                  :   
 TENR.LBS    07 635 01 00:   TENSION FROM RESISTIVITY
 SPR .MV     07 010 01 00:   SPONTANEOUS POTENTIAL
 SFL .OHMM   07 220 01 00:   SHALLOW FOCUSED LOG RESISTIVITY
 ILD .OHMM   07 120 46 00:   DEEP INDUCTION RESISTIVITY
 ILM .OHMM   07 120 44 00:   INDUCTION LOG MEDIUM RESISTIVITY
 CALD.IN     45 280 60 00:   CALIPER FROM DENSITY LOG
 GRD .GAPI   45 310 01 00:   GAMMA RAY FROM DENSITY LOG
 CORR.G/C3   45 356 01 00:   DENSITY CORRECTION
 TEND.LBS    45 635 01 00:   TENSION FROM DENSITY LOG
 RHOB.G/C3   45 350 01 00:   BULK DENSITY
 NPHI.DEC    42 890 03 00:   NEUTRON POROSITY SANDSTONE
~PARAMETER INFORMATION
#MNEM.UNIT          VALUE    DESCRIPTION
#----------   ------------   ------------------------------
 EKB .F         5288.0000:   Kelly bushing
 EGL .F         5278.0000:   Ground level
 EDF .F            0.0000:   Drilling floor
 TD  .F         4950.0000:   Total depth
 DATE.        10-OCT-1978:   Date logged
 CLNT.            A2DTECH:   Client Code
 SL  . 2310' FSL & 230' FEL:   Surface Location
 PD  .                 GL:   Permanent Datum
 EPD .F              5278:   Elevation Permanent Datum
 LMF .                 KB:   Log Measured From
 DMF .                 KB:   Drilling Measured From
 DAPD.F                10:   Feet Above Permanent Datum
 DD  .F              4950:   Depth driller
 DL  .F              4950:   Depth logger
 BLI .F              4947:   Bottom log interval
 TLI .F               499:   Top log interval
 CS1 .IN            8.625:   Casing size
 CBD1.      8.625" @ 489':   Casing driller 1
 CBL1.F               499:   Casing logger 1
 BS1 .IN            7.875:   Bit size
 BSD1.F              4950:   Depth drilled with bit1
 DFT .            GEL/MUD:   Type fluid in hole
 DFD .                9.3:   Density
 DFV .                175:   Viscosity
 DFPH.                 12:   pH
 DFL .                  4:   Fluid loss
 MSS .               TANK:   Source of sample
 RMS .OHMM           .600:   Rm
 MST .F                71:   Rm Meas. temp.
 RMF .OHMM           .804:   Rmf
 MFST.F                71:   Rmf Meas. temp.
 MFSS.               MEAS:   Source Rmf.
 RMB .OHMM           .308:   Rm. at BHT
 BHT .F               138:   BHT.
 TCS .HRS            1200:   Time Circ. stopped
 TLAB.HRS            0330:   Time logger at bottom
 MRT .F               138:   Maximum recorded temp.
 LUN .               8035:   Logging unit number
 LUL .               CSPR:   Logging unit location
 ENGI.        CRAIG/DFARR:   Recorded By
 WITN.              AMEND:   Witnessed by
 ORIG.           5" PRINT:   Origin of data
 UWI .     49025107250000:   Unique Well ID
 DICO. A2D TECHNOLOGIES, INC.:   Digitizing Company
~OTHER INFORMATION
~A   DEPT     TENR        SPR        SFL        ILD        ILM       CALD         GRD      CORR       TEND       RHOB         NPHI 
# ...
 1082.5000   725.9840   -22.0860     6.9750     8.0060     6.9060    15.3710    96.4760     0.0410   873.9840     2.5520     0.2410
 1083.0000   726.1450   -22.3410     6.9750     7.9530     6.8520    15.4030    98.9430     0.0480   873.9840     2.5550     0.2440
 1083.5000   726.3060   -22.4250     6.9750     7.8990     6.7980    15.4330   101.7450     0.0460   873.9840     2.5540     0.2460
 1084.0000   726.4670   -22.4250     6.9510     7.8460     6.7440    15.4590   104.5620     0.0350   873.9840     2.5290     0.2470
 1084.5000   726.6280   -22.4170     6.8790     7.8010     6.6770    15.4320   105.9880     0.0250   873.9840     2.5220     0.2480
 1085.0000   726.7900   -22.3980     6.8080     7.6560     6.5960    15.4070   105.1250     0.0360   873.9840     2.5410     0.2510
 1085.5000   726.9510   -22.0590     6.7300     7.6560     6.5460    15.3800   104.2820     0.0460   873.9840     2.5600     0.2540
 1086.0000   727.1120   -21.7340     6.7510     7.6560     6.4740    15.3530   101.9090     0.0590   873.9840     2.5730     0.2570
 1086.5000   727.2730   -21.6170     6.7910     7.6560     6.4980    15.3270    98.1700     0.0600   873.9840     2.5690     0.2530
 1087.0000   727.4340   -21.6290     6.8310     7.6560     6.5390    15.3010    95.1280     0.0470   873.9840     2.5560     0.2490
 1087.5000   727.5950   -21.6280     6.8710     7.6560     6.5800    15.2690    94.3530     0.0360   873.9840     2.5390     0.2460
 1088.0000   727.7570   -21.6230     6.9110     7.6560     6.6220    15.2970    95.3120     0.0250   873.9840     2.5370     0.2420
 1088.5000   727.9180   -21.6410     6.9750     7.6560     6.6630    15.3650    96.0790     0.0250   873.9840     2.5420     0.2400
 1089.0000   728.0790   -21.4820     6.9180     7.6560     6.7200    15.4280    96.9460     0.0270   873.9840     2.5400     0.2430
 1089.5000   728.2400   -21.1540     6.7830     7.6560     6.6110    15.4900    97.7920     0.0290   873.9840     2.5350     0.2460
 1090.0000   728.4010   -20.8450     6.6470     7.5830     6.4390    15.5540    99.5870     0.0280   873.9840     2.5270     0.2490
 1090.5000   728.5620   -20.5370     6.5120     7.4140     6.2660    15.6220   101.4040     0.0210   873.9840     2.5200     0.2480
 1091.0000   728.7240   -20.2190     6.3770     7.2460     6.0930    15.6740   101.3030     0.0140   873.9840     2.5120     0.2470
 1091.5000   728.8850   -19.9110     6.2410     7.0770     5.8970    15.7000    98.8490     0.0070   873.9840     2.5030     0.2460
 1092.0000   729.0460   -19.6570     6.1060     6.9080     5.8680    15.7300    96.1350     0.0040   873.9840     2.4990     0.2470
 1092.5000   729.2070   -19.7400     6.0000     6.7200     5.8330    15.7600    97.0680     0.0100   873.9840     2.5020     0.2520
 1093.0000   729.3680   -19.8150     5.9690     6.7020     5.7990    15.7900    98.2580     0.0210   873.9840     2.5030     0.2590
 1093.5000   729.5290   -19.9050     5.9380     6.6830     5.7730    15.8190    99.8080     0.0320   873.9840     2.5110     0.2660
 1094.0000   729.6910   -19.9790     5.9080     6.6630     5.7510    15.8510   101.3180     0.0430   873.9840     2.5230     0.2720
 1094.5000   729.8520   -20.1940     5.8770     6.6440     5.7280    15.8460   101.7180     0.0540   873.9840     2.5410     0.2760
 1095.0000   730.0130   -20.6450     5.8460     6.6240     5.7060    15.8160   100.7460     0.0650   873.9840     2.5580     0.2800
 1095.5000   730.1740   -21.0760     5.8150     6.6050     5.5770    15.7880   101.0000     0.0720   873.9840     2.5620     0.2790
 1096.0000   730.3350   -21.5190     5.7890     6.5270     5.6630    15.7610   101.3740     0.0630   873.9840     2.5440     0.2760
 1096.5000   730.4970   -21.6380     5.7890     6.3980     5.8970    15.7270   100.3400     0.0410   873.9840     2.5240     0.2730
 1097.0000   730.6580   -21.6200     5.8970     6.2690     5.7890    15.6750    99.3620     0.0240   873.9840     2.5080     0.2700
 1097.5000   730.8190   -21.6310     5.3920     5.9010     5.2750    15.6260   100.2310     0.0220   873.9840     2.5080     0.2660
 1098.0000   730.9800   -21.6780     4.9530     5.4570     4.8280    15.5880   102.9220     0.0210   873.9840     2.5070     0.2660
 1098.5000   731.1410   -22.2240     4.5140     5.0120     4.3820    15.6600   104.0980     0.0210   873.9840     2.5180     0.2650
 1099.0000   731.3020   -22.6990     4.0750     4.2960     3.9360    15.7230   102.9440     0.0460   873.9840     2.5260     0.2650
 1099.5000   731.4640   -22.7300     3.6320     4.4600     3.3090    15.7930   102.0620     0.0710   873.9840     2.5290     0.2770
 1100.0000   731.6250   -22.5910     4.2520     4.8820     3.7500    15.8640   101.4410     0.0900   873.9840     2.5020     0.3310
 1100.5000   731.7860   -22.4900     4.8770     5.3040     4.4920    15.8980   102.7740     0.0560   873.9840     2.4750     0.3160
 1101.0000   731.9470   -22.1630     5.4430     5.7260     5.1310    15.8790   103.6040     0.0370   873.9840     2.4680     0.3040
 1101.5000   732.1080   -21.6600     5.7840     6.1480     5.3730    15.8650   103.0510     0.0410   873.9840     2.5000     0.2910
 1102.0000   732.2690   -21.1900     6.1250     6.5700     5.5690    15.8500   102.5230     0.0460   873.9840     2.5110     0.2870
 1102.5000   732.4310   -20.7210     6.4660     6.9920     5.9220    15.8340   100.4530     0.0460   873.9840     2.5090     0.2840
 1103.0000   732.5920   -20.2490     6.6540     7.4140     6.5960    15.8200    97.8580     0.0430   873.9840     2.5030     0.2770
 1103.5000   732.7530   -19.7680     6.7470     7.6950     6.6390    15.8050    95.5720     0.0400   873.9840     2.5120     0.2670
 1104.0000   732.9140   -19.3080     6.8400     7.7870     6.6920    15.7880    96.3740     0.0370   873.9840     2.5190     0.2570
 1104.5000   733.0750   -18.8800     6.9330     7.8780     6.7450    15.7860    99.7480     0.0380   873.9840     2.5280     0.2470
 1105.0000   733.2360   -19.0260     7.0270     7.9410     6.7980    15.8010   103.3280     0.0400   873.9840     2.5420     0.2410
 1105.5000   733.3980   -19.1790     7.1200     7.9160     6.8510    15.8150   104.1520     0.0520   873.9840     2.5550     0.2410
 1106.0000   733.5590   -19.3550     7.2130     7.8910     6.9040    15.8300   103.4420     0.0680   873.9840     2.5590     0.2460
 1106.5000   733.7200   -19.5130     7.3070     7.8660     6.9750    15.8430   101.5620     0.0840   873.9840     2.5650     0.2580
 1107.0000   733.8810   -19.7680     7.3540     7.8410     6.9230    15.8580    99.8000     0.0850   873.9840     2.5570     0.2650
 1107.5000   734.0420   -20.2760     7.2650     7.8150     6.8440    15.8300    99.0590     0.0860   873.9840     2.5470     0.2600
 1108.0000   734.2030   -20.7630     7.1760     7.7900     6.7640    15.7840    99.7560     0.0870   873.9840     2.5370     0.2530
 1108.5000   734.3650   -21.2540     7.0870     7.7650     6.6850    15.7420   100.6960     0.0820   873.9840     2.5270     0.2460
 1109.0000   734.5260   -21.8090     6.9990     7.7400     6.5960    15.6910   102.1850     0.0660   873.9840     2.5180     0.2400
 1109.5000   734.6870   -21.8210     6.8660     7.7150     6.7280    15.6420   103.7190     0.0520   873.9840     2.5040     0.2350
 1110.0000   734.8480   -21.2840     6.8870     7.6890     6.7440    15.5910   104.6230     0.0360   873.9840     2.5020     0.2370
 1110.5000   735.0090   -20.8690     7.0350     7.6570     6.7610    15.5420   103.4780     0.0320   873.9840     2.4990     0.2380
 1111.0000   735.1700   -21.1190     7.1830     7.6730     6.7780    15.4920   101.4880     0.0320   873.9840     2.5030     0.2370
 1111.5000   735.3320   -21.3390     7.3760     7.6990     6.7940    15.4410    99.6280     0.0320   873.9840     2.5110     0.2350
 1112.0000   735.4930   -21.6070     7.2770     7.7260     6.8110    15.4220    99.6900     0.0290   873.9840     2.5170     0.2340
 1112.5000   735.6540   -21.8670     7.1340     7.7520     6.8280    15.4260   101.8120     0.0240   873.9840     2.5170     0.2350
