~VERSION INFORMATION
 VERS.                2.0:   CWLS LOG ASCII STANDARD - VERSION 2.0
 WRAP.                 NO:   ONE LINE PER DEPTH STEP
~WELL INFORMATION
#MNEM.UNIT      DATA TYPE    INFORMATION
#----------   ------------   ------------------------------
 STRT.F          387.0000:   START DEPTH
 STOP.F         2921.0000:   STOP DEPTH
 STEP.F            0.5000:   STEP LENGTH
 NULL.          -999.2500:   NO VALUE
 COMP.    FENIX & SCISSON:   COMPANY
 WELL.  FENIX  "A" #21-28:   WELL
 FLD .          N.P.R. #3:   FIELD
 LOC .      S28 T39N R78W:   LOCATION
 CNTY.            NATRONA:   COUNTY
 STAT.            WYOMING:   STATE
 CTRY. UNITED STATES OF AMERICA:   COUNTRY
 SRVC.       SCHLUMBERGER:   SERVICE COMPANY
 DATE.        30-APR-1977:   LOGDATE
 API .     49025103550000:   API NUMBER
~CURVE INFORMATION
#MNEM.UNIT       API CODE    CURVE DESCRIPTION
#----------   ------------   ------------------------------
 DEPT.F                  :   
 SPR .MV     07 010 01 00:   SPONTANEOUS POTENTIAL
 ILD .OHMM   07 120 46 00:   DEEP INDUCTION RESISTIVITY
 ILM .OHMM   07 120 44 00:   INDUCTION LOG MEDIUM RESISTIVITY
 LL8 .OHMM   07 220 08 00:   LATEROLOG-8 RES.
 GRD .GAPI   45 310 01 00:   GAMMA RAY FROM DENSITY LOG
 CALD.IN     45 280 60 00:   CALIPER FROM DENSITY LOG
 CORR.G/C3   45 356 01 00:   DENSITY CORRECTION
 RHOB.G/C3   45 350 01 00:   BULK DENSITY
~PARAMETER INFORMATION
#MNEM.UNIT          VALUE    DESCRIPTION
#----------   ------------   ------------------------------
 EKB .F         4977.0000:   Kelly bushing
 EGL .F         4967.0000:   Ground level
 EDF .F            0.0000:   Drilling floor
 TD  .F         2922.0000:   Total depth
 CLNT.            A2DTECH:   Client Code
 SL  . 330' FNL & 990' FWL:   Surface Location
 DATE.        30-APR-1977:   Date Logged [DD-MMM-YYYY]
 DD  .F              2915:   Depth driller
 DL  .F              2922:   Depth logger
 BLI .F              2916:   Bottom log interval
 TLI .F               394:   Top log interval
 CS1 .              8.625:   Casing size
 CBD1.      8.625" @ 390':   Casing driller 1
 CBL1.IN              394:   Casing logger 1
 BS1 .IN            7.875:   Bit size
 BSD1.F              2915:   Depth drilled with bit1
 DFT .            KCL MUD:   Type fluid in hole
 DFD .                8.9:   Density
 DFV .                 87:   Viscosity
 DFPH.                8.5:   pH
 DFL .                9.6:   Fluid loss
 MSS .                PIT:   Source of sample
 RMS .OHMM           0.25:   Rm
 MST .F                70:   Rm Meas. temp.
 RMF .OHMM           0.22:   Rmf
 MFST.F                70:   Rmf Meas. temp.
 MFSS.               MEAS:   Source Rmf.
 RMC .OHMM           0.38:   Rmc
 MCST.F                70:   Rmc Meas. temp.
 MCSS.               CALC:   Source Rmc.
 RMB .OHMM           0.09:   Rm. at BHT
 BHT .F               109:   BHT.
 TCS .HRS            1800:   Time Circ. stopped
 TLAB.HRS            2200:   Time logger at bottom
 MRT .F               109:   Maximum recorded temp.
 LUN .                711:   Logging unit number
 LUL .             CASPER:   Logging unit location
 ENGI.              SYLER:   Recorded By
 WITN.         PETTINGILL:   Witnessed by
 ORIG.           5" PRINT:   Origin of data
 UWI .     49025103550000:   Unique Well ID
 DICO. A2D TECHNOLOGIES, INC.:   Digitizing Company
 PD  .                 GL:   Permanent Datum
 EPD .F              4967:   Elevation Permanent Datum
 LMF .                 KB:   Log Measured From
 DMF .                 KB:   Drilling Measured From
 DAPD.F                10:   Feet Above Permanent Datum
~OTHER INFORMATION
~A   DEPT      SPR        ILD        ILM        LL8         GRD      CALD       CORR       RHOB   
# ...
 1075.5000    -9.8790     9.7629     9.4701     9.4990   111.4527     8.7947     0.0222     2.5443
 1076.0000   -10.0199     9.7689     9.4727     9.4386   109.6053     8.7812     0.0260     2.5590
 1076.5000   -10.0029     9.7060     9.4093     9.3786   108.9973     8.7835     0.0257     2.5575
 1077.0000   -10.1404     9.5797     9.2831     9.3190   108.8606     8.8012     0.0147     2.5521
 1077.5000   -10.1269     9.5200     9.0947     9.2597   109.1135     8.7878     0.0082     2.5576
 1078.0000   -10.1133     9.5254     9.0972     9.2661   110.6720     8.7900     0.0244     2.5677
 1078.5000   -10.0998     9.4001     9.0997     9.2713   112.0435     8.7922     0.0360     2.5546
 1079.0000   -10.0862     9.3395     9.1655     9.2764   112.0362     8.7944     0.0236     2.5430
 1079.5000   -10.0726     9.3468     9.1681     9.2161   110.9511     8.7966     0.0303     2.5492
 1080.0000   -10.0591     9.2865     9.1073     9.0328   108.5070     8.7993     0.0353     2.5539
 1080.5000   -10.0455     9.1024     8.9219     8.9131   108.2146     8.8022     0.0353     2.5555
 1081.0000   -10.0319     8.8589     8.5618     8.7953   108.7002     8.8051     0.0353     2.5555
 1081.5000   -10.0184     8.6819     8.2727     8.9232   109.0450     8.8081     0.0319     2.5517
 1082.0000   -10.0048     8.5676     8.2173     8.9902   106.7160     8.8110     0.0198     2.5440
 1082.5000    -9.8402     8.5730     8.3927     8.9952   105.8017     8.8139     0.0253     2.5316
 1083.0000    -9.6756     8.5783     8.6908     8.9380   105.0420     8.8168     0.0220     2.5185
 1083.5000    -9.6620     8.5837     8.9373     8.8197   104.9015     8.8197     0.0173     2.5154
 1084.0000    -9.6485     8.6488     9.0645     8.7637   105.2361     8.8227     0.0096     2.5154
 1084.5000    -9.6349     8.7144     9.1935     8.8296   106.0325     8.8256     0.0115     2.5178
 1085.0000    -9.6213     8.8417     8.9442     9.0828   107.4510     8.8285     0.0162     2.5256
 1085.5000    -9.6078     8.8472     9.0720     9.2787   109.8027     8.8314     0.0200     2.5357
 1086.0000    -9.5942     8.9143     9.0745     9.2839   110.5991     8.8343     0.0271     2.5404
 1086.5000    -9.5807     8.9199     9.1401     9.2890   110.9289     8.8373     0.0246     2.5436
 1087.0000    -9.5671     8.9255     9.1427     9.5554   110.9478     8.8402     0.0293     2.5560
 1087.5000    -9.5535     8.9310     9.0815     9.7615   110.3445     8.8431     0.0378     2.5584
 1088.0000    -9.5400     8.9983     9.0213     9.7669   108.1860     8.8460     0.0360     2.5483
 1088.5000    -9.5264     9.0666     8.9615     9.7723   106.9607     8.8489     0.0275     2.5313
 1089.0000    -9.5129     9.1354     9.0269     9.7102   107.4461     8.8519     0.0120     2.5104
 1089.5000    -9.4993     9.1411     9.2189     9.6485   108.8646     8.8548     0.0068     2.5073
 1090.0000    -9.3347     9.1468     9.4151     9.6539   111.9938     8.8577     0.0100     2.5221
 1090.5000    -9.3211     9.2162     9.4177     9.5924   113.8789     8.8606     0.0147     2.5268
 1091.0000    -9.2809     9.2862     9.2907     9.4596   114.5198     8.8635     0.0192     2.5261
 1091.5000    -9.4450     9.2278     9.2285     9.2760   119.5106     8.8665     0.0200     2.5246
 1092.0000    -9.7341     9.1697     9.0419     9.0901   116.7937     8.8694     0.0208     2.5199
 1092.5000    -9.8716     8.9865     8.9814     9.0323   110.5029     8.8723     0.0231     2.5223
 1093.0000    -9.8575     8.9921     8.8609     9.0467   105.7992     8.8752     0.0270     2.5340
 1093.5000    -9.8440     8.9355     8.8016     9.3070   104.0186     8.8781     0.0301     2.5519
 1094.0000    -9.8304     8.9411     8.8969     9.5749   103.4305     8.8811     0.0309     2.5503
 1094.5000    -9.6658     8.9467     8.7932     9.7022   104.2424     8.8840     0.0301     2.5442
 1095.0000    -9.6522     8.9523     8.7423     9.7086   105.9565     8.8869     0.0238     2.5334
 1095.5000    -9.4876     8.9579     8.7454     9.5803   107.5305     8.8898     0.0100     2.5194
 1096.0000    -9.3230     8.9015     8.7484     9.3235   107.8603     8.8927     0.0054     2.5210
 1096.5000    -9.3094     8.8455     8.7515     9.0736   108.3457     8.8957     0.0171     2.5319
 1097.0000    -9.4471     8.7899     8.7551     8.8304   108.9866     8.8986     0.0302     2.5436
 1097.5000    -9.5846     8.7346     8.7581     8.7137   110.0941     8.9015     0.0418     2.5646
 1098.0000    -9.5709     8.6196     8.7000     8.6571   111.2016     8.9044     0.0456     2.5592
 1098.5000    -9.7085     8.5654     8.5840     8.6631   110.9093     8.9074     0.0278     2.5460
 1099.0000    -9.6948     8.5115     8.4688     8.6678   110.6124     8.9103     0.0209     2.5306
 1099.5000    -9.8323     8.4579     8.2403     8.6116   111.7246     8.9132     0.0193     2.5229
 1100.0000    -9.8187     8.4632     8.1291     8.6194   114.7955     8.9161     0.0178     2.5283
 1100.5000    -9.7977     8.4685     8.1326     8.6570   116.3256     8.9190     0.0178     2.5415
 1101.0000    -9.9352     8.4738     8.2488     8.7467   117.4372     8.9203     0.0155     2.5501
 1101.5000    -9.9126     8.5381     8.3667     8.9365   115.4472     8.9182     0.0135     2.5471
 1102.0000    -9.8945     8.5434     8.5453     9.3235   111.1223     8.9160     0.0119     2.5285
 1102.5000    -9.7254     8.9064     8.6675     9.6561   108.3445     8.9139     0.0103     2.5270
 1103.0000    -9.7073     8.9107     8.7300     9.8622   109.3048     8.9117     0.0107     2.5448
 1103.5000    -9.6893     8.7315     8.6136     9.8676   109.7936     8.9096     0.0116     2.5472
 1104.0000    -9.5201     8.6143     8.5564     9.5334   109.6612     8.9074     0.0139     2.5552
 1104.5000    -9.5021     8.5589     8.5003     9.2774   108.2866     8.9053     0.0138     2.5668
 1105.0000    -9.6396     8.5039     8.5039     9.0283   108.3096     8.9051     0.0123     2.5731
 1105.5000    -9.7726     8.4492     8.4474     8.8471   108.6430     8.9064     0.0131     2.5553
 1106.0000    -9.9056     8.3948     8.3920     8.7297   110.6846     8.9076     0.0170     2.5375
 1106.5000   -10.0385     8.3999     8.3370     8.6190   110.7075     8.9089     0.0279     2.5484
 1107.0000   -10.1715     8.4040     8.3406     8.5642   110.7305     8.9101     0.0458     2.5655
 1107.5000   -10.1489     8.4665     8.4014     8.5691   112.1509     8.9113     0.0365     2.5624
 1108.0000   -10.1309     8.4706     8.6404     8.5738   118.3915     8.9126     0.0172     2.5390
 1108.5000   -10.2639     8.5934     8.8248     8.6382   116.3893     8.9138     0.0164     2.5432
 1109.0000   -10.2458     8.6571     8.8892     8.7636   116.7236     8.9151     0.0172     2.5549
 1109.5000   -10.3833     8.8434     8.8301     8.8987   113.0247     8.9163     0.0204     2.5612
 1110.0000   -10.3607     8.9712     8.9571     9.0912   112.1160     8.9176     0.0227     2.5527
 1110.5000   -10.0406     9.1009     9.0225     9.2877   107.9464     8.9188     0.0251     2.5481
 1111.0000    -9.8714     9.1687     9.0256     9.5448   107.4977     8.9200     0.0267     2.5466
 1111.5000    -9.8534     9.3012     9.0287     9.6165   109.2345     8.9213     0.0267     2.5490
 1112.0000    -9.6842     9.3705     9.0946     9.6995   109.8785     8.9225     0.0267     2.5552
 1112.5000    -9.5151     9.4403     9.2246     9.8294   110.0567     8.9238     0.0259     2.5561
 1113.0000    -9.4970     9.4448     9.4869     9.8348   110.3902     8.9250     0.0237     2.5553
 1113.5000    -9.6346     9.3196     9.4984     9.9088   111.0343     8.9262     0.0198     2.5484
 1114.0000    -9.7675     9.1957     9.2341     9.9143   111.0572     8.9275     0.0152     2.5291
 1114.5000   -10.0471     9.1354     9.1102     9.9198   110.6143     8.9287     0.0176     2.5308
 1115.0000   -10.1846     9.0139     9.0505     9.8578   108.6186     8.9294     0.0261     2.5451
 1115.5000   -10.0109     8.8941     8.9291     9.8632   106.1570     8.9288     0.0300     2.5579
