~VERSION INFORMATION
 VERS.                2.0:   CWLS LOG ASCII STANDARD - VERSION 2.0
 WRAP.                 NO:   ONE LINE PER DEPTH STEP
~WELL INFORMATION
#MNEM.UNIT      DATA TYPE    INFORMATION
#----------   ------------   ------------------------------
 STRT.F          906.0000:   START DEPTH
 STOP.F         3426.0000:   STOP DEPTH
 STEP.F            0.5000:   STEP LENGTH
 NULL.          -999.2500:   NO VALUE
 COMP.    FENIX & SCISSON:   COMPANY
 WELL. FENIX NPR 3 "AX" #46-11:   WELL
 FLD .                NPR:   FIELD
 LOC .      S11 T38N R78W:   LOCATION
 CNTY.            NATRONA:   COUNTY
 STAT.            WYOMING:   STATE
 CTRY. UNITED STATES OF AMERICA:   COUNTRY
 SRVC.       SCHLUMBERGER:   SERVICE COMPANY
 DATE.        16-MAY-1981:   LOGDATE
 API .     49025108720000:   API NUMBER
~CURVE INFORMATION
#MNEM.UNIT       API CODE    CURVE DESCRIPTION
#----------   ------------   ------------------------------
 DEPT.F                  :   
 SPR .MV     07 010 01 00:   SPONTANEOUS POTENTIAL
 ILD .OHMM   07 120 46 00:   INDUCTION LOG DEEP RESISTIVITY
 SFL .OHMM   07 220 01 00:   SHALLOW FOCUSED LOG RESISTIVITY
 TENR.LBS    07 635 01 00:   TENSION
 ILM .OHMM   07 120 44 00:   INDUCTION LOG MEDIUM RESISTIVITY
 CALD.IN     45 280 60 00:   CALIPER FROM DENSITY LOG
 GRD .GAPI   45 310 01 00:   GAMMA RAY FROM DENSITY LOG
 RHOB.G/C3   45 350 01 00:   BULK DENSITY
 TEND.LBS    45 635 01 00:   TENSION FROM DENSITY LOG
 CORR.G/C3   45 356 01 00:   DENSITY CORRECTION
~PARAMETER INFORMATION
#MNEM.UNIT          VALUE    DESCRIPTION
#----------   ------------   ------------------------------
 EKB .F         5199.0000:   Kelly bushing
 EGL .F         5189.0000:   Ground level
 EDF .F            0.0000:   Drilling floor
 TD  .F         3422.0000:   Total depth
 DATE.        16-MAY-1981:   Date logged
 CLNT.            A2DTECH:   Client Code
 SL  . 1867' FSL & 2100' FWL:   Surface Location
 PD  .                 GL:   Permanent Datum
 EPD .F              5189:   Elevation Permanent Datum
 LMF .                 KB:   Log Measured From
 DMF .                 KB:   Drilling Measured From
 DAPD.F                10:   Feet Above Permanent Datum
 DD  .F              3421:   Depth driller
 DL  .F              3422:   Depth logger
 BLI .F              3416:   Bottom log interval
 TLI .F               926:   Top log interval
 CS1 .IN            8.625:   Casing size
 CBD1.      8.625" @ 925':   Casing driller 1
 CBL1.F               926:   Casing logger 1
 BS1 .IN            7.875:   Bit size
 BSD1.F              3421:   Depth drilled with bit1
 DFT .                FGM:   Type fluid in hole
 DFD .                8.5:   Density
 DFV .                 60:   Viscosity
 DFPH.                  9:   pH
 DFL .                 12:   Fluid loss
 MSS .               PITS:   Source of sample
 RMS .OHMM           1.17:   Rm
 MST .F                73:   Rm Meas. temp.
 RMF .OHMM           1.03:   Rmf
 MFST.F                73:   Rmf Meas. temp.
 MFSS.               MEAS:   Source Rmf.
 RMB .OHMM            .71:   Rm. at BHT
 BHT .F               120:   BHT.
 TCS .HRS            1200:   Time Circ. stopped
 TLAB.HRS            1745:   Time logger at bottom
 MRT .F               120:   Maximum recorded temp.
 LUN .               8133:   Logging unit number
 LUL .               CSPR:   Logging unit location
 ENGI.             TAYLOR:   Recorded By
 WITN.              RIVAS:   Witnessed by
 ORIG.           5" PRINT:   Origin of data
 UWI .     49025108720000:   Unique Well ID
 DICO. A2D TECHNOLOGIES, INC.:   Digitizing Company
~OTHER INFORMATION
~A   DEPT      SPR        ILD        SFL       TENR        ILM       CALD         GRD        RHOB     TEND        CORR  
# ...
 1073.5000   -50.3950     8.9360     9.3220   635.6660     8.6140     9.6570   106.5980     2.5020   665.2300     0.0130
 1074.0000   -50.3950     8.9360     9.2690   637.0690     8.6140     9.6630   105.4480     2.5080   665.4420     0.0100
 1074.5000   -50.3950     8.9360     9.2840   638.4720     8.6140     9.6680   105.8460     2.5000   665.6530     0.0030
 1075.0000   -50.3950     8.9360     9.3550   639.8750     8.6140     9.6740   107.4990     2.4920   665.8640    -0.0030
 1075.5000   -50.3950     8.9360     9.4270   641.2780     8.6140     9.6790   109.5710     2.4880   666.0760    -0.0080
 1076.0000   -50.3950     8.9360     9.4980   642.6810     8.6140     9.6850   113.0830     2.4880   666.2870    -0.0060
 1076.5000   -50.3950     8.9360     9.6150   644.0840     8.6140     9.6900   116.4510     2.4920   666.4980    -0.0010
 1077.0000   -50.3950     8.9360     9.6000   645.4870     8.6140     9.6950   117.3900     2.4950   666.7100     0.0040
 1077.5000   -50.3950     8.9360     9.5550   646.1230     8.6140     9.7000   117.2210     2.4990   666.9210     0.0100
 1078.0000   -50.3950     8.9350     9.5100   646.1230     8.6140     9.6970   115.5610     2.5060   667.1320     0.0150
 1078.5000   -50.3950     8.9290     9.4640   646.1230     8.6140     9.6950   113.9300     2.5140   667.3430     0.0200
 1079.0000   -50.3950     8.9220     9.4190   646.1230     8.6150     9.6930   112.5950     2.5200   667.5550     0.0210
 1079.5000   -50.3950     8.9140     9.3740   646.1230     8.6100     9.6910   112.5500     2.5200   667.7280     0.0160
 1080.0000   -50.3950     8.9070     9.3290   646.1230     8.6000     9.6890   112.8460     2.5130   667.8560     0.0100
 1080.5000   -50.3950     8.9000     9.2840   646.1230     8.5910     9.6860   112.9890     2.5000   667.9830     0.0040
 1081.0000   -50.3950     8.8930     9.2690   646.1230     8.5810     9.6840   111.7780     2.4880   668.1110     0.0010
 1081.5000   -50.3950     8.8850     9.2690   646.1230     8.5720     9.6820   109.8770     2.4850   668.2390     0.0010
 1082.0000   -50.3950     8.8780     9.2690   646.1230     8.5620     9.6800   109.2210     2.4890   668.3660     0.0050
 1082.5000   -50.3950     8.8710     9.2690   646.1230     8.5530     9.6780   111.7620     2.5060   668.4940     0.0130
 1083.0000   -50.3950     8.8630     9.2690   646.1230     8.5440     9.6750   113.6630     2.5210   668.6220     0.0220
 1083.5000   -50.3950     8.8560     9.2690   646.1230     8.5340     9.6730   112.5950     2.5200   668.7490     0.0230
 1084.0000   -50.3950     8.8490     9.2690   646.1230     8.5250     9.6710   111.1490     2.5150   668.8770     0.0220
 1084.5000   -50.3950     8.8420     9.2690   646.1230     8.5150     9.6690   109.8630     2.5100   669.0040     0.0150
 1085.0000   -50.3950     8.8340     9.2690   646.1230     8.5060     9.6670   109.4980     2.5040   669.1320     0.0090
 1085.5000   -50.3950     8.8270     9.2690   646.1230     8.4960     9.6650   109.1120     2.4990   669.2600     0.0100
 1086.0000   -50.3950     8.8200     9.2690   646.1230     8.4870     9.6620   108.7220     2.5000   669.3870     0.0160
 1086.5000   -50.3950     8.8120     9.2690   646.1230     8.4770     9.6600   108.3330     2.5080   669.5150     0.0230
 1087.0000   -50.3950     8.8050     9.2690   646.1230     8.4680     9.6580   107.9350     2.5150   669.6420     0.0310
 1087.5000   -50.3950     8.7980     9.2690   646.1230     8.4590     9.6560   107.9400     2.5220   669.7700     0.0380
 1088.0000   -50.3950     8.7910     9.2600   646.1230     8.4490     9.6540   108.1020     2.5260   669.8980     0.0400
 1088.5000   -50.3950     8.7830     9.2490   646.1230     8.4400     9.6510   108.1770     2.5260   670.0250     0.0370
 1089.0000   -50.3950     8.7770     9.2390   646.1230     8.4300     9.6490   107.7090     2.5220   670.1530     0.0330
 1089.5000   -50.3950     8.7650     9.2290   646.1230     8.4210     9.6470   107.2390     2.5190   670.2810     0.0300
 1090.0000   -50.3950     8.7480     9.2180   646.1230     8.4110     9.6450   107.6350     2.5190   670.4080     0.0260
 1090.5000   -50.3950     8.7330     9.2080   646.1230     8.4020     9.6430   108.6260     2.5200   670.5360     0.0300
 1091.0000   -50.3950     8.7180     9.1970   646.1230     8.3920     9.6400   108.6350     2.5270   670.6630     0.0410
 1091.5000   -50.3950     8.7030     9.1870   646.1230     8.3830     9.6410   107.0020     2.5340   670.7910     0.0520
 1092.0000   -50.3950     8.6880     9.1770   646.1230     8.3740     9.6440   105.4050     2.5250   670.9190     0.0600
 1092.5000   -50.3950     8.6730     9.1660   646.1230     8.3640     9.6480   104.7120     2.5090   671.0460     0.0330
 1093.0000   -50.3950     8.6580     9.1560   646.1230     8.3550     9.6520   108.8250     2.4930   671.1740     0.0110
 1093.5000   -50.3950     8.6430     9.1450   646.1230     8.3450     9.6560   112.8120     2.4860   671.3010     0.0090
 1094.0000   -50.3950     8.6270     9.1350   646.1230     8.3360     9.6600   113.4630     2.4910   671.4290     0.0130
 1094.5000   -50.3950     8.6130     9.1250   646.1230     8.3260     9.6640   112.9720     2.4960   671.5570     0.0180
 1095.0000   -50.3950     8.5750     9.1130   646.1230     8.3160     9.6670   111.5280     2.4980   671.6840     0.0220
 1095.5000   -50.3950     8.5430     9.1070   646.1230     8.3100     9.6710   110.0960     2.4950   671.8120     0.0170
 1096.0000   -50.3950     8.5090     9.0700   646.1230     8.2760     9.6750   108.6620     2.4800   671.9390     0.0100
 1096.5000   -50.3950     8.4760     9.0160   646.1230     8.2270     9.6790   107.2320     2.4770   672.0670     0.0080
 1097.0000   -50.3950     8.4420     8.9670   646.1230     8.1830     9.6750   107.7690     2.4960   672.1950     0.0420
 1097.5000   -50.3950     8.4090     8.9170   646.1230     8.1380     9.6690   107.5240     2.5200   672.3220     0.0740
 1098.0000   -50.3950     8.3750     8.8670   646.1230     8.0930     9.6620   106.0040     2.5040   672.4500     0.0960
 1098.5000   -50.3950     8.3420     8.8180   646.1230     8.0470     9.6560   104.5020     2.4790   672.5780     0.0580
 1099.0000   -50.3950     8.3080     8.7680   646.1230     8.0020     9.6490   103.3910     2.4530   672.7050     0.0270
 1099.5000   -50.3950     8.2740     8.7190   646.1230     7.9570     9.6430   103.9170     2.4480   672.8330     0.0090
 1100.0000   -50.3950     8.2410     8.6690   646.1230     7.9120     9.6360   105.8830     2.4630   672.9600     0.0090
 1100.5000   -50.3950     8.2070     8.6190   646.1230     7.8670     9.6300   108.8090     2.4690   673.0880     0.0090
 1101.0000   -50.3950     8.1740     8.5700   646.1230     7.8220     9.6230   111.7420     2.4650   673.2160     0.0100
 1101.5000   -50.3950     8.1400     8.5200   646.1230     7.7770     9.6170   114.2460     2.4600   673.3430     0.0120
 1102.0000   -50.3950     8.1070     8.4700   646.1230     7.7320     9.6100   111.2350     2.4560   673.4710     0.0180
 1102.5000   -50.3950     8.0730     8.4370   646.1230     7.6870     9.6040   107.8180     2.4600   673.5980     0.0230
 1103.0000   -50.3950     8.0400     8.4090   646.2130     7.6420     9.5970   107.2680     2.4710   673.7260     0.0290
 1103.5000   -50.3950     8.0060     8.3810   646.3810     7.5970     9.5910   110.0530     2.4820   673.8540     0.0350
 1104.0000   -50.3950     7.9730     8.3530   646.5490     7.5520     9.5840   113.0500     2.4830   673.9810     0.0400
 1104.5000   -50.3950     7.9390     8.3260   646.7170     7.5060     9.5780   116.0880     2.4790   674.1090     0.0400
 1105.0000   -50.3950     7.9050     8.2980   646.8850     7.4610     9.5710   116.7370     2.4680   674.2370     0.0350
 1105.5000   -50.3950     7.8720     8.2700   647.0530     7.4160     9.5650   115.0560     2.4570   674.3640     0.0200
 1106.0000   -50.3950     7.8380     8.2420   647.2210     7.3710     9.5590   111.8970     2.4510   674.4920     0.0100
 1106.5000   -50.3950     7.8050     8.2140   647.3890     7.3260     9.5740   110.3540     2.4700   674.6190     0.0180
