~VERSION INFORMATION
 VERS.                2.0:   CWLS LOG ASCII STANDARD - VERSION 2.0
 WRAP.                 NO:   ONE LINE PER DEPTH STEP
~WELL INFORMATION
#MNEM.UNIT      DATA TYPE    INFORMATION
#----------   ------------   ------------------------------
 STRT.F          397.0000:   START DEPTH
 STOP.F         5516.0000:   STOP DEPTH
 STEP.F            0.5000:   STEP LENGTH
 NULL.          -999.2500:   NO VALUE
 COMP.  FENIX AND SCISSON:   COMPANY
 WELL.   FENIX TPX #54-10:   WELL
 FLD . NAVAL PETROLEUM RESERVE=3:   FIELD
 LOC .      S10 T38N R78W:   LOCATION
 CNTY.            NATRONA:   COUNTY
 STAT.            WYOMING:   STATE
 CTRY. UNITED STATES OF AMERICA:   COUNTRY
 SRVC.       SCHLUMBERGER:   SERVICE COMPANY
 DATE.        03-APR-1981:   LOGDATE
 API .     49025108690000:   API NUMBER
~CURVE INFORMATION
#MNEM.UNIT       API CODE    CURVE DESCRIPTION
#----------   ------------   ------------------------------
 DEPT.F                  :   
 SPR .MV     11 010 01 00:   SPONTANEOUS POTENTIAL FROM RES.
 TENR.LBS    11 635 01 00:   TENSION FROM RES.
 LLD .OHMM   11 220 10 00:   LATEROLOG DEEP
 LLS .OHMM   11 220 09 00:   LATEROLOG LOG SHALLOW
 TEND.LBS    45 635 01 00:   TENSION FORM DENSITY LOG
 GRD .GAPI   45 310 01 00:   GAMMA RAY FROM DENSITY LOG
 NPHI.DEC    42 890 03 00:   NEUTRON POROSITY SANDSTONE
 CALD.IN     45 280 60 00:   CALIPER FROM DENSITY LOG
 CORR.G/C3   45 356 01 00:   DENSITY CORRECTION
 RHOB.G/C3   45 350 01 00:   BULK DENSITY
~PARAMETER INFORMATION
#MNEM.UNIT          VALUE    DESCRIPTION
#----------   ------------   ------------------------------
 EKB .F         5206.0000:   Kelly bushing
 EGL .F         5196.0000:   Ground level
 EDF .F            0.0000:   Drilling floor
 TD  .F         5498.0000:   Total depth
 CLNT.            A2DTECH:   Client Code
 SL  . 2080' FNL & 2150' FEL:   Surface Location
 PD  .                 GL:   Permanent Datum
 EPD .F              5196:   Elevation Permanent Datum
 LMF .                 KB:   Log Measured From
 DMF .                 KB:   Drilling Measured From
 DAPD.F                10:   Feet Above Permanent Datum
 DATE.         3-APR-1981:   Date Logged [DD-MMM-YYYY]
 DD  .F              5485:   Depth driller
 DL  .F              5498:   Depth logger
 BLI .F              5496:   Bottom log interval
 TLI .F               397:   Top log interval
 CS1 .IN                7:   Casing size
 CBD1.         7" @ 3891':   Casing driller 1
 CBL1.F              3889:   Casing logger 1
 BS1 .IN            6.125:   Bit size
 BSD1.F              5485:   Depth drilled with bit1
 DFT .           CHEM GEL:   Type fluid in hole
 DFD .                9.1:   Density
 DFV .                 42:   Viscosity
 DFPH.                9.0:   pH
 DFL .                5.0:   Fluid loss
 MSS .           MUD TANK:   Source of sample
 RMS .OHMM           0.81:   Rm
 MST .F                62:   Rm Meas. temp.
 RMF .OHMM           0.64:   Rmf
 MFST.F                62:   Rmf Meas. temp.
 MFSS.               MEAS:   Source Rmf.
 RMB .OHMM          0.031:   Rm. at BHT
 BHT .F               174:   BHT.
 TCS .HRS            0830:   Time Circ. stopped
 TLAB.HRS            2130:   Time logger at bottom
 MRT .F               174:   Maximum recorded temp.
 LUN .               8035:   Logging unit number
 LUL .               CSPR:   Logging unit location
 ENGI.             BEATIE:   Recorded By
 WITN.              FIVAS:   Witnessed by
 ORIG.           5" PRINT:   Origin of data
 UWI .     49025108690000:   Unique Well ID
 DICO. A2D TECHNOLOGIES, INC:   Digitizing Company
~OTHER INFORMATION
~A   DEPT      SPR       TENR        LLD        LLS       TEND         GRD        NPHI     CALD       CORR       RHOB   
# ...
 4316.5000   -20.0076  1462.8726    40.0909    37.0705  1570.4679    80.4547     0.1207     6.6367     0.0108     2.6173
 4317.0000   -20.0165  1461.5973    41.2003    38.9339  1571.5149    72.9859     0.1200     6.6370     0.0123     2.6143
 4317.5000   -20.0238  1461.8966    41.7661    40.0382  1557.5758    67.2170     0.1174     6.6373     0.0100     2.5939
 4318.0000   -19.8772  1462.6647    42.0477    40.8857  1558.7882    63.5629     0.1162     6.6376     0.0100     2.5804
 4318.5000   -19.8860  1463.4329    40.2933    41.1683  1560.2041    60.5130     0.1180     6.6379     0.0107     2.5728
 4319.0000   -19.7414  1464.2010    36.3984    38.6394  1561.3544    58.5961     0.1217     6.6232     0.0122     2.5668
 4319.5000   -19.7505  1464.9692    31.7091    32.8698  1562.4247    54.4061     0.1277     6.5788     0.0189     2.5548
 4320.0000   -19.7568  1465.7373    27.3518    29.1656  1556.5594    51.3562     0.1314     6.5194     0.0287     2.5337
 4320.5000   -19.7644  1466.5055    23.7594    25.8788  1549.6547    48.9105     0.1344     6.4600     0.0422     2.5126
 4321.0000   -19.7721  1467.2737    21.2267    22.8654  1551.0918    49.4864     0.1362     6.4304     0.0519     2.5156
 4321.5000   -19.6279  1468.0419    19.0956    19.9491  1536.9697    50.4073     0.1393     6.4008     0.0575     2.5186
 4322.0000   -19.5819  1468.8101    18.0455    18.2054  1538.1821    54.8594     0.1432     6.3863     0.0579     2.5171
 4322.5000   -19.3402  1469.5781    17.2943    16.7313  1539.3944    63.5920     0.1493     6.3866     0.0489     2.5073
 4323.0000   -19.2546  1470.3463    16.8087    15.5941  1540.6062    81.9923     0.1559     6.3869     0.0383     2.5005
 4323.5000   -19.0501  1471.1145    17.6590    17.2029  1541.9795    88.0058     0.1617     6.3872     0.0331     2.5215
 4324.0000   -18.8876  1471.8827    19.5982    19.3827  1558.2811    80.7191     0.1739     6.3875     0.0342     2.5846
 4324.5000   -18.6104  1472.6508    20.4332    20.6450  1559.4314    62.8656     0.1919     6.4027     0.0601     2.5876
 4325.0000   -18.4650  1473.4189    18.9071    19.7902  1545.4301    48.3354     0.1919     6.4180     0.0788     2.5665
 4325.5000   -18.3207  1474.1871    15.6363    15.6356  1546.8684    41.9622     0.1932     6.4332     0.0736     2.4718
 4326.0000   -18.1761  1474.9553    11.0510    10.7368  1548.0186    40.7238     0.2055     6.4335     0.0724     2.4206
 4326.5000   -18.0320  1475.7235     7.3194     8.3364  1549.1688    41.9048     0.2245     6.4337     0.0780     2.3491
 4327.0000   -18.0404  1476.4916     6.4934     6.7513  1550.3190    42.7824     0.2409     6.4490     0.0735     2.3208
 4327.5000   -18.0476  1477.2598     6.4454     6.2046  1551.5153    41.8401     0.2488     6.4343     0.0637     2.2845
 4328.0000   -18.0547  1478.0280     6.4428     6.1172  1552.9076    40.6029     0.2521     6.4347     0.0532     2.2732
 4328.5000   -18.2143  1478.7961     6.3946     6.1162  1554.0577    39.6615     0.2482     6.4288     0.0491     2.2679
 4329.0000   -18.2219  1479.5642     6.3029     6.1154  1544.5364    41.1425     0.2455     6.4054     0.0494     2.2686
 4329.5000   -18.2302  1480.3324     6.2125     6.1146  1526.0551    42.3222     0.2455     6.3908     0.0517     2.2741
 4330.0000   -18.5414  1481.1006     6.2102     6.1556  1527.2727    42.9049     0.2428     6.3761     0.0524     2.2836
 4330.5000   -18.7006  1481.8688     6.2513     6.2999  1528.6436    42.2647     0.2380     6.3764     0.0501     2.2941
 4331.0000   -18.8616  1482.6368     6.3811     6.6495  1529.7938    41.0135     0.2326     6.3767     0.0464     2.2986
 4331.5000   -18.8901  1483.4050     6.5602     6.8381  1530.9440    40.0924     0.2263     6.3770     0.0426     2.2971
 4332.0000   -19.0280  1484.1732     6.6510     6.9342  1532.1213    43.9840     0.2239     6.3774     0.0396     2.2933
 4332.5000   -19.0350  1484.9414     6.6477     6.9330  1533.5325    46.3793     0.2227     6.3776     0.0396     2.2931
 4333.0000   -19.1945  1485.7096     6.5065     6.8352  1534.6827    44.2286     0.2345     6.3779     0.0456     2.2971
 4333.5000   -19.2021  1486.4777     6.2790     6.6449  1535.8329    41.7626     0.2471     6.3782     0.0553     2.3030
 4334.0000   -19.2355  1487.2458     6.1457     6.4599  1536.9695    40.8479     0.2547     6.3785     0.0605     2.3038
 4334.5000   -19.3698  1487.7152     6.1002     6.3506  1538.4215    42.9268     0.2557     6.3788     0.0575     2.2925
 4335.0000   -19.5289  1487.8380     6.0978     6.2352  1539.5717    45.3149     0.2560     6.3791     0.0493     2.2880
 4335.5000   -19.5419  1487.9607     6.1446     6.2342  1540.6064    48.6095     0.2476     6.3794     0.0402     2.2910
 4336.0000   -19.6960  1488.0835     6.3106     6.3661  1535.6454    53.8528     0.2170     6.3799     0.0357     2.3338
 4336.5000   -19.7036  1488.2062     7.4127     8.3716  1527.8790    59.4209     0.1926     6.3950     0.0357     2.4038
 4337.0000   -19.7116  1488.3290    10.6743    10.8553  1529.3080    62.4205     0.1782     6.4102     0.0402     2.4561
 4337.5000   -19.7188  1488.4517    15.2634    13.5196  1530.4594    59.3635     0.1734     6.4403     0.0409     2.4794
 4338.0000   -19.7264  1488.5745    16.7136    14.9921  1531.5154    58.1263     0.1707     6.4406     0.0401     2.4778
 4338.5000   -19.7018  1488.6971    16.8263    16.0811  1532.7598    56.8882     0.1692     6.4409     0.0416     2.4688
 4339.0000   -19.5897  1488.8199    16.3522    16.0790  1525.5839    57.4646     0.1689     6.4412     0.0454     2.4635
 4339.5000   -19.5975  1488.9426    15.5618    15.8525  1519.9086    58.6443     0.1695     6.4265     0.0544     2.4605
 4340.0000   -19.6049  1489.0653    15.0190    15.2887  1536.4973    56.7957     0.1759     6.4418     0.0709     2.4575
 4340.5000   -19.6125  1489.1881    13.7988    12.8361  1537.5759    50.7246     0.1880     6.4272     0.0724     2.4447
 4341.0000   -19.7720  1489.3108    11.2526    10.7671  1538.7988    47.2849     0.2097     6.4125     0.0648     2.4024
 4341.5000   -19.9321  1489.4336     8.3173     9.0952  1540.2360    43.4092     0.2272     6.4129     0.0551     2.3111
 4342.0000   -20.2433  1489.5563     7.1743     8.0138  1541.3862    45.1932     0.2369     6.4132     0.0434     2.2848
 4342.5000   -20.4889  1489.6791     6.9175     7.0112  1527.3849    46.9771     0.2354     6.3835     0.0393     2.2773
 4343.0000   -20.5886  1489.8018     6.8729     6.9125  1528.4849    45.7399     0.2355     6.3540     0.0475     2.2832
 4343.5000   -20.8739  1489.9246     7.0164     7.2091  1529.6965    43.8913     0.2409     6.3394     0.0595     2.3065
 4344.0000   -21.0338  1490.0472     7.0630     7.3104  1530.9088    45.3731     0.2442     6.3397     0.0610     2.3177
 4344.5000   -21.0411  1490.1700     7.0595     7.3092  1532.2739    48.0634     0.2467     6.3400     0.0580     2.3155
 4345.0000   -21.2020  1490.2927     6.9089     7.1054  1533.4241    50.1495     0.2464     6.3403     0.0535     2.3042
 4345.5000   -21.2082  1490.4154     6.9062     7.0548  1534.5453    51.3292     0.2445     6.3406     0.0497     2.2989
 4346.0000   -21.2158  1490.5382     6.9034     7.0045  1527.3228    50.9912     0.2398     6.3259     0.0474     2.2997
 4346.5000   -21.2237  1490.6609     6.9982     7.0035  1521.7244    49.7540     0.2335     6.3263     0.0459     2.3027
 4347.0000   -21.3830  1490.7837     7.0969     7.1091  1507.7230    47.6104     0.2247     6.3266     0.0459     2.3049
 4347.5000   -21.5439  1490.9064     7.4479     7.4584  1509.1603    45.1239     0.2139     6.3269     0.0466     2.3079
 4348.0000   -21.7021  1491.0292     7.9305     8.0001  1510.3027    43.0164     0.2030     6.3272     0.0526     2.3115
 4348.5000   -21.8623  1491.1519     8.4443     8.4615  1511.7488    42.6856     0.1988     6.3275     0.0594     2.3469
 4349.0000   -21.8695  1491.2747     8.8661     8.7015  1512.7271    44.1674     0.1994     6.3278     0.0650     2.3671
 4349.5000   -21.7247  1491.3973     8.6633     8.4519  1514.0492    45.9514     0.2004     6.3281     0.0691     2.3791
