~VERSION INFORMATION
 VERS.                2.0:   CWLS LOG ASCII STANDARD - VERSION 2.0
 WRAP.                 NO:   ONE LINE PER DEPTH STEP
~WELL INFORMATION
#MNEM.UNIT      DATA TYPE    INFORMATION
#----------   ------------   ------------------------------
 STRT.F          243.5000:   START DEPTH
 STOP.F         2836.0000:   STOP DEPTH
 STEP.F            0.5000:   STEP LENGTH
 NULL.          -999.2500:   NO VALUE
 COMP. FENIX & SCISSON U. S. NAVY:   COMPANY
 WELL.   FENIX "A" #86-20:   WELL
 FLD .             NPR #3:   FIELD
 LOC .      S20 T39N R78W:   LOCATION
 CNTY.            NATRONA:   COUNTY
 STAT.            WYOMING:   STATE
 CTRY. UNITED STATES OF AMERICA:   COUNTRY
 SRVC.       SCHLUMBERGER:   SERVICE COMPANY
 DATE.        22-MAR-1977:   LOGDATE
 API .     49025103130000:   API NUMBER
~CURVE INFORMATION
#MNEM.UNIT       API CODE    CURVE DESCRIPTION
#----------   ------------   ------------------------------
 DEPT.F                  :   
 SPR .MV     07 010 01 00:   SPONTANEOUS POTENTIAL
 ILD .OHMM   07 120 46 00:   DEEP INDUCTION RESISTIVITY
 ILM .OHMM   07 120 44 00:   INDUCTION LOG MEDIUM RESISTIVITY
 LL8 .OHMM   07 220 08 00:   LATEROLOG-8 RES.
 CALD.IN     45 280 60 00:   CALIPER FROM DENSITY LOG
 GRD .GAPI   45 310 01 00:   GAMMA RAY FROM DENSITY LOG
 RHOB.G/C3   45 350 01 00:   BULK DENSITY
 CORR.G/C3   45 356 01 00:   DENSITY CORRECTION
~PARAMETER INFORMATION
#MNEM.UNIT          VALUE    DESCRIPTION
#----------   ------------   ------------------------------
 EKB .F         5005.0000:   Kelly bushing
 EGL .F         4994.0000:   Ground level
 EDF .F            0.0000:   Drilling floor
 TD  .F         2836.0000:   Total depth
 DATE.        22-MAR-1977:   Date logged
 CLNT.            A2DTECH:   Client Code
 SL  . 330' FEL & 1650' FSL:   Surface Location
 PD  .                 GL:   Permanent Datum
 EPD .F              5005:   Elevation Permanent Datum
 LMF .                 KB:   Log Measured From
 DMF .                 KB:   Drilling Measured From
 DD  .F              2835:   Depth driller
 DL  .F              2836:   Depth logger
 BLI .F              2826:   Bottom log interval
 TLI .F               259:   Top log interval
 CBD1.      8.625" @ 258':   Casing driller 1
 CBL1.F               259:   Casing logger 1
 BS1 .IN            7.875:   Bit size
 DFT .                KCL:   Type fluid in hole
 DFD .                9.1:   Density
 DFV .                 35:   Viscosity
 DFPH.                  9:   pH
 DFL .                8.6:   Fluid loss
 MSS .              CIRC.:   Source of sample
 RMS .OHMM           0.22:   Rm
 MST .F                60:   Rm Meas. temp.
 RMF .OHMM           0.18:   Rmf
 MFST.F                60:   Rmf Meas. temp.
 RMC .OHMM           0.33:   Rmc
 MCST.F                60:   Rmc Meas. temp.
 MFSS.               MEAS:   Source Rmf.
 RMB .OHMM           0.12:   Rm. at BHT
 BHT .F               110:   BHT.
 TCS .HRS            0900:   Time Circ. stopped
 MRT .F               110:   Maximum recorded temp.
 LUN .               7980:   Logging unit number
 LUL .               CSPR:   Logging unit location
 ENGI.                FIX:   Recorded By
 WITN.               JAPP:   Witnessed by
 ORIG.           5" PRINT:   Origin of data
 UWI .     49025103130000:   Unique Well ID
 DICO. A2D TECHNOLOGIES, INC.:   Digitizing Company
 DAPD.                 11:   Feet Above Permanent Datum
 CS1 .              8.625:   Casing size
 BSD1.               2835:   Depth drilled with bit1
 MCSS.               CACL:   Source Rmc.
 TLAB.               1630:   Time logger at bottom
~OTHER INFORMATION
~A   DEPT      SPR        ILD        ILM        LL8       CALD         GRD      RHOB       CORR   
# ...
  932.0000   -56.5300     9.8020    10.1670    11.2670     8.5100   102.1160     2.5200     0.0240
  932.5000   -56.4730     9.8420    10.2000    11.7300     8.5100    99.2030     2.5100     0.0190
  933.0000   -56.4160     9.8820    10.2340    12.4090     8.5090    95.0750     2.5040     0.0150
  933.5000   -56.3590     9.9220    10.2670    12.1880     8.5090    94.4140     2.5050     0.0150
  934.0000   -56.3020     9.9620    10.3000    11.7490     8.5080    98.1810     2.5050     0.0180
  934.5000   -56.2440    10.0020    10.3320    11.5370     8.5080   103.3070     2.5030     0.0220
  935.0000   -56.1870    10.0420    10.3420    11.6620     8.5070   103.2490     2.5060     0.0250
  935.5000   -56.1300    10.0820    10.3900    11.7710     8.5060   102.2160     2.5200     0.0350
  936.0000   -56.0730    10.1220    10.4760    11.8800     8.5060   101.0930     2.5160     0.0250
  936.5000   -56.0160    10.1550    10.5620    11.9890     8.5050    99.9610     2.5140     0.0200
  937.0000   -55.9580    10.2640    10.6470    12.0980     8.5050    98.7480     2.5250     0.0260
  937.5000   -55.9010    10.4020    10.7330    12.1850     8.5040    97.5810     2.5400     0.0300
  938.0000   -55.8450    10.5400    10.8190    12.9680     8.5040    97.1950     2.5300     0.0240
  938.5000   -55.7810    10.6780    10.9040    13.3480     8.5030    98.8600     2.5250     0.0190
  939.0000   -55.7800    10.8170    10.9900    13.2240     8.5030   100.5790     2.5460     0.0270
  939.5000   -55.8600    10.9230    11.0760    13.1070     8.5020   101.9990     2.5440     0.0470
  940.0000   -55.9330    10.9230    11.1240    13.1070     8.5020   102.0240     2.5410     0.0410
  940.5000   -56.0070    10.9230    11.0770    13.1070     8.5010   100.8770     2.5460     0.0500
  941.0000   -56.0820    10.8800    11.0320    13.1070     8.5000    99.2710     2.5460     0.0450
  941.5000   -56.1560    10.8290    10.9870    13.1070     8.5000    97.1640     2.5390     0.0340
  942.0000   -56.2300    10.7780    10.9410    12.4370     8.5030    96.5350     2.5330     0.0310
  942.5000   -56.3040    10.7270    10.8960    11.9650     8.5060    96.2770     2.5200     0.0340
  943.0000   -56.3790    10.6760    10.8510    12.6380     8.5090    96.2240     2.5290     0.0360
  943.5000   -56.4510    10.6250    10.8060    12.5530     8.5130    97.0410     2.5250     0.0270
  944.0000   -56.5270    10.5740    10.7610    12.4090     8.5160    98.5430     2.5160     0.0190
  944.5000   -56.4830    10.5230    10.7150    13.1070     8.5190   100.0070     2.5160     0.0200
  945.0000   -56.3830    10.4720    10.6700    12.8700     8.5220   101.2280     2.5090     0.0300
  945.5000   -56.2860    10.4220    10.6250    12.2380     8.5250   101.8620     2.5250     0.0360
  946.0000   -56.1900    10.3710    10.5800    11.7490     8.5280   101.8320     2.5120     0.0230
  946.5000   -56.0920    10.3200    10.5350    12.1580     8.5310   101.1730     2.5120     0.0170
  947.0000   -55.9950    10.2690    10.4890    12.4090     8.5340   100.4860     2.5190     0.0220
  947.5000   -55.8980    10.2180    10.4440    12.2660     8.5370   100.9130     2.5460     0.0240
  948.0000   -55.8020    10.1670    10.3990    12.1420     8.5400   101.2320     2.5210     0.0110
  948.5000   -55.7030    10.1550    10.3540    12.0170     8.5430   100.6950     2.5120     0.0000
  949.0000   -55.6080    10.1550    10.3080    11.9650     8.5460   100.4170     2.5160     0.0140
  949.5000   -55.5120    10.1550    10.2630    11.9790     8.5490   101.4760     2.5380     0.0440
  950.0000   -55.4010    10.1550    10.2180    12.0160     8.5520   102.7480     2.5580     0.0510
  950.5000   -55.4400    10.1550    10.1730    12.0530     8.5550   100.9440     2.5370     0.0360
  951.0000   -55.6890    10.1550    10.1280    12.0900     8.5580    98.0500     2.5190     0.0260
  951.5000   -55.9190    10.1550     9.9960    12.1270     8.5630    98.2770     2.5160     0.0230
  952.0000   -56.1540    10.1550     9.8640    12.1640     8.5670    99.9630     2.5090     0.0190
  952.5000   -56.3900    10.1540     9.7320    12.1850     8.5720   101.8950     2.5080     0.0160
  953.0000   -56.6210    10.1590     9.6000    11.8220     8.5760   103.4420     2.5120     0.0170
  953.5000   -56.8660    10.0950     9.4680    11.4660     8.5810   103.8520     2.5070     0.0180
  954.0000   -56.9160     9.9450     9.3360    11.1100     8.5850   104.2260     2.5040     0.0240
  954.5000   -56.8400     9.7960     9.2040    10.7540     8.5900   104.3980     2.5120     0.0330
  955.0000   -56.7750     9.6480     9.1030    10.3420     8.5950   104.2810     2.5420     0.0380
  955.5000   -56.7130     9.5000     9.1030    10.3420     8.5990   104.4370     2.5310     0.0220
  956.0000   -56.6470     9.3520     9.3000    10.4860     8.6040   104.4530     2.5180     0.0200
  956.5000   -56.5830     9.2710     9.4890    11.0690     8.6080   103.4810     2.5040     0.0200
  957.0000   -56.5190     9.2710     9.6780    11.6520     8.6130   101.2960     2.4950     0.0290
  957.5000   -56.4540     9.2710     9.8670    12.2350     8.6160    98.8910     2.5020     0.0400
  958.0000   -56.3890     9.5100    10.0550    12.8180     8.6560    97.8270     2.5170     0.0510
  958.5000   -56.3260     9.7360    10.2440    13.5930     8.7060    97.5180     2.5130     0.0450
  959.0000   -56.2600     9.9630    10.4330    13.2670     8.7560    97.5610     2.5360     0.0350
  959.5000   -56.1960    10.1890    10.5320    12.9700     8.7240    98.9410     2.5500     0.0240
  960.0000   -56.1530    10.4150    10.5200    12.6380     8.5890    99.9830     2.4300     0.0130
  960.5000   -56.2450    10.5320    10.4770    12.1850     8.4590   100.7750     2.4660     0.0100
  961.0000   -56.3500    10.4650    10.4330    12.1850     8.4190   101.3340     2.5050     0.0060
  961.5000   -56.4580    10.2300    10.3900    12.1850     8.4190   102.1320     2.5040     0.0040
  962.0000   -56.5640     9.9720    10.3420    12.1850     8.4160   102.0640     2.5130     0.0160
  962.5000   -56.6710     9.9720    10.3420    12.1850     8.4130   101.7770     2.5230     0.0280
  963.0000   -56.7790    10.0440    10.4740    12.1850     8.4090   101.0480     2.5330     0.0290
  963.5000   -56.8850    10.1100    10.5950    12.1850     8.4060   100.1170     2.5480     0.0400
  964.0000   -56.9920    10.1550    10.7260    12.3650     8.4030    98.7570     2.5450     0.0350
  964.5000   -57.0990    10.1040    10.6300    12.9430     8.4070    98.1280     2.5430     0.0340
  965.0000   -57.2050    10.0040    10.4440    12.8700     8.4160    98.1300     2.5640     0.0370
  965.5000   -57.3140     9.9050    10.2580    12.2230     8.4260    97.7890     2.5820     0.0430
  966.0000   -57.3240     9.8050    10.0730    11.7490     8.4360    97.5040     2.5460     0.0480
  966.5000   -57.2590     9.7060     9.8870    12.1850     8.4460    98.5480     2.5540     0.0410
  967.0000   -57.1970     9.6060     9.7010    11.7380     8.4560   100.2130     2.5400     0.0300
  967.5000   -57.1350     9.5070     9.6150    11.1270     8.4650   101.8420     2.5340     0.0320
  968.0000   -57.0720     9.4410     9.6350    10.7260     8.4750   101.3310     2.5530     0.0380
  968.5000   -57.0100     9.4410     9.6630    11.0830     8.4670    99.9130     2.5570     0.0240
  969.0000   -56.9470     9.4410     9.6910    11.3290     8.4400    99.3360     2.5700     0.0340
  969.5000   -56.8850     9.4410     9.7190    11.3290     8.4140    97.7620     2.5480     0.0220
  970.0000   -56.8230     9.4410     9.7460    11.3290     8.3870    95.6600     2.5090     0.0030
  970.5000   -56.7600     9.4410     9.7740    11.5700     8.3600    93.1280     2.5230     0.0120
  971.0000   -56.6980     9.4410     9.7920    12.0000     8.3330    92.5080     2.5410     0.0190
  971.5000   -56.6370     9.4410     9.7230    12.4090     8.3300    93.5750     2.5610     0.0280
  972.0000   -56.5700     9.2710     9.6010    11.3170     8.3440    96.6090     2.5850     0.0530
