~VERSION INFORMATION
 VERS.                2.0:   CWLS LOG ASCII STANDARD - VERSION 2.0
 WRAP.                 NO:   ONE LINE PER DEPTH STEP
~WELL INFORMATION
#MNEM.UNIT      DATA TYPE    INFORMATION
#----------   ------------   ------------------------------
 STRT.F           27.5000:   START DEPTH
 STOP.F         5889.0000:   STOP DEPTH
 STEP.F            0.5000:   STEP LENGTH
 NULL.          -999.2500:   NO VALUE
 COMP.   LAWRENCE ALLISON:   COMPANY
 WELL. LAWRENCE "X" #25-11:   WELL
 FLD .        N.P.R NO. 3:   FIELD
 LOC .      S11 T38N R78W:   LOCATION
 CNTY.            NATRONA:   COUNTY
 STAT.            WYOMING:   STATE
 CTRY. UNITED STATES OF AMERICA:   COUNTRY
 SRVC.      DRESSER ATLAS:   SERVICE COMPANY
 DATE.        09-FEB-1983:   LOGDATE
 API .     49025109170000:   API NUMBER
~CURVE INFORMATION
#MNEM.UNIT       API CODE    CURVE DESCRIPTION
#----------   ------------   ------------------------------
 DEPT.F                  :   
 CN  .DEC    42 890 03 00:   NEUTRON POROSITY
 GRD .GAPI   45 310 01 00:   GAMMA RAY FROM DENSITY LOG
 CORR.G/C3   45 356 01 00:   DENSITY CORRECTION
 DEN .G/C3   45 350 01 00:   BULK DENSITY
 CALD.IN     45 280 60 00:   CALIPER FROM DENSITY LOG
 TEND.LBS    45 635 01 00:   TENSION FORM DENSITY LOG
 GRS .GAPI   60 310 01 00:   GAMMA RAY FROM SONIC LOG
 TENS.LBS    60 635 01 00:   TENSION FROM SONIC
 DT  .US/F   60 520 00 00:   DELTA TIME
 SPR .MV     11 010 01 00:   SPONTANEOUS POTENTIAL FROM RES.
 RD  .OHMM   11 220 10 00:   RESISTIVITY DEEP
 RS  .OHMM   11 220 09 00:   RESISTIVITY SHALLOW
 RMLL.OHMM   11 270 04 00:   MICRO LATEROLOG
 TENR.LBS    11 635 01 00:   TENSION FROM RES.
~PARAMETER INFORMATION
#MNEM.UNIT          VALUE    DESCRIPTION
#----------   ------------   ------------------------------
 EKB .F         5196.0000:   Kelly bushing
 EGL .F         5186.0000:   Ground level
 TD  .F         5883.0000:   Total depth
 CLNT.            A2DTECH:   Client Code
 SL  . 1989' FSL & 1148' FWL:   Surface Location
 PD  .                 GL:   Permanent Datum
 EPD .F              5186:   Elevation Permanent Datum
 LMF .                 KB:   Log Measured From
 DMF .                 KB:   Drilling Measured From
 DAPD.F                10:   Feet Above Permanent Datum
 DATE.        09-FEB-1983:   Date Logged [DD-MMM-YYYY]
 DD  .F              5883:   Depth driller
 DL  .F              5882:   Depth logger
 BLI .F              5871:   Bottom log interval
 TLI .F               700:   Top log interval
 CS1 .IN            9.625:   Casing size
 CBD1.      9.625" @ 701':   Casing driller 1
 CBL1.F               700:   Casing logger 1
 BS1 .IN             8.75:   Bit size
 BSD1.F              5883:   Depth drilled with bit1
 DFT .    HEC/DRISPAC/KCL:   Type fluid in hole
 DFD .                  9:   Density
 DFV .                 35:   Viscosity
 DFPH.                  8:   pH
 DFL .                6.4:   Fluid loss
 MSS .           FLOWLINE:   Source of sample
 RMS .OHMM           0.23:   Rm
 MST .F                50:   Rm Meas. temp.
 RMF .OHMM           0.17:   Rmf
 MFST.F                54:   Rmf Meas. temp.
 MFSS.               MEAS:   Source Rmf.
 BHT .F               176:   BHT.
 TCS .HRS              10:   Time Circ. stopped
 MRT .F               176:   Maximum recorded temp.
 LUN .               6274:   Logging unit number
 LUL .               GLTE:   Logging unit location
 ENGI.          TOLLEFSON:   Recorded By
 WITN.           JENNINGS:   Witnessed by
 ORIG.           5" PRINT:   Origin of data
 UWI .     49025109170000:   Unique Well ID
 DICO. A2D TECHNOLOGIES, INC.:   Digitizing Company
 RMC .OHMM           0.41:   Rmc
 MCST.F                54:   Rmc Meas. temp.
 MCSS.               MEAS:   Source Rmc.
~OTHER INFORMATION
~A  DEPTH       CN        GRD       CORR        DEN       CALD       TEND        GRS       TENS         DT        SPR         RD         RS       RMLL       TENR
# ...
 4486.5000     0.1555    61.9582     0.0250     2.4888    10.2100   -15.5378    52.8024   -65.5173    70.7259   -65.0271    12.8720    12.7897    11.3073   -42.3831
 4487.0000     0.1600    60.7518     0.0264     2.4865    10.2100   -15.5378    51.0324   -58.0932    70.4249   -65.0202    13.1367    13.1464    11.3036   -42.4699
 4487.5000     0.1582    59.2423     0.0278     2.4849    10.2100   -14.7078    48.9676   -58.1709    70.2740   -65.0147    13.1314    13.3258    11.3000   -42.5339
 4488.0000     0.1513    59.2494     0.0247     2.4872    10.2100    -8.9641    47.1976   -58.2459    70.1231   -65.3094    13.3103    13.5078    11.2971   -42.6096
 4488.5000     0.1444    60.1642     0.0186     2.4901    10.2100    -3.2205    46.9027   -58.3208    70.4977   -65.3341    13.6787    13.8845    11.2906   -42.6969
 4489.0000     0.1436    61.0790     0.0123     2.4946    10.2100     2.5232    48.0826   -58.4102    70.8723   -65.5972    14.0583    14.3744    10.9824   -42.7602
 4489.5000     0.1421    58.8392     0.0063     2.5021    10.2100     4.3825    50.4425   -58.4848    71.1719   -65.5916    14.6501    15.0817    10.5330   -42.8356
 4490.0000     0.1385    54.7281     0.0047     2.5065    10.2100     4.3876    53.6873   -51.0445    71.0210   -65.7363    15.9132    16.1615    10.4984   -42.9110
 4490.5000     0.1358    52.9142     0.0151     2.5065    10.2100     4.3843    54.2912   -43.6229    70.6449   -65.8809    17.5276    17.3186    13.6931   -42.9864
 4491.0000     0.1331    54.4365     0.0258     2.5041    10.2100     4.3825    51.6224   -51.2123    69.8934   -65.8739    18.6488    18.5171    18.3068   -35.5220
 4491.5000     0.1325    57.7769     0.0299     2.5026    10.2100     4.3825    48.3776   -51.2869    69.2920   -66.1687    18.3849    18.2964    14.6661   -35.6093
 4492.0000     0.1341    58.6917     0.0087     2.5026    10.2100     4.3825    44.5336   -58.8577    69.1922   -66.4621    17.7535    17.5456    11.4291   -35.6791
 4492.5000     0.1383    57.7883     0.0010     2.5033    10.2100     4.3825    45.1431   -58.9323    69.5908   -66.6142    17.0255    16.8256    11.0376   -35.7489
 4493.0000     0.1362    57.1879     0.0043     2.5055    10.2100     3.5018    46.0177   -59.0070    69.8904   -67.0502    15.9904    15.9117    11.5817   -35.8362
 4493.5000     0.1344    58.1041     0.0173     2.5077    10.2101    -1.9396    45.4277   -66.5778    69.2890   -67.1962    15.4412    15.6883    12.7566   -35.9061
 4494.0000     0.1351    60.5340     0.0308     2.5114    10.2168    -7.3810    45.1327   -74.1486    68.8378   -67.6397    15.6516    15.9037    15.0574   -35.9759
 4494.5000     0.1369    63.8731     0.0352     2.5152    10.2315   -12.8224    46.7083   -74.2232    68.5368   -67.9331    15.6453    15.8984    15.9134   -36.0631
 4495.0000     0.1381    67.2424     0.0252     2.5204    10.2399    -6.9057    49.9312   -74.2978    68.3859   -68.2278    15.2130    15.4591    14.3369   -36.1330
 4495.5000     0.1399    70.8555     0.0048     2.5256    10.2487    10.3254    52.3030   -74.3724    68.5353   -68.3768    14.3885    14.7222    12.0562   -36.2028
 4496.0000     0.1415    69.6491     0.0167     2.5316    10.2500    24.3028    53.7384   -74.4470    68.9099   -68.8159    13.7883    13.8271    10.9402   -36.2745
 4496.5000     0.1415    67.2306     0.0392     2.5369    10.2470    24.3028    52.3940   -74.5216    69.3596   -69.1107    14.1803    14.5108    11.9225   -36.3499
 4497.0000     0.1400    64.1556     0.0533     2.5413    10.2374    30.3875    50.1475   -74.5962    69.6592   -69.4054    14.9833    15.3354    12.9093   -36.4297
 4497.5000     0.1376    61.7888     0.0750     2.5405    10.2309    39.7863    49.5575   -74.6707    69.3581   -69.9991    16.1856    16.3486    13.6406   -36.5007
 4498.0000     0.1337    60.8854     0.0478     2.5442    10.2364    41.1908    49.5575   -74.7453    68.8318   -70.8944    17.5577    17.7315    17.0493   -36.5869
 4498.5000     0.1265    60.5879     0.0252     2.5517    10.2417    35.4471    49.8525   -74.8200    67.9302   -71.4895    18.6808    18.6094    19.0035   -36.6567
 4499.0000     0.1184    61.2429     0.0310     2.5580    10.2470    34.2765    49.5575   -74.8945    66.5030   -71.4826    19.7455    19.6715    19.8041   -36.7270
 4499.5000     0.1224    64.8433     0.0340     2.5657    10.2525    34.2552    49.2625   -67.4542    65.6764   -71.7773    19.4593    20.0756    20.0749   -29.2549
 4500.0000     0.1365    69.7757     0.0428     2.5749    10.2584    34.2610    48.0826   -67.5474    65.4505   -72.2222    18.6614    18.9851    19.7931   -29.3422
 4500.5000     0.1453    78.6820     0.0533     2.5801    10.2643    34.2629    48.6853   -67.6220    65.9751   -73.1197    13.9480    14.5798    16.4167   -29.4120
 4501.0000     0.1561    86.1763     0.0621     2.5808    10.2702    34.2629    56.0716   -67.6966    67.4759   -74.1679    12.4818    12.0015    11.6934   -29.4993
 4501.5000     0.1702    94.6747     0.0636     2.5732    10.2761    34.2629    69.0627   -67.6878    70.3280   -74.6154    10.5147    10.7959    10.0236   -29.5691
 4502.0000     0.1811   100.9386     0.0664     2.5694    10.2820    34.2629    74.9742   -67.6784    74.7566   -75.0630     8.6420     9.1199     8.5696   -29.6389
 4502.5000     0.1838   103.0179     0.0566     2.5724    10.2879    34.2629    74.3959   -67.6690    76.7078   -75.6607     8.2309     8.3003     7.7687   -29.7262
 4503.0000     0.1850   100.0185     0.0449     2.5776    10.2938    34.2629    72.6377   -67.6595    77.0074   -76.5587     8.2859     8.3559     7.8753   -22.2371
 4503.5000     0.1824    96.4177     0.0343     2.5843    10.2997    34.2629    70.8796   -67.6501    76.7064   -77.4559     8.6951     9.0164     8.6149   -22.3244
 4504.0000     0.1752    91.9161     0.0206     2.5911    10.3056    34.2629    69.4164   -67.6407    75.6546   -78.0536     9.9152    10.2846    10.0991   -24.6358
 4504.5000     0.1689    88.0151     0.0325     2.5993    10.3115    34.2629    67.9532   -67.6312    74.2274   -78.5012    11.1509    11.4895    12.2559   -27.7064
 4505.0000     0.1632    84.0553     0.0504     2.6084    10.3173    34.2629    65.0150   -67.6218    73.1756   -78.7986    11.8649    12.2268    13.1316   -30.7769
 4505.5000     0.1566    79.6132     0.0607     2.6228    10.3232    30.3619    63.2569   -67.6124    72.1989   -79.0967    11.6961    11.4683    10.7412   -33.8475
 4506.0000     0.1629    80.8172     0.0651     2.6506    10.3291    26.0458    62.0885   -67.6030    71.4474   -79.5435     8.9888     9.1661     9.5472   -36.9181
 4506.5000     0.1729    87.4267     0.0665     2.6747    10.3350    28.1623    62.6903   -67.5935    71.2216   -80.0013     7.9332     7.9994     7.7559   -39.9887
 4507.0000     0.1967   100.9434     0.0994     2.6505    10.3409    34.2629    64.1770   -67.5841    72.1966   -80.4386     6.7166     6.6768     6.2141   -43.0592
 4507.5000     0.2096   108.4537     0.1428     2.6309    10.3469    34.2629    66.8667   -67.5746    76.1749   -80.8854     5.7663     5.6901     5.0133   -46.1298
 4508.0000     0.2218   113.2614     0.1668     2.6101    10.3489    34.2629    74.6292   -67.5652    80.3032   -81.3329     6.3954     5.2705     4.7744   -49.2004
 4508.5000     0.2325   112.3634     0.1335     2.6029    10.3332    34.2629    88.2363   -67.5558    85.1824   -81.6311     7.2928     5.6087     4.7743   -43.3603
 4509.0000     0.2349   108.9920     0.0883     2.6171    10.3450    37.6937    93.1838   -67.5463    85.2569   -81.9285     6.5957     5.6507     4.8399   -43.7254
 4509.5000     0.2367   109.6672     0.0789     2.6306    10.3491    43.4484    90.9496   -67.5412    84.4301   -82.2252     5.3740     4.8772     4.3919   -36.4579
 4510.0000     0.2405   115.0755     0.0699     2.6268    10.3478    41.9821    85.5448   -60.0450    83.3783   -82.5225     4.7429     4.7114     3.5433   -29.2815
 4510.5000     0.2500   118.3594     0.0818     2.6222    10.3464    39.3924    81.6633   -60.0450    83.7530   -82.8199     4.0716     4.3636     3.3287   -22.1964
