~VERSION INFORMATION
 VERS.                2.0:   CWLS LOG ASCII STANDARD - VERSION 2.0
 WRAP.                 NO:   ONE LINE PER DEPTH STEP
~WELL INFORMATION
#MNEM.UNIT      DATA TYPE    INFORMATION
#----------   ------------   ------------------------------
 STRT.F          211.0000:   START DEPTH
 STOP.F         3244.0000:   STOP DEPTH
 STEP.F            0.5000:   STEP LENGTH
 NULL.          -999.2500:   NO VALUE
 COMP.    FENIX & SCISSON:   COMPANY
 WELL.  FENIX "AX" #84-15:   WELL
 FLD .  TEAPOT DOME NPR-3:   FIELD
 LOC .      S15 T38N R78W:   LOCATION
 CNTY.            NATRONA:   COUNTY
 STAT.            WYOMING:   STATE
 CTRY. UNITED STATES OF AMERICA:   COUNTRY
 SRVC.           BIRDWELL:   SERVICE COMPANY
 DATE.        17-MAR-1978:   LOGDATE
 API .     49025106050000:   API NUMBER
~CURVE INFORMATION
#MNEM.UNIT       API CODE    CURVE DESCRIPTION
#----------   ------------   ------------------------------
 DEPT.F                  :   
 SPR .MV     05 010 01 00:   SPONTANEOUS POTENTIAL
 SN  .OHMM   05 040 16 00:   SHORT NORMAL
 ILD .OHMM   05 120 46 00:   INDUCTION LOG DEEP
 CALD.IN     45 280 60 00:   CALIPER FROM DENSITY LOG
 GRD .GAPI   45 310 01 00:   GAMMA RAY FROM DENSITY LOG
 RHOB.G/C3   45 350 01 00:   BULK DENSITY
 CORR.G/C3   45 356 01 00:   DENSITY CORRECTION
~PARAMETER INFORMATION
#MNEM.UNIT          VALUE    DESCRIPTION
#----------   ------------   ------------------------------
 EKB .F         5251.0000:   Kelly bushing
 EGL .F         5241.0000:   Ground level
 TD  .F         3250.0000:   Total depth
 CLNT.            A2DTECH:   Client Code
 SL  . 359' FEL & 2310' FNL:   Surface Location
 PD  .                 GL:   Permanent Datum
 LMF .                 KB:   Log Measured From
 DMF .                 KB:   Drilling Measured From
 DATE.        17-MAR-1978:   Date Logged [DD-MMM-YYYY]
 DD  .F              3250:   Depth driller
 DL  .F              3250:   Depth logger
 BLI .F              3244:   Bottom log interval
 TLI .F               224:   Top log interval
 CS1 .IN            8.625:   Casing size
 CBD1.             8.625":   Casing driller 1
 CBL1.F               224:   Casing logger 1
 BS1 .IN            7.875:   Bit size
 BSD1.F              3250:   Depth drilled with bit1
 MSS .           FLOWLINE:   Source of sample
 RMS .OHMM            1.3:   Rm
 MST .F                70:   Rm Meas. temp.
 RMF .OHMM            1.1:   Rmf
 MFST.F                70:   Rmf Meas. temp.
 MFSS.               MEAS:   Source Rmf.
 RMC .OHMM            1.4:   Rmc
 MCST.F                70:   Rmc Meas. temp.
 RMB .OHMM           0.77:   Rm. at BHT
 BHT .F               118:   BHT.
 TCS .HRS               6:   Time Circ. stopped
 MRT .F               118:   Maximum recorded temp.
 LUN .               2958:   Logging unit number
 LUL .               CASP:   Logging unit location
 ENGI.             MILLER:   Recorded By
 WITN.           MCGINLEY:   Witnessed by
 ORIG.           5" PRINT:   Origin of data
 UWI .     49025106050000:   Unique Well ID
 DICO. A2D TECHNOLOGIES, INC.:   Digitizing Company
~OTHER INFORMATION
~A   DEPT      SPR         SN        ILD       CALD         GRD      RHOB       CORR   
  211.0000  -999.2500  -999.2500  -999.2500  -999.2500    55.3121  -999.2500  -999.2500
  211.5000  -999.2500  -999.2500  -999.2500  -999.2500    59.5075  -999.2500  -999.2500
  212.0000  -999.2500  -999.2500  -999.2500  -999.2500    59.0557  -999.2500  -999.2500
  212.5000  -999.2500  -999.2500  -999.2500  -999.2500    58.3032  -999.2500  -999.2500
  213.0000  -999.2500  -999.2500  -999.2500  -999.2500    55.9016  -999.2500  -999.2500
  213.5000  -999.2500  -999.2500  -999.2500  -999.2500    56.1990  -999.2500  -999.2500
  214.0000  -999.2500  -999.2500  -999.2500  -999.2500    57.2464  -999.2500  -999.2500
  214.5000  -999.2500  -999.2500  -999.2500  -999.2500    56.6438  -999.2500  -999.2500
  215.0000  -999.2500  -999.2500  -999.2500  -999.2500    56.4919  -999.2500  -999.2500
  215.5000  -999.2500  -999.2500  -999.2500  -999.2500    57.6884  -999.2500  -999.2500
  216.0000  -999.2500  -999.2500  -999.2500  -999.2500    54.3876  -999.2500  -999.2500
  216.5000  -999.2500  -999.2500  -999.2500  -999.2500    54.0853  -999.2500  -999.2500
  217.0000  -999.2500  -999.2500  -999.2500  -999.2500    51.2343  -999.2500  -999.2500
  217.5000  -999.2500  -999.2500  -999.2500  -999.2500    52.1309  -999.2500  -999.2500
  218.0000  -999.2500  -999.2500  -999.2500  -999.2500    56.1769  -999.2500  -999.2500
  218.5000  -999.2500  -999.2500  -999.2500  -999.2500    53.4754  -999.2500  -999.2500
  219.0000  -999.2500  -999.2500  -999.2500  -999.2500    51.6742  -999.2500  -999.2500
  219.5000  -999.2500  -999.2500  -999.2500  -999.2500    51.8217  -999.2500  -999.2500
  220.0000  -999.2500  -999.2500  -999.2500  -999.2500    50.1696  -999.2500  -999.2500
  220.5000  -999.2500  -999.2500  -999.2500  -999.2500    48.9678  -999.2500  -999.2500
  221.0000  -999.2500  -999.2500  -999.2500  -999.2500    48.2157  -999.2500  -999.2500
  221.5000  -999.2500  -999.2500  -999.2500  -999.2500    48.3632  -999.2500  -999.2500
  222.0000  -999.2500  -999.2500  -999.2500  -999.2500    53.9080  -999.2500  -999.2500
  222.5000  -999.2500  -999.2500  -999.2500  -999.2500    66.6487  -999.2500  -999.2500
  223.0000  -999.2500  -999.2500  -999.2500    13.2237    69.3449     2.4587     0.1427
  223.5000  -999.2500  -999.2500  -999.2500    13.1347    69.7930     2.4980     0.0671
  224.0000   -30.2242  -999.2500  -999.2500    12.8810    66.9412     2.4769     0.0414
  224.5000   -31.2316  -999.2500  -999.2500    12.7920    64.9897     2.4656     0.0203
  225.0000   -31.9739  -999.2500  -999.2500    12.6881    64.3876     2.5132     0.0416
  225.5000   -32.5683  -999.2500  -999.2500    12.5083    67.8334     2.4906     0.0922
  226.0000   -33.0407     6.3563    10.3366    12.4013    70.3797     2.5465     0.0448
  226.5000   -33.5973     6.1418     8.7367    12.3313    72.6261     2.4423     0.0448
  227.0000   -33.8870     6.1009     7.4608    12.3622    72.3234     2.4394     0.0512
  227.5000   -34.1768     6.2321     7.2583    12.4679    72.0211     2.4447     0.0792
  228.0000   -34.3187     6.3215     7.3127    12.6034    69.9199     2.4462     0.1256
  228.5000   -34.6055     6.3811     7.3157    12.6342    69.3177     2.4040     0.1709
  229.0000   -34.2919     6.4142     7.3184    12.6049    69.4648     2.4516     0.1029
  229.5000   -33.6767     6.4166     7.3218    12.5907    70.3619     2.3927     0.0727
  230.0000   -34.2681     6.4188     7.3245    12.5917    72.6093     2.3414     0.0682
  230.5000   -35.4628     6.4209     7.2762    12.5926    72.0047     2.3641     0.0986
  231.0000   -35.7566     6.4232     7.2800    12.6084    72.0010     2.4110     0.0714
  231.5000   -34.8356     6.4254     7.2830    12.6242    71.9973     2.4495     0.0260
  232.0000   -34.8235     6.4276     7.2646    12.6400    71.8437     2.4654     0.0155
  232.5000   -34.9824     6.4298     7.1882    12.6408    71.8400     2.4669     0.0171
  233.0000   -35.1151     6.4323     7.1414    12.6417    71.9869     2.4564     0.0187
  233.5000   -35.2405     6.4343     7.0948    12.6425    72.1331     2.4655     0.0188
  234.0000   -35.3765     6.4365     7.0977    12.6284    71.9783     2.4716     0.0189
  234.5000   -35.3646     6.4388     7.0514    12.6292    71.6760     2.4505     0.0190
  235.0000   -35.5065     6.4410     7.0550    12.6301    74.6696     2.4505     0.0175
  235.5000   -35.6454     6.3989     7.0574    12.6310    77.0647     2.4605     0.0161
  236.0000   -35.9322     6.3926     7.1101    12.6410    77.3621     2.4627     0.0162
  236.5000   -35.9216     6.3586     7.1130    12.6476    76.0078     2.4537     0.0208
  237.0000   -36.1066     6.3461     7.1160    12.6485    75.4044     2.4658     0.0285
  237.5000   -36.3248     6.3187     7.1686    12.6492    75.2508     2.4764     0.0316
  238.0000   -36.4887     6.2776     7.2213    12.6501    74.3476     2.4772     0.0317
  238.5000   -36.5581     6.2797     7.2399    12.6510    73.7442     2.4757     0.0316
  239.0000   -36.6777     6.2605     7.3288    12.6518    73.7399     2.4765     0.0288
  239.5000   -36.7542     6.2405     7.3318    12.6526    73.4364     2.4879     0.0259
  240.0000   -36.8929     6.1994     7.3348    12.6534    73.2840     2.4894     0.0229
  240.5000   -37.0317     6.1711     7.3377    12.6543    74.3285     2.4842     0.0200
  241.0000   -37.0196     6.1180     7.3409    12.6551    75.5242     2.4812     0.0231
  241.5000   -37.0075     6.1206     7.2930    12.6561    77.9194     2.4737     0.0232
  242.0000   -36.9955     6.1227     7.2960    12.6570    79.7148     2.4699     0.0233
  242.5000   -36.9834     6.1248     7.2990    12.6426    81.2109     2.4700     0.0249
  243.0000   -36.9711     6.1269     7.3021    12.6285    79.4076     2.4716     0.0250
  243.5000   -36.9572     6.1717     7.3567    12.6143    77.3049     2.4732     0.0251
  244.0000   -36.9472     6.2291     7.4629    12.6002    75.2017     2.4754     0.0252
  244.5000   -36.9351     6.3061     7.6766    12.5711    74.8987     2.4754     0.0247
  245.0000   -36.9231     6.3966     7.8417    12.5420    75.4941     2.4739     0.0238
  245.5000   -36.9874     6.4883     7.9548    12.5429    75.7915     2.4725     0.0239
  246.0000   -37.0515     6.5814     8.0137    12.5438    75.1869     2.4793     0.0240
  246.5000   -37.1864     6.6758     8.0170    12.5447    74.2837     2.4907     0.0241
  247.0000   -37.1765     6.7716     8.0203    12.5455    73.6803     2.4960     0.0242
  247.5000   -37.1644     6.8216     8.0796    12.5463    75.1758     2.4968     0.0242
  248.0000   -37.1517     6.8712     8.1393    12.5472    82.3686     2.4923     0.0235
  248.5000   -37.1398     6.9491     8.1995    12.5480    85.9631     2.4893     0.0213
  249.0000   -37.1282     6.9722     8.2029    12.5490    84.0098     2.4857     0.0175
  249.5000   -37.1150     6.9751     8.2062    12.5498    81.4573     2.4818     0.0125
  250.0000   -37.2549     6.9774     8.2096    12.5505    79.9544     2.4758     0.0065
  250.5000   -37.0920     6.9798     8.2130    12.5363    80.4011     2.4697     0.0020
  251.0000   -37.0799     6.9819     8.2165    12.5373    79.7744     2.4630     0.0006
  251.5000   -37.0679     6.9843     8.2773    12.5230    79.3166     2.4601     0.0007
  252.0000   -37.0535     6.9870     8.2814    12.5240    79.6095     2.4707     0.0023
  252.5000   -37.0435     7.0381     8.2848    12.5097    80.3529     2.4594     0.0039
  253.0000   -37.0317     7.0895     8.4043    12.4955    80.6617     2.4700     0.0070
  253.5000   -37.0196     7.0921     8.5256    12.4814    80.9388     2.4723     0.0086
  254.0000   -37.0075     7.1938     8.7089    12.4824    81.0797     2.4686     0.0102
  254.5000   -36.9955     7.2970     8.8963    12.4683    81.2225     2.4679     0.0118
  255.0000   -36.9820     7.4017     9.0876    12.4542    81.0650     2.4687     0.0119
  255.5000   -36.6685     7.5079     9.2187    12.4390    80.3068     2.4702     0.0120
  256.0000   -36.6093     7.5629     9.2869    12.3959    77.8971     2.4680     0.0121
