~VERSION INFORMATION
 VERS.                2.0:   CWLS LOG ASCII STANDARD - VERSION 2.0
 WRAP.                 NO:   ONE LINE PER DEPTH STEP
~WELL INFORMATION
#MNEM.UNIT      DATA TYPE    INFORMATION
#----------   ------------   ------------------------------
 STRT.F           29.5000:   START DEPTH
 STOP.F         2719.5000:   STOP DEPTH
 STEP.F            0.5000:   STEP LENGTH
 NULL.          -999.2500:   NO VALUE
 COMP.          INTEX OIL:   COMPANY
 WELL. INTEX NPR 3 "AX" #82-20:   WELL
 FLD .             TEAPOT:   FIELD
 LOC .      S20 T39N R78W:   LOCATION
 CNTY.            NATRONA:   COUNTY
 STAT.            WYOMING:   STATE
 CTRY. UNITED STATES OF AMERICA:   COUNTRY
 SRVC.       SCHLUMBERGER:   SERVICE COMPANY
 DATE.        19-MAY-1956:   LOGDATE
 API .     49025095270000:   API NUMBER
~CURVE INFORMATION
#MNEM.UNIT       API CODE    CURVE DESCRIPTION
#----------   ------------   ------------------------------
 DEPT.F                  :   
 CALD.IN     45 280 60 00:   CALIPER FROM DENSITY LOG
 GRD .GAPI   45 310 01 00:   GAMMA RAY FROM DENSITY LOG
 CORR.G/C3   45 356 01 00:   DENSITY CORRECTION
 RHOB.G/C3   45 350 01 00:   BULK DENSITY
 SPR .MV     05 010 01 00:   SPONTANEOUS POTENTIAL
 ILD .OHMM   05 120 46 00:   DEEP INDUCTION RESISTIVITY
 SN  .OHMM   05 040 00 00:   SHORT NORMAL
~PARAMETER INFORMATION
#MNEM.UNIT          VALUE    DESCRIPTION
#----------   ------------   ------------------------------
 EKB .F         5014.3000:   Kelly bushing
 EGL .F         5004.0000:   Ground level
 EDF .F            0.0000:   Drilling floor
 TD  .F         2717.0000:   Total depth
 DATE.        19-MAY-1956:   Date logged
 CLNT.            A2DTECH:   Client Code
 PD  .                 GL:   Permanent Datum
 EPD .F              5004:   Elevation Permanent Datum
 LMF .                 KB:   Log Measured From
 DMF .                 KB:   Drilling Measured From
 DAPD.F              10.3:   Feet Above Permanent Datum
 DD  .F              2717:   Depth driller
 DL  .F              2717:   Depth logger
 BLI .F              2716:   Bottom log interval
 TLI .F               100:   Top log interval
 CS1 .IN            10.75:   Casing size
 CBD1.       10.75" @ 30':   Casing driller 1
 BS1 .IN            7.875:   Bit size
 BSD1.F              2717:   Depth drilled with bit1
 DFT .        GEL/CAUSTIC:   Type fluid in hole
 DFD .                9.7:   Density
 DFV .                 35:   Viscosity
 DFPH.                7.6:   pH
 DFL .                8.8:   Fluid loss
 MSS .           FLOWLINE:   Source of sample
 RMS .OHMM           1.68:   Rm
 MST .F                58:   Rm Meas. temp.
 RMF .OHMM           1.17:   Rmf
 MFST.F                68:   Rmf Meas. temp.
 MFSS.                 FP:   Source Rmf.
 RMB .OHMM              1:   Rm. at BHT
 BHT .F               101:   BHT.
 TCS .HRS               4:   Time Circ. stopped
 MRT .F               101:   Maximum recorded temp.
 LUN .               4507:   Logging unit number
 LUL .               CSPR:   Logging unit location
 ENGI.            MANGOLD:   Recorded By
 WITN.             TUTTLE:   Witnessed by
 ORIG.           5" PRINT:   Origin of data
 UWI .     49025095270000:   Unique Well ID
 DICO. A2D TECHNOLOGIES, INC.:   Digitizing Company
~OTHER INFORMATION
~A   DEPT     CALD         GRD      CORR       RHOB        SPR        ILD         SN   
# ...
 1622.0000     8.5520   114.8850     0.0990     2.5170   -50.8580     8.7560    12.2540
 1622.5000     8.5510   116.0880     0.0810     2.4980   -50.7400     8.5340    12.1220
 1623.0000     8.5510   112.5990     0.0640     2.4840   -50.6210     8.3690    11.9910
 1623.5000     8.5500   107.9530     0.0640     2.4810   -50.5030     8.2900    11.8590
 1624.0000     8.5500   105.0200     0.0690     2.4850   -50.3850     8.2100    11.7280
 1624.5000     8.5490   109.8100     0.0730     2.4870   -50.2670     8.1310    11.5960
 1625.0000     8.5480   107.9620     0.0770     2.4840   -50.1490     8.0520    11.4650
 1625.5000     8.5480   105.5440     0.0780     2.4710   -50.0290     7.9730    11.3330
 1626.0000     8.5470   103.6810     0.0730     2.4570   -50.0030     7.8940    11.2040
 1626.5000     8.5470   108.7020     0.0660     2.4470   -50.0300     7.8150    11.2190
 1627.0000     8.5460   111.7000     0.0580     2.4610   -50.1750     7.8050    11.3350
 1627.5000     8.5450   110.3600     0.0520     2.4460   -50.3180     7.8260    11.4470
 1628.0000     8.5450   110.1120     0.0640     2.4640   -50.4610     7.9020    11.5590
 1628.5000     8.5440   111.0170     0.0680     2.4560   -50.6040     7.9750    11.6710
 1629.0000     8.5430   110.1140     0.0430     2.4400   -50.7530     8.0480    11.7830
 1629.5000     8.5430   109.1810     0.0340     2.4330   -50.7930     8.1210    11.8950
 1630.0000     8.5420   108.2360     0.0390     2.4370   -50.7890     8.1950    12.0080
 1630.5000     8.5420   108.0530     0.0440     2.4560   -50.7820     8.2680    12.1200
 1631.0000     8.5410   107.2970     0.0500     2.4540   -50.7740     8.3410    12.2320
 1631.5000     8.5400   106.6850     0.0500     2.4490   -50.7660     8.4140    12.3440
 1632.0000     8.5400   107.0450     0.0450     2.4450   -50.7580     8.4880    12.4560
 1632.5000     8.5390   107.3240     0.0410     2.4380   -50.7500     8.5610    12.5680
 1633.0000     8.5420   110.0200     0.0360     2.4320   -50.7420     8.6340    12.6800
 1633.5000     8.5460   112.8880     0.0320     2.4250   -50.7340     8.7080    12.7920
 1634.0000     8.5490   112.7890     0.0340     2.4190   -50.7260     8.7810    12.9040
 1634.5000     8.5530   113.3130     0.0470     2.4200   -50.7180     8.8540    13.0170
 1635.0000     8.5570   114.8770     0.0610     2.4450   -50.7100     8.9270    13.1290
 1635.5000     8.5600   112.7230     0.0930     2.4700   -50.7020     9.0010    13.2410
 1636.0000     8.5640   109.9480     0.0860     2.4870   -50.6940     9.0750    13.3530
 1636.5000     8.5670   109.5170     0.0670     2.4520   -50.6860     9.0760    13.4650
 1637.0000     8.5710   109.1360     0.0780     2.4630   -50.6770     8.9810    13.5750
 1637.5000     8.5750   108.7110     0.0890     2.4730   -50.6690     8.8860    13.6690
 1638.0000     8.5780   109.6070     0.0880     2.4830   -50.6610     8.7920    13.6290
 1638.5000     8.5790   110.8730     0.0880     2.4940   -50.6530     8.6970    13.4060
 1639.0000     8.5790   112.1490     0.0870     2.4990   -50.6450     8.6030    13.1830
 1639.5000     8.5790   111.9700     0.0790     2.4970   -50.6370     8.5080    12.9620
 1640.0000     8.5790   111.7040     0.0690     2.4770   -50.6290     8.4130    12.7400
 1640.5000     8.5790   111.4460     0.0600     2.4570   -50.6210     8.3180    12.5180
 1641.0000     8.5790   111.2110     0.0510     2.4370   -50.6140     8.2240    12.2960
 1641.5000     8.5790   111.2280     0.0550     2.4430   -50.6070     8.1290    12.0750
 1642.0000     8.5790   109.7140     0.0620     2.4550   -50.6030     8.0350    11.8810
 1642.5000     8.5790   107.9800     0.0550     2.4420   -50.7720     7.9390    11.8780
 1643.0000     8.5790   106.4980     0.0440     2.4530   -50.7980     7.9920    11.9730
 1643.5000     8.5790   105.2220     0.0760     2.4710   -50.7960     8.1350    12.1250
 1644.0000     8.5790   104.0100     0.0720     2.4760   -50.7950     8.2770    12.2780
 1644.5000     8.5790   107.4800     0.0660     2.4740   -50.7950     8.4210    12.4300
 1645.0000     8.5790   111.4300     0.0590     2.4820   -50.7950     8.5640    12.5830
 1645.5000     8.5790   109.4750     0.0650     2.4800   -50.7950     8.7080    12.7360
 1646.0000     8.5760   106.9000     0.0770     2.4600   -50.7950     8.8510    12.8880
 1646.5000     8.5650   105.5900     0.0450     2.4310   -50.7950     8.9950    13.0410
 1647.0000     8.5540   107.6290     0.0400     2.4200   -50.7950     9.1380    13.1940
 1647.5000     8.5430   109.7450     0.0440     2.4200   -50.7950     9.2810    13.3470
 1648.0000     8.5320   112.6630     0.0570     2.4280   -50.7950     9.4240    13.4990
 1648.5000     8.5200   113.3810     0.0620     2.4460   -50.7950     9.4920    13.6520
 1649.0000     8.5200   114.0530     0.0520     2.4320   -50.7950     9.4400    13.8050
 1649.5000     8.5200   115.2780     0.0320     2.4300   -50.7950     9.3420    13.9580
 1650.0000     8.5240   116.3320     0.0500     2.4400   -50.7950     9.2440    14.1110
 1650.5000     8.5290   115.0200     0.0420     2.4400   -50.7950     9.1460    14.2550
 1651.0000     8.5330   113.5140     0.0320     2.4370   -50.7950     9.0470    14.1340
 1651.5000     8.5370   113.9460     0.0400     2.4530   -50.7950     8.9490    14.0020
 1652.0000     8.5380   114.5960     0.0470     2.4620   -50.7950     8.8510    13.8710
 1652.5000     8.5750   113.0650     0.0360     2.4380   -50.7950     8.7980    13.7390
 1653.0000     8.5790   113.4260     0.0260     2.4290   -50.7950     8.7980    13.6080
 1653.5000     8.5790   113.7980     0.0370     2.4340   -50.7950     8.7980    13.4760
 1654.0000     8.6010   114.1570     0.0460     2.4400   -50.7950     8.7970    13.3440
 1654.5000     8.5970   115.3410     0.0500     2.4460   -50.7950     8.8060    13.1830
 1655.0000     8.5890   116.8650     0.0560     2.4530   -50.7950     8.8270    13.2580
 1655.5000     8.5820   115.7110     0.0610     2.4410   -50.7950     8.8480    13.3510
 1656.0000     8.5750   114.3010     0.0500     2.4260   -50.7950     8.8690    13.4450
 1656.5000     8.5680   112.8510     0.0350     2.4290   -50.7950     8.8890    13.5380
 1657.0000     8.5600   112.3220     0.0470     2.4380   -50.7950     8.9100    13.6320
 1657.5000     8.5530   115.5580     0.0620     2.4490   -50.7950     8.9310    13.7250
 1658.0000     8.5460   119.0140     0.0550     2.4320   -50.7950     8.9520    13.8190
 1658.5000     8.5400   117.0650     0.0430     2.4320   -50.7950     8.9720    13.9120
 1659.0000     8.5610   113.5400     0.0450     2.4330   -50.7950     8.9930    14.0050
 1659.5000     8.5600   110.6550     0.0500     2.4480   -50.7950     8.9270    14.0640
 1660.0000     8.5570   110.5480     0.0550     2.4650   -50.7930     8.8490    14.0160
 1660.5000     8.5550   114.4320     0.0810     2.4800   -50.7470     8.7700    13.8520
 1661.0000     8.5530   118.2470     0.0710     2.4560   -50.7010     8.6910    13.6940
 1661.5000     8.5500   117.7320     0.0560     2.4490   -50.6560     8.6120    13.5370
 1662.0000     8.5480   117.0270     0.0420     2.4400   -50.6100     8.5980    13.3810
 1662.5000     8.5450   118.4030     0.0470     2.4370   -50.5640     8.5920    13.2900
 1663.0000     8.5430   116.8470     0.0550     2.4410   -50.5180     8.7010    13.3720
 1663.5000     8.5410   116.1390     0.0560     2.4400   -50.4730     8.7440    13.4490
 1664.0000     8.5380   116.6140     0.0520     2.4460   -50.4270     8.7990    13.5250
 1664.5000     8.5360   116.4700     0.0700     2.4540   -50.3810     8.8560    13.6010
 1665.0000     8.5330   115.1030     0.0640     2.4440   -50.3350     8.9120    13.6780
 1665.5000     8.5310   113.6990     0.0550     2.4320   -50.2890     8.9680    13.7550
 1666.0000     8.5280   112.2470     0.0450     2.4340   -50.2440     9.0250    13.8310
 1666.5000     8.5260   112.0740     0.0430     2.4310   -50.1980     9.0810    13.9070
 1667.0000     8.5230   115.7120     0.0460     2.4340   -50.1520     9.0750    13.9710
