~VERSION INFORMATION
 VERS.                2.0:   CWLS LOG ASCII STANDARD - VERSION 2.0
 WRAP.                 NO:   ONE LINE PER DEPTH STEP
~WELL INFORMATION
#MNEM.UNIT      DATA TYPE    INFORMATION
#----------   ------------   ------------------------------
 STRT.F           30.0000:   START DEPTH
 STOP.F         3240.0000:   STOP DEPTH
 STEP.F            0.5000:   STEP LENGTH
 NULL.          -999.2500:   NO VALUE
 COMP. LAWRENCE-ALLISON ASSOCIATES WES:   COMPANY
 WELL. LAWRENCE "AX" #87AX28:   WELL
 FLD .   TEAPOT N.P.R. #3:   FIELD
 LOC .      S28 T39N R78W:   LOCATION
 CNTY.            NATRONA:   COUNTY
 STAT.            WYOMING:   STATE
 CTRY. UNITED STATES OF AMERICA:   COUNTRY
 SRVC.       SCHLUMBERGER:   SERVICE COMPANY
 DATE.        28-MAY-1982:   LOGDATE
 API .     49025108860000:   API NUMBER
~CURVE INFORMATION
#MNEM.UNIT       API CODE    CURVE DESCRIPTION
#----------   ------------   ------------------------------
 DEPT.F                  :   
 TENR.LBS    07 635 01 00:   TENSION FROM RESISTIVITY
 GRR .GAPI   07 310 01 00:   GAMMA RAY FROM RESISTIVITY
 SPR .MV     07 010 01 00:   SPONTANEOUS POTENTIAL FROM RES.
 ILD .OHMM   07 120 46 00:   DEEP INDUCTION RESISTIVITY
 ILM .OHMM   07 120 44 00:   INDUCTION LOG MEDIUM RESISTIVITY
 SFL .OHMM   07 220 01 00:   SHALLOW FOCUSED LOG RESISITIVITY
 TEND.LBS    45 635 01 00:   TENSION FORM DENSITY LOG
 NPHI.DEC    42 890 03 00:   NEUTRON POROSITY SANDSTONE
 CALD.IN     45 280 60 00:   CALIPER FROM DENSITY LOG
 CORR.G/C3   45 356 01 00:   DENSITY CORRECTION
 RHOB.G/C3   45 350 01 00:   BULK DENSITY
~PARAMETER INFORMATION
#MNEM.UNIT          VALUE    DESCRIPTION
#----------   ------------   ------------------------------
 EKB .F         5070.0000:   Kelly bushing
 EGL .F         5060.0000:   Ground level
 TD  .F         3220.0000:   Total depth
 CLNT.            A2DTECH:   Client Code
 SL  . 1341' FSL & 162' FEL:   Surface Location
 PD  .                 GL:   Permanent Datum
 EPD .F              5060:   Elevation Permanent Datum
 LMF .                 KB:   Log Measured From
 DMF .                 KB:   Drilling Measured From
 DAPD.F                10:   Feet Above Permanent Datum
 DATE.        28-MAY-1982:   Date Logged [DD-MMM-YYYY]
 DD  .F              3220:   Depth driller
 DL  .F              3215:   Depth logger
 BLI .F              3212:   Bottom log interval
 TLI .F               489:   Top log interval
 CS1 .IN            9.625:   Casing size
 CBD1.      9.625" @ 461':   Casing driller 1
 CBL1.F               489:   Casing logger 1
 BS1 .IN            9.750:   Bit size
 BSD1.F              3220:   Depth drilled with bit1
 DFT .          POLY./KCL:   Type fluid in hole
 DFD .                8.8:   Density
 DFV .                 44:   Viscosity
 DFPH.                7.0:   pH
 DFL .                8.0:   Fluid loss
 MSS .           MUD TANK:   Source of sample
 RMS .OHMM          0.778:   Rm
 MST .F                65:   Rm Meas. temp.
 RMF .OHMM          0.710:   Rmf
 MFST.F                67:   Rmf Meas. temp.
 MFSS.               MEAS:   Source Rmf.
 RMB .OHMM          0.447:   Rm. at BHT
 BHT .F               118:   BHT.
 TCS .HRS            2000:   Time Circ. stopped
 TLAB.HRS            2430:   Time logger at bottom
 MRT .F               118:   Maximum recorded temp.
 LUN .               8043:   Logging unit number
 LUL .               CSPR:   Logging unit location
 ENGI.             DENNIS:   Recorded By
 WITN.             STRONG:   Witnessed by
 ORIG.           5" PRINT:   Origin of data
 UWI .     49025108860000:   Unique Well ID
 DICO. A2D TECHNOLOGIES, INC.:   Digitizing Company
~OTHER INFORMATION
~A   DEPT     TENR         GRR       SPR        ILD        ILM        SFL       TEND       NPHI       CALD       CORR       RHOB   
# ...
 1921.0000  1156.7579   128.7896   -38.6347     8.6643     8.3111    10.1903  1333.4962    -0.0290    10.2862    -0.0079     2.4674
 1921.5000  1157.7736   125.1331   -38.4667     8.7333     8.3162    10.1978  1333.7570    -0.0300    10.2856    -0.0078     2.4675
 1922.0000  1158.7893   127.0645   -38.1457     8.7411     8.3214    10.2069  1334.0176    -0.0303    10.2852    -0.0062     2.4699
 1922.5000  1159.8049   131.1263   -38.2877     8.8102     8.3266    10.2873  1334.2783    -0.0251    10.2847    -0.0038     2.4738
 1923.0000  1160.8206   133.4332   -38.4227     8.7559     8.2723    10.2948  1334.5391     0.0042    10.2996    -0.0022     2.4739
 1923.5000  1161.3943   133.6725   -38.4073     8.7005     8.2776    10.2272  1334.7997     0.0238    10.2990    -0.0006     2.4674
 1924.0000  1161.4741   129.3313   -38.5423     8.6438     8.3435    10.1619  1335.0604     0.0271    10.2986     0.0003     2.4562
 1924.5000  1161.5540   127.9679   -38.6843     8.5891     8.3487    10.1711  1335.3210    -0.0014    10.2982    -0.0005     2.4554
 1925.0000  1161.6338   128.4404   -38.8227     8.5364     8.4139    10.0285  1335.5818    -0.0289    10.2977    -0.0004     2.4586
 1925.5000  1161.7135   128.4541   -38.9610     8.5432     8.4191     9.8994  1335.8425    -0.0305    10.2973    -0.0003     2.4648
 1926.0000  1161.7933   126.8647   -38.7894     8.5502     8.4243     9.9084  1336.1031    -0.0332    10.2967    -0.0003     2.4719
 1926.5000  1161.8732   123.2083   -38.7746     8.6198     8.4296     9.9155  1336.3639    -0.0404    10.2963    -0.0002     2.4804
 1927.0000  1161.9530   118.6344   -38.6064     8.6267     8.4349     9.9937  1336.6245    -0.0541    10.3112    -0.0010     2.4852
 1927.5000  1162.0327   117.4976   -38.5882     8.6335     8.5020    10.1445  1336.8853    -0.0566    10.3107    -0.0032     2.4805
 1928.0000  1162.1125   118.8903   -38.5734     8.6404     8.5073    10.2976  1337.1460    -0.0523    10.3102    -0.0047     2.4767
 1928.5000  1162.1924   123.5159   -38.8686     8.6472     8.5126    10.3790  1337.4066    -0.0432    10.3098    -0.0047     2.4768
 1929.0000  1162.2722   126.0303   -38.5439     8.5925     8.5179    10.3882  1337.6674    -0.0172    10.3245    -0.0023     2.4753
 1929.5000  1162.3519   126.9610   -38.5291     8.4774     8.4021    10.3200  1337.9280     0.0039    10.3240     0.0001     2.4722
 1930.0000  1162.4318   131.1027   -37.9017     8.2469     8.2286    10.2541  1338.1887     0.0124    10.3236     0.0009     2.4676
 1930.5000  1162.5116   134.3270   -37.7335     8.1931     8.0014    10.2634  1338.4495     0.0078    10.3232     0.0010     2.4654
 1931.0000  1162.5914   137.5513   -37.5622     8.1429     7.8289     9.9821  1338.7101    -0.0139    10.3227     0.0012     2.4685
 1931.5000  1162.6711   139.1700   -37.3943     8.1494     7.7854     9.2359  1338.9708    -0.0315    10.3070     0.0035     2.4701
 1932.0000  1162.7510   140.8259   -37.3795     8.1559     7.8475     9.0470  1339.2316    -0.0366    10.3066     0.0043     2.4625
 1932.5000  1162.8308   139.1999   -37.2116     8.1623     7.9656     9.3171  1339.4922    -0.0379    10.3061     0.0004     2.4548
 1933.0000  1162.9106   135.3141   -37.1968     8.2274     8.0278     9.7313  1339.7529    -0.0303    10.3056    -0.0011     2.4618
 1933.5000  1162.9905   132.8044   -37.4885     8.2932     8.0905    10.1639  1340.0135    -0.0257    10.3052     0.0005     2.4704
 1934.0000  1163.0702   132.3590   -37.6266     8.4205     8.2122    10.3154  1340.2743    -0.0143    10.3047    -0.0010     2.4758
 1934.5000  1163.1500   131.4548   -37.6082     8.4876     8.2765    10.3248  1340.5350    -0.0160    10.3043    -0.0026     2.4726
 1935.0000  1163.2299   128.4865   -37.7465     8.4943     8.2828    10.3322  1340.7957    -0.0194    10.3038    -0.0040     2.4690
 1935.5000  1163.3097   124.0872   -37.7317     8.5620     8.3475    10.3398  1341.0564    -0.0185    10.3034    -0.0024     2.4682
 1936.0000  1163.3894   123.4671   -38.3295     8.5078     8.2340    10.3491  1341.3170    -0.0072    10.3182    -0.0015     2.4699
 1936.5000  1163.4692   124.4012   -38.7741     8.5146     8.0641    10.3565  1341.5778    -0.0051    10.3176     0.0001     2.4707
 1937.0000  1163.5491   124.6405   -38.9127     8.4607     8.0464    10.3640  1341.8385    -0.0161    10.3172     0.0009     2.4653
 1937.5000  1163.6289   123.2809   -38.8974     8.3474     8.0165    10.2247  1342.0991    -0.0336    10.3168    -0.0014     2.4607
 1938.0000  1163.7086   121.4593   -39.0361     8.2946     8.0216     9.7340  1342.3599    -0.0544    10.3163    -0.0029     2.4608
 1938.5000  1163.7885   120.0965   -39.0176     8.3028     8.0855     9.5348  1342.6205    -0.0569    10.3159    -0.0036     2.4639
 1939.0000  1163.8683   118.4558   -39.1559     8.2487     8.0905     9.8179  1342.8812    -0.0501    10.3154    -0.0012     2.4671
 1939.5000  1163.9481   116.9120   -39.1411     8.2569     8.1537    10.1110  1343.1420    -0.0404    10.3150    -0.0004     2.4695
 1940.0000  1164.0278   116.4666   -39.2832     8.2634     8.2174    10.0464  1343.4026    -0.0316    10.3145    -0.0019     2.4664
 1940.5000  1164.1077   117.1712   -39.4181     8.2701     8.2225     9.8392  1343.6633    -0.0270    10.3140    -0.0042     2.4603
 1941.0000  1164.1875   122.6891   -39.2496     8.2782     8.2276     9.7763  1343.9241    -0.0335    10.3136    -0.0049     2.4565
 1941.5000  1164.2673   128.6657   -39.0783     8.2848     8.1740     9.8552  1344.1847    -0.0384    10.3131    -0.0048     2.4565
 1942.0000  1164.3472   134.8716   -38.9104     8.2913     8.1793     9.9329  1344.4454    -0.0378    10.3127    -0.0030     2.4656
 1942.5000  1164.4269   134.3962   -38.7425     8.3574     8.1258    10.0829  1344.7061    -0.0155    10.3122     0.0000     2.4806
 1943.0000  1164.5067   131.9198   -38.7277     8.3640     8.1322    10.1623  1344.9668     0.0120    10.3117    -0.0008     2.4869
 1943.5000  1164.5865   132.6212   -38.7129     8.3707     8.0780    10.0974  1345.2275     0.0202    10.2960    -0.0015     2.4885
 1944.0000  1164.6664   134.6987   -38.6981     8.3774     8.0842     9.9634  1345.4882     0.0129    10.2955    -0.0030     2.4800
 1944.5000  1164.7461   135.8587   -38.6830     8.3842     8.0314     9.8980  1345.7489    -0.0132    10.2951    -0.0045     2.4715
 1945.0000  1164.8259   136.3307   -38.6649     8.3923     7.9793     9.8348  1346.0095    -0.0187    10.2946    -0.0052     2.4662
 1945.5000  1164.9058   136.3440   -38.6501     8.3990     7.9844     9.8437  1346.2703    -0.0126    10.2942    -0.0060     2.4631
 1946.0000  1164.9856   136.3578   -38.6353     8.4056     7.9335    10.1358  1346.5310    -0.0068    10.2937    -0.0051     2.4640
 1946.5000  1165.0653   135.6858   -38.6205     8.3525     7.9385    10.2175  1346.7916    -0.0087    10.2932    -0.0043     2.4663
 1947.0000  1165.1451   133.4055   -38.6057     8.2406     7.9434    10.2981  1347.0524    -0.0240    10.2928    -0.0019     2.4679
 1947.5000  1165.2250   130.8958   -38.5909     8.2471     7.9483    10.1596  1347.3130    -0.0314    10.2923     0.0005     2.4680
 1948.0000  1165.3048   128.1568   -38.5758     8.2539     7.9533     9.4674  1347.5737    -0.0259    10.3073     0.0006     2.4650
 1948.5000  1165.3845   128.1701   -38.5577     8.2619     7.9015     9.4743  1347.8345    -0.0216    10.3067    -0.0017     2.4611
 1949.0000  1165.4644   130.0184   -38.6997     8.2096     7.9065     9.7554  1348.0951    -0.0253    10.3063    -0.0032     2.4557
 1949.5000  1165.5442   130.9490   -38.8381     8.2161     7.7989    10.1185  1348.3558    -0.0308    10.3057    -0.0047     2.4504
 1950.0000  1165.6240   128.9004   -38.8196     8.1625     7.7481    10.1967  1348.6165    -0.0382    10.3032    -0.0055     2.4481
 1950.5000  1165.7039   129.1453   -38.9616     8.1706     7.7542    10.1313  1348.8772    -0.0263    10.2728    -0.0023     2.4497
 1951.0000  1165.7836   131.9132   -38.9432     8.1771     7.7590     9.9951  1349.1379    -0.0136    10.2579     0.0009     2.4521
