~VERSION INFORMATION
 VERS.                2.0:   CWLS LOG ASCII STANDARD - VERSION 2.0
 WRAP.                 NO:   ONE LINE PER DEPTH STEP
~WELL INFORMATION
#MNEM.UNIT      DATA TYPE    INFORMATION
#----------   ------------   ------------------------------
 STRT.F          470.0000:   START DEPTH
 STOP.F         3791.5000:   STOP DEPTH
 STEP.F            0.5000:   STEP LENGTH
 NULL.          -999.2500:   NO VALUE
 COMP.    FENIX & SCISSON:   COMPANY
 WELL.   FENIX MDX #44-10:   WELL
 FLD .                NPR:   FIELD
 LOC .      S10 T38N R78W:   LOCATION
 CNTY.            NATRONA:   COUNTY
 STAT.            WYOMING:   STATE
 CTRY. UNITED STATES OF AMERICA:   COUNTRY
 SRVC.       SCHLUMBERGER:   SERVICE COMPANY
 DATE.        25-OCT-1977:   LOGDATE
 API .     49025104310000:   API NUMBER
~CURVE INFORMATION
#MNEM.UNIT       API CODE    CURVE DESCRIPTION
#----------   ------------   ------------------------------
 DEPT.F                  :   
 DT  .US/F   60 520 00 00:   DELTA TIME
 SPR .MV     11 010 01 00:   SPONTANEOUS POTENTIAL FROM RES.
 LLS .OHMM   11 220 09 00:   LATEROLOG LOG SHALLOW
 LLD .OHMM   11 220 10 00:   LATEROLOG LOG DEEP
 MSFL.OHMM   11 270 04 00:   MICRO SPHERICALLY FOCUSED
 NPOR.DEC    42 890 03 00:   ALPHA PROCESSED NEUTRON POROSITY
 RHOB.G/C3   45 350 01 00:   BULK DENSITY
 CORR.G/C3   45 356 01 00:   DENSITY CORRECTION
 GRD .GAPI   45 310 01 00:   GAMMA RAY FROM DENSITY LOG
 CALD.IN     45 280 60 00:   CALIPER FROM DENSITY LOG
~PARAMETER INFORMATION
#MNEM.UNIT          VALUE    DESCRIPTION
#----------   ------------   ------------------------------
 EKB .F         5239.0000:   Kelly bushing
 EGL .F         5229.0000:   Ground level
 EDF .F            0.0000:   Drilling floor
 EPD .F           10.0000:   Permanent datum
 TD  .F         3802.0000:   Total depth
 DATE.        25-OCT-1977:   Date logged
 CLNT.            A2DTECH:   Client Code
 SL  . 2640' FNL & 2640' FEL:   Surface Location
 PD  .                 GL:   Permanent Datum
 DD  .F              3802:   Depth driller
 DL  .F              3791:   Depth logger
 BLI .F              3789:   Bottom log interval
 TLI .F               505:   Top log interval
 CS1 .IN            8.625:   Casing size
 CBD1.       8.625 @ 505':   Casing driller 1
 CBL1.F               505:   Casing logger 1
 BS1 .IN            7.875:   Bit size
 DFT .            KCL MUD:   Type fluid in hole
 DFD .                9.1:   Density
 DFV .                 45:   Viscosity
 DFPH.               10.5:   pH
 DFL .                  8:   Fluid loss
 MSS .             MUDPIT:   Source of sample
 RMS .OHMM           .209:   Rm
 MST .F                72:   Rm Meas. temp.
 RMF .OHMM           .179:   Rmf
 MFST.F                72:   Rmf Meas. temp.
 RMC .OHMM           .314:   Rmc
 MCST.F                72:   Rmc Meas. temp.
 MFSS.               MEAS:   Source Rmf.
 RMB .OHMM           .122:   Rm. at BHT
 BHT .F               123:   BHT.
 TCS .HRS            1400:   Time Circ. stopped
 MRT .F               123:   Maximum recorded temp.
 LUN .               5642:   Logging unit number
 LUL .               CSPR:   Logging unit location
 ENGI.             SAYLER:   Recorded By
 WITN.         PETTINGILL:   Witnessed by
 ORIG.           5" PRINT:   Origin of data
 UWI .     49025104310000:   Unique Well ID
 DICO. A2D TECHNOLOGIES, INC.:   Digitizing Company
 DAPD.                 10:   Feet Above Permanent Datum
 BSD1.               3802:   Depth drilled with bit1
 MCSS.               CALC:   Source Rmc.
~OTHER INFORMATION
~A   DEPT        DT       SPR        LLS        LLD       MSFL       NPOR       RHOB       CORR        GRD       CALD   
# ...
 1374.5000    93.7940   -38.9890     8.8300     8.0880    10.5570     0.3110     2.5310     0.0100   100.4640    10.8590
 1375.0000    93.4640   -38.9960     8.8990     8.1020    10.6760     0.3030     2.5240     0.0020   100.2470    10.8540
 1375.5000    93.0550   -39.0020     8.9340     8.1160    10.7950     0.3030     2.5180    -0.0060   100.7450    10.8780
 1376.0000    93.3500   -39.0090     8.8870     8.1300    10.9150     0.3120     2.5250     0.0060   102.1410    10.9210
 1376.5000    93.4610   -39.0160     8.8340     8.1480    11.0340     0.3210     2.5280     0.0120   103.5160    10.9640
 1377.0000    92.6250   -39.0230     8.7820     8.1180    11.1440     0.3240     2.5230    -0.0010   104.8720    11.0080
 1377.5000    93.0120   -39.0290     8.7290     8.0760    11.2470     0.3220     2.5190     0.0110   104.3910    11.0520
 1378.0000    92.3250   -39.0360     8.6770     8.0330    10.7370     0.3200     2.5200     0.0000   101.5040    11.0660
 1378.5000    92.2830   -39.0430     8.6250     7.9910    10.4480     0.3170     2.5350     0.0120   102.8400    11.0590
 1379.0000    92.6500   -39.0500     8.5720     7.9490    10.4480     0.3150     2.5320     0.0040   104.0660    11.0520
 1379.5000    92.3500   -39.0560     8.5200     7.9060    10.4280     0.3130     2.5300     0.0180   105.2700    11.0450
 1380.0000    92.0500   -39.0630     8.4670     7.8640    10.4060     0.3080     2.5300     0.0000   106.8090    11.0380
 1380.5000    92.8290   -39.0700     8.4150     7.8210    10.3830     0.3010     2.5350     0.0080   107.5810    11.0310
 1381.0000    93.5380   -39.0770     8.3760     7.7790    10.3600     0.2980     2.5410     0.0130   106.3210    11.0230
 1381.5000    93.6100   -39.0830     8.2990     7.7360    10.3520     0.3100     2.5440     0.0020   104.9980    11.0160
 1382.0000    94.6500   -39.0900     8.2990     7.6940    10.2850     0.3230     2.5460     0.0120   103.6330    11.0090
 1382.5000    94.2000   -39.0970     8.2990     7.6510    10.1820     0.3240     2.5500     0.0150   104.0480    11.0020
 1383.0000    94.1290   -39.1040     8.2990     7.6090    10.0780     0.3200     2.5580     0.0040   104.8950    10.9950
 1383.5000    94.4500   -39.1080     8.2990     7.5660     9.9780     0.3160     2.5640     0.0220   105.7610    10.9890
 1384.0000    93.9790   -39.1000     8.2990     7.5240     9.9780     0.3100     2.5640     0.0060   106.6100    10.9850
 1384.5000    94.2500   -39.0930     8.2990     7.4990    10.3520     0.3050     2.5640     0.0140   107.3560    10.9800
 1385.0000    94.5710   -39.0860     8.2990     7.5430    10.3520     0.3000     2.5630     0.0180   106.7020    10.9750
 1385.5000    94.3060   -39.0790     8.2990     7.5730    10.0700     0.2970     2.5540     0.0050   105.7480    10.9700
 1386.0000    94.0410   -39.0720     8.2990     7.6030    10.2940     0.2940     2.5510     0.0110   104.5460    10.9660
 1386.5000    93.7500   -39.0650     8.2990     7.6340    10.5450     0.2990     2.5500     0.0060   102.9740    10.9610
 1387.0000    93.7090   -39.0580     8.2990     7.6640    10.5450     0.3220     2.5400    -0.0100   101.3610    10.9560
 1387.5000    93.6640   -39.0510     8.2990     7.6940    10.0700     0.3300     2.5270     0.0040   101.0080    10.9510
 1388.0000    93.6180   -39.0440     8.3050     7.7250    10.0700     0.3210     2.5230    -0.0050   101.9010    10.9590
 1388.5000    93.5730   -39.0370     8.3410     7.7550    10.4480     0.3150     2.5230     0.0020   103.5260    10.9710
 1389.0000    93.6860   -39.0300     8.3750     7.7850    10.1240     0.3160     2.5250    -0.0110   105.1490    10.9830
 1389.5000    93.9590   -39.0230     8.4100     7.8160     9.9140     0.3170     2.5300     0.0070   106.5360    10.9950
 1390.0000    94.0950   -39.0160     8.4450     7.8460     9.6170     0.3150     2.5350     0.0080   106.2090    11.0080
 1390.5000    93.9140   -39.0090     8.4800     7.8760     9.6470     0.3130     2.5390     0.0040   105.0280    10.9910
 1391.0000    93.7500   -39.0020     8.5150     7.9060     9.6990     0.3140     2.5360    -0.0020   103.8970    10.9670
 1391.5000    93.8470   -38.9950     8.5490     7.9330     9.7520     0.3140     2.5320     0.0050   102.7680    10.9420
 1392.0000    93.9350   -38.9880     8.5840     7.9750     9.7960     0.3110     2.5280    -0.0050   101.7590    10.9170
 1392.5000    94.0240   -38.9800     8.6190     8.0170    10.6970     0.3050     2.5260     0.0000   103.0010    10.9150
 1393.0000    93.9190   -38.9730     8.6540     8.0600    11.7770     0.2960     2.5210    -0.0130   104.6250    10.9210
 1393.5000    93.7500   -38.9660     8.6900     8.1020    11.6690     0.2870     2.5130    -0.0020   105.5430    10.9270
 1394.0000    93.1150   -38.9590     8.7100     8.1440    10.4480     0.2810     2.5060    -0.0100   104.7010    10.9320
 1394.5000    92.5380   -38.9520     8.7310     8.1860    10.4480     0.2900     2.5060     0.0040   103.9100    10.9380
 1395.0000    92.0000   -38.9450     8.7520     8.2290    10.5600     0.2950     2.5040     0.0010   103.2710    10.9440
 1395.5000    92.0000   -38.9380     8.7710     8.2710    10.8890     0.2980     2.4980    -0.0130   102.9530    10.9500
 1396.0000    92.5000   -38.9310     8.7340     8.2990    11.0420     0.2980     2.5090    -0.0080   102.6340    10.9340
 1396.5000    92.8210   -38.9240     8.7020     8.2580    10.2570     0.2950     2.5300     0.0120   102.3160    10.9170
 1397.0000    92.7260   -38.9170     8.6700     8.2280    10.2570     0.2940     2.5480     0.0150   101.9980    10.8990
 1397.5000    92.6310   -38.9130     8.6370     8.1970    10.6670     0.2960     2.5470     0.0120   101.6790    10.8820
 1398.0000    92.5360   -38.9370     8.6050     8.1670    10.9400     0.3000     2.5410     0.0170   101.3610    10.8640
 1398.5000    92.4500   -38.9600     8.5730     8.1360    10.5920     0.3070     2.5390     0.0080   101.0430    10.8470
 1399.0000    92.4040   -38.9830     8.5410     8.1060    10.1630     0.3140     2.5390     0.0150   100.7240    10.8320
 1399.5000    92.1130   -39.0060     8.5080     8.0750    10.2570     0.3160     2.5350     0.0030   100.4050    10.8380
 1400.0000    91.8500   -39.0290     8.4760     8.0450    10.3410     0.3160     2.5330     0.0210   100.0860    10.8440
 1400.5000    92.0080   -39.0520     8.4530     8.0140    10.4480     0.3160     2.5360     0.0160    99.8120    10.8500
 1401.0000    92.6860   -39.0750     8.5000     7.9990    10.1700     0.3150     2.5420     0.0080    99.9740    10.8560
 1401.5000    93.6500   -39.0990     8.5350     8.0370     9.9160     0.3140     2.5570     0.0220   100.1360    10.8620
 1402.0000    93.2010   -39.1220     8.5710     8.0670     9.8860     0.3130     2.5580     0.0160   100.2940    10.8680
 1402.5000    93.2100   -39.1450     8.6070     8.0970    11.0270     0.3040     2.5470     0.0220   100.4540    10.8740
 1403.0000    93.8240   -39.1680     8.6420     8.1270    11.1440     0.3020     2.5470     0.0110   100.6930    10.8800
 1403.5000    93.6500   -39.1910     8.6780     8.1570    10.6190     0.3070     2.5470     0.0020   101.5240    10.8870
 1404.0000    92.8060   -39.2140     8.7090     8.1870    10.3520     0.3130     2.5320    -0.0040   102.3630    10.8930
 1404.5000    92.1010   -39.2370     8.7380     8.2160    10.3520     0.3200     2.5210    -0.0100   103.1950    10.8990
 1405.0000    91.6980   -39.2600     8.7660     8.2460    10.3520     0.3250     2.5130     0.0000   103.7810    10.9050
 1405.5000    91.4500   -39.2830     8.7950     8.2760    10.3520     0.3270     2.5150    -0.0100   103.7720    10.9110
 1406.0000    92.2590   -39.3070     8.8240     8.2990    10.3520     0.3210     2.5350     0.0010   103.7730    10.9170
 1406.5000    92.6830   -39.3300     8.8520     8.2610    10.5910     0.3110     2.5350     0.0010   104.1620    10.9230
 1407.0000    92.6690   -39.3530     8.7580     8.2290    11.1440     0.3020     2.5370     0.0070   104.8950    10.9290
 1407.5000    93.2360   -39.3760     8.6650     8.1980    11.1440     0.2970     2.5430     0.0010   105.6290    10.9290
