~VERSION INFORMATION
 VERS.                2.0:   CWLS LOG ASCII STANDARD - VERSION 2.0
 WRAP.                 NO:   ONE LINE PER DEPTH STEP
~WELL INFORMATION
#MNEM.UNIT      DATA TYPE    INFORMATION
#----------   ------------   ------------------------------
 STRT.F          211.0000:   START DEPTH
 STOP.F         3244.0000:   STOP DEPTH
 STEP.F            0.5000:   STEP LENGTH
 NULL.          -999.2500:   NO VALUE
 COMP.    FENIX & SCISSON:   COMPANY
 WELL.  FENIX "AX" #84-15:   WELL
 FLD .  TEAPOT DOME NPR-3:   FIELD
 LOC .      S15 T38N R78W:   LOCATION
 CNTY.            NATRONA:   COUNTY
 STAT.            WYOMING:   STATE
 CTRY. UNITED STATES OF AMERICA:   COUNTRY
 SRVC.           BIRDWELL:   SERVICE COMPANY
 DATE.        17-MAR-1978:   LOGDATE
 API .     49025106050000:   API NUMBER
~CURVE INFORMATION
#MNEM.UNIT       API CODE    CURVE DESCRIPTION
#----------   ------------   ------------------------------
 DEPT.F                  :   
 SPR .MV     05 010 01 00:   SPONTANEOUS POTENTIAL
 SN  .OHMM   05 040 16 00:   SHORT NORMAL
 ILD .OHMM   05 120 46 00:   INDUCTION LOG DEEP
 CALD.IN     45 280 60 00:   CALIPER FROM DENSITY LOG
 GRD .GAPI   45 310 01 00:   GAMMA RAY FROM DENSITY LOG
 RHOB.G/C3   45 350 01 00:   BULK DENSITY
 CORR.G/C3   45 356 01 00:   DENSITY CORRECTION
~PARAMETER INFORMATION
#MNEM.UNIT          VALUE    DESCRIPTION
#----------   ------------   ------------------------------
 EKB .F         5251.0000:   Kelly bushing
 EGL .F         5241.0000:   Ground level
 TD  .F         3250.0000:   Total depth
 CLNT.            A2DTECH:   Client Code
 SL  . 359' FEL & 2310' FNL:   Surface Location
 PD  .                 GL:   Permanent Datum
 LMF .                 KB:   Log Measured From
 DMF .                 KB:   Drilling Measured From
 DATE.        17-MAR-1978:   Date Logged [DD-MMM-YYYY]
 DD  .F              3250:   Depth driller
 DL  .F              3250:   Depth logger
 BLI .F              3244:   Bottom log interval
 TLI .F               224:   Top log interval
 CS1 .IN            8.625:   Casing size
 CBD1.             8.625":   Casing driller 1
 CBL1.F               224:   Casing logger 1
 BS1 .IN            7.875:   Bit size
 BSD1.F              3250:   Depth drilled with bit1
 MSS .           FLOWLINE:   Source of sample
 RMS .OHMM            1.3:   Rm
 MST .F                70:   Rm Meas. temp.
 RMF .OHMM            1.1:   Rmf
 MFST.F                70:   Rmf Meas. temp.
 MFSS.               MEAS:   Source Rmf.
 RMC .OHMM            1.4:   Rmc
 MCST.F                70:   Rmc Meas. temp.
 RMB .OHMM           0.77:   Rm. at BHT
 BHT .F               118:   BHT.
 TCS .HRS               6:   Time Circ. stopped
 MRT .F               118:   Maximum recorded temp.
 LUN .               2958:   Logging unit number
 LUL .               CASP:   Logging unit location
 ENGI.             MILLER:   Recorded By
 WITN.           MCGINLEY:   Witnessed by
 ORIG.           5" PRINT:   Origin of data
 UWI .     49025106050000:   Unique Well ID
 DICO. A2D TECHNOLOGIES, INC.:   Digitizing Company
~OTHER INFORMATION
~A   DEPT      SPR         SN        ILD       CALD         GRD      RHOB       CORR   
# ...
 1212.0000   -34.8482     7.6199     8.2428    12.8550    78.4557     2.5231     0.0106
 1212.5000   -34.6563     7.6242     8.2454    12.8553    77.5498     2.5224     0.0121
 1213.0000   -34.3824     7.6275     8.2480    12.8556    76.9759     2.5201     0.0137
 1213.5000   -34.0749     7.6311     8.2506    12.8560    78.0192     2.5233     0.0138
 1214.0000   -33.7673     7.6348     8.2535    12.8563    78.7644     2.5270     0.0108
 1214.5000   -33.6106     7.6387     8.2557    12.8567    78.3148     2.5172     0.0048
 1215.0000   -33.4538     7.6422     8.2586    12.8570    79.0596     2.5090    -0.0012
 1215.5000   -33.4845     7.6459     8.2038    12.8574    80.8492     2.5052    -0.0027
 1216.0000   -33.5928     7.6499     8.2635    12.8577    82.9373     2.5128    -0.0011
 1216.5000   -33.5867     7.6534     8.2661    12.8581    83.9806     2.5227     0.0005
 1217.0000   -33.5795     7.6571     8.2687    12.8584    82.1878     2.5242     0.0036
 1217.5000   -33.5736     7.6614     8.2714    12.8587    79.9475     2.5212     0.0052
 1218.0000   -33.7200     7.6645     8.2738    12.8591    79.4983     2.5220     0.0069
 1218.5000   -33.8645     7.6683     8.2765    12.8594    79.4968     2.5326     0.0083
 1219.0000   -33.8576     7.6720     8.2795    12.8598    79.3461     2.5341     0.0084
 1219.5000   -33.8517     7.6760     8.2820    12.8601    79.3447     2.5325     0.0099
 1220.0000   -34.0191     7.6795     8.2842    12.8605    79.3432     2.5312     0.0115
 1220.5000   -34.1415     7.6832     8.2868    12.8608    79.3418     2.5297     0.0122
 1221.0000   -34.1357     7.6875     8.2322    12.8611    79.4896     2.5245     0.0147
 1221.5000   -34.1297     7.6907     8.2345    12.8615    79.6370     2.5237     0.0147
 1222.0000   -34.1237     7.6948     8.2371    12.8618    79.6356     2.5238     0.0148
 1222.5000   -34.1176     7.6982     8.2397    12.8622    79.6341     2.5253     0.0148
 1223.0000   -34.2628     7.7019     8.2422    12.8625    79.6327     2.5238     0.0149
 1223.5000   -34.1046     7.7057     8.2448    12.8629    79.6312     2.5156     0.0150
 1224.0000   -34.0987     7.7101     8.2474    12.8632    79.6298     2.5133     0.0166
 1224.5000   -34.0928     7.7137     8.2505    12.8788    79.6283     2.5301     0.0181
 1225.0000   -34.0875     7.7708     8.2530    12.8795    80.6716     2.5348     0.0197
 1225.5000   -33.9301     7.7749     8.2551    12.8803    84.2046     2.5384     0.0182
 1226.0000   -33.7734     7.7783     8.2580    12.8819    86.4893     2.5407     0.0168
 1226.5000   -33.7677     7.8036     8.2606    12.8835    86.7867     2.5347     0.0123
 1227.0000   -33.7616     7.8403     8.2629    12.8851    81.8595     2.5302     0.0093
 1227.5000   -33.7557     7.8444     8.3233    12.8867    79.3207     2.5272     0.0064
 1228.0000   -33.7496     7.8479     8.3258    12.8883    79.0208     2.5234     0.0049
 1228.5000   -33.5928     7.8517     8.3284    12.8899    78.8701     2.5257     0.0050
 1229.0000   -33.5867     7.8555     8.3310    12.8914    78.8686     2.5303     0.0050
 1229.5000   -33.5807     7.8593     8.3336    12.8930    79.0194     2.5318     0.0051
 1230.0000   -33.5738     7.8631     8.3362    12.8946    80.5673     2.5247     0.0045
 1230.5000   -33.6449     7.8677     8.3393    12.8962    81.9982     2.5091     0.0037
 1231.0000   -33.7143     7.8711     8.3835    12.8978    81.6983     2.5055     0.0019
 1231.5000   -33.8578     7.8746     8.4024    12.8994    80.9506     2.5063     0.0008
 1232.0000   -34.0042     7.8459     8.4049    12.9010    81.0984     2.5094    -0.0007
 1232.5000   -34.1478     7.8274     8.4080    12.9026    81.8432     2.5101    -0.0021
 1233.0000   -34.4434     7.8315     8.4102    12.9042    82.7373     2.5056    -0.0021
 1233.5000   -34.4374     7.7812     8.4128    12.9058    83.0453     2.5004    -0.0020
 1234.0000   -34.4314     7.7848     8.4155    12.9074    82.4298     2.4982    -0.0019
 1234.5000   -35.0275     7.7889     8.4181    12.8193    81.8145     2.5178    -0.0019
 1235.0000   -35.1739     7.7924     8.4207    12.7603    81.3878     2.5171     0.0012
 1235.5000   -34.8648     7.7969     8.3649    12.7462    81.0878     2.5126     0.0014
 1236.0000   -34.4064     7.7460     8.3679    12.7320    81.0864     2.5205     0.0044
 1236.5000   -34.0989     7.6954     8.3702    12.7329    81.2346     2.5323     0.0044
 1237.0000   -33.9421     7.7000     8.3150    12.7335    82.2775     2.5369     0.0060
 1237.5000   -34.0871     7.7035     8.3014    12.7299    83.7686     2.5369     0.0076
 1238.0000   -34.0814     7.7073     8.2623    12.7269    83.7751     2.5354     0.0076
 1238.5000   -33.9244     7.7110     8.2649    12.7239    82.2551     2.5362     0.0092
 1239.0000   -33.7677     7.6566     8.2103    12.7209    81.0518     2.5461     0.0108
 1239.5000   -33.6109     7.6117     8.1885    12.7179    81.9714     2.5499     0.0109
 1240.0000   -33.5193     7.5840     8.1580    12.7149    82.4181     2.5341     0.0109
 1240.5000   -33.4468     7.5138     8.1044    12.7119    82.1177     2.5311     0.0110
 1241.0000   -33.4534     7.4841     8.0510    12.7098    81.6685     2.5304     0.0110
 1241.5000   -33.5873     7.4177     8.0537    12.6957    81.6671     2.5312     0.0111
 1242.0000   -33.5807     7.4215     8.0429    12.6940    82.1134     2.5350     0.0122
 1242.5000   -33.7248     7.4135     8.0022    12.6822    83.3060     2.5357     0.0112
 1243.0000   -33.7195     7.3771     7.9494    12.6683    86.1877     2.5335     0.0113
 1243.5000   -33.7130     7.3295     7.9370    12.6690    88.2281     2.5313     0.0098
 1244.0000   -33.8582     7.2823     7.8821    12.6697    88.3762     2.5298     0.0084
 1244.5000   -33.8522     7.2351     7.8469    12.6554    88.3744     2.5314     0.0084
 1245.0000   -33.8462     7.1826     7.7951    12.6563    88.5226     2.5352     0.0100
 1245.5000   -34.0012     7.0925     7.7434    12.6420    89.1178     2.5375     0.0116
 1246.0000   -34.2868     7.0472     7.6921    12.6429    91.6536     2.5375     0.0132
 1246.5000   -34.4317     6.9859     7.6411    12.6436    95.6820     2.5375     0.0147
 1247.0000   -34.4253     6.9567     7.5829    12.6443    96.4269     2.5395     0.0163
 1247.5000   -34.4184     6.9119     7.4879    12.6451    96.6043     2.5482     0.0148
 1248.0000   -34.3682     6.8673     7.4383    12.6458    97.7669     2.5089     0.0118
 1248.5000   -34.2128     6.8707     7.4411    12.6466    98.6609     2.5090     0.0072
 1249.0000   -33.9838     6.8266     7.3912    12.6473    98.6595     2.5135     0.0059
 1249.5000   -33.7915     6.8304     7.3423    12.6481    97.6133     2.5204     0.0075
 1250.0000   -33.5428     6.8385     7.3449    12.6488    93.3610     2.5242     0.0106
 1250.5000   -33.3272     6.8587     7.2958    12.6496    91.3397     2.5227     0.0107
 1251.0000   -33.3213     6.8789     7.2480    12.6503    89.3902     2.5212     0.0092
 1251.5000   -33.3152     6.8991     7.2502    12.6510    88.6381     2.5197     0.0093
 1252.0000   -33.4603     6.9193     7.2270    12.6518    89.3785     2.5183     0.0093
 1252.5000   -33.4540     6.9395     7.1545    12.6525    90.4174     2.5191     0.0155
 1253.0000   -33.5993     6.9597     7.1567    12.6533    91.6055     2.5266     0.0246
 1253.5000   -33.6466     6.9799     7.1098    12.6540    92.0488     2.5410     0.0307
 1254.0000   -33.7376     7.0000     7.1116    12.6548    90.9967     2.5494     0.0323
 1254.5000   -33.7315     7.0202     7.1138    12.6555    90.5431     2.5343     0.0308
 1255.0000   -33.7250     7.0404     7.1160    12.6562    91.1342     2.5328     0.0277
 1255.5000   -33.7191     7.0606     7.1185    12.6570    92.7701     2.5419     0.0231
 1256.0000   -33.7132     7.0808     7.1207    12.6577    92.6025     2.5314     0.0189
 1256.5000   -33.7073     7.1010     7.1724    12.6585    90.1999     2.5171     0.0159
 1257.0000   -33.7014     7.1167     7.2248    12.6592    89.1702     2.5141     0.0115
