~VERSION INFORMATION
 VERS.                2.0:   CWLS LOG ASCII STANDARD - VERSION 2.0
 WRAP.                 NO:   ONE LINE PER DEPTH STEP
~WELL INFORMATION
#MNEM.UNIT      DATA TYPE    INFORMATION
#----------   ------------   ------------------------------
 STRT.F          200.0000:   START DEPTH
 STOP.F         3060.0000:   STOP DEPTH
 STEP.F            0.5000:   STEP LENGTH
 NULL.          -999.2500:   NO VALUE
 COMP.    FENIX & SCISSON:   COMPANY
 WELL. FENIX & SCISSON NPR "AX" #81-10:   WELL
 FLD .                NPR:   FIELD
 LOC .      S10 T38N R78W:   LOCATION
 CNTY.            NATRONA:   COUNTY
 STAT.            WYOMING:   STATE
 CTRY. UNITED STATES OF AMERICA:   COUNTRY
 SRVC.              WELEX:   SERVICE COMPANY
 DATE.        28-NOV-1977:   LOGDATE
 API .     49025104400000:   API NUMBER
~CURVE INFORMATION
#MNEM.UNIT       API CODE    CURVE DESCRIPTION
#----------   ------------   ------------------------------
 DEPT.F                  :   
 CALD.IN     45 280 60 00:   CALIPER FROM DENSITY LOG
 GRD .GAPI   45 310 01 00:   GAMMA RAY FROM DENSITY LOG
 RHOB.G/C3   45 350 01 00:   BULK DENSITY
 CORR.G/C3   45 356 01 00:   DENSITY CORRECTION
 TEND.LBS    45 635 01 00:   TENSION FROM DENSITY LOG
 NPHI.DEC    42 890 03 00:   NEUTRON POROSITY SANDSTONE
 SPR .MV     07 010 01 00:   SPONTANEOUS POTENTIAL
 IL  .OHMM   07 120 00 00:   INDUCTION LOG RES.
 ASGR.OHMM   07 221 05 00:   AMPLIFIED SHALLOW GUARD
 SNP .DEC    41 890 00 00:   SIDEWALL NEUTRON POROSITY
~PARAMETER INFORMATION
#MNEM.UNIT          VALUE    DESCRIPTION
#----------   ------------   ------------------------------
 EKB .F         5147.0000:   Kelly bushing
 EGL .F         5137.0000:   Ground level
 EDF .F            0.0000:   Drilling floor
 TD  .F         3058.0000:   Total depth
 DATE.        28-NOV-1977:   Date logged
 CLNT.            A2DTECH:   Client Code
 PD  .                 GL:   Permanent Datum
 EPD .F              5137:   Elevation Permanent Datum
 LMF .                 KB:   Log Measured From
 DMF .                 KB:   Drilling Measured From
 DD  .F              3055:   Depth driller
 DL  .F              3058:   Depth logger
 BLI .F              3055:   Bottom log interval
 TLI .F               200:   Top log interval
 CS1 .IN            8.625:   Casing size
 CBD1.      8.625" @ 205':   Casing driller 1
 CBL1.F               215:   Casing logger 1
 BSD1.F              3055:   Depth drilled with bit1
 DFT .            KCL/MUD:   Type fluid in hole
 ENGI.            BENTSEN:   Recorded By
 WITN.         HARRINGTON:   Witnessed by
 ORIG.           5" PRINT:   Origin of data
 UWI .     49025104400000:   Unique Well ID
 DICO. A2D TECHNOLOGIES, INC.:   Digitizing Company
 DAPD.                 10:   Feet Above Permanent Datum
 BS1 .IN            7.875:   Bit size
 DFD .                8.9:   Density
 DFV .                 35:   Viscosity
 MSS .           FLOWLINE:   Source of sample
 RMS .OHMM            .17:   Rm
 MST .F                75:   Rm Meas. temp.
 RMF .OHMM            .12:   Rmf
 MFST.F                75:   Rmf Meas. temp.
 MFSS.               FANN:   Source Rmf.
 RMC .OHMM            .50:   Rmc
 MCST.F                75:   Rmc Meas. temp.
 MCSS.                KIT:   Source Rmc.
 RMB .OHMM           .113:   Rm. at BHT
 BHT .F               113:   BHT.
 TCS .HRS             2.5:   Time Circ. stopped
 MRT .F               113:   Maximum recorded temp.
 LUN .               9685:   Logging unit number
 LUL .             CASPER:   Logging unit location
 SL  . 601' FNL & 200' FEL:   Surface Location
~OTHER INFORMATION
~A   DEPT       CALD      GRD       RHOB       CORR        TEND        NPHI       SPR        IL       ASGR        SNP   
# ...
 1875.0000     8.9030   143.1870     2.5050     0.0040   982.7190     0.1410   -76.4160     7.9810     8.5180  -999.2500
 1875.5000     8.9040   143.8870     2.5030     0.0040   982.6680     0.1470   -76.3660     8.0340     8.4890  -999.2500
 1876.0000     8.9040   144.5970     2.5010     0.0040   982.6170     0.1510   -76.3160     8.0860     8.5470  -999.2500
 1876.5000     8.9050   144.7970     2.4980     0.0030   982.5660     0.1530   -76.2660     8.1390     8.4930  -999.2500
 1877.0000     8.9050   144.9690     2.4960     0.0030   982.5160     0.1530   -76.2160     8.1920     8.3490  -999.2500
 1877.5000     8.9050   145.1450     2.4940     0.0030   982.4650     0.1540   -76.1660     8.2440     8.0840  -999.2500
 1878.0000     8.9060   144.6610     2.4920     0.0030   982.4140     0.1540   -76.1160     8.2880     8.3390  -999.2500
 1878.5000     8.9060   144.0310     2.4920     0.0030   982.3630     0.1530   -76.0650     8.2290     8.6780  -999.2500
 1879.0000     8.9070   143.3960     2.4940     0.0020   982.3130     0.1520   -76.0150     8.1700     8.8260  -999.2500
 1879.5000     8.9070   142.7620     2.4970     0.0020   982.2620     0.1540   -75.9650     8.1110     8.8710  -999.2500
 1880.0000     8.9070   142.1280     2.5000     0.0020   982.2110     0.1540   -75.9150     8.1460     8.8010  -999.2500
 1880.5000     8.9080   141.4930     2.5030     0.0020   982.1600     0.1510   -75.8650     8.2310     8.6870  -999.2500
 1881.0000     8.9080   140.8590     2.5060     0.0020   982.1100     0.1520   -75.8540     8.3160     8.5870  -999.2500
 1881.5000     8.9090   140.2240     2.5090     0.0010   982.0590     0.1510   -75.8680     8.4030     8.5770  -999.2500
 1882.0000     8.9090   139.5850     2.5120     0.0010   982.0080     0.1500   -75.8820     8.4880     8.4650  -999.2500
 1882.5000     8.9090   139.0150     2.5150     0.0010   981.9570     0.1510   -75.8970     8.4510     8.3440  -999.2500
 1883.0000     8.9100   139.4360     2.5180     0.0010   981.9070     0.1520   -75.9110     8.4050     8.5940  -999.2500
 1883.5000     8.9100   138.9440     2.5210     0.0010   981.8560     0.1510   -75.9250     8.3600     8.6140  -999.2500
 1884.0000     8.9110   138.0310     2.5210     0.0000   981.8050     0.1500   -75.9400     8.3150     8.7290  -999.2500
 1884.5000     8.9110   138.3970     2.5170     0.0000   981.7550     0.1510   -75.9540     8.2700     8.5320  -999.2500
 1885.0000     8.9110   138.6130     2.5090     0.0010   981.7040     0.1490   -75.9680     8.2260     8.3550  -999.2500
 1885.5000     8.9120   137.6920     2.5010     0.0010   981.6530     0.1480   -75.9830     8.2030     8.4700  -999.2500
 1886.0000     8.9120   136.7870     2.4940     0.0000   981.6020     0.1470   -75.9970     8.2650     8.6320  -999.2500
 1886.5000     8.9130   136.2680     2.4860    -0.0020   981.5520     0.1500   -76.0110     8.3250     8.8120  -999.2500
 1887.0000     8.9130   136.4590     2.4780    -0.0050   981.5010     0.1500   -76.0260     8.3850     8.7190  -999.2500
 1887.5000     8.9130   136.8170     2.4760    -0.0080   981.4500     0.1490   -76.0410     8.4450     8.6640  -999.2500
 1888.0000     8.9140   138.1580     2.4750    -0.0110   981.3990     0.1490   -76.0370     8.5050     8.8890  -999.2500
 1888.5000     8.9140   139.5230     2.4740    -0.0140   981.3490     0.1490   -76.0280     8.5660     9.0670  -999.2500
 1889.0000     8.9150   139.6630     2.4730    -0.0180   981.2980     0.1450   -76.0180     8.6260     9.2040  -999.2500
 1889.5000     8.9150   139.7670     2.4740    -0.0210   981.2470     0.1420   -76.0090     8.6870     9.2330  -999.2500
 1890.0000     8.9150   140.0420     2.4750    -0.0180   981.1960     0.1390   -76.0000     8.8600     9.1410  -999.2500
 1890.5000     8.9160   140.7840     2.4810    -0.0130   981.1460     0.1370   -75.9900     9.0480     9.1860  -999.2500
 1891.0000     8.9160   140.6520     2.4870    -0.0080   981.0950     0.1390   -75.9810     9.1970     9.2900  -999.2500
 1891.5000     8.9170   140.5360     2.4930    -0.0030   981.0440     0.1400   -75.9720     9.1120     9.3970  -999.2500
 1892.0000     8.9170   140.4240     2.4990     0.0030   980.9940     0.1390   -75.9620     9.0290     9.3570  -999.2500
 1892.5000     8.9170   140.3110     2.5050     0.0080   980.9430     0.1370   -75.9530     8.9800     9.2600  -999.2500
 1893.0000     8.9180   140.1940     2.5110     0.0070   980.8920     0.1350   -75.9440     8.9400     9.3250  -999.2500
 1893.5000     8.9180   140.3760     2.5090     0.0050   980.8410     0.1360   -75.9350     8.8990     9.5100  -999.2500
 1894.0000     8.9190   140.6820     2.4970     0.0040   980.7910     0.1380   -75.9250     8.8590     9.6270  -999.2500
 1894.5000     8.9190   140.9900     2.4860     0.0020   980.7400     0.1400   -75.9160     8.8190     9.5770  -999.2500
 1895.0000     8.9190   141.6240     2.4740     0.0000   980.6890     0.1430   -75.9070     8.7780     9.5300  -999.2500
 1895.5000     8.9200   142.7680     2.4640    -0.0010   980.6380     0.1460   -75.8970     8.7380     9.4550  -999.2500
 1896.0000     8.9200   143.9020     2.4690     0.0000   980.5880     0.1490   -75.8880     8.6980     9.2790  -999.2500
 1896.5000     8.9210   145.0430     2.4780     0.0030   980.5370     0.1520   -75.8790     8.6580     9.1110  -999.2500
 1897.0000     8.9210   145.5250     2.4870     0.0050   980.4860     0.1540   -75.8690     8.6180     8.9750  -999.2500
 1897.5000     8.9210   145.5500     2.4960     0.0060   980.4350     0.1540   -75.8600     8.6140     8.4830  -999.2500
 1898.0000     8.9220   146.4710     2.5050     0.0070   980.3850     0.1540   -75.8510     8.6660     8.1090  -999.2500
 1898.5000     8.9220   147.3200     2.5140     0.0080   980.3340     0.1540   -75.8510     8.7180     9.3870  -999.2500
 1899.0000     8.9230   146.3230     2.5220     0.0100   980.2830     0.1540   -75.8680     8.7700     9.5130  -999.2500
 1899.5000     8.9230   144.9630     2.5220     0.0110   980.2330     0.1560   -75.8860     8.8220     9.4440  -999.2500
 1900.0000     8.9230   143.5960     2.5200     0.0120   980.1820     0.1590   -75.9030     8.8740     9.1250  -999.2500
 1900.5000     8.9240   142.3770     2.5190     0.0130   980.1310     0.1560   -75.9200     8.9260     9.4370  -999.2500
 1901.0000     8.9240   142.5520     2.5170     0.0140   980.0800     0.1550   -75.9370     8.9790     9.5770  -999.2500
 1901.5000     8.9250   142.7660     2.5160     0.0140   980.0300     0.1550   -75.9550     9.0320     9.4890  -999.2500
 1902.0000     8.9250   142.2540     2.5150     0.0140   979.9790     0.1540   -75.9720     9.0870     9.7730  -999.2500
 1902.5000     8.9250   141.5400     2.5140     0.0130   979.9280     0.1510   -75.9890     9.1410    10.5510  -999.2500
 1903.0000     8.9260   141.3260     2.5150     0.0130   979.8770     0.1480   -76.0060     9.1960    10.5390  -999.2500
 1903.5000     8.9260   141.1960     2.5150     0.0120   979.8270     0.1450   -76.0240     9.2500    10.5760  -999.2500
 1904.0000     8.9270   141.7050     2.5150     0.0110   979.7760     0.1430   -76.0410     9.3050    10.6240  -999.2500
 1904.5000     8.9270   142.5050     2.5150     0.0110   979.7250     0.1410   -76.0580     9.3590    10.6750  -999.2500
 1905.0000     8.9270   143.4500     2.5140     0.0100   979.6740     0.1410   -76.0750     9.4140    10.7250  -999.2500
 1905.5000     8.9280   144.5430     2.5110     0.0100   979.6240     0.1440   -76.0930     9.4680    10.7750  -999.2500
 1906.0000     8.9280   145.2870     2.5090     0.0090   979.5730     0.1470   -76.1100     9.5230    10.8240  -999.2500
 1906.5000     8.9290   146.0080     2.5070     0.0080   979.5220     0.1500   -76.1270     9.5770    10.8690  -999.2500
 1907.0000     8.9290   146.1320     2.5060     0.0080   979.4720     0.1530   -76.1440     9.6310    10.7690  -999.2500
 1907.5000     8.9300   146.3810     2.5070     0.0070   979.4210     0.1550   -76.1620     9.6870    10.3610  -999.2500
 1908.0000     8.9300   146.9950     2.5070     0.0070   979.3700     0.1530   -76.1790     9.6290     9.9620  -999.2500
