~VERSION INFORMATION
 VERS.                2.0:   CWLS LOG ASCII STANDARD - VERSION 2.0
 WRAP.                 NO:   ONE LINE PER DEPTH STEP
~WELL INFORMATION
#MNEM.UNIT      DATA TYPE    INFORMATION
#----------   ------------   ------------------------------
 STRT.F          200.0000:   START DEPTH
 STOP.F         2968.0000:   STOP DEPTH
 STEP.F            0.5000:   STEP LENGTH
 NULL.          -999.2500:   NO VALUE
 COMP. FENIX & SCISSON U.S. NAVY:   COMPANY
 WELL.   FENIX "A" #23-28:   WELL
 FLD .              NPR 3:   FIELD
 LOC .      S28 T39N R78W:   LOCATION
 CNTY.            NATRONA:   COUNTY
 STAT.            WYOMING:   STATE
 CTRY. UNITED STATES OF AMERICA:   COUNTRY
 SRVC.       SCHLUMBERGER:   SERVICE COMPANY
 DATE.        10-JUN-1977:   LOGDATE
 API .     49025103860000:   API NUMBER
~CURVE INFORMATION
#MNEM.UNIT       API CODE    CURVE DESCRIPTION
#----------   ------------   ------------------------------
 DEPT.F                  :   
 SPR .MV     07 010 01 00:   SPONTANEOUS POTENTIAL
 RILM.OHMM   07 120 44 00:   INDUCTION LOG MEDIUM RESISTIVITY
 RILD.OHMM   07 120 46 00:   DEEP INDUCTION RESISTIVITY
 LL8 .None   99 022 08 00:   LATEROLOG
 GRD .GAPI   45 310 01 00:   GAMMA RAY FROM DENSITY LOG
 CALD.IN     45 280 60 00:   CALIPER FROM DENSITY LOG
 RHOB.G/C3   45 350 01 00:   BULK DENSITY
 DRHO.G/C3   45 356 01 00:   DENSITY CORRECTION
~PARAMETER INFORMATION
#MNEM.UNIT          VALUE    DESCRIPTION
#----------   ------------   ------------------------------
 EKB .F         5019.0000:   Kelly bushing
 EGL .F         5009.0000:   Ground level
 EDF .F            0.0000:   Drilling floor
 EPD .F         5009.0000:   Permanent datum
 TD  .F         2971.0000:   Total depth
 DATE.        10-JUN-1977:   Date logged
 CLNT.            A2DTECH:   Client Code
 SL  . 1650' FNL & 990' FWL:   Surface Location
 DAPD.F                10:   Feet Above Permanent Datum
 DD  .F              2970:   Depth driller
 DL  .F              2971:   Depth logger
 BLI .F              2905:   Bottom log interval
 TLI .F               216:   Top log interval
 CS1 .IN            8.625:   Casing size
 CBD1.      9.625" @ 216':   Casing driller 1
 CBL1.F               216:   Casing logger 1
 BS1 .IN            7.875:   Bit size
 BSD1.F              2970:   Depth drilled with bit1
 DFT .            KCL MUD:   Type fluid in hole
 DFD .                8.8:   Density
 DFV .                 32:   Viscosity
 DFPH.                8.5:   pH
 DFL .                7.4:   Fluid loss
 MSS .               CIRC:   Source of sample
 RMS .OHMM           1.87:   Rm
 MST .F                85:   Rm Meas. temp.
 RMF .OHMM           1.69:   Rmf
 MFST.F                85:   Rmf Meas. temp.
 RMC .OHMM           2.80:   Rmc
 MCST.F                85:   Rmc Meas. temp.
 MFSS.               MEAS:   Source Rmf.
 MCSS.               CALC:   Source Rmc.
 RMB .OHMM           1.43:   Rm. at BHT
 BHT .F               111:   BHT.
 TCS .HRS            1600:   Time Circ. stopped
 TLAB.HRS            0945:   Time logger at bottom
 MRT .F               111:   Maximum recorded temp.
 LUN .               7711:   Logging unit number
 LUL .               CSPR:   Logging unit location
 ENGI.             SAYLER:   Recorded By
 WITN.         HARRINGTON:   Witnessed by
 ORIG.           5" PRINT:   Origin of data
 UWI .     49025103860000:   Unique Well ID
 DICO. A2D TECHNOLOGIES, INC.:   Digitizing Company
~OTHER INFORMATION
~A  DEPTH      SPR       RILM       RILD        LL8        GRD       CALD       RHOB       DRHO
# ...
 2751.5000   -59.4730     3.7880     3.0410     3.2140   132.3690     9.0600     2.5170     0.0050
 2752.0000   -59.4210     4.3350     3.3840     5.2200   143.0310     9.0890     2.5090     0.0130
 2752.5000   -59.3700     4.8820     3.6650     6.9110   153.1830     9.1140     2.5070     0.0220
 2753.0000   -59.3180     5.2640     3.9500     7.4310   160.5120     9.0820     2.5000     0.0360
 2753.5000   -59.2670     5.3900     4.4120     7.2970   168.0010     9.0440     2.4870     0.0540
 2754.0000   -59.2150     5.8590     5.0290     7.0960   173.0380     9.1090     2.4780     0.1070
 2754.5000   -59.1640     6.2950     5.6460     7.2730   160.6680     9.0610     2.5180     0.1570
 2755.0000   -59.1120     6.3820     6.2380     7.5320   146.6280     9.1580     2.4950     0.0600
 2755.5000   -59.0610     6.4720     6.1320     7.7900   131.2640     9.1150     2.4690     0.0180
 2756.0000   -59.0100     6.3670     6.0060     7.9990   122.7830     8.9850     2.5460     0.0100
 2756.5000   -58.9580     6.3100     5.8790     7.5160   117.1550     8.9910     2.5730     0.0090
 2757.0000   -58.9070     6.2530     5.8480     7.2640   116.7200     9.0340     2.5580     0.0000
 2757.5000   -58.8560     6.2380     5.8480     7.0850   117.1670     8.9970     2.5470     0.0060
 2758.0000   -58.8360     6.2950     5.8410     6.8670   117.4090     8.9510     2.5570     0.0170
 2758.5000   -58.8490     6.2300     5.8180     6.6660   116.9110     8.9710     2.5700     0.0230
 2759.0000   -58.8620     6.0920     5.7940     6.4720   117.3910     9.0030     2.5640     0.0110
 2759.5000   -58.8750     6.0680     5.7710     6.7290   120.1190     9.0120     2.5560     0.0060
 2760.0000   -58.8880     6.1240     5.7470     7.0460   122.9360     8.9830     2.5550     0.0100
 2760.5000   -58.9010     5.9480     5.5700     7.3630   122.1160     8.9950     2.5630     0.0110
 2761.0000   -58.9140     5.7680     5.3620     7.6390   121.0630     9.0160     2.5600     0.0080
 2761.5000   -58.9270     5.5890     5.1540     7.5690   120.3660     8.9850     2.5640     0.0110
 2762.0000   -58.9400     5.3470     4.8640     7.1620   120.5070     8.9630     2.5510     0.0130
 2762.5000   -58.9530     5.0780     4.5430     6.6040   122.4120     8.9930     2.5370     0.0100
 2763.0000   -58.9660     4.8090     4.2220     6.0620   124.2890     9.0160     2.5430     0.0090
 2763.5000   -58.9790     4.5400     3.9000     5.5190   126.2260     8.9750     2.5500     0.0120
 2764.0000   -58.9920     4.2710     3.8200     4.9760   128.5900     8.9380     2.5580     0.0140
 2764.5000   -59.0060     4.0020     3.7190     4.4330   131.0990     8.9670     2.5560     0.0160
 2765.0000   -59.0200     3.6560     3.5890     3.6230   133.7520     8.9700     2.5590     0.0130
 2765.5000   -59.0190     4.0720     3.7340     4.2830   136.3790     8.9430     2.5440     0.0080
 2766.0000   -58.8240     4.6550     4.1030     5.5840   148.0110     8.9170     2.5250    -0.0030
 2766.5000   -58.6360     5.0940     4.4720     6.8850   152.3290     8.9750     2.5050     0.0030
 2767.0000   -58.4490     5.3760     4.8410     7.4310   164.4100     8.9630     2.5020     0.0130
 2767.5000   -58.2620     5.5980     5.2110     7.4090   176.4180     8.9460     2.5070     0.0120
 2768.0000   -58.0750     5.9240     5.5800     7.3540   191.9910     8.9440     2.5130     0.0440
 2768.5000   -57.8880     6.2500     5.9490     7.2950   188.2150     8.9720     2.5190     0.0790
 2769.0000   -57.7010     6.4830     6.1730     7.4790   172.4370     8.9940     2.5240     0.0450
 2769.5000   -57.5140     6.5810     6.2660     7.7300   152.7830     8.9310     2.5290     0.0080
 2770.0000   -57.3270     6.9490     6.5190     7.9810   134.8800     8.8750     2.5340     0.0020
 2770.5000   -57.1390     7.4760     7.4990     8.2230   127.2910     8.8680     2.5370    -0.0050
 2771.0000   -56.9530     7.9990     7.1340     8.0680   122.4890     8.8610     2.5430    -0.0040
 2771.5000   -56.7670     7.8410     6.0680     7.8530   117.8410     8.8530     2.5540     0.0050
 2772.0000   -56.6420     7.7100     6.8400     7.9640   116.1410     8.8450     2.5590     0.0140
 2772.5000   -56.6240     7.8590     6.7440     8.2010   116.4300     8.8370     2.5550     0.0130
 2773.0000   -56.6040     8.1330     6.7150     8.4380   115.4410     8.8300     2.5650     0.0160
 2773.5000   -56.5840     8.4070     7.4310     8.6760   115.5800     8.8220     2.5800     0.0220
 2774.0000   -56.5650     8.6110     7.0960     8.8520   117.4150     8.8140     2.5700     0.0170
 2774.5000   -56.5450     8.4790     7.0310     8.7260   118.8260     8.8060     2.5620     0.0080
 2775.0000   -56.5250     8.3550     7.2390     8.6230   120.0410     8.7980     2.5600     0.0130
 2775.5000   -56.5060     8.2300     7.4990     8.5200   119.1410     8.7940     2.5570     0.0100
 2776.0000   -56.4860     8.1060     7.5840     8.4530   116.8920     8.7890     2.5620     0.0080
 2776.5000   -56.4660     7.9810     7.6950     8.9410   114.7730     8.7840     2.5590     0.0130
 2777.0000   -56.4520     7.8570     7.8050     9.6170   113.9090     8.7790     2.5580     0.0100
 2777.5000   -56.5270     7.7320     7.9160     9.4500   114.6010     8.7780     2.5590     0.0080
 2778.0000   -56.6000     7.5690     7.9990     9.2690   116.0550     8.7780     2.5590     0.0150
 2778.5000   -56.6720     7.3840     7.6390     9.9780   117.6220     8.7680     2.5570     0.0160
 2779.0000   -56.7440     7.1620     7.4800     9.5180   116.8290     8.7490     2.5560     0.0110
 2779.5000   -56.8160     7.2950     7.3240     8.9340   114.3000     8.7300     2.5560     0.0150
 2780.0000   -56.8880     6.7530     7.1680     8.5000   111.8260     8.7220     2.5760     0.0200
 2780.5000   -56.9600     6.1160     7.0130     8.0330   109.4670     8.7380     2.5930     0.0200
 2781.0000   -57.0320     6.0680     6.5570     7.5650   109.8780     8.7530     2.5870     0.0160
 2781.5000   -57.1050     5.4150     5.9780     7.0970   111.1880     8.7680     2.5830     0.0140
 2782.0000   -57.1770     4.9630     5.3980     6.8780   114.6660     8.7840     2.5820     0.0070
 2782.5000   -57.2490     4.1110     4.8190     6.6790   118.1330     8.7980     2.5720     0.0030
 2783.0000   -57.3210     3.8210     4.2390     6.4800   118.7770     8.7980     2.5560     0.0050
 2783.5000   -57.3920     3.1260     3.6590     5.9590   118.6090     8.7980     2.5410     0.0020
 2784.0000   -57.4400     2.9600     3.2920     4.8850   121.6530     8.7990     2.5280    -0.0070
 2784.5000   -57.3560     2.7860     3.1000     3.8110   124.7560     8.8200     2.5190    -0.0030
 2785.0000   -57.1950     2.6120     2.9080     2.8250   126.7560     8.8360     2.5150     0.0010
 2785.5000   -57.0350     2.4830     2.6690     2.5080   132.0360     8.7760     2.5100    -0.0060
 2786.0000   -56.8740     4.3900     3.1100     4.4080   140.5810     8.7840     2.4950    -0.0020
 2786.5000   -56.7130     4.9230     3.8270     7.3920   148.7230     8.8240     2.4770     0.0070
 2787.0000   -56.5520     5.4570     4.0790    10.8400   167.1930     8.7960     2.4650     0.0500
 2787.5000   -56.3900     5.9020     4.2140    10.5640   187.3160     8.8330     2.4720     0.0930
 2788.0000   -56.2290     6.0680     4.8860    10.0740   201.3840     8.8320     2.4900     0.1440
 2788.5000   -56.0710     6.9480     6.0190     9.5850   189.9010     8.8360     2.4730     0.1080
 2789.0000   -55.9770     8.2230     7.1520     9.0950   167.9920     8.9630     2.4410     0.0590
 2789.5000   -55.8680     7.8470     7.9990     8.6060   142.5660     8.9180     2.4620     0.0100
 2790.0000   -55.8910     7.1920     7.4660     8.1170   121.0930     8.7820     2.5080     0.0080
 2790.5000   -55.9340     6.5320     7.0410     7.8520    99.9560     8.8230     2.5540     0.0130
 2791.0000   -55.9780     6.3800     6.7150     7.6710   101.8110     8.8570     2.5700     0.0110
 2791.5000   -56.0220     6.2270     6.7150     7.4890   102.8730     8.8160     2.5890     0.0130
