~VERSION INFORMATION
 VERS.                2.0:   CWLS LOG ASCII STANDARD - VERSION 2.0
 WRAP.                 NO:   ONE LINE PER DEPTH STEP
~WELL INFORMATION
#MNEM.UNIT      DATA TYPE    INFORMATION
#----------   ------------   ------------------------------
 STRT.F          190.0000:   START DEPTH
 STOP.F         3050.0000:   STOP DEPTH
 STEP.F            0.5000:   STEP LENGTH
 NULL.          -999.2500:   NO VALUE
 COMP.    FENIX & SCISSON:   COMPANY
 WELL. FENIX NPR 3 "AX" #86-29:   WELL
 FLD .      NPR - WILDCAT:   FIELD
 LOC .      S29 T39N R78W:   LOCATION
 CNTY.            NATRONA:   COUNTY
 STAT.            WYOMING:   STATE
 CTRY. UNITED STATES OF AMERICA:   COUNTRY
 SRVC.              WELEX:   SERVICE COMPANY
 DATE.        24-JUN-1977:   LOGDATE
 API .     49025103830000:   API NUMBER
~CURVE INFORMATION
#MNEM.UNIT       API CODE    CURVE DESCRIPTION
#----------   ------------   ------------------------------
 DEPT.F                  :   
 SPR .MV     07 010 01 00:   SPONTANEOUS POTENTIAL
 ILD .OHMM   07 120 46 00:   DEEP INDUCTION RESISTIVITY
 ILM .OHMM   07 120 44 00:   INDUCTION LOG MEDIUM RESISTIVITY
 SGRD.OHMM   07 220 05 00:   SHALLOW SHORT GUARD RESISTIVITY
 GRD .GAPI   45 310 01 00:   GAMMA RAY FROM DENSITY LOG
 CALD.IN     45 280 60 00:   CALIPER FROM DENSITY LOG
 RHOB.G/C3   45 350 01 00:   BULK DENSITY
 CORR.G/C3   45 356 01 00:   DENSITY CORRECTION
~PARAMETER INFORMATION
#MNEM.UNIT          VALUE    DESCRIPTION
#----------   ------------   ------------------------------
 EKB .F         5056.0000:   Kelly bushing
 EGL .F         5046.0000:   Ground level
 EDF .F            0.0000:   Drilling floor
 TD  .F         3051.0000:   Total depth
 DATE.        24-JUN-1977:   Date logged
 CLNT.            A2DTECH:   Client Code
 SL  . 1746' FSL & 534' FEL:   Surface Location
 PD  .                 GL:   Permanent Datum
 EPD .F              5046:   Elevation Permanent Datum
 LMF .                 KB:   Log Measured From
 DMF .                 KB:   Drilling Measured From
 DAPD.F                10:   Feet Above Permanent Datum
 DD  .F              3038:   Depth driller
 DL  .F              3051:   Depth logger
 BLI .F              3049:   Bottom log interval
 TLI .F               200:   Top log interval
 CS1 .IN            8.625:   Casing size
 CBD1.      8.625" @ 217':   Casing driller 1
 CBL1.F               213:   Casing logger 1
 BS1 .IN            7.875:   Bit size
 BSD1.F              3038:   Depth drilled with bit1
 DFT .            KCL/MUD:   Type fluid in hole
 DFD .                8.7:   Density
 DFV .                134:   Viscosity
 DFPH.                7.5:   pH
 DFL .                7.2:   Fluid loss
 MSS .           FLOWLINE:   Source of sample
 RMS .OHMM            .62:   Rm
 MST .F                82:   Rm Meas. temp.
 RMF .OHMM            .28:   Rmf
 MFST.F                82:   Rmf Meas. temp.
 RMC .OHMM            .78:   Rmc
 MCST.F                82:   Rmc Meas. temp.
 MFSS.               MEAS:   Source Rmf.
 MCSS.               MEAS:   Source Rmc.
 RMB .OHMM            .45:   Rm. at BHT
 BHT .F               111:   BHT.
 TCS .HRS               2:   Time Circ. stopped
 MRT .F               111:   Maximum recorded temp.
 LUN .               8766:   Logging unit number
 LUL .             CASPER:   Logging unit location
 ENGI.          D. LAWSON:   Recorded By
 WITN.      B. HARRINGTON:   Witnessed by
 ORIG.           5" PRINT:   Origin of data
 UWI .     49025103830000:   Unique Well ID
 DICO. A2D TECHNOLOGIES, INC.:   Digitizing Company
~OTHER INFORMATION
~A   DEPT      SPR        ILD        ILM       SGRD        GRD       CALD         RHOB      CORR  
# ...
 2660.5000   -56.3320     6.4500     7.7750     9.4330    66.2690     8.2580     2.5050     0.0250
 2661.0000   -56.4340     6.2410     7.4070     8.6160    66.1190     8.2600     2.5030     0.0210
 2661.5000   -56.5340     6.0210     7.1610     8.2220    65.9680     8.2630     2.5000     0.0160
 2662.0000   -56.6090     5.9020     7.1470     8.8090    65.8180     8.2650     2.4960     0.0120
 2662.5000   -56.5310     5.7430     7.1340     9.0940    65.6600     8.2680     2.4920     0.0080
 2663.0000   -56.4530     5.5440     7.1200     8.5930    65.3000     8.2710     2.4880     0.0040
 2663.5000   -56.3740     5.5600     7.1000     8.1470    64.1920     8.2730     2.4870     0.0050
 2664.0000   -56.2960     5.5810     7.1550     8.5790    62.8810     8.2700     2.4890     0.0080
 2664.5000   -56.2180     5.6210     7.2530     9.1530    61.2850     8.2660     2.4910     0.0120
 2665.0000   -56.1390     5.6940     7.3510     9.5040    59.6920     8.2620     2.4920     0.0140
 2665.5000   -56.0600     5.7670     7.4450     9.3470    58.1090     8.2590     2.4940     0.0150
 2666.0000   -55.8300     5.8400     7.5190     9.9880    56.6830     8.2550     2.4950     0.0160
 2666.5000   -55.4880     5.8570     7.6310    10.3390    55.9170     8.2510     2.4910     0.0170
 2667.0000   -55.1450     5.8570     7.5980     9.9910    55.1320     8.2470     2.4890     0.0180
 2667.5000   -54.8020     5.8570     7.4830     9.5370    54.3520     8.2430     2.4860     0.0200
 2668.0000   -54.4440     5.8570     7.3650     9.0960    53.7130     8.2390     2.4800     0.0210
 2668.5000   -53.8200     5.8570     7.2670     8.6580    53.4530     8.2350     2.4730     0.0220
 2669.0000   -53.1740     5.9940     7.2110     8.2970    53.1720     8.2340     2.4660     0.0230
 2669.5000   -52.5270     6.1700     7.1660     8.7280    52.8900     8.2340     2.4580     0.0240
 2670.0000   -51.8810     6.3460     8.5400     9.6660    52.6090     8.2340     2.4510     0.0240
 2670.5000   -51.1940     6.5560     9.4500    11.1000    52.6450     8.2340     2.4440     0.0210
 2671.0000   -50.4360     6.9140     9.9420    13.9150    52.8530     8.2340     2.4370     0.0190
 2671.5000   -49.6760     7.2710    10.4240    14.7390    53.0600     8.2270     2.4330     0.0160
 2672.0000   -48.9280     7.6290    10.8920    15.2330    53.2620     8.2080     2.4340     0.0150
 2672.5000   -48.6220     7.9870    11.3600    16.1990    53.8490     8.1900     2.4380     0.0150
 2673.0000   -48.3340     8.3440    11.8270    15.9470    54.6670     8.1770     2.4420     0.0150
 2673.5000   -48.0430     8.7020    12.2950    15.6820    55.7140     8.1920     2.4460     0.0160
 2674.0000   -48.0170     8.9210    12.7650    15.4170    57.6950     8.2060     2.4510     0.0160
 2674.5000   -48.2510     9.0940    12.8820    15.1520    58.4520     8.2200     2.4510     0.0150
 2675.0000   -48.4830     9.0780    12.7680    14.8860    58.3370     8.2340     2.4510     0.0130
 2675.5000   -48.7160     9.0520    12.4830    14.5950    58.2120     8.2340     2.4490     0.0110
 2676.0000   -48.9490     9.0250    12.1980    14.2860    58.0840     8.2340     2.4480     0.0100
 2676.5000   -49.1820     8.9990    11.9710    13.9770    57.9570     8.2340     2.4470     0.0090
 2677.0000   -49.4150     8.9730    12.1830    13.6690    57.8300     8.2340     2.4450     0.0080
 2677.5000   -49.6480     8.9470    12.3590    13.4860    57.7020     8.2340     2.4430     0.0060
 2678.0000   -49.8810     8.9200    12.5330    13.9140    57.6790     8.2340     2.4410     0.0050
 2678.5000   -50.1130     8.8940    12.2530    14.4420    57.6770     8.2340     2.4380     0.0040
 2679.0000   -50.3520     8.8680    11.9770    14.6460    57.6590     8.2160     2.4380     0.0020
 2679.5000   -50.5970     8.8170    11.7010    14.1150    58.2400     8.1860     2.4390     0.0000
 2680.0000   -50.8440     8.6790    11.5020    13.6860    58.9560     8.1570     2.4440    -0.0010
 2680.5000   -51.0910     8.5420    11.4100    12.7650    59.5400     8.1740     2.4490    -0.0010
 2681.0000   -51.3450     8.4040    11.3170    12.6180    60.3360     8.1930     2.4520     0.0000
 2681.5000   -51.6350     8.2800    11.2280    12.5700    61.1210     8.2120     2.4520     0.0020
 2682.0000   -51.8300     8.2030    11.0170    12.5030    61.9010     8.2310     2.4520     0.0030
 2682.5000   -52.0040     8.1270    10.8110    12.3720    62.2470     8.2500     2.4540     0.0060
 2683.0000   -52.1790     8.0500    10.6050    12.2080    61.7750     8.2520     2.4600     0.0090
 2683.5000   -52.3560     7.9730    10.4490    12.3060    61.2790     8.2500     2.4650     0.0120
 2684.0000   -52.5340     7.8970    10.3200    12.4850    61.7670     8.2470     2.4690     0.0160
 2684.5000   -52.7400     7.8080    10.1920    12.6640    62.0140     8.2450     2.4710     0.0160
 2685.0000   -53.0550     7.7050    10.0640    12.8820    62.3040     8.2420     2.4740     0.0160
 2685.5000   -53.3680     7.6020     9.8800    12.3530    62.7430     8.2400     2.4760     0.0150
 2686.0000   -53.6800     7.4990     9.5200    11.2670    61.8890     8.2370     2.4780     0.0150
 2686.5000   -53.9930     7.3960     9.1770     9.7090    61.3380     8.2350     2.4800     0.0140
 2687.0000   -54.3050     7.2980     9.1770     8.8470    60.9500     8.2340     2.4830     0.0140
 2687.5000   -54.6170     7.2500    10.0580    12.7650    60.5730     8.2330     2.4860     0.0130
 2688.0000   -54.9440     7.1920     9.8980    12.6480    60.1960     8.2330     2.4900     0.0130
 2688.5000   -55.0680     7.1350     9.6270    12.1200    59.8180     8.2320     2.4940     0.0140
 2689.0000   -55.2090     7.0780     9.3550    11.6470    59.6480     8.2320     2.5000     0.0150
 2689.5000   -55.3440     7.0360     9.2620    10.9260    59.6460     8.2310     2.5050     0.0170
 2690.0000   -55.4790     7.1670     9.6190    10.2430    59.6460     8.2310     2.5110     0.0190
 2690.5000   -55.6140     7.2300    10.0350     9.8760    59.6460     8.2300     2.5170     0.0200
 2691.0000   -55.5810     7.2940    10.4510     9.7850    59.6460     8.2300     2.5230     0.0220
 2691.5000   -55.5210     7.3570    10.8680    10.6330    59.6460     8.2300     2.5290     0.0240
 2692.0000   -55.4610     7.6080    11.2840    11.6290    59.6460     8.2290     2.5340     0.0270
 2692.5000   -55.4010     7.8870    11.7000    13.5150    59.6460     8.2290     2.5400     0.0300
 2693.0000   -55.3400     8.1670    12.0820    15.4200    59.6460     8.2280     2.5460     0.0300
 2693.5000   -55.2820     8.4470    12.4590    16.0510    59.6460     8.2280     2.5480     0.0290
 2694.0000   -55.2580     8.7260    12.8350    15.4960    59.6460     8.2270     2.5480     0.0290
 2694.5000   -55.3510     8.9290    12.8820    14.9790    59.6460     8.2270     2.5480     0.0280
 2695.0000   -55.4400     8.9530    12.4580    14.7190    59.6460     8.2260     2.5450     0.0260
 2695.5000   -55.5300     8.9800    12.0650    14.5120    59.6460     8.2260     2.5390     0.0220
 2696.0000   -55.6190     9.0080    11.8510    13.6890    59.6510     8.2250     2.5340     0.0190
 2696.5000   -55.7080     8.9420    11.8120    12.9280    59.6970     8.2250     2.5290     0.0150
 2697.0000   -55.7970     8.8640    11.7540    12.1670    59.7430     8.2240     2.5240     0.0100
 2697.5000   -55.8870     8.7860    11.9000    12.0820    59.7890     8.2240     2.5230     0.0050
 2698.0000   -55.9760     8.7080    12.1990    13.0010    59.8350     8.2230     2.5230     0.0010
 2698.5000   -56.0650     8.6300    12.6480    13.0540    59.8800     8.2230     2.5230     0.0010
 2699.0000   -56.1540     8.5520    12.5840    13.1140    59.9260     8.2220     2.5230     0.0050
 2699.5000   -56.2440     8.4510    12.4540    14.4150    59.9720     8.2220     2.5230     0.0100
 2700.0000   -56.3330     8.4510    12.3250    15.8610    60.0180     8.2210     2.5230     0.0160
 2700.5000   -56.4220     8.4510    12.1950    17.4310    60.0640     8.2210     2.5200     0.0200
