~VERSION INFORMATION
 VERS.                2.0:   CWLS LOG ASCII STANDARD - VERSION 2.0
 WRAP.                 NO:   ONE LINE PER DEPTH STEP
~WELL INFORMATION
#MNEM.UNIT      DATA TYPE    INFORMATION
#----------   ------------   ------------------------------
 STRT.F          705.5000:   START DEPTH
 STOP.F         3212.0000:   STOP DEPTH
 STEP.F            0.5000:   STEP LENGTH
 NULL.          -999.2500:   NO VALUE
 COMP.    FENIX & SCISSON:   COMPANY
 WELL. FENIX 41 "AX" #1-15:   WELL
 FLD .             NPR #3:   FIELD
 LOC .      S15 T38N R78W:   LOCATION
 CNTY.            NATRONA:   COUNTY
 STAT.            WYOMING:   STATE
 CTRY. UNITED STATES OF AMERICA:   COUNTRY
 SRVC.              WELEX:   SERVICE COMPANY
 DATE.        18-NOV-1980:   LOGDATE
 API .     49025108530000:   API NUMBER
~CURVE INFORMATION
#MNEM.UNIT       API CODE    CURVE DESCRIPTION
#----------   ------------   ------------------------------
 DEPT.F                  :   
 SPR .MV     07 010 01 00:   SPONTANEOUS POTENTIAL
 ILD .OHMM   07 120 46 00:   INDUCTION LOG DEEP RESISTIVITY
 ILM .OHMM   07 120 44 00:   INDUCTION LOG MEDIUM RESISTIVITY
 SGRD.OHMM   07 220 05 00:   SHORT GUARD RESISTIVITY
 GRD .GAPI   45 310 01 00:   GAMMA RAY FROM DENSITY LOG
 CALD.IN     45 280 60 00:   CALIPER FROM DENSITY LOG
 RHOB.G/C3   45 350 01 00:   BULK DENSITY
 NPHI.DEC    42 890 03 00:   NEUTRON POROSITY SANDSTONE
~PARAMETER INFORMATION
#MNEM.UNIT          VALUE    DESCRIPTION
#----------   ------------   ------------------------------
 EKB .F         5252.0000:   Kelly bushing
 EGL .F         5242.0000:   Ground level
 EDF .F            0.0000:   Drilling floor
 TD  .F         3214.0000:   Total depth
 CLNT.            A2DTECH:   Client Code
 SL  . 2150' FWL & 550' FNL:   Surface Location
 PD  .                 GL:   Permanent Datum
 EPD .F              5242:   Elevation Permanent Datum
 LMF .                 KB:   Log Measured From
 DMF .                 KB:   Drilling Measured From
 DATE.        18-NOV-1980:   Date Logged [DD-MMM-YYYY]
 DD  .F              3210:   Depth driller
 DL  .F              3214:   Depth logger
 BLI .F              3212:   Bottom log interval
 TLI .F               734:   Top log interval
 CS1 .IN            8.625:   Casing size
 CBD1.      8.625" @ 709':   Casing driller 1
 CBL1.F               734:   Casing logger 1
 BS1 .IN            7.875:   Bit size
 BSD1.F              3210:   Depth drilled with bit1
 DFT .          FRESH MUD:   Type fluid in hole
 DFD .                8.8:   Density
 DFV .                 45:   Viscosity
 DFPH.               10.5:   pH
 DFL .                 12:   Fluid loss
 MSS .           FLOWLINE:   Source of sample
 RMS .OHMM           1.25:   Rm
 MST .F                70:   Rm Meas. temp.
 RMF .OHMM           1.25:   Rmf
 MFST.F                70:   Rmf Meas. temp.
 MFSS.               MEAS:   Source Rmf.
 RMB .OHMM           0.78:   Rm. at BHT
 BHT .F               112:   BHT.
 TCS .HRS               7:   Time Circ. stopped
 MRT .F               112:   Maximum recorded temp.
 LUN .               1892:   Logging unit number
 LUL .             CASPER:   Logging unit location
 ENGI.               REIN:   Recorded By
 WITN.              SCOTT:   Witnessed by
 ORIG.      2.5" 5" PRINT:   Origin of data
 UWI .     49025108530000:   Unique Well ID
 DICO. A2D TECHNOLOGIES, INC.:   Digitizing Company
 DAPD.                 10:   Feet Above Permanent Datum
~OTHER INFORMATION
~A   DEPT      SPR        ILD        ILM       SGRD         GRD      CALD       RHOB       NPHI   
# ...
 2366.0000   -33.9176     4.7238     6.1363    11.2424    99.5902     8.7274     2.4414     0.2871
 2366.5000   -33.9206     4.7888     6.2205     9.8423    99.5397     8.7261     2.4071     0.2854
 2367.0000   -33.8460     4.9217     6.2196     9.2079    96.4501     8.7245     2.4533     0.2838
 2367.5000   -33.6319     4.9211     6.2188    10.8896    95.3241     8.7233     2.4653     0.2867
 2368.0000   -33.6353     4.9886     6.2179    12.5552    96.6246     8.7220     2.3991     0.2934
 2368.5000   -33.3441     5.0571     6.2171    10.9411    98.8075     8.7060     2.4333     0.2962
 2369.0000   -33.3471     5.0564     6.2162     9.6667    98.2246     8.7044     2.4552     0.2865
 2369.5000   -33.3500     5.0632     6.2154     9.0243    93.0204     8.6884     2.4718     0.2818
 2370.0000   -33.6476     5.1251     6.2490     9.5358    89.4737     8.7019     2.4619     0.2797
 2370.5000   -33.9446     5.1955     6.3399    12.2183    94.5184     8.7002     2.3607     0.2797
 2371.0000   -33.9474     5.1947     6.4323    12.5614    97.8042     8.7138     2.3188     0.2791
 2371.5000   -33.9503     5.1940     6.6164     9.1989   100.4224     8.7120     2.3567     0.2770
 2372.0000   -33.9531     5.1933     6.7459     7.1623    98.6347     8.7106     2.3885     0.2742
 2372.5000   -33.9560     5.1925     6.7449     8.7301    96.4058     8.7093     2.4021     0.2752
 2373.0000   -33.9588     5.1918     6.6518    10.9881    94.3975     8.7078     2.4096     0.2831
 2373.5000   -33.9618     5.1201     6.4702    12.6638    92.1685     8.6916     2.4171     0.2875
 2374.0000   -33.9647     5.0493     6.2937    13.6473    94.5720     8.6900     2.3851     0.2809
 2374.5000   -33.9676     4.9115     6.1219    10.9924    91.0138     8.6886     2.3637     0.2854
 2375.0000   -33.9706     4.8858     5.9549    10.5805    89.2260     8.6872     2.3537     0.2892
 2375.5000   -33.9735     4.7768     5.8679    11.1238    85.4530     8.6855     2.3483     0.2905
 2376.0000   -33.9765     4.7109     5.7123     9.9462    89.4817     8.6841     2.3391     0.2977
 2376.5000   -33.9794     4.6459     5.6975     8.0910    93.3423     8.6827     2.3207     0.2959
 2377.0000   -33.9824     4.5191     5.6327     7.6580    90.2311     8.6814     2.2887     0.2934
 2377.5000   -34.2794     4.4567     5.6319     7.7646    86.0168     8.6946     2.2746     0.2900
 2378.0000   -34.2829     4.4561     5.6593     6.8602    83.5673     8.7079     2.2467     0.2863
 2378.5000   -34.5799     4.4555     5.7416     5.5806    86.1856     8.7063     2.2018     0.2819
 2379.0000   -34.5827     4.5301     5.9879     6.1705    88.8154     8.7047     2.1926     0.2792
 2379.5000   -34.5856     4.6598     6.2917    11.9480    87.4631     8.7033     2.2434     0.2754
 2380.0000   -34.5884     4.7931     6.5481    11.5787    86.5577     8.7019     2.2921     0.2742
 2380.5000   -34.5913     4.9301     6.6380    13.7599    85.8728     8.7152     2.3579     0.2783
 2381.0000   -34.3000     5.0711     6.5464    15.8941    86.7264     8.7134     2.3297     0.2906
 2381.5000   -34.2878     5.1449     6.4560    13.3110    88.6887     8.7271     2.2947     0.2958
 2382.0000   -34.0116     5.1790     6.2798    10.5533    90.8715     8.7400     2.2680     0.3051
 2382.5000   -34.0147     5.2500     6.2790     6.8106    94.8191     8.7533     2.2649     0.3033
 2383.0000   -33.9478     5.1774     6.3652     5.3073    97.4772     8.7516     2.2587     0.2961
 2383.5000   -33.7260     5.2485     6.4561     8.4966   100.0614     8.7942     2.2289     0.2952
 2384.0000   -33.7294     5.3206     6.8322    12.0825   102.2442     8.8222     2.1878     0.2974
 2384.5000   -33.7324     5.5442     7.1311    10.6674    99.5741     8.8358     2.2553     0.2921
 2385.0000   -33.7353     5.6982     7.4224     9.8222    97.3452     8.8194     2.4081     0.2884
 2385.5000   -33.4441     5.8951     7.6349    11.9110    95.3360     8.7589     2.6046     0.2869
 2386.0000   -33.4476     6.1054     7.7120    14.0517    97.7345     8.7281     2.5985     0.2916
 2386.5000   -33.4505     6.2800     7.7108    14.4449    99.4762     8.7120     2.5824     0.2892
 2387.0000   -33.7474     6.4598     7.7097    13.4745   100.1207     8.6960     2.5892     0.2883
 2387.5000   -33.7503     6.5536     7.8155    12.1920    99.4302     8.7093     2.6035     0.2915
 2388.0000   -33.7532     6.6489     7.8751    11.1001    97.1955     8.7075     2.5776     0.2921
 2388.5000   -33.7560     6.8086     8.0313    11.3435    95.1871     8.7208     2.5638     0.2875
 2389.0000   -33.7589     6.8437     8.3688    11.6370    94.5023     8.7194     2.5562     0.2840
 2389.5000   -33.4676     6.9966     8.7206    11.5406    93.8175     8.7180     2.5531     0.2872
 2390.0000   -33.4706     7.1418     8.9628    11.7623    93.1327     8.7166     2.5560     0.2826
 2390.5000   -33.4735     7.3461     9.2118    13.7463    94.8687     8.7148     2.5824     0.2801
 2391.0000   -33.4765     7.5957     9.3383    15.0758    96.6161     8.7134     2.6011     0.2902
 2391.5000   -33.4794     7.9150     9.3370    17.0517    95.7049     8.7120     2.6063     0.2886
 2392.0000   -33.4824     8.2476     9.4652    19.0384    93.9172     8.7107     2.5343     0.2855
 2392.5000   -33.4853     8.4769     9.5951    18.0195    92.7609     8.7093     2.5130     0.2790
 2393.0000   -33.4882     8.7122     9.5937    15.7029    92.3212     8.7075     2.5061     0.2712
 2393.5000   -33.4912     8.8318     9.5924    15.0685    92.7451     8.7061     2.5006     0.2642
 2394.0000   -33.4947     8.9530     9.5911    15.7050    93.8193     8.7194     2.4892     0.2609
 2394.5000   -33.4976     8.9518     9.5897    17.0586    95.1198     8.7180     2.4748     0.2638
 2395.0000   -33.5004     8.9506     9.5884    19.8491    97.0763     8.7166     2.4580     0.2670
 2395.5000   -33.5033     8.9494     9.5871    18.4575   100.3621     8.7148     2.4458     0.2730
 2396.0000   -33.8002     8.9481     9.5858    16.9879   101.8831     8.7134     2.4427     0.2805
 2396.5000   -33.8031     8.9469     9.5845    16.8298   103.6248     8.7120     2.4478     0.2834
 2397.0000   -33.8059     8.9070     9.5829    17.5406   104.2635     8.7404     2.4601     0.2860
 2397.5000   -33.8088     8.8221     9.5816    15.5701   102.2495     8.7533     2.4779     0.2829
 2398.0000   -34.1059     8.7686     9.5805    14.9339   100.0205     8.7516     2.4936     0.2781
 2398.5000   -34.1088     8.6991     9.7119    17.6525    98.0122     8.7355     2.5139     0.2732
 2399.0000   -34.1118     8.6979     9.7106    18.4224    96.0039     8.7460     2.5335     0.2717
 2399.5000   -34.1147     8.6965     9.7093    19.0581    92.2665     8.7621     2.5523     0.2724
 2400.0000   -34.1176     8.6955     9.8426    19.0593    86.9077     8.7606     2.5613     0.2765
 2400.5000   -34.1206     8.6942     9.8412    17.5494    83.3541     8.7590     2.5533     0.2806
 2401.0000   -34.1235     8.6931     9.7605    16.1591    81.3446     8.7574     2.5436     0.2838
 2401.5000   -33.9739     8.7426     9.8942    15.1392    79.9597     8.7558     2.5390     0.2898
 2402.0000   -33.6647     8.8112     9.9775    14.4448    78.4224     8.7542     2.5374     0.2914
 2402.5000   -33.5441     8.8490    10.0275    16.1960    77.2953     8.7526     2.5372     0.2870
 2403.0000   -33.5475     8.9321    10.0766    15.9263    76.8359     8.7510     2.5402     0.2858
 2403.5000   -33.5503     8.9979    10.2632    15.1375    78.3859     8.7493     2.5470     0.2805
 2404.0000   -33.5532     9.1406    10.3012    18.6669    80.0842     8.7477     2.5611     0.2847
 2404.5000   -33.5560     9.2450    10.5225    19.8783    81.3835     8.7461     2.5799     0.2793
 2405.0000   -33.5589     9.3711    10.5848    18.9662    81.5859     8.7445     2.6040     0.2750
 2405.5000   -33.5618     9.4989    10.5823    17.9416    80.6728     8.7429     2.6175     0.2709
 2406.0000   -33.5647     9.5501    10.7273    15.6268    84.1724     8.7413     2.5451     0.2744
