~VERSION INFORMATION
 VERS.                2.0:   CWLS LOG ASCII STANDARD - VERSION 2.0
 WRAP.                 NO:   ONE LINE PER DEPTH STEP
~WELL INFORMATION
#MNEM.UNIT      DATA TYPE    INFORMATION
#----------   ------------   ------------------------------
 STRT.F           54.0000:   START DEPTH
 STOP.F         5201.0000:   STOP DEPTH
 STEP.F            0.5000:   STEP LENGTH
 NULL.          -999.2500:   NO VALUE
 COMP.   TESORO PETROLEUM:   COMPANY
 WELL. TESORO DX NPR-3 #51-26:   WELL
 FLD .        TEAPOT DOME:   FIELD
 LOC .      S26 T38N R78W:   LOCATION
 CNTY.            NATRONA:   COUNTY
 STAT.            WYOMING:   STATE
 CTRY. UNITED STATES OF AMERICA:   COUNTRY
 SRVC.      DRESSER ATLAS:   SERVICE COMPANY
 DATE.        27-AUG-1976:   LOGDATE
 API .     49025102680000:   API NUMBER
~CURVE INFORMATION
#MNEM.UNIT       API CODE    CURVE DESCRIPTION
#----------   ------------   ------------------------------
 DEPT.F                  :   
 GRD .GAPI   45 310 01 00:   GAMMA RAY FROM DENSITY LOG
 CALD.IN     45 280 60 00:   CALIPER FROM DENSITY LOG
 CORR.G/C3   45 356 01 00:   DENSITY CORRECTION
 RHOB.G/C3   45 350 01 00:   BULK DENSITY
 SPR .MV     07 010 01 00:   SPONTANEOUS POTENTIAL
 ILD .OHMM   07 120 46 00:   DEEP INDUCTION RESISTIVITY
 ILM .OHMM   07 120 44 00:   INDUCTION LOG MEDIUM RESISTIVITY
 RFOC.OHMM   07 220 04 00:   RESISTIVITY FOCUSED LOG RES.
 TEND.LBS    45 635 01 00:   TENSION FORM DENSITY LOG
 NPHI.DEC    42 890 03 00:   NEUTRON POROSITY SANDSTONE
~PARAMETER INFORMATION
#MNEM.UNIT          VALUE    DESCRIPTION
#----------   ------------   ------------------------------
 EKB .F         5453.5000:   Kelly bushing
 EGL .F         5442.0000:   Ground level
 EDF .F         5452.0000:   Drilling floor
 EPD .F            0.0000:   Permanent datum
 TD  .F         5193.0000:   Total depth
 CLNT.            A2DTECH:   Client Code
 SL  . 2000' FEL & 600' FNL:   Surface Location
 PD  .                 GL:   Permanent Datum
 DAPD.F              11.5:   Feet Above Permanent Datum
 DATE.        27-AUG-1976:   Date Logged [DD-MMM-YYYY]
 DD  .F              5193:   Depth driller
 DL  .F              5193:   Depth logger
 BLI .F              5191:   Bottom log interval
 TLI .F              1726:   Top log interval
 CS1 .IN            8.625:   Casing size
 CBD1.     8.625" @ 1724':   Casing driller 1
 CBL1.F              1726:   Casing logger 1
 BS1 .IN            7.875:   Bit size
 BSD1.F              5193:   Depth drilled with bit1
 DFT .           CHEM GEL:   Type fluid in hole
 DFD .                9.2:   Density
 DFV .                 65:   Viscosity
 DFPH.                 10:   pH
 DFL .                5.8:   Fluid loss
 MSS .           FLOWLINE:   Source of sample
 RMS .OHMM           1.70:   Rm
 MST .F                71:   Rm Meas. temp.
 RMF .OHMM              1:   Rmf
 MFST.F                68:   Rmf Meas. temp.
 MFSS.               MEAS:   Source Rmf.
 RMC .OHMM           1.30:   Rmc
 MCST.F                66:   Rmc Meas. temp.
 MCSS.               MEAS:   Source Rmc.
 RMB .OHMM           0.85:   Rm. at BHT
 BHT .F               142:   BHT.
 TCS .HRS               6:   Time Circ. stopped
 MRT .F               142:   Maximum recorded temp.
 LUN .               6145:   Logging unit number
 LUL .              GLTTE:   Logging unit location
 ENGI.        GOULD-HOYER:   Recorded By
 WITN.        WOLF-CARTER:   Witnessed by
 ORIG.           5" PRINT:   Origin of data
 UWI .     49025102680000:   Unique Well ID
 DICO. A2D TECHNOLOGIES, INC.:   Digitizing Company
~OTHER INFORMATION
~A   DEPT      GRD       CALD       CORR       RHOB        SPR         ILD        ILM      RFOC       TEND       NPHI   
# ...
 4040.5000   119.8329     8.2715     0.0123     2.5660   -40.7250     4.7483     5.0407     6.0052    36.6987     0.2341
 4041.0000   123.9320     8.2589     0.0140     2.5811   -40.5638     4.6552     4.9746     5.9259    35.9761     0.2407
 4041.5000   126.3594     8.2613     0.0127     2.5872   -40.4034     4.5749     4.9454     5.8496    35.2324     0.2403
 4042.0000   128.3092     8.2486     0.0129     2.5905   -40.2419     4.5356     4.9494     5.7326    42.0273     0.2370
 4042.5000   129.2940     8.2210     0.0130     2.5805   -40.1735     4.5080     4.9192     5.7374    41.1239     0.2352
 4043.0000   126.2387     8.2388     0.0132     2.5762   -40.0295     4.4814     4.9573     5.8210    47.8976     0.2366
 4043.5000   124.3629     8.2410     0.0117     2.5763   -39.9781     4.5161     4.9995     5.9880    47.1751     0.2445
 4044.0000   123.9293     8.2495     0.0106     2.5801   -39.9657     4.5828     5.1406     6.0762    46.4525     0.2468
 4044.5000   125.6501     8.2607     0.0063     2.5877   -40.1879     4.6183     5.2887     5.9960    45.7271     0.2398
 4045.0000   126.6447     8.2631     0.0044     2.5923   -40.3067     4.6541     5.4036     5.9587    44.9774     0.2314
 4045.5000   127.3906     8.2655     0.0021     2.5886   -40.4641     4.6902     5.5211     6.1730    44.1045     0.2277
 4046.0000   124.8130     8.2679     0.0023     2.5782   -40.6206     4.7608     5.5638     6.3940    43.3819     0.2310
 4046.5000   123.6583     8.2556    -0.0005     2.5576   -40.7771     4.9366     5.5683     6.5773    35.1631     0.2349
 4047.0000   122.7424     8.2580    -0.0003     2.5431   -40.9270     5.0047     5.5606     6.8127    41.9368     0.2402
 4047.5000   121.5799     8.2447    -0.0010     2.5394   -41.0809     5.0088     5.5377     6.9152    41.2143     0.2459
 4048.0000   120.6354     8.2475    -0.0015     2.5417   -41.1507     5.0128     5.4674     6.8230    40.4797     0.2416
 4048.5000   119.5270     8.2500    -0.0028     2.5463   -40.9841     5.0168     5.3607     6.5960    39.5887     0.2449
 4049.0000   118.6111     8.2673    -0.0011     2.5479   -40.7926     5.0209     5.2552     6.4678    46.3624     0.2479
 4049.5000   118.4019     8.3000     0.0006     2.5457   -40.7253     4.9902     5.1863     6.2557    53.1361     0.2484
 4050.0000   121.5555     8.3023     0.0038     2.5450   -40.5442     4.8917     5.1548     6.1313    52.4136     0.2496
 4050.5000   120.4008     8.3046     0.0069     2.5566   -40.4632     4.8284     5.1234     6.1346    51.6911     0.2547
 4051.0000   119.0074     8.3070     0.0101     2.5595   -40.3902     4.8332     5.1641     6.0536    50.9685     0.2593
 4051.5000   119.5358     8.2796     0.0163     2.5723   -40.3159     4.8355     5.2773     6.0989    50.1891     0.2614
 4052.0000   121.5593     8.2966     0.0210     2.5869   -40.2457     4.8392     5.3912     6.2733    48.1799     0.2569
 4052.5000   122.9636     8.2990     0.0196     2.5853   -40.1901     4.8101     5.4338     6.6337    46.1708     0.2523
 4053.0000   122.2893     8.3013     0.0228     2.5652   -39.9861     4.8137     5.4381     6.9681    44.1617     0.2478
 4053.5000   120.8985     8.3189     0.0215     2.5645   -39.9816     4.7831     5.4425     6.8061    42.1526     0.2440
 4054.0000   119.9790     8.3360     0.0195     2.5668   -39.9806     4.7876     5.4084     6.4640    40.1434     0.2450
 4054.5000   119.7887     8.3385     0.0166     2.5602   -40.0401     4.7911     5.3755     6.3778    38.1343     0.2477
 4055.0000   120.7965     8.3408     0.0116     2.5498   -40.2084     4.8465     5.3809     6.4710    36.1252     0.2525
 4055.5000   120.5997     8.3282     0.0103     2.5453   -40.3750     4.9329     5.3852     6.5646    34.1161     0.2624
 4056.0000   119.9254     8.3156     0.0104     2.5477   -40.5415     4.9946     5.4310     6.4779    32.1069     0.2551
 4056.5000   122.3555     8.3036     0.0121     2.5658   -40.7096     5.0798     5.5078     6.3045    30.0978     0.2566
 4057.0000   120.4872     8.3055     0.0133     2.5697   -40.7728     5.1188     5.6275     6.3080    28.0887     0.2530
 4057.5000   118.3800     8.3229     0.0155     2.5675   -40.7740     5.1347     5.7896     6.4030    33.6453     0.2466
 4058.0000   117.6951     8.3405     0.0216     2.5744   -40.7739     5.1978     5.9154     7.1034    32.9181     0.2499
 4058.5000   119.4193     8.3578     0.0264     2.5820   -40.7746     5.3108     6.0440     7.2562    47.1834     0.2487
 4059.0000   120.4166     8.3601     0.0262     2.5806   -40.7701     5.3888     6.2612     7.5155    53.9524     0.2440
 4059.5000   119.9809     8.3021     0.0222     2.5950   -40.7629     5.4679     6.2125     8.3992    60.7215     0.2369
 4060.0000   120.3112     8.2452     0.0205     2.6055   -40.3766     5.5100     6.0819     8.4621    44.9776     0.2447
 4060.5000   122.4533     8.2326     0.0165     2.5651   -39.9665     5.4340     5.9513     7.1719    51.7708     0.2497
 4061.0000   119.6402     8.2452     0.0122     2.5562   -39.9841     5.3222     5.8140     6.6044    58.5398     0.2560
 4061.5000   118.4778     8.2609     0.0064     2.5563   -39.9803     5.1898     5.6599     6.5624    57.6310     0.2602
 4062.0000   118.2810     8.2850     0.0051     2.5501   -39.9819     5.1213     5.5865     6.5661    41.9113     0.2656
 4062.5000   122.1545     8.3173     0.0052     2.5392   -39.9761     4.9861     5.5079     6.5704    26.1915     0.2698
 4063.0000   121.4802     8.3374     0.0024     2.5318   -39.8082     4.8973     5.3679     6.4836    25.4643     0.2746
 4063.5000   120.0894     8.3519    -0.0004     2.5289   -39.8899     4.7904     5.2265     6.3539    24.7371     0.2772
 4064.0000   118.6986     8.3540    -0.0032     2.5305   -40.0007     4.7280     5.1233     6.2268    24.0099     0.2754
 4064.5000   120.6512     8.3564    -0.0030     2.5344   -40.1216     4.6973     5.0220     6.2302    30.7789     0.2799
 4065.0000   120.4544     8.3589    -0.0028     2.5352   -40.2292     4.6513     4.9568     6.3203    29.8697     0.2817
 4065.5000   118.8203     8.3612    -0.0027     2.5323   -40.3360     4.5774     4.9264     6.2801    44.1350     0.2819
 4066.0000   118.3893     8.3336    -0.0001     2.5332   -40.4434     4.5186     4.8944     6.1945    65.8969     0.2789
 4066.5000   123.2180     8.2750     0.0022     2.5469   -40.5531     4.3985     4.8326     6.0322    72.8475     0.2864
 4067.0000   127.7974     8.2337     0.0072     2.5641   -40.5752     4.3547     4.8370     5.9108    71.9387     0.2924
 4067.5000   126.8843     8.2366     0.0266     2.5823   -40.5854     4.3137     4.8406     5.6353    56.2190     0.2869
 4068.0000   126.1994     8.2234     0.0327     2.5718   -40.6756     4.3177     4.9114     5.2609    39.6805     0.2785
 4068.5000   126.7296     8.2410     0.0104     2.5427   -40.5836     4.3209     4.9491     5.7199    24.5976     0.2784
 4069.0000   127.7269     8.2586     0.0076     2.5330   -40.5693     4.3242     5.0215     6.3484    31.5486     0.2778
 4069.5000   127.9973     8.2609     0.0078     2.5346   -40.3633     4.3582     5.0950     6.1786    38.3176     0.2760
 4070.0000   126.3782     8.2632     0.0110     2.5437   -40.3459     4.3614     5.1697     6.0132    45.0867     0.2699
 4070.5000   124.0322     8.2656     0.0096     2.5581   -40.2035     4.4562     5.2102     5.9750    44.1774     0.2729
 4071.0000   119.5370     8.2529     0.0067     2.5551   -40.0592     4.5846     5.2140     6.0205    43.4502     0.2795
 4071.5000   118.8061     8.2477     0.0025     2.5451   -39.9114     4.6417     5.2179     6.4105    42.7230     0.2761
 4072.0000   116.2442     8.2427    -0.0018     2.5321   -39.8238     4.7531     5.2282     6.5033    41.9789     0.2734
 4072.5000   116.0811     8.2451    -0.0016     2.5329   -39.7470     4.8564     5.2617     6.6893    41.0870     0.2668
 4073.0000   116.1337     8.2479     0.0001     2.5435   -40.0555     4.8774     5.3021     6.6009    48.0380     0.2603
 4073.5000   115.9265     8.2503     0.0032     2.5466   -40.1868     4.9855     5.3060     6.5590    47.1288     0.2499
