~VERSION INFORMATION
 VERS.                2.0:   CWLS LOG ASCII STANDARD - VERSION 2.0
 WRAP.                 NO:   ONE LINE PER DEPTH STEP
~WELL INFORMATION
#MNEM.UNIT      DATA TYPE    INFORMATION
#----------   ------------   ------------------------------
 STRT.F          545.0000:   START DEPTH
 STOP.F         3193.0000:   STOP DEPTH
 STEP.F            0.5000:   STEP LENGTH
 NULL.          -999.2500:   NO VALUE
 COMP. FENIX & SCISSON-U.S. NAVY:   COMPANY
 WELL.   FENIX "A" #47-34:   WELL
 FLD .          N.P.R. #3:   FIELD
 LOC .      S34 T39N R78W:   LOCATION
 CNTY.            NATRONA:   COUNTY
 STAT.            WYOMING:   STATE
 CTRY. UNITED STATES OF AMERICA:   COUNTRY
 SRVC.       SCHLUMBERGER:   SERVICE COMPANY
 DATE.        26-MAR-1977:   LOGDATE
 API .     49025103260000:   API NUMBER
~CURVE INFORMATION
#MNEM.UNIT       API CODE    CURVE DESCRIPTION
#----------   ------------   ------------------------------
 DEPT.F                  :   
 SPR .MV     07 010 01 00:   SPONTANEOUS POTENTIAL FROM RES.
 ILM .OHMM   07 120 44 00:   INDUCTION LOG MEDIUM RESISTIVITY
 ILD .OHMM   07 120 46 00:   DEEP INDUCTION RESISTIVITY
 LL8 .OHMM   07 220 08 00:   LATEROLOG-8 RES.
 CALD.IN     45 280 60 00:   CALIPER FROM DENSITY LOG
 GRD .GAPI   45 310 01 00:   GAMMA RAY FROM DENSITY LOG
 RHOB.G/C3   45 350 01 00:   BULK DENSITY
 CORR.G/C3   45 356 01 00:   DENSITY CORRECTION
~PARAMETER INFORMATION
#MNEM.UNIT          VALUE    DESCRIPTION
#----------   ------------   ------------------------------
 EKB .F         5144.0000:   Kelly bushing
 EGL .F         5132.0000:   Ground level
 TD  .F         3194.0000:   Total depth
 CLNT.            A2DTECH:   Client Code
 SL  . 2310' FWL & 990' FSL:   Surface Location
 PD  .                 GL:   Permanent Datum
 EPD .F              5132:   Elevation Permanent Datum
 LMF .                 KB:   Log Measured From
 DMF .                 KB:   Drilling Measured From
 DAPD.F                12:   Feet Above Permanent Datum
 DATE.        26-MAR-1977:   Date Logged [DD-MMM-YYYY]
 DD  .F              3188:   Depth driller
 DL  .F              3194:   Depth logger
 BLI .F              3188:   Bottom log interval
 TLI .F               564:   Top log interval
 CS1 .IN            8.625:   Casing size
 CBD1.      8.625" @ 570':   Casing driller 1
 CBL1.F               564:   Casing logger 1
 BS1 .IN            7.875:   Bit size
 BSD1.F              3188:   Depth drilled with bit1
 DFT .                KCL:   Type fluid in hole
 DFD .                9.2:   Density
 DFV .                 30:   Viscosity
 DFL .                9.2:   Fluid loss
 MSS .                PIT:   Source of sample
 RMS .OHMM          0.354:   Rm
 MST .F                70:   Rm Meas. temp.
 RMF .OHMM          0.326:   Rmf
 MFST.F                70:   Rmf Meas. temp.
 MFSS.               MEAS:   Source Rmf.
 RMC .OHMM          0.531:   Rmc
 MCST.F                70:   Rmc Meas. temp.
 MCSS.               CALC:   Source Rmc.
 RMB .OHMM          0.205:   Rm. at BHT
 BHT .F               121:   BHT.
 TLAB.HRS            1900:   Time logger at bottom
 MRT .F               121:   Maximum recorded temp.
 LUN .               5642:   Logging unit number
 LUL .               CSPR:   Logging unit location
 ENGI.             MARTIN:   Recorded By
 WITN.         PETTINGILL:   Witnessed by
 ORIG.           5" PRINT:   Origin of data
 UWI .     49025103260000:   Unique Well ID
 DICO. A2D TECHNOLOGIES, INC.:   Digitizing Company
~OTHER INFORMATION
~A   DEPT      SPR        ILM        ILD        LL8       CALD         GRD      RHOB       CORR   
# ...
  909.5000   -51.2524    10.5931    10.1175    11.6547     8.2055   115.6671     2.5474     0.0361
  910.0000   -51.0595    10.5989    10.1257    11.7435     8.2041   116.5972     2.5498     0.0323
  910.5000   -50.8707    10.6048    10.1339    12.1820     8.2028   116.0121     2.5491     0.0316
  911.0000   -50.6816    10.6117    10.1420    12.6909     8.2014   114.5487     2.5470     0.0286
  911.5000   -50.5012    10.5443    10.1502    12.6119     8.2001   112.4900     2.5433     0.0310
  912.0000   -50.4949    10.5500    10.0883    12.3613     8.1988   112.9610     2.5441     0.0359
  912.5000   -50.4958    10.4816     9.9582    12.1157     8.1974   115.2178     2.5368     0.0397
  913.0000   -50.4959    10.4634     9.8977    11.9574     8.1961   117.3258     2.5324     0.0266
  913.5000   -50.4963    10.3502     9.7698    11.8810     8.1947   118.5409     2.5407     0.0329
  914.0000   -50.4940    10.2845     9.6436    11.8071     8.1934   119.4584     2.5523     0.0377
  914.5000   -50.6909    10.2192     9.5850    11.8170     8.1921   120.2271     2.5620     0.0471
  915.0000   -51.0183    10.0844     9.4612    11.8250     8.1907   117.8770     2.5516     0.0502
  915.5000   -51.3477    10.0204     9.4037    11.8332     8.1894   116.5623     2.5412     0.0379
  916.0000   -51.6767     9.8895     9.3465    11.9252     8.1880   115.6879     2.5345     0.0186
  916.5000   -52.0041     9.7590     9.2913    12.0160     8.1867   116.4628     2.5301     0.0063
  917.0000   -52.3506     9.7643     9.2351    11.8590     8.1853   117.0827     2.5332     0.0110
  917.5000   -52.7704     9.7010     9.2427    11.7040     8.1840   116.3633     2.5116     0.0098
  918.0000   -52.7665     9.7075     9.1864    11.6292     8.1838   114.4534     2.5117    -0.0012
  918.5000   -52.0356     9.6456     9.1956    11.4001     8.1838   114.9244     2.5224     0.0105
  919.0000   -51.5122     9.6511     9.2031    11.4078     8.1838   116.7511     2.5329     0.0210
  919.5000   -51.0674     9.6221     9.2095    11.4947     8.1838   116.7128     2.5300     0.0324
  920.0000   -51.0884     9.5949     9.2179    11.5024     8.1838   115.1533     2.5429     0.0232
  920.5000   -51.0918     9.5340     9.2254    11.5903     8.1838   115.7732     2.5617     0.0485
  921.0000   -51.0912     9.5396     9.2328    11.5998     8.1838   118.3276     2.5393     0.0265
  921.5000   -51.0911     9.5456     9.2403    11.6882     8.1838   121.1796     2.5207     0.0211
  922.0000   -51.0910     9.5507     9.2478    11.6135     8.1838   123.5852     2.5115     0.0142
  922.5000   -51.1044     9.5559     9.2554    11.6233     8.1838   121.2289     2.5291     0.0236
  923.0000   -51.2139     9.5610     9.2631    11.4695     8.1838   117.2357     2.5457     0.0245
  923.5000   -51.3220     9.5001     9.2720    11.3982     8.1838   114.2742     2.5396     0.0145
  924.0000   -51.4247     9.5054     9.2795    11.7277     8.1838   112.8207     2.5339     0.0208
  924.5000   -51.5587     9.5106     9.2870    11.7356     8.1838   113.0003     2.5348     0.0348
  925.0000   -52.2688     9.5269     9.2945    11.7435     8.1838   113.7690     2.5371     0.0380
  925.5000   -52.5346     9.5881     9.3020    11.5823     8.1838   114.0912     2.5140     0.0243
  926.0000   -52.6806     9.5933     9.3093    11.0499     8.1838   114.4135     2.5208     0.0033
  926.5000   -52.6421     9.6643     9.3170    11.6882     8.1838   113.5453     2.5262     0.0173
  927.0000   -52.2742     9.6702     9.3247    11.6961     8.1838   111.4866     2.5263     0.0151
  927.5000   -52.2902     9.6754     9.3340    11.6214     8.1838   110.3199     2.5378     0.0268
  928.0000   -52.3076     9.6806     9.3415    11.8750     8.1838   113.7680     2.5453     0.0362
  928.5000   -52.5212     9.6857     9.2828    11.9654     8.1838   117.7334     2.5371     0.0339
  929.0000   -51.1932     9.6243     9.2283    11.9735     8.1838   120.5199     2.5357     0.0247
  929.5000   -51.0750     9.6297     9.1703    11.8990     8.1838   119.2053     2.5531     0.0310
  930.0000   -51.1877     9.6347     9.1146    11.6626     8.1838   116.5513     2.5690     0.0388
  930.5000   -51.4783     9.5735     9.1238    11.3521     8.1838   116.2783     2.5631     0.0467
  931.0000   -51.4781     9.5792     9.1311    11.4405     8.1838   115.8565     2.5527     0.0375
  931.5000   -51.2001     9.5851     9.0756    11.5277     8.1838   114.6907     2.5423     0.0236
  932.0000   -51.1072     9.5467     9.0833    11.4560     8.1838   113.8415     2.5288     0.0314
  932.5000   -50.5079     9.5281     9.0277    11.3063     8.1838   118.7579     2.5290     0.0377
  933.0000   -50.3123     9.4689     8.9729    11.3924     8.1838   121.1935     2.5238     0.0192
  933.5000   -50.7943     9.4087     8.9819    11.4792     8.1838   123.7623     2.5179     0.0162
  934.0000   -51.4828     9.3490     8.9255    11.4869     8.1838   121.8141     2.5345     0.0232
  934.5000   -51.9099     9.2896     8.9345    11.4947     8.1838   120.4995     2.5301     0.0350
  935.0000   -51.8778     9.2949     8.8784    11.4232     8.1838   120.0715     2.5310     0.0319
  935.5000   -51.8738     9.4303     8.7655    11.2739     8.1838   120.2511     2.5341     0.0250
  936.0000   -51.4872     9.4354     8.7122    11.2038     8.1838   119.6805     2.5372     0.0399
  936.5000   -51.0792     9.4405     8.7195    11.2132     8.1838   119.4014     2.5343     0.0299
  937.0000   -51.0997     9.4456     8.6680    11.2986     8.1841   119.1339     2.5297     0.0323
  937.5000   -51.6008     9.4507     8.6153    11.2283     8.1857   120.0521     2.5180     0.0394
  938.0000   -51.5192     9.4558     8.5612    11.0797     8.1872   121.4484     2.5091     0.0294
  938.5000   -51.4837     9.5265     8.5109    11.0891     8.1888   122.1909     2.5047     0.0046
  939.0000   -51.5571     9.5978     8.5178    11.1736     8.1903   121.3226     2.5101     0.0125
  939.5000   -51.7389     9.6031     8.5246    11.1039     8.1919   120.2995     2.5169     0.0172
  940.0000   -51.8891     9.6093     8.4726    11.0350     8.1934   122.5624     2.5133     0.0188
  940.5000   -51.8264     9.6145     8.4213    11.0426     8.1950   123.3311     2.5194     0.0205
  941.0000   -51.4589     9.5522     8.3701    10.9737     8.1966   122.7543     2.5300     0.0361
  941.5000   -51.1115     9.4262     8.3209    10.7575     8.1981   122.1890     2.5347     0.0408
  942.0000   -51.3860     9.1754     8.2703    10.5438     8.1997   121.6193     2.5370     0.0300
  942.5000   -51.6987     8.7469     8.1073    10.4764     8.2012   120.7217     2.5408     0.0406
  943.0000   -52.0137     8.2810     7.8913    10.6313     8.2028   118.4156     2.5619     0.0519
  943.5000   -52.0691     7.9490     7.6312    10.6384     8.2043   116.3361     2.5545     0.0605
  944.0000   -52.2783     7.5160     7.0788    10.6456     8.2059   119.9383     2.5359     0.0474
  944.5000   -52.4280     7.2238     6.7970    10.5794     8.2075   119.6653     2.5300     0.0398
  945.0000   -52.6286     7.0317     6.7091     9.2832     8.2090   118.2019     2.5256     0.0422
  945.5000   -52.6770     6.9861     6.7147     6.3483     8.2106   115.8456     2.5166     0.0500
  946.0000   -52.6863     7.0880     6.8679     8.3235     8.2121   112.7452     2.5054     0.0598
  946.5000   -52.8422     7.2404     7.1089     9.7649     8.2137   112.6086     2.5026     0.0339
  947.0000   -52.2748     7.3960     7.3138     9.9076     8.2152   115.3606     2.5148     0.0253
  947.5000   -51.8938     7.6074     7.4729     9.9143     8.2168   120.8656     2.5254     0.0248
  948.0000   -51.5271     7.8248     7.6355    10.1992     8.2184   123.5642     2.5277     0.0342
  948.5000   -51.1646     8.0497     7.7479    10.4923     8.2199   123.8865     2.5263     0.0296
  949.0000   -50.7836     8.2215     7.9713    10.7195     8.2215   123.3159     2.5264     0.0243
  949.5000   -50.7084     8.3993     8.0886    10.5794     8.2230   121.7036     2.5250     0.0290
