~VERSION INFORMATION
 VERS.                2.0:   CWLS LOG ASCII STANDARD - VERSION 2.0
 WRAP.                 NO:   ONE LINE PER DEPTH STEP
~WELL INFORMATION
#MNEM.UNIT      DATA TYPE    INFORMATION
#----------   ------------   ------------------------------
 STRT.F           50.5000:   START DEPTH
 STOP.F         5694.0000:   STOP DEPTH
 STEP.F            0.5000:   STEP LENGTH
 NULL.          -999.2500:   NO VALUE
 COMP. LAWRENCE ALLISON AND ASSOCIATES WEST:   COMPANY
 WELL. LAWRENCE "TX" #57-28:   WELL
 FLD .        TEAPOT DOME:   FIELD
 LOC .      S28 T39N R78W:   LOCATION
 CNTY.            NATRONA:   COUNTY
 STAT.            WYOMING:   STATE
 CTRY. UNITED STATES OF AMERICA:   COUNTRY
 SRVC.       SCHLUMBERGER:   SERVICE COMPANY
 DATE.        26-FEB-1982:   LOGDATE
 API .     49025108850000:   API NUMBER
~CURVE INFORMATION
#MNEM.UNIT       API CODE    CURVE DESCRIPTION
#----------   ------------   ------------------------------
 DEPT.F                  :   
 GRR .GAPI   11 310 01 00:   GAMMA RAY FROM RES.
 CALD.IN     45 280 60 00:   CALIPER FROM DENSITY LOG
 TEND.LBS    45 635 01 00:   TENSION FORM DENSITY LOG
 CORR.G/C3   45 356 01 00:   DENSITY CORRECTION
 RHOB.G/C3   45 350 01 00:   BULK DENSITY
 NPHI.DEC    42 890 03 00:   NEUTRON POROSITY SANDSTONE
 TENR.LBS    06 635 01 00:   TENSION FROM RESISTIVITY
 SPR .MV     11 010 01 00:   SPONTANEOUS POTENTIAL FROM RES.
 LLS .OHMM   11 220 09 00:   LATEROLOG LOG SHALLOW
 LLD .OHMM   11 220 10 00:   LATEROLOG DEEP
 MSFL.OHMM   11 270 04 00:   MICRO SPHERICALLY FOCUSED
~PARAMETER INFORMATION
#MNEM.UNIT          VALUE    DESCRIPTION
#----------   ------------   ------------------------------
 EKB .F         5101.0000:   Kelly bushing
 EGL .F         5091.0000:   Ground level
 EDF .F            0.0000:   Drilling floor
 TD  .F         3248.0000:   Total depth
 CLNT.            A2DTECH:   Client Code
 SL  . 950' FSL & 2100' FEL:   Surface Location
 PD  .                 GL:   Permanent Datum
 EPD .F              5091:   Elevation Permanent Datum
 LMF .                 KB:   Log Measured From
 DMF .                 KB:   Drilling Measured From
 DAPD.F                10:   Feet Above Permanent Datum
 DATE.        26-FEB-1982:   Date Logged [DD-MMM-YYYY]
 DD  .F              3243:   Depth driller
 DL  .F              3248:   Depth logger
 BLI .F              3216:   Bottom log interval
 TLI .F                 0:   Top log interval
 CS1 .IN            9.625:   Casing size
 CBD1.      9.625" @ 401':   Casing driller 1
 CBL1.F               401:   Casing logger 1
 BS1 .IN            7.875:   Bit size
 BSD1.F              3243:   Depth drilled with bit1
 DFT .           CHEM GEL:   Type fluid in hole
 DFD .                8.9:   Density
 DFV .                 55:   Viscosity
 DFPH.                9.5:   pH
 DFL .                 10:   Fluid loss
 MSS .            MUD PIT:   Source of sample
 RMS .OHMM           1.82:   Rm
 MST .F                76:   Rm Meas. temp.
 RMF .OHMM           1.64:   Rmf
 MFST.F                75:   Rmf Meas. temp.
 MFSS.               MEAS:   Source Rmf.
 RMB .OHMM           1.15:   Rm. at BHT
 BHT .F               120:   BHT.
 TCS .HRS            1330:   Time Circ. stopped
 TLAB.HRS            1715:   Time logger at bottom
 MRT .F               120:   Maximum recorded temp.
 LUN .               8043:   Logging unit number
 LUL .               CSPR:   Logging unit location
 ENGI.             TAYLOR:   Recorded By
 WITN.       FIVAS/STRONG:   Witnessed by
 ORIG.      1" 2.5" PRINT:   Origin of data
 UWI .     49025108850000:   Unique Well ID
 DICO. A2D TECHNOLOGIES, INC.:   Digitizing Company
~OTHER INFORMATION
~A   DEPT       GRR      CALD       TEND       CORR       RHOB       NPHI       TENR        SPR        LLS        LLD       MSFL   
# ...
 5632.0000    77.4746     8.5644  2012.1263     0.0382     2.5239     0.0689  1995.7401    14.3928    54.9246    90.1810    24.3002
 5632.5000    73.9111     8.5937  2012.1343     0.0518     2.5465     0.0677  1995.9438    14.8193    56.5263    92.6732    25.7552
 5633.0000    60.4654     8.5916  2012.1442     0.0507     2.5524     0.0677  1966.1089    15.7267    60.1453    96.5683    27.2962
 5633.5000    53.1234     8.5588  2012.1588     0.0360     2.5490     0.0689  1966.3235    16.3302    69.1035   106.5102    29.1328
 5634.0000    48.8303     8.5881  2012.1697     0.0212     2.5478     0.0696  1970.2452    17.2386    82.7851   123.9687    37.6285
 5634.5000    46.3664     8.5863  2012.1755     0.0102     2.5514     0.0695  1996.7825    17.5583   112.4263   178.3648    73.1930
 5635.0000    45.7317     8.5846  2012.1776    -0.0044     2.5638     0.0668  1996.9968    18.1408   183.0004   314.1911   110.9147
 5635.5000    45.7056     8.5829  2012.1787    -0.0135     2.6079     0.0617  1997.2115    18.1337   289.0560   467.0787   193.0852
 5636.0000    45.6794     8.5811  2013.3446    -0.0105     2.7087     0.0621  1997.4259    18.1272   338.5997   572.6481   303.3191
 5636.5000    45.8357     8.5793  2016.9330    -0.0046     2.7629     0.0642  1997.6763    18.1206   383.9903   620.3789   335.9738
 5637.0000    46.8517     8.5776  2020.5215     0.0030     2.7945     0.0703  1997.8801    18.1141   398.5364   637.5224   276.9137
 5637.5000    47.1248     8.5755  2024.1099     0.0169     2.7882     0.0776  1998.0841    18.1065   390.0602   637.1612   246.0216
 5638.0000    40.0821     8.5738  2027.6984     0.0223     2.7718     0.0800  1998.2877    18.4059   366.1164   628.0021   249.0639
 5638.5000    31.5207     8.5722  2031.2867     0.0188     2.7435     0.0774  1998.4984    18.3989   288.7544   618.3998   276.0904
 5639.0000    22.3494     8.5705  2034.8752     0.0162     2.7091     0.0747  1998.7130    18.6976   254.5947   598.7991   264.7130
 5639.5000    18.6660     8.5666  2038.4637     0.0161     2.6642     0.0706  2028.9575    18.6912   250.9470   552.4405   217.8884
 5640.0000    16.8118     8.5363  2041.9995     0.0161     2.6396     0.0676  2029.1720    18.6847   243.9287   407.5269   134.0253
 5640.5000    18.8604     8.5250  2045.5551     0.0190     2.6239     0.0680  2029.3865    18.8672   231.0535   206.1519    38.2460
 5641.0000    23.3429     8.5020  2049.1191     0.0250     2.6043     0.0680  2029.6427    19.0794   133.3947   147.2187    32.5978
 5641.5000    27.4649     8.5002  2052.7292     0.0309     2.5756     0.0674  2029.8466    19.2748    85.4399    98.2857    25.6111
 5642.0000    30.6103     8.4674  2039.2683     0.0166     2.5380     0.0662  2030.0504    19.2683    77.0334    77.5398    26.5070
 5642.5000    33.7531     8.4658  2025.7144     0.0082     2.5104     0.0656  2030.2542    19.5655    66.6387    67.4304    29.9023
 5643.0000    36.1623     8.4641  2012.1721     0.0086     2.5012     0.0667  2030.4589    19.6711    56.2934    60.2602    26.3659
 5643.5000    37.3569     8.4624  1998.6567     0.0130     2.4959     0.0722  2030.6735    19.8584    43.1781    51.3643    16.4445
 5644.0000    37.9443     8.4915  1985.0830     0.0224     2.4911     0.0805  2030.8879    19.8519    41.9706    41.3654    12.9840
 5644.5000    37.9169     8.4897  1971.5094     0.0215     2.4917     0.0839  2031.1024    19.8454    44.9765    43.4929    14.3012
 5645.0000    37.8920     8.4996  1957.9357     0.0199     2.4955     0.0845  2031.3169    19.8388    49.5598    46.6578    17.4823
 5645.5000    39.2056     8.5169  1944.3619     0.0184     2.5014     0.0840  2031.5315    19.7661    62.8342    55.9299    21.4002
 5646.0000    40.2812     8.5459  1930.8943     0.0138     2.5044     0.0815  2041.3346    19.4253    85.6619    69.0391    27.0803
 5646.5000    34.0915     8.5440  1942.7220     0.0089     2.5119     0.0777  2061.9905    19.0839   124.3739   101.8670    33.6973
 5647.0000    27.6665     8.5423  1954.4581    -0.0004     2.5224     0.0731  2062.2205    18.5932   167.2888   156.7106    44.3298
 5647.5000    23.7369     8.5406  1966.2742    -0.0029     2.5432     0.0747  2062.4246    18.2806   205.0751   392.3230   125.8434
 5648.0000    20.6571     8.5389  1977.9686     0.0042     2.6114     0.0778  2062.6621    17.9695   347.4772   542.6646   282.4529
 5648.5000    20.0224     8.5371  1989.6804     0.0090     2.6754     0.0848  2062.8484    17.6584   416.2735   633.2302   161.3827
 5649.0000    20.6097     8.5354  2001.4142     0.0014     2.7406     0.0902  2063.0630    17.6521   433.8275   685.7812   117.2462
 5649.5000    20.5824     8.5336  2013.1652    -0.0017     2.7450     0.0883  2063.2776    17.6459   445.8654   719.4023    99.2216
 5650.0000    19.9477     8.5494  2024.9231    -0.0003     2.7495     0.0829  2063.4919    17.6682   564.7575   863.9376   134.9290
 5650.5000    18.0311     8.5609  2036.6763     0.0012     2.7555     0.0774  2063.7065    17.9383   781.0437  1405.8391   356.2623
 5651.0000    16.7245     8.5590  2048.4250     0.0043     2.7690     0.0732  2063.9529    17.9312   852.2681  1614.7773   398.0323
 5651.5000    17.0034     8.5573  2052.8455     0.0096     2.7960     0.0740  2064.1353    17.9247   922.1557  1706.2225   440.9226
 5652.0000    18.2581     8.5556  2052.8455     0.0199     2.8035     0.0753  2064.3606    17.9924   967.8207  1729.1989   576.1634
 5652.5000    19.2073     8.5538  2052.8455     0.0256     2.8050     0.0766  2064.5645    18.2165  1004.3203  1704.2904   608.7847
 5653.0000    17.9567     8.5433  2052.8455     0.0265     2.8049     0.0781  2064.7791    18.5148  1024.8706  1649.4427   591.8154
 5653.5000    15.4928     8.5196  2052.8455     0.0279     2.8044     0.0794  2064.9937    18.5083   996.2083  1501.5256   529.4072
 5654.0000    14.8582     8.5178  2052.8455     0.0294     2.8033     0.0806  2065.2080    18.5014   954.9478  1257.6774   444.4212
 5654.5000    15.4430     8.5157  2052.8455     0.0308     2.8018     0.0830  2065.4224    18.4951   865.7716   947.7202   344.7324
 5655.0000    17.2474     8.5141  2052.8455     0.0323     2.7972     0.0876  2049.8804    18.4669   742.3720   726.3574   239.9352
 5655.5000    17.8323     8.5124  2052.8455     0.0322     2.7911     0.0945  2035.8215    18.1773   578.5634   557.9053   167.5098
 5656.0000    15.2444     8.5108  2042.7855     0.0338     2.7730     0.1026  2036.0632    18.4764   452.6654   440.1445    85.2241
 5656.5000    13.3277     8.5090  2030.4673     0.0351     2.7534     0.1152  2036.2670    18.1642   326.2834   337.7115    47.8957
 5657.0000    11.7775     8.5073  2018.1489     0.0350     2.7289     0.1174  2036.4708    18.1577   292.9953   314.8387    49.9075
 5657.5000    11.0192     8.5055  2014.9227     0.0343     2.7262     0.1123  2036.6796    17.9927   271.5353   297.6233    61.4219
 5658.0000    10.9881     8.5037  2020.2020     0.0278     2.7457     0.1087  2036.8939    17.8397   260.2310   293.3490   109.9338
 5658.5000    12.1827     8.5016  2025.4813    -0.0013     2.7471     0.1075  2037.1085    17.8332   260.1014   304.7372   139.8363
 5659.0000    13.3773     8.5000  2030.7606    -0.0044     2.7404     0.1050  2037.3229    17.8262   267.3189   334.2531   155.4715
 5659.5000    15.1817     8.4983  2036.0398     0.0001     2.7436     0.0998  2037.5375    17.8200   290.4839   386.0255   210.9316
 5660.0000    16.9861     8.4967  2041.3191     0.0271     2.8102     0.0940  2037.7520    17.8136   347.9962   468.9662   348.1042
 5660.5000    15.6792     8.4928  2046.5984     0.0466     2.8493     0.0871  2037.9996    17.8071   400.3809   517.3271   499.4682
 5661.0000    14.3723     8.4624  2052.8455     0.0469     2.8523     0.0854  2008.1510    17.8005   366.7630   524.3103   508.9952
 5661.5000    13.2491     8.4607  2064.1631     0.0460     2.8357     0.0906  2008.3772    17.7940   313.1198   488.7693   444.6691
 5662.0000    12.6132     8.4589  2078.0210     0.0421     2.8137     0.0991  2008.5808    17.7875   253.0299   257.5802   327.5692
