~VERSION INFORMATION
 VERS.                2.0:   CWLS LOG ASCII STANDARD - VERSION 2.0
 WRAP.                 NO:   ONE LINE PER DEPTH STEP
~WELL INFORMATION
#MNEM.UNIT      DATA TYPE    INFORMATION
#----------   ------------   ------------------------------
 STRT.F            4.0000:   START DEPTH
 STOP.F         5696.0000:   STOP DEPTH
 STEP.F            0.5000:   STEP LENGTH
 NULL.          -999.2500:   NO VALUE
 COMP.       FLUOR DANIEL:   COMPANY
 WELL.   FLUOR "X" #72-10:   WELL
 FLD .             NPR #3:   FIELD
 LOC .      S10 T38N R78W:   LOCATION
 CNTY.            NATRONA:   COUNTY
 STAT.            WYOMING:   STATE
 CTRY. UNITED STATES OF AMERICA:   COUNTRY
 SRVC.      WESTERN ATLAS:   SERVICE COMPANY
 DATE.        26-SEP-1996:   LOGDATE
 API .     49025228080000:   API NUMBER
~CURVE INFORMATION
#MNEM.UNIT       API CODE    CURVE DESCRIPTION
#----------   ------------   ------------------------------
 DEPT.F                  :   
 GRR .GAPI   07 310 01 00:   GAMMA RAY FROM RESISTIVITY
 SPR .MV     07 010 01 00:   SPONTANEOUS POTENTIAL
 CALR.IN     07 280 01 00:   CALIPER FROM RESISTIVITY
 RD  .OHMM   07 220 10 00:   RESISTIVITY DEEP
 RS  .OHMM   07 220 09 00:   RESISTIVITY SHALLOW
 TENR.LBS    07 635 01 00:   TENSION FROM RESISTIVITY
~PARAMETER INFORMATION
#MNEM.UNIT          VALUE    DESCRIPTION
#----------   ------------   ------------------------------
 EKB .F         5178.0000:   Kelly bushing
 EGL .F         5168.0000:   Ground level
 EDF .F         5177.0000:   Drilling floor
 TD  .F         5698.0000:   Total depth
 CLNT.            A2DTECH:   Client Code
 SL  . 687' FNL & 1002' FEL:   Surface Location
 PD  .                 GL:   Permanent Datum
 EPD .F              5168:   Elevation Permanent Datum
 LMF .                 KB:   Log Measured From
 DMF .                 KB:   Drilling Measured From
 DAPD.F                10:   Feet Above Permanent Datum
 DATE.        26-SEP-1996:   Date Logged [DD-MMM-YYYY]
 DD  .F              5698:   Depth driller
 DL  .F              5697:   Depth logger
 BLI .F              5685:   Bottom log interval
 CS1 .IN            9.625:   Casing size
 CBD1.      9.625" @ 526':   Casing driller 1
 CBL1.F               526:   Casing logger 1
 BS1 .IN             8.75:   Bit size
 BSD1.F              5698:   Depth drilled with bit1
 DFT .               CHEM:   Type fluid in hole
 DFD .                9.1:   Density
 DFV .                 60:   Viscosity
 DFPH.                9.5:   pH
 DFL .                7.6:   Fluid loss
 MSS .               CIRC:   Source of sample
 RMS .OHMM           0.82:   Rm
 MST .F                64:   Rm Meas. temp.
 RMF .OHMM           0.64:   Rmf
 MFST.F                64:   Rmf Meas. temp.
 MFSS.               CALC:   Source Rmf.
 RMC .OHMM           1.08:   Rmc
 MCST.F                64:   Rmc Meas. temp.
 MCSS.               CALC:   Source Rmc.
 RMB .OHMM           0.29:   Rm. at BHT
 BHT .F               183:   BHT.
 TCS .HRS               5:   Time Circ. stopped
 MRT .F               183:   Maximum recorded temp.
 LUN .            HL-6530:   Logging unit number
 LUL .             CASPER:   Logging unit location
 ENGI.           BROWNLOW:   Recorded By
 ORIG.        2" 5" PRINT:   Origin of data
 UWI .     49025228080000:   Unique Well ID
 WITN.              HARDY:   Witnessed by
 DICO. A2D TECHNOLOGIES, INC.:   Digitizing Company
~OTHER INFORMATION
~A  DEPTH      GRR        SPR       CALR         RD         RS       TENR
# ...
 4944.0000    92.4100   -62.6245     9.1786    29.6796    28.9655   -52.1286
 4944.5000    89.7348   -62.6142     9.1653    32.4755    32.1779   -59.7755
 4945.0000    86.1488   -62.6021     9.1667    35.2896    35.1996   -59.8485
 4945.5000    81.9605   -62.5900     9.1530    38.1724    36.7073   -67.5115
 4946.0000    78.0733   -62.5761     9.1548    39.6985    37.2322   -67.5827
 4946.5000    72.3547   -62.5647     9.1562    38.0828    36.4775   -67.6538
 4947.0000    72.1063   -62.5533     9.1576    37.5590    35.7409   -67.7273
 4947.5000    73.6479   -62.5416     9.1591    37.8200    35.5055   -67.8140
 4948.0000    75.4836   -62.5276     9.1608    38.6140    35.7643   -45.1579
 4948.5000    75.2108   -62.5162     9.1623    39.4246    36.7824   -22.5019
 4949.0000    73.7405   -62.6590     9.1637    39.9744    37.5711    -7.4393
 4949.5000    72.5642   -62.8089     9.1583    40.2522    38.1084     0.0830
 4950.0000    72.5927   -63.0843     9.1669    39.9744    38.1208    -0.0059
 4950.5000    72.6212   -63.0729     9.1682    38.6140    38.1333     0.4900
 4951.0000    72.9518   -63.2128     9.1698    36.7868    37.3232    -0.1661
 4951.5000    73.2878   -63.0499     9.1712    32.6181    34.6302    -0.2373
 4952.0000    76.3283   -63.0359     9.1575    29.2714    31.8752    -0.3085
 4952.5000    83.2845   -62.7219     9.1593    28.6696    30.5860     7.1969
 4953.0000    86.9275   -62.4079     9.1452    28.2752    29.5314    22.2586
 4953.5000    84.5535   -62.3964     9.1470    27.2896    28.1642    37.3389
 4954.0000    84.8832   -62.2310     9.1332    24.2795    26.6528    52.4193
 4954.5000    91.8394   -62.0683     9.1347    21.8841    22.7305    67.4996
 4955.0000    98.4944   -62.0569     9.1321    20.7046    20.3312    75.0042
 4955.5000   105.1566   -61.8941     9.1299    21.6056    20.9307    82.5087
 4956.0000   106.9852   -61.8800     9.1276    24.2795    22.4412    90.0133
 4956.5000    99.1895   -62.0227     9.1253    27.3129    26.8845    97.5001
 4957.0000    90.7843   -62.1626     9.1230    30.9388    34.3183    97.4111
 4957.5000    86.4278   -62.2996     9.1207    36.0896    39.1266    82.1884
 4958.0000    77.5954   -62.2854     9.1197    43.4382    41.6603    44.2384
 4958.5000    74.9131   -62.4281     9.1219    44.6583    42.5501    28.7942
 4959.0000    71.6283   -62.5680     9.1236    45.9126    43.1585    13.7752
 4959.5000    69.2472   -62.8563     9.1257    48.2070    47.5787    13.7040
 4960.0000    66.2708   -62.8421     9.1274    52.0077    50.3097     6.0571
 4960.5000    63.8896   -62.8307     9.1291    54.5909    51.3842    -1.5909
 4961.0000    62.1038   -62.8193     9.1313    56.5142    52.1190    -9.2547
 4961.5000    61.8373   -62.8079     9.1330    55.8633    52.5032    -9.3259
 4962.0000    63.4380   -62.6445     9.1345    52.1819    50.7303    -9.3971
 4962.5000    65.8180   -62.4811     9.1364    45.7544    47.6041     6.3131
 4963.0000    68.8586   -62.3170     9.1533    39.8418    40.7959    13.1879
 4963.5000    71.2967   -62.1543     9.1552    31.4887    33.9877    20.6925
 4964.0000    85.0524   -62.1400     9.1570    26.1221    27.1595    13.0277
 4964.5000    95.0259   -62.1286     9.1588    21.6701    20.5864    -2.1969
 4965.0000   101.4662   -61.9112     9.1609    19.0009    18.5572   -17.4355
 4965.5000   107.1501   -61.8033     9.1626    17.1290    17.5591   -32.6582
 4966.0000   113.8104   -61.7890     9.1643    16.7784    17.3228   -32.7294
 4966.5000   120.1695   -61.7776     9.1660    17.4931    18.4445   -32.8030
 4967.0000   118.7057   -61.7662     9.1526    18.7762    19.9119   -32.8896
 4967.5000   113.6190   -61.7548     9.1391    20.9503    23.0398   -32.9608
 4968.0000   104.3154   -61.8947     9.1412    23.5708    26.6608   -33.0320
 4968.5000    96.4742   -62.0346     9.1282    26.7033    29.1838   -33.1209
 4969.0000    88.7288   -62.1745     9.1299    29.9198    30.6436   -33.1921
 4969.5000    85.7505   -61.9604     9.1161    32.4267    30.8648   -33.2633
 4970.0000    83.3746   -62.0268     9.1182    33.1117    31.0897   -18.1830
 4970.5000    84.0192   -62.4855     9.1052    33.1160    30.8809   -18.2720
 4971.0000    85.5591   -62.9061     9.1069    31.9942    29.0216   -18.3432
 4971.5000    85.8856   -63.0432     9.1086    30.4842    27.4294   -33.5659
 4972.0000    85.3253   -63.0254     9.1103    29.0455    25.9886   -48.7886
 4972.5000    87.7773   -63.0077     9.1124    28.2556    25.8140   -48.8776
 4973.0000    90.5219   -63.2961     9.1141    27.6783    25.8224   -48.9488
 4973.5000    94.4713   -63.4367     9.1158    27.1136    26.0105   -49.0200
 4974.0000    95.4087   -63.5704     9.1294    27.1171    26.0173   -49.0912
 4974.5000    92.4389   -63.5525     9.1345    26.9335    26.0241   -34.0108
 4975.0000    93.0751   -63.3870     9.1365    26.7519    25.8509   -18.9305
 4975.5000    95.2173   -63.3728     9.1382    26.5699    25.8593    -3.8679
 4976.0000    95.8620   -63.2073     9.1403    25.4927    25.5097     3.6366
 4976.5000    95.5945   -63.1896     9.1572    24.4583    25.3383    -4.0281
 4977.0000    95.9295   -63.0241     9.1589    24.1258    24.6221   -11.6751
 4977.5000    96.6066   -63.0099     9.1606    22.5145    22.0708   -19.3221
 4978.0000   104.4392   -62.8442     9.1627    20.4369    19.4856   -34.5454
 4978.5000   110.4971   -62.8267     9.1493    18.5515    18.5671   -49.7852
 4979.0000   114.7478   -62.8125     9.1510    19.3411    18.8325   -49.8564
 4979.5000   115.6936   -62.7983     9.1527    21.3129    21.6402   -57.5034
 4980.0000   112.1129   -62.9354     9.1397    23.4857    26.2853   -49.9988
 4980.5000   102.2627   -63.0711     9.1414    28.3190    29.7933   -42.4942
 4981.0000    92.8482   -63.0548     9.1431    31.6413    32.6091   -34.9897
 4981.5000    83.6083   -63.1919     9.1448    33.6805    33.7686   -35.0787
 4982.0000    79.4252   -63.1741     9.1469    35.3910    34.4875   -35.1515
 4982.5000    79.4590   -63.1599     9.1486    37.6379    35.4917   -35.2388
 4983.0000    79.5012   -62.9944     9.1503    39.7871    37.5025   -35.3100
 4983.5000    78.0289   -62.8290     9.1521    41.7687    39.6523   -27.8030
 4984.0000    69.6290   -62.6599     9.1542    43.8899    41.3479   -20.3009
 4984.5000    67.8554   -62.3432     9.1403    46.0345    43.1189   -20.3898
 4985.0000    67.5966   -62.0264     9.1424    49.0013    45.5907    -5.3095
 4985.5000    67.0279   -62.0121     9.1446    53.2542    49.5603    -5.3807
 4986.0000    64.9533   -61.6944     9.1463    58.2804    56.1895   -37.9671
 4986.5000    61.5802   -61.5264     9.1324    57.0895    57.3604   -58.5712
 4987.0000    59.9003   -61.3609     9.1194    40.9498    41.9963   -66.2182
 4987.5000    68.3763   -61.3464     9.1215    31.9181    35.5660   -66.2894
 4988.0000    87.0848   -61.1777     9.1232    25.5780    26.7236   -66.3783
 4988.5000   110.6210   -61.0122     9.1249    21.2188    20.5749   -58.8560
 4989.0000   116.3777   -60.9276     9.1267    19.6650    19.8775   -51.3514
 4989.5000   117.3150   -60.7460     9.1285    19.3971    19.4744   -36.2878
 4990.0000   115.7426   -60.6635     9.1304    20.6478    21.0252   -28.7843
 4990.5000   110.1621   -60.6493     9.1321    21.9785    23.0149   -36.4491
 4991.0000   105.0754   -60.6351     9.1343    23.8861    25.7226   -51.6718
 4991.5000    97.5791   -60.7687     9.1360    26.6288    27.3944   -51.7429
 4992.0000    86.7779   -60.9093     9.1377    30.4463    30.8235   -51.8319
 4992.5000    77.4744   -61.0464     9.1394    34.4926    38.7607   -29.1759
 4993.0000    72.9901   -61.1800     9.1259    38.8070    41.8444   -36.8228
 4993.5000    71.2093   -61.3162     9.1281    42.7648    42.1465   -52.0455
 4994.0000    71.8613   -61.2993     9.1298    43.9717    41.5767   -59.7102
 4994.5000    72.1963   -61.4399     9.1315    43.6725    41.8797   -67.3572
 4995.0000    70.7240   -61.4222     9.1336    43.9831    43.6705   -75.0041
 4995.5000    67.1518   -61.5593     9.1202    48.4687    48.8115   -75.0758
