~VERSION INFORMATION
 VERS.                2.0:   CWLS LOG ASCII STANDARD - VERSION 2.0
 WRAP.                 NO:   ONE LINE PER DEPTH STEP
~WELL INFORMATION
#MNEM.UNIT      DATA TYPE    INFORMATION
#----------   ------------   ------------------------------
 STRT.F            0.0000:   START DEPTH
 STOP.F          678.0000:   STOP DEPTH
 STEP.F            0.5000:   STEP LENGTH
 NULL.          -999.2500:   NO VALUE
 COMP.       FLUOR DANIEL:   COMPANY
 WELL. FLUOR DANIEL "X" #23-2:   WELL
 FLD .          N.P.R. #3:   FIELD
 LOC .       S2 T38N R78W:   LOCATION
 CNTY.            NATRONA:   COUNTY
 STAT.            WYOMING:   STATE
 CTRY. UNITED STATES OF AMERICA:   COUNTRY
 SRVC.      WESTERN ATLAS:   SERVICE COMPANY
 DATE.        12-AUG-1994:   LOGDATE
 API .     49025226420000:   API NUMBER
~CURVE INFORMATION
#MNEM.UNIT       API CODE    CURVE DESCRIPTION
#----------   ------------   ------------------------------
 DEPT.F                  :   
 GR  .GAPI   07 310 01 00:   GAMMA RAY
 ILD .OHMM   07 120 46 00:   DEEP INDUCTION RESISTIVITY
 ILM .OHMM   07 120 44 00:   INDUCTION LOG MEDIUM RESISTIVITY
 TENR.LBS    07 635 01 00:   TENSION FROM RESISTIVITY
~PARAMETER INFORMATION
#MNEM.UNIT          VALUE    DESCRIPTION
#----------   ------------   ------------------------------
 EKB .F         5110.0000:   Kelly bushing
 EGL .F         5100.0000:   Ground level
 EDF .F         5109.0000:   Drilling floor
 EPD .F         5100.0000:   Permanent datum
 TD  .F          677.0000:   Total depth
 CLNT.            A2DTECH:   Client Code
 SL  . 1896' FNL & 744' FWL:   Surface Location
 PD  .                 GL:   Permanent Datum
 DAPD.F                10:   Feet Above Permanent Datum
 DATE.        12-AUG-1994:   Date Logged [DD-MMM-YYYY]
 DD  .F               670:   Depth driller
 DL  .F               677:   Depth logger
 BLI .F               664:   Bottom log interval
 TLI .F                 0:   Top log interval
 CS1 .              9.625:   Casing size
 CBD1.       9.625" @ 72':   Casing driller 1
 CBL1.IN               79:   Casing logger 1
 BS1 .IN             8.75:   Bit size
 BSD1.F               670:   Depth drilled with bit1
 DFT .                AIR:   Type fluid in hole
 LUN .            HL 6530:   Logging unit number
 LUL .             CASPER:   Logging unit location
 ENGI.      PAT RASMUSSEN:   Recorded By
 WITN.        GARY STRONG:   Witnessed by
 ORIG.         2.5" PRINT:   Origin of data
 UWI .     49025226420000:   Unique Well ID
 DICO. A2D TECHNOLOGIES, INC.:   Digitizing Company
~OTHER INFORMATION
~A    DEPT       GR       ILD        ILM       TENR   
# ...
  146.0000   130.9298     6.2954     6.3382   -49.4057
  146.5000   131.0967     6.4655     6.3365   -49.1147
  147.0000   129.1351     6.5514     6.3382   -48.8236
  147.5000   127.9444     6.5496     6.4213   -48.5325
  148.0000   126.1673     6.6366     6.5908   -48.2415
  148.5000   124.3901     6.8159     6.6778   -47.9504
  149.0000   123.7860     6.9068     6.7672   -47.6593
  149.5000   123.7684     7.1892     6.9484   -47.3683
  150.0000   124.3372     7.2850     7.0395   -47.0772
  150.5000   125.4926     7.3818     7.1325   -46.7861
  151.0000   127.2345     7.4796     7.2266   -60.9878
  151.5000   128.3929     7.4775     7.2247   -60.6967
  152.0000   126.6128     7.4755     7.2228   -60.4057
  152.5000   127.7682     7.3735     7.1248   -60.1146
  153.0000   129.5101     7.2730     7.0282   -59.8235
  153.5000   130.6655     7.2713     7.0263   -59.5325
  154.0000   130.6478     7.2396     6.8388   -59.2414
  154.5000   129.4572     7.1702     6.7461   -58.9503
  155.0000   129.2278     7.0724     6.6546   -58.6593
  155.5000   130.5950     6.9759     6.6528   -58.3682
  156.0000   131.1672     6.9467     6.6510   -58.0771
  156.5000   132.9058     6.8789     6.6492   -57.7861
  157.0000   135.2342     6.8507     6.6474   -57.4950
  157.5000   137.5626     6.7832     6.6456   -42.7112
  158.0000   135.7854     6.8994     6.8241   -42.4201
  158.5000   128.7297     7.1817     7.0074   -27.6363
  159.0000   123.4335     7.4029     7.2926   -27.3452
  159.5000   122.2428     7.7054     7.4885   -12.5614
  160.0000   122.2287     7.9909     7.6896   -12.2703
  160.5000   122.2112     8.0682     7.7913   -11.9793
  161.0000   122.1936     8.0942     7.8942   -11.6882
  161.5000   123.2141     8.1732     7.8919   -11.3971
  162.0000   127.3978     8.1707     7.7849   -11.1061
  162.5000   133.3824     8.0323     7.6793   -10.8150
  163.0000   134.7800     7.7125     7.4744   -10.5239
  163.5000   134.6706     7.6077     7.3731   -10.2329
  164.0000   134.7410     7.3284     7.2731   -10.0000
  164.5000   136.5629     7.2284     7.0790    -9.7101
  165.0000   138.5533     7.2039     6.9830    -9.4203
  165.5000   137.5405     7.1279     6.8883    -9.1305
  166.0000   135.1789     7.0307     6.7949    -8.8405
  166.5000   134.3167     6.9347     6.7027    -8.5507
  167.0000   135.2101     6.9329     6.7009    -8.2609
  167.5000   135.7771     7.0252     6.7896    -7.9710
  168.0000   134.4749     7.0434     6.7876    -7.6812
  168.5000   131.8493     7.1166     6.8774    -7.3913
  169.0000   129.1732     7.2111     6.9682   -21.5942
  169.5000   127.4447     7.2089     7.0600   -21.3043
  170.0000   126.2561     7.3049     7.2499   -21.0145
  170.5000   125.9648     7.5023     7.3457   -20.7247
  171.0000   126.8427     7.5197     7.5427   -20.4348
  171.5000   127.6891     7.5999     7.7453   -20.1450
  172.0000   127.9765     7.7201     7.7432   -19.8551
  172.5000   128.2405     7.9089     7.9512   -19.5652
  173.0000   130.5676     8.0140     8.0565   -19.2754
  173.5000   131.7230     8.0116     8.1628   -18.9855
  174.0000   131.1188     8.1182     8.1604   -18.6957
  174.5000   124.0631     8.1158     8.1582   -18.4057
  175.0000   118.7669     8.1136     8.1560   -32.6087
  175.5000   116.4032     8.0030     8.1538   -32.3188
  176.0000   118.1451     8.0008     8.1516   -32.0290
  176.5000   123.4061     7.8589     7.9341   -31.7391
  177.0000   128.0805     7.6642     7.7224   -31.4493
  177.5000   129.2359     7.5752     7.6177   -31.1595
  178.0000   129.8064     7.4719     7.4144   -30.8696
  178.5000   130.9602     7.4699     7.3139   -30.5797
  179.0000   133.2886     7.4679     7.3119   -30.2899
  179.5000   135.6170     7.4658     7.2127   -30.0000
  180.0000   137.3589     7.4638     7.1537   -29.7102
  180.5000   136.1683     7.4618     7.1134   -29.4203
  181.0000   131.4586     7.4598     7.1115   -43.6693
  181.5000   128.5084     7.4578     7.0150   -43.3333
  182.0000   127.3178     7.4558     7.0132   -43.0434
  182.5000   126.1271     7.4538     7.0113   -42.7536
  183.0000   126.6960     7.4515     7.0094   -42.4638
  183.5000   130.1974     7.4495     7.0075   -42.1739
  184.0000   132.5259     7.4475     7.0057   -41.8841
  184.5000   133.6813     7.4455     7.0038   -41.5942
  185.0000   134.8367     7.4435     7.0019   -41.3043
  185.5000   135.9921     7.4415     7.0497   -41.0145
  186.0000   135.3879     7.4395     7.0925   -40.7246
  186.5000   133.6108     7.4375     7.1397   -40.4348
  187.0000   133.0066     7.5365     7.1842   -40.1450
  187.5000   134.7485     7.5342     7.1823   -39.8551
  188.0000   135.9061     7.5322     7.2771   -39.5652
  188.5000   134.7133     7.5302     7.2752   -39.2754
  189.0000   132.9361     7.5281     7.2732   -38.9855
  189.5000   131.7455     7.5261     7.3177   -38.6957
  190.0000   132.3144     7.6264     7.3673   -38.4058
  190.5000   134.0563     7.7274     7.3653   -38.1160
  191.0000   134.6276     7.8300     7.4626   -37.8261
  191.5000   134.0210     7.8279     7.5612   -23.0435
  192.0000   133.4169     7.9319     7.6040   -22.7536
  192.5000   134.5723     7.9297     7.6590   -22.4638
  193.0000   136.9007     8.0351     7.7601   -36.6836
  193.5000   138.6426     8.0329     7.8020   -37.9477
  194.0000   139.7980     8.2500     7.9664   -50.5943
  194.5000   140.9534     8.2477     7.9643   -50.2899
  195.0000   140.9358     8.3576     8.0695   -50.0000
  195.5000   140.9182     8.3550     8.0673   -49.7102
  196.0000   139.7275     8.4660     8.0651   -49.4203
  196.5000   139.7099     8.4637     8.0630   -49.1304
  197.0000   143.7978     8.4614     8.0608   -34.3479
  197.5000   143.1674     8.4592     8.0587   -33.4520
  198.0000   139.2532     8.4569     8.0565   -19.2753
  198.5000   137.0947     8.4546     8.0543   -33.8420
  199.0000   135.9062     8.4523     8.1611   -47.6836
  199.5000   134.9149     8.5646     8.1959   -47.3925
  200.0000   134.3109     8.7431     8.7897   -61.5942
  200.5000   135.2667     8.9337     9.0261   -61.3031
  201.0000   137.0049     9.1550     9.2688   -61.0121
  201.5000   138.9530     9.4030     9.3917   -45.8597
  202.0000   139.5219     9.4011     9.3898   -60.1773
  202.5000   136.3929     9.3992     9.5146   -59.9564
  203.0000   134.9990     9.5247     9.7701   -59.1554
  203.5000   133.8105     9.6519     9.7682   -44.3088
  204.0000   132.2462     9.9134     9.8979   -30.2325
  204.5000   131.2728    10.0457    10.0288   -15.4797
  205.0000   132.2776    10.3182    10.1618   -15.2617
  205.5000   134.3988    10.4560    10.1597   -15.0436
  206.0000   135.3453    10.4535    10.0228   -29.3692
  206.5000   133.9375    10.4514    10.0208   -29.1425
  207.0000   133.5601    10.4493    10.0188   -28.9244
  207.5000   134.1371    10.4472    10.0168   -28.7064
  208.0000   132.6297    10.4451    10.0148   -28.4884
  208.5000   128.1466    10.4430    10.0128   -29.9158
  209.0000   126.4751    10.4409    10.0108   -42.6002
  209.5000   126.6960    10.2992     9.8759   -42.3691
  210.0000   128.0938    10.2971     9.8739   -44.0885
  210.5000   130.6688    10.1573     9.7409   -56.4832
  211.0000   132.2932    10.1553     9.7389   -56.2499
  211.5000   131.6950    10.0175     9.6077   -53.8042
  212.0000   131.6833    10.0154     9.4782   -41.2791
  212.5000   132.5025    10.0134     9.4763   -41.0611
  213.0000   134.2521     9.8775     9.4744   -40.8431
  213.5000   136.0020     9.8755     9.4725   -40.6250
  214.0000   137.4155     9.8735     9.4706   -40.4070
  214.5000   138.6628     9.8715     9.4687   -40.1890
  215.0000   139.2375     9.7375     9.4669   -39.9710
  215.5000   138.9697     9.7356     9.4650   -39.7529
  216.0000   133.5605     9.7336     9.4631   -39.5349
  216.5000   127.2783     9.6015     9.3355   -39.3169
  217.0000   124.5279     9.4712     9.3337   -39.0989
  217.5000   125.5717     9.4692     9.3318   -38.8808
  218.0000   131.6988     9.3407     9.2061   -38.6628
  218.5000   135.2670     9.3388     9.2042   -38.4448
