~VERSION INFORMATION
 VERS.                2.0:   CWLS LOG ASCII STANDARD - VERSION 2.0
 WRAP.                 NO:   ONE LINE PER DEPTH STEP
~WELL INFORMATION
#MNEM.UNIT      DATA TYPE    INFORMATION
#----------   ------------   ------------------------------
 STRT.F          164.0000:   START DEPTH
 STOP.F         3223.5000:   STOP DEPTH
 STEP.F            0.5000:   STEP LENGTH
 NULL.          -999.2500:   NO VALUE
 COMP.    FENIX & SCISSON:   COMPANY
 WELL. FENIX & SCISSON "AX" #64-34:   WELL
 FLD . NAVAL PETROLEUM RESERVE #3:   FIELD
 LOC .      S34 T39N R78W:   LOCATION
 CNTY.            NATRONA:   COUNTY
 STAT.            WYOMING:   STATE
 CTRY. UNITED STATES OF AMERICA:   COUNTRY
 SRVC.       SCHLUMBERGER:   SERVICE COMPANY
 DATE.        30-DEC-1980:   LOGDATE
 API .     49025108660000:   API NUMBER
~CURVE INFORMATION
#MNEM.UNIT       API CODE    CURVE DESCRIPTION
#----------   ------------   ------------------------------
 DEPT.F                  :   
 GRD .GAPI   45 310 01 00:   GAMMA RAY FROM DENSITY LOG
 RHOB.G/C3   45 350 01 00:   BULK DENSITY
 CALD.IN     45 280 60 00:   CALIPER FROM DENSITY LOG
 CORR.G/C3   45 356 01 00:   DENSITY CORRECTION
 SPR .MV     07 010 01 00:   SPONTANEOUS POTENTIAL
 TENR.LBS    06 635 01 00:   TENSION FROM RESISTIVITY
 ILD .OHMM   07 120 46 00:   DEEP INDUCTION RESISTIVITY
 ILM .OHMM   07 120 44 00:   INDUCTION LOG MEDIUM RESISTIVITY
 SFL .OHMM   07 220 01 00:   SHALLOW FOCUSED LOG RESISTIVITY
~PARAMETER INFORMATION
#MNEM.UNIT          VALUE    DESCRIPTION
#----------   ------------   ------------------------------
 EKB .F         5088.0000:   Kelly bushing
 EGL .F         5078.0000:   Ground level
 TD  .F         3225.0000:   Total depth
 CLNT.            A2DTECH:   Client Code
 SL  . 3107' FSL & 3680' FWL:   Surface Location
 PD  .                 GL:   Permanent Datum
 EPD .F              5078:   Elevation Permanent Datum
 LMF .                 KB:   Log Measured From
 DMF .                 KB:   Drilling Measured From
 DAPD.F                10:   Feet Above Permanent Datum
 DATE.        30-DEC-1980:   Date Logged [DD-MMM-YYYY]
 DD  .F              3225:   Depth driller
 DL  .F              3225:   Depth logger
 BLI .F              3219:   Bottom log interval
 TLI .F               190:   Top log interval
 CS1 .IN            8.625:   Casing size
 CBD1.      8.625" @ 205':   Casing driller 1
 CBL1.F               190:   Casing logger 1
 BS1 .IN            7.875:   Bit size
 BSD1.F              3225:   Depth drilled with bit1
 DFT .              FRESH:   Type fluid in hole
 DFD .                  9:   Density
 DFV .                 46:   Viscosity
 MSS .           MUD TANK:   Source of sample
 RMS .OHMM           2.47:   Rm
 MST .F                57:   Rm Meas. temp.
 RMF .OHMM           1.45:   Rmf
 MFST.F                57:   Rmf Meas. temp.
 MFSS.               MEAS:   Source Rmf.
 RMB .OHMM            1.2:   Rm. at BHT
 BHT .F               124:   BHT.
 TCS .HRS            0400:   Time Circ. stopped
 MRT .F               124:   Maximum recorded temp.
 LUN .               8034:   Logging unit number
 LUL .               CSPR:   Logging unit location
 ENGI.             LARSON:   Recorded By
 WITN.              FIVAS:   Witnessed by
 ORIG.        2" 5" PRINT:   Origin of data
 UWI .     49025108660000:   Unique Well ID
 DICO. A2D TECHNOLOGIES, INC:   Digitizing Company
 TLAB.HRS            2030:   Time logger at bottom
~OTHER INFORMATION
~A   DEPT       GRD      RHOB       CALD       CORR        SPR       TENR        ILD        ILM        SFL   
# ...
 2755.5000    81.9841     2.4876     9.8739     0.0420   -35.7532  1542.7098    17.3941    17.9149    22.9539
 2756.0000    84.2549     2.4845     9.9192     0.0398   -35.9147  1543.2692    17.2598    17.9041    22.9414
 2756.5000    86.1939     2.4877     9.9609     0.0375   -36.6859  1543.8286    16.8815    17.8955    21.1135
 2757.0000    87.2388     2.4930     9.9895     0.0384   -37.7602  1544.3882    16.8702    17.8869    19.4132
 2757.5000    88.4354     2.4960     9.9944     0.0398   -38.0723  1544.9475    16.7400    17.4828    19.1249
 2758.0000    89.7837     2.4976    10.0163     0.0403   -37.9268  1545.5068    16.6108    16.5048    19.1145
 2758.5000    91.2853     2.4991    10.0145     0.0354   -37.4189  1546.0663    16.4826    16.0278    19.6651
 2759.0000    91.8734     2.4991    10.0127     0.0188   -36.7238  1546.6257    16.5903    15.7906    20.5176
 2759.5000    89.7273     2.4975    10.0109     0.0141   -36.1946  1547.1852    16.5813    15.7831    20.3591
 2760.0000    87.4338     2.4951    10.0090     0.0133   -35.6148  1547.7446    16.5722    16.0047    18.3952
 2760.5000    85.1402     2.4920     9.9769     0.0180   -35.3735  1548.3040    16.4443    16.3450    17.2305
 2761.0000    82.2397     2.4873     9.9752     0.0253   -35.2283  1548.8634    16.1940    16.2197    17.2208
 2761.5000    81.4636     2.4841     9.9427     0.0266   -35.3898  1549.4227    15.7295    15.7509    17.7126
 2762.0000    85.2356     2.4810     9.9259     0.0234   -35.5956  1549.9822    15.6081    15.2956    18.6189
 2762.5000    89.3153     2.4794     9.9090     0.0173   -35.7512  1550.5417    15.4877    15.2865    18.7459
 2763.0000    92.9399     2.4747     9.8466     0.0110   -36.0213  1551.1011    15.7038    15.2791    17.6836
 2763.5000    95.3504     2.4770     9.7970     0.0039   -36.1814  1551.6604    15.8086    15.4937    16.8021
 2764.0000    97.4532     2.4832     9.7215     0.0028   -36.1890  1552.2198    15.4602    15.7131    16.6723
 2764.5000    98.1989     2.4936     9.6895     0.0023   -36.1966  1552.7793    15.2308    15.4788    16.7837
 2765.0000    97.2667     2.5072     9.6575     0.0023   -36.2044  1553.3386    15.2224    14.9216    16.7745
 2765.5000    95.8837     2.4994     9.6254     0.0023   -36.0917  1553.8982    15.2141    15.0242    17.0088
 2766.0000    92.2244     2.4901     9.5930     0.0058   -36.0664  1554.4575    15.6480    15.3436    17.4943
 2766.5000    89.7312     2.4744     9.5609     0.0125   -36.0747  1555.0170    15.8685    15.6736    18.1287
 2767.0000    87.9365     2.4683     9.5441     0.0167   -36.0827  1555.5763    15.9745    15.8918    19.0537
 2767.5000    86.7052     2.4775     9.5272     0.0214   -36.2474  1556.1357    15.9635    15.8822    20.3194
 2768.0000    87.9018     2.4899     9.5254     0.0273   -36.8611  1556.6953    15.9548    15.7605    20.0294
 2768.5000    89.2501     2.4992     9.5233     0.0318   -37.4781  1557.2546    16.0613    15.7530    18.7477
 2769.0000    90.3158     2.5031     9.5064     0.0336   -37.9426  1557.8140    16.0504    15.6323    18.8755
 2769.5000    91.0320     2.5038     9.5003     0.0312   -38.1023  1558.3734    16.0416    15.7379    19.0017
 2770.0000    90.4077     2.5061     9.4879     0.0298   -37.8710  1558.9329    16.0328    15.7284    18.1851
 2770.5000    89.3281     2.5131     9.4861     0.0289   -37.3563  1559.4922    16.1398    15.8366    17.4060
 2771.0000    88.4003     2.5208     9.4839     0.0383   -36.8398  1560.0518    16.2476    16.0589    18.0323
 2771.5000    87.4533     2.5262     9.4824     0.0448   -36.3037  1560.6111    16.3561    16.2825    19.2301
 2772.0000    86.9955     2.5254     9.4806     0.0444   -35.8518  1561.1705    16.5065    16.5111    20.2141
 2772.5000    86.5229     2.5262     9.4787     0.0398   -35.4053  1561.7299    16.6929    16.6227    20.3492
 2773.0000    85.8986     2.5285     9.4770     0.0344   -35.1077  1562.2893    16.8042    16.7350    20.4851
 2773.5000    85.4260     2.5316     9.4748     0.0239   -34.9625  1562.8489    16.9164    16.7249    20.6220
 2774.0000    85.8639     2.5377     9.4582     0.0180   -34.6646  1563.4082    16.9048    16.7169    20.9071
 2774.5000    86.1500     2.5358     9.4507     0.0151   -34.5198  1563.9675    16.8956    16.5885    20.5967
 2775.0000    85.9766     2.5237     9.4392     0.0084   -34.5286  1564.5270    16.6449    16.4597    20.1424
 2775.5000    85.0488     2.5019     9.4411     0.0055   -34.8407  1565.0864    16.2780    16.2162    19.4188
 2776.0000    85.1831     2.4848     9.4509     0.0044   -35.1528  1565.6458    16.0365    15.9763    18.5869
 2776.5000    87.0684     2.4831     9.4491     0.0023   -35.3125  1566.2053    15.9127    15.6268    18.5767
 2777.0000    92.4279     2.4928     9.4473     0.0016   -35.6264  1566.7646    15.5641    15.3938    18.5665
 2777.5000    94.5393     2.5026     9.4454     0.0008   -35.6336  1567.3241    15.3257    14.9488    18.4206
 2778.0000    93.0001     2.5018     9.4436     0.0016   -35.6409  1567.8834    14.9952    14.6218    18.1471
 2778.5000    89.6444     2.4955     9.4418     0.0023   -35.6481  1568.4429    14.9870    14.5098    18.0069
 2779.0000    86.2323     2.4893     9.4365     0.0031   -35.9745  1569.0024    15.0891    14.7135    17.9971
 2779.5000    85.6643     2.4861     9.4229     0.0040   -36.8839  1569.5618    15.2975    15.2447    17.9870
 2780.0000    88.5258     2.4861     9.4362     0.0070   -37.5008  1570.1211    15.5110    15.6833    17.9750
 2780.5000    90.7846     2.4985     9.4345     0.0119   -37.8129  1570.6805    15.8389    15.9036    17.9651
 2781.0000    90.4637     2.5326     9.4327     0.0271   -37.9726  1571.2400    16.1759    16.1269    18.4804
 2781.5000    88.5904     2.5528     9.4458     0.0383   -37.9816  1571.7993    16.5202    16.3555    20.1388
 2782.0000    86.3276     2.5598     9.4441     0.0426   -37.6840  1572.3589    16.7506    16.9437    22.1017
 2782.5000    86.4620     2.5590     9.4424     0.0478   -37.0815  1572.9182    17.2307    17.3081    23.0689
 2783.0000    86.4446     2.5543     9.4406     0.0508   -36.4789  1573.4777    17.5950    17.5490    21.9190
 2783.5000    86.1238     2.5302     9.4236     0.0500   -36.0288  1574.0370    17.9694    17.7955    21.2845
 2784.0000    85.4744     2.5045     9.4216     0.0492   -35.7330  1574.5964    18.0919    17.7869    20.9682
 2784.5000    83.0498     2.5014     9.4197     0.0469   -35.4353  1575.1558    18.0724    17.7763    21.2583
 2785.0000    83.0324     2.5044     9.4030     0.0461   -35.3862  1575.7153    17.6810    17.0152    21.7111
 2785.5000    84.6843     2.5005     9.4012     0.0453   -35.2973  1576.2747    17.5445    16.6430    22.3369
 2786.0000    86.9431     2.4857     9.3994     0.0445   -35.4588  1576.8341    17.2842    16.5155    21.5316
 2786.5000    89.9708     2.4888     9.3974     0.0445   -35.4660  1577.3936    17.1508    16.5074    19.8154
 2787.0000    91.0055     2.5051     9.3958     0.0437   -35.5721  1577.9529    17.1412    16.4977    18.6185
 2787.5000    89.0111     2.5136     9.4091     0.0406   -35.7854  1578.5125    17.0068    16.4897    18.4747
 2788.0000    86.8693     2.5120     9.4225     0.0390   -35.7927  1579.0718    16.8756    16.3634    18.8681
 2788.5000    85.0310     2.5073     9.4203     0.0359   -35.8003  1579.6312    16.7453    16.2380    19.6911
 2789.0000    83.7972     2.5073     9.4186     0.0312   -35.8088  1580.1906    16.6161    15.9838    19.9661
 2789.5000    83.0193     2.5041     9.4017     0.0282   -35.8161  1580.7500    16.6047    15.5335    19.6669
 2790.0000    83.4572     2.4975     9.3848     0.0218   -35.8233  1581.3093    16.3583    15.3037    19.3749
 2790.5000    84.6538     2.4909     9.3744     0.0211   -35.9832  1581.8689    16.0000    15.2963    19.2252
 2791.0000    86.4574     2.5002     9.3658     0.0232   -36.1444  1582.4343    15.5372    15.2890    19.2144
 2791.5000    89.7784     2.5025     9.3489     0.0258   -36.6090  1582.7062    15.4172    15.2814    18.5220
