~VERSION INFORMATION
 VERS.                2.0:   CWLS LOG ASCII STANDARD - VERSION 2.0
 WRAP.                 NO:   ONE LINE PER DEPTH STEP
~WELL INFORMATION
#MNEM.UNIT      DATA TYPE    INFORMATION
#----------   ------------   ------------------------------
 STRT.F          206.0000:   START DEPTH
 STOP.F         3218.0000:   STOP DEPTH
 STEP.F            0.5000:   STEP LENGTH
 NULL.          -999.2500:   NO VALUE
 COMP.    FENIX & SCISSON:   COMPANY
 WELL.     FENIX AX #16-2:   WELL
 FLD .              NPR 3:   FIELD
 LOC .       S2 T38N R78W:   LOCATION
 CNTY.            NATRONA:   COUNTY
 STAT.            WYOMING:   STATE
 CTRY. UNITED STATES OF AMERICA:   COUNTRY
 SRVC.       SCHLUMBERGER:   SERVICE COMPANY
 DATE.        10-OCT-1977:   LOGDATE
 API .     49025105780000:   API NUMBER
~CURVE INFORMATION
#MNEM.UNIT       API CODE    CURVE DESCRIPTION
#----------   ------------   ------------------------------
 DEPT.F                  :   
 GRD .GAPI   45 310 01 00:   GAMMA RAY FROM DENSITY LOG
 CALD.IN     45 280 60 00:   CALIPER FROM DENSITY LOG
 RHOB.G/C3   45 350 01 00:   BULK DENSITY
 CORR.G/C3   45 356 01 00:   DENSITY CORRECTION
 SPR .MV     07 010 01 00:   SPONTANEOUS POTENTIAL FROM RES.
 RILD.OHMM   07 120 46 00:   DEEP INDUCTION RESISTIVITY
 RILM.OHMM   07 120 44 00:   INDUCTION LOG MEDIUM RESISTIVITY
 RLL8.OHMM   07 220 08 00:   LATEROLOG-8 RES.
~PARAMETER INFORMATION
#MNEM.UNIT          VALUE    DESCRIPTION
#----------   ------------   ------------------------------
 EKB .F         5123.0000:   Kelly bushing
 EGL .F         5113.0000:   Ground level
 EDF .F            0.0000:   Drilling floor
 TD  .F         3220.0000:   Total depth
 CLNT.            A2DTECH:   Client Code
 SL  . 1772' FSL & 576' FWL:   Surface Location
 PD  .                 GL:   Permanent Datum
 EPD .F              5113:   Elevation Permanent Datum
 LMF .                 KB:   Log Measured From
 DMF .                 KB:   Drilling Measured From
 DAPD.F                10:   Feet Above Permanent Datum
 DATE.        10-OCT-1977:   Date Logged [DD-MMM-YYYY]
 DD  .F              3220:   Depth driller
 DL  .F              3218:   Depth logger
 BLI .F              3212:   Bottom log interval
 TLI .F               223:   Top log interval
 CS1 .IN            8.625:   Casing size
 CBD1.      8.625" @ 222':   Casing driller 1
 CBL1.F               223:   Casing logger 1
 BS1 .IN            7.875:   Bit size
 BSD1.F              3220:   Depth drilled with bit1
 DFT .                KCL:   Type fluid in hole
 DFD .                8.6:   Density
 DFV .                 32:   Viscosity
 DFPH.                 11:   pH
 MSS .            MUD PIT:   Source of sample
 RMS .OHMM           0.29:   Rm
 MST .F                82:   Rm Meas. temp.
 RMF .OHMM          0.228:   Rmf
 MFST.F                81:   Rmf Meas. temp.
 MFSS.               MEAS:   Source Rmf.
 RMB .OHMM           0.21:   Rm. at BHT
 BHT .F               122:   BHT.
 TCS .HRS            0600:   Time Circ. stopped
 MRT .F               122:   Maximum recorded temp.
 LUN .               5642:   Logging unit number
 ENGI. CHALUPSKY PETERSON:   Recorded By
 WITN.     WES PETTINGILL:   Witnessed by
 ORIG.           5" PRINT:   Origin of data
 UWI .     49025105780000:   Unique Well ID
 DICO. A2D TECHNOLOGIES, INC.:   Digitizing Company
 TLAB.HRS            1000:   Time logger at bottom
 LUL .               CSPR:   Logging unit location
~OTHER INFORMATION
~A   DEPT       GRD      CALD       RHOB       CORR        SPR       RILD       RILM       RLL8   
# ...
 2190.5000   118.5402     8.7586     2.5041    -0.0027   -45.4530     7.4322     7.2857     9.3948
 2191.0000   118.8555     8.7453     2.5057    -0.0034   -46.0327     7.4407     7.3456     8.8964
 2191.5000   117.0648     8.7475     2.5058    -0.0034   -46.6432     7.5026     7.5126     7.5421
 2192.0000   114.9691     8.7338     2.5005    -0.0018   -47.5878     7.6288     7.6835     7.7091
 2192.5000   114.2314     8.7360     2.4944     0.0012   -48.6798     7.8508     7.9713     8.6964
 2193.0000   113.4938     8.7378     2.4864     0.0072   -49.2917     8.0874     8.2110    10.1103
 2193.5000   112.4540     8.7395     2.4987     0.0140   -49.5960     8.3312     8.4580    10.4001
 2194.0000   110.8100     8.7262     2.5038     0.0133   -49.4423     8.5823     8.6503    10.3368
 2194.5000   110.2234     8.7280     2.4978     0.0096   -49.3579     8.7781     8.7245    10.7856
 2195.0000   108.9323     8.7298     2.4920     0.0052   -49.2056     8.9144     8.8566    11.4874
 2195.5000   107.5395     8.7165     2.4806     0.0022   -48.1621     8.9884     8.9315    11.6568
 2196.0000   110.4316     8.7183     2.4739    -0.0007   -46.5989     8.9984     9.0050    11.3480
 2196.5000   114.5278     8.7204     2.4701    -0.0006   -45.5063     8.9443     9.0144    11.1240
 2197.0000   116.3581     8.7222     2.4771     0.0031   -44.3087     8.8906     9.0239    10.6773
 2197.5000   117.1310     8.7085     2.4718     0.0039   -43.2247     8.8371     9.0334    10.3976
 2198.0000   117.9039     8.7257     2.4727     0.0024   -42.8607     8.7840     9.0429    10.1221
 2198.5000   118.8279     8.7275     2.4878    -0.0005   -42.4964     8.7963     8.9855    10.2027
 2199.0000   119.7821     8.7442     2.4901    -0.0035   -42.2833     8.7434     8.9329    10.5701
 2199.5000   120.9823     8.7460     2.4774    -0.0023   -41.8705     8.6885     8.8158    10.9508
 2200.0000   121.6041     8.7477     2.4685     0.0094   -42.0034     8.5748     8.7622    11.1894
 2200.5000   121.6218     8.7345     2.4595     0.0057   -42.2359     8.3401     8.7714    11.1213
 2201.0000   121.7904     8.7217     2.4641     0.0028   -42.6476     8.1103     8.4568    10.8267
 2201.5000   121.9591     8.7234     2.4694    -0.0009   -43.3237     7.8459     8.1277    10.3955
 2202.0000   122.1278     8.7252     2.4680    -0.0023   -44.3236     7.7415     8.0187     9.8459
 2202.5000   121.5411     8.7269     2.4801    -0.0006   -45.2539     7.6955     7.9153     9.3902
 2203.0000   120.0482     8.7132     2.4959     0.0038   -45.8003     7.7047     7.8652     9.0178
 2203.5000   120.2175     8.7173     2.4930     0.0047   -46.8974     7.6590     7.8174     8.7810
 2204.0000   122.2026     8.7236     2.4885     0.0025   -47.7479     7.6135     7.7699     8.6672
 2204.5000   125.1704     8.7299     2.4826    -0.0035   -48.0565     7.5683     7.7248     9.2371
 2205.0000   126.8585     8.7187     2.4752    -0.0049   -47.9453     7.5234     7.6759     9.5729
 2205.5000   126.7250     8.7067     2.4715    -0.0003   -47.3713     7.4806     7.6293     9.7845
 2206.0000   125.5582     8.6955     2.4813     0.0058   -46.8165     7.4364     7.6393     9.6578
 2206.5000   121.9592     8.6986     2.4941     0.0073   -46.3368     7.4454     7.6474     9.3988
 2207.0000   117.3028     8.7024     2.4889     0.0044   -45.6981     7.4012     7.6262     9.0989
 2207.5000   112.9485     8.7055     2.4845    -0.0015   -43.8094     7.3594     7.6090     8.8599
 2208.0000   111.7598     8.7085     2.4838    -0.0037   -42.7085     7.3682     7.5627     8.6272
 2208.5000   114.0586     8.7116     2.4846    -0.0013   -41.8062     7.3756     7.5707     8.6966
 2209.0000   118.3146     8.7146     2.4870     0.0018   -41.4591     7.3310     7.4712     9.3303
 2209.5000   120.6401     8.7177     2.4878     0.0026   -41.6541     7.2356     7.3729     9.6695
 2210.0000   122.3013     8.7207     2.4841     0.0019   -41.9283     7.1435     7.2760     9.4155
 2210.5000   121.8745     8.7239     2.4601    -0.0010   -42.3182     7.0485     7.2337     9.1049
 2211.0000   117.6713     8.7276     2.4452    -0.0033   -42.7124     7.0066     7.1879     8.8656
 2211.5000   113.7446     8.7306     2.4498    -0.0054   -43.1006     7.0171     7.1974     8.7533
 2212.0000   107.0011     8.7337     2.4551    -0.0068   -43.4968     7.0254     7.2050     8.5189
 2212.5000   106.1145     8.7210     2.4582    -0.0075   -43.8970     7.0338     7.2126     8.2905
 2213.0000   107.5070     8.6940     2.4552    -0.0074   -44.6176     7.0928     7.2197     8.0838
 2213.5000   110.4034     8.6978     2.4493    -0.0066   -45.2650     7.1015     7.1744     8.0345
 2214.0000   113.7531     8.7009     2.4426    -0.0050   -46.0656     7.1117     7.1325     8.4450
 2214.5000   115.2909     8.6889     2.4366    -0.0034   -46.4390     7.1202     7.1403     8.8741
 2215.0000   115.4674     8.6927     2.4330    -0.0033   -46.4068     7.0758     6.9962     9.4550
 2215.5000   113.9898     8.6953     2.4323    -0.0034   -46.8333     6.9361     6.8551     9.6640
 2216.0000   110.2397     8.6988     2.4339    -0.0055   -46.6243     6.7487     6.6628     8.9649
 2216.5000   108.1512     8.7019     2.4407    -0.0054   -46.1913     6.5196     6.3975     8.0333
 2217.0000   105.6096     8.7049     2.4513    -0.0046   -44.8341     6.2534     6.0918     7.5040
 2217.5000   101.2553     8.7080     2.4693    -0.0037   -43.4126     5.8709     5.8007     7.4603
 2218.0000   102.4901     8.7111     2.4837     0.0001   -41.9067     5.5911     5.4842     7.4109
 2218.5000   102.9728     8.6990     2.4697     0.0032   -41.4980     5.3629     5.2582     7.0755
 2219.0000   103.6234     8.7029     2.4455    -0.0005   -41.2771     5.1425     5.2651     6.7480
 2219.5000   105.4459     8.6909     2.4403    -0.0087   -40.8114     5.1547     5.4235     5.7209
 2220.0000   107.2849     8.6937     2.4419    -0.0101   -40.5347     5.4612     5.6670     5.2326
 2220.5000   107.3113     8.6968     2.4502    -0.0025   -40.6092     5.7481     6.0068     5.9766
 2221.0000   106.2802     8.7000     2.4683     0.0035   -40.4363     6.3151     6.5048     6.9196
 2221.5000   100.7197     8.7036     2.4929     0.0088   -40.4668     6.7910     6.8456     9.1380
 2222.0000    96.9696     8.7067     2.5075     0.0150   -41.0449     6.6075     6.8528     9.6690
 2222.5000    95.6298     8.7097     2.4970     0.0135   -41.4807     6.2926     6.6193     9.4805
 2223.0000    96.4181     8.7128     2.4791     0.0046   -42.0609     5.9077     6.3879     8.8558
 2223.5000    97.1997     8.7158     2.4664    -0.0021   -42.6834     5.5464     6.0713     8.0222
 2224.0000    97.6916     8.7189     2.4574    -0.0050   -43.5803     5.2445     5.5555     7.1965
 2224.5000    99.3738     8.7227     2.4718     0.0056   -44.2336     4.9590     5.0680     6.2603
 2225.0000   102.7234     8.7100     2.4659     0.0071   -44.9822     4.7906     4.7235     5.1480
 2225.5000   109.5474     8.6980     2.4494     0.0057   -45.1870     4.7283     4.6936     4.5182
 2226.0000   117.2798     8.6860     2.4652     0.0043   -44.8463     4.8023     4.8016     4.7477
 2226.5000   117.1486     8.6741     2.4754     0.0209   -44.6339     4.8784     4.9108     5.2732
 2227.0000   113.5561     8.6779     2.4691     0.0187   -43.9138     4.9546     4.9867     6.5430
 2227.5000   110.1016     8.6809     2.4794     0.0127   -42.8604     4.9960     5.0639     7.6280
 2228.0000   111.4940     8.6841     2.4910     0.0061   -40.9767     5.0379     5.0692     8.0234
 2228.5000   111.8225     8.6878     2.4738     0.0016   -40.0426     5.0439     5.0745     6.9864
 2229.0000   110.6320     8.6908     2.4664     0.0002   -39.3027     5.0499     5.1163     6.3433
 2229.5000   107.7125     8.6939     2.4672     0.0033   -38.5734     5.0559     5.1217     5.8076
 2230.0000   107.3699     8.6969     2.4365     0.0049   -38.5040     5.0982     5.1639     6.1043
 2230.5000   108.9134     8.7150     2.4335     0.0034   -37.8751     5.1777     5.2089     6.1534
