~VERSION INFORMATION
 VERS.                2.0:   CWLS LOG ASCII STANDARD - VERSION 2.0
 WRAP.                 NO:   ONE LINE PER DEPTH STEP
~WELL INFORMATION
#MNEM.UNIT      DATA TYPE    INFORMATION
#----------   ------------   ------------------------------
 STRT.F          243.5000:   START DEPTH
 STOP.F         2836.0000:   STOP DEPTH
 STEP.F            0.5000:   STEP LENGTH
 NULL.          -999.2500:   NO VALUE
 COMP. FENIX & SCISSON U. S. NAVY:   COMPANY
 WELL.   FENIX "A" #86-20:   WELL
 FLD .             NPR #3:   FIELD
 LOC .      S20 T39N R78W:   LOCATION
 CNTY.            NATRONA:   COUNTY
 STAT.            WYOMING:   STATE
 CTRY. UNITED STATES OF AMERICA:   COUNTRY
 SRVC.       SCHLUMBERGER:   SERVICE COMPANY
 DATE.        22-MAR-1977:   LOGDATE
 API .     49025103130000:   API NUMBER
~CURVE INFORMATION
#MNEM.UNIT       API CODE    CURVE DESCRIPTION
#----------   ------------   ------------------------------
 DEPT.F                  :   
 SPR .MV     07 010 01 00:   SPONTANEOUS POTENTIAL
 ILD .OHMM   07 120 46 00:   DEEP INDUCTION RESISTIVITY
 ILM .OHMM   07 120 44 00:   INDUCTION LOG MEDIUM RESISTIVITY
 LL8 .OHMM   07 220 08 00:   LATEROLOG-8 RES.
 CALD.IN     45 280 60 00:   CALIPER FROM DENSITY LOG
 GRD .GAPI   45 310 01 00:   GAMMA RAY FROM DENSITY LOG
 RHOB.G/C3   45 350 01 00:   BULK DENSITY
 CORR.G/C3   45 356 01 00:   DENSITY CORRECTION
~PARAMETER INFORMATION
#MNEM.UNIT          VALUE    DESCRIPTION
#----------   ------------   ------------------------------
 EKB .F         5005.0000:   Kelly bushing
 EGL .F         4994.0000:   Ground level
 EDF .F            0.0000:   Drilling floor
 TD  .F         2836.0000:   Total depth
 DATE.        22-MAR-1977:   Date logged
 CLNT.            A2DTECH:   Client Code
 SL  . 330' FEL & 1650' FSL:   Surface Location
 PD  .                 GL:   Permanent Datum
 EPD .F              5005:   Elevation Permanent Datum
 LMF .                 KB:   Log Measured From
 DMF .                 KB:   Drilling Measured From
 DD  .F              2835:   Depth driller
 DL  .F              2836:   Depth logger
 BLI .F              2826:   Bottom log interval
 TLI .F               259:   Top log interval
 CBD1.      8.625" @ 258':   Casing driller 1
 CBL1.F               259:   Casing logger 1
 BS1 .IN            7.875:   Bit size
 DFT .                KCL:   Type fluid in hole
 DFD .                9.1:   Density
 DFV .                 35:   Viscosity
 DFPH.                  9:   pH
 DFL .                8.6:   Fluid loss
 MSS .              CIRC.:   Source of sample
 RMS .OHMM           0.22:   Rm
 MST .F                60:   Rm Meas. temp.
 RMF .OHMM           0.18:   Rmf
 MFST.F                60:   Rmf Meas. temp.
 RMC .OHMM           0.33:   Rmc
 MCST.F                60:   Rmc Meas. temp.
 MFSS.               MEAS:   Source Rmf.
 RMB .OHMM           0.12:   Rm. at BHT
 BHT .F               110:   BHT.
 TCS .HRS            0900:   Time Circ. stopped
 MRT .F               110:   Maximum recorded temp.
 LUN .               7980:   Logging unit number
 LUL .               CSPR:   Logging unit location
 ENGI.                FIX:   Recorded By
 WITN.               JAPP:   Witnessed by
 ORIG.           5" PRINT:   Origin of data
 UWI .     49025103130000:   Unique Well ID
 DICO. A2D TECHNOLOGIES, INC.:   Digitizing Company
 DAPD.                 11:   Feet Above Permanent Datum
 CS1 .              8.625:   Casing size
 BSD1.               2835:   Depth drilled with bit1
 MCSS.               CACL:   Source Rmc.
 TLAB.               1630:   Time logger at bottom
~OTHER INFORMATION
~A   DEPT      SPR        ILD        ILM        LL8       CALD         GRD      RHOB       CORR   
# ...
 1094.0000   -57.6480     7.2060     7.4660     9.6150     8.3350   112.8190     2.5380     0.0470
 1094.5000   -57.6780     7.1990     7.4590     9.4990     8.3350   112.7240     2.5270     0.0300
 1095.0000   -57.7060     7.1910     7.4480     9.2710     8.3360   112.3270     2.5230     0.0400
 1095.5000   -57.7400     7.1830     7.4500     9.3830     8.3370   111.0620     2.5480     0.0510
 1096.0000   -57.6960     7.1830     7.5130     9.5480     8.3370   108.7370     2.5420     0.0400
 1096.5000   -57.6050     7.3020     7.5840     9.7130     8.3380   107.2300     2.5690     0.0630
 1097.0000   -57.5180     7.4110     7.6550     9.7920     8.3390   106.9990     2.5780     0.0550
 1097.5000   -57.4310     7.5190     7.7270     9.8750     8.3400   105.9900     2.5580     0.0510
 1098.0000   -57.3440     7.6280     7.7980     9.9720     8.3400   104.5940     2.5840     0.0820
 1098.5000   -57.2560     7.7360     7.8700    10.0570     8.3410   103.5550     2.5980     0.0970
 1099.0000   -57.1700     7.8440     7.9410    10.2930     8.3420   104.6830     2.5850     0.0720
 1099.5000   -57.0840     7.8680     8.0130    10.5320     8.3420   106.7740     2.5730     0.0590
 1100.0000   -56.9890     7.8680     8.0130    10.3420     8.3430   106.6860     2.5680     0.0440
 1100.5000   -56.9550     7.7820     8.0130    10.1720     8.3440   106.0170     2.5650     0.0480
 1101.0000   -57.0020     7.6750     7.9030    10.0300     8.3440   105.1600     2.5510     0.0530
 1101.5000   -57.0400     7.5680     7.7940     9.8880     8.3450   104.2430     2.5260     0.0330
 1102.0000   -57.0800     7.4610     7.6840     9.7450     8.3460   103.5870     2.5370     0.0330
 1102.5000   -57.1210     7.3530     7.5750     9.6030     8.3460   105.1040     2.5570     0.0580
 1103.0000   -57.1610     7.3150     7.4500     9.4610     8.3470   107.4730     2.5160     0.0390
 1103.5000   -57.2010     7.3150     7.4500     9.3190     8.3480   109.6650     2.5250     0.0290
 1104.0000   -57.2400     7.3010     7.4500     9.2710     8.3480   110.2260     2.5440     0.0530
 1104.5000   -57.2820     7.2880     7.4500     9.4410     8.3490   109.8460     2.5560     0.0590
 1105.0000   -57.3220     7.2740     7.4500     9.4000     8.3500   109.1510     2.5660     0.0660
 1105.5000   -57.3380     7.2610     7.4500     9.3380     8.3510   107.5670     2.5630     0.0510
 1106.0000   -57.2560     7.2480     7.4490     9.2710     8.3510   107.6050     2.5810     0.0670
 1106.5000   -57.1820     7.2340     7.4490     9.2710     8.3520   107.1280     2.5600     0.0390
 1107.0000   -57.1040     7.2220     7.4490     9.2710     8.3530   106.0270     2.5560     0.0470
 1107.5000   -57.0270     7.2090     7.4490     9.6740     8.3530   104.5710     2.5380     0.0380
 1108.0000   -56.9500     7.1970     7.4490     9.9720     8.3540   103.1310     2.5220     0.0260
 1108.5000   -56.8730     7.1870     7.4490     9.9720     8.3550   102.3320     2.5330     0.0340
 1109.0000   -56.7960     7.3160     7.4890    10.0760     8.3550   104.2320     2.5470     0.0500
 1109.5000   -56.7180     7.4290     7.6080    10.2170     8.3560   107.3350     2.5780     0.0710
 1110.0000   -56.6430     7.5410     7.7270    10.3580     8.3570   108.4710     2.5930     0.0850
 1110.5000   -56.5660     7.6550     7.8450    10.5320     8.3570   108.5230     2.5720     0.0620
 1111.0000   -56.5660     7.7260     7.9640    10.4090     8.3580   108.6720     2.5590     0.0480
 1111.5000   -56.5940     7.7260     8.0140    10.0790     8.3590   109.7060     2.5760     0.0590
 1112.0000   -56.6210     7.7260     8.0120     9.7480     8.3600   110.5930     2.5930     0.0490
 1112.5000   -56.6460     7.7220     8.0070     9.6150     8.3600   110.0330     2.5740     0.0470
 1113.0000   -56.6730     7.7180     8.0020    10.1640     8.3610   108.7580     2.5650     0.0580
 1113.5000   -56.6990     7.7130     7.9970    10.3420     8.3620   108.4120     2.5700     0.0660
 1114.0000   -56.7260     7.7090     7.9920    10.1530     8.3610   108.5560     2.5480     0.0370
 1114.5000   -56.7520     7.7050     7.9870     9.7920     8.3610   108.7310     2.5380     0.0230
 1115.0000   -56.7780     7.7000     7.9830     9.9130     8.3600   108.4680     2.5400     0.0270
 1115.5000   -56.8050     7.6960     7.9780    10.1900     8.3600   108.2190     2.5450     0.0460
 1116.0000   -56.8310     7.6920     7.9730    10.3420     8.3590   107.9720     2.5520     0.0560
 1116.5000   -56.8570     7.6880     7.9680     9.9760     8.3590   107.5950     2.5320     0.0310
 1117.0000   -56.8840     7.6830     7.9640     9.7920     8.3580   105.9250     2.5380     0.0360
 1117.5000   -56.9100     7.6790     7.9590    10.1910     8.3580   104.1960     2.5230     0.0170
 1118.0000   -56.9370     7.6750     7.9540    10.5320     8.3570   103.2220     2.5200     0.0330
 1118.5000   -56.9450     7.6700     7.9500    10.2740     8.3570   102.0550     2.5670     0.0460
 1119.0000   -56.9450     7.6660     7.9450    10.0430     8.3560   100.8550     2.5650     0.0410
 1119.5000   -56.9440     7.6620     7.9400     9.6150     8.3560   101.1010     2.5730     0.0550
 1120.0000   -56.9450     7.6580     7.9350     9.7900     8.3550   102.9720     2.5650     0.0500
 1120.5000   -56.9440     7.6530     7.9310    10.1550     8.3550   104.2430     2.5590     0.0610
 1121.0000   -56.9440     7.6490     7.9260    10.0860     8.3540   104.8360     2.5630     0.0530
 1121.5000   -56.9440     7.6450     7.9210     9.9550     8.3540   104.8440     2.5410     0.0370
 1122.0000   -56.9440     7.6400     7.9160     9.8240     8.3530   104.8470     2.5540     0.0520
 1122.5000   -56.9440     7.6360     7.9120     9.7920     8.3530   105.0590     2.5490     0.0440
 1123.0000   -56.9440     7.6320     7.9070     9.9250     8.3520   105.8510     2.5390     0.0360
 1123.5000   -56.9440     7.6280     7.9020    10.0630     8.3520   106.2810     2.5370     0.0410
 1124.0000   -56.9440     7.6230     7.8970    10.2020     8.3510   106.9420     2.5380     0.0360
 1124.5000   -56.9450     7.6190     7.8930    10.3420     8.3510   107.8480     2.5400     0.0360
 1125.0000   -56.9450     7.6150     7.8880    10.1890     8.3500   108.3860     2.5410     0.0460
 1125.5000   -56.9440     7.6110     7.8830    10.0350     8.3500   108.0360     2.5340     0.0230
 1126.0000   -56.9450     7.6060     7.8780     9.8810     8.3490   106.9350     2.5330     0.0170
 1126.5000   -56.9450     7.6020     7.8730     9.7920     8.3490   104.7060     2.5420     0.0350
 1127.0000   -56.9430     7.5990     7.8660    10.0380     8.3480   103.3830     2.5520     0.0690
 1127.5000   -56.9510     7.5930     7.8710    10.4300     8.3480   103.4570     2.5880     0.0580
 1128.0000   -56.8770     7.5860     7.9140    10.7260     8.3470   104.2230     2.5470     0.0370
 1128.5000   -56.7500     7.6280     7.9560    10.1880     8.3470   105.0280     2.5590     0.0470
 1129.0000   -56.6330     7.7270     8.0000     9.7920     8.3460   104.7310     2.5640     0.0500
 1129.5000   -56.5170     7.8230     8.0430     9.7920     8.3460   101.7820     2.5590     0.0520
 1130.0000   -56.3960     7.9200     8.0870    10.5110     8.3450    99.8150     2.5530     0.0380
 1130.5000   -56.2830     8.0160     8.1300    11.1240     8.3450    98.5670     2.5260     0.0200
 1131.0000   -56.1560     8.1130     8.1600    10.7870     8.3440   100.0500     2.5390     0.0320
 1131.5000   -56.1780     8.1610     8.1640    10.1550     8.3440   101.7760     2.5360     0.0480
 1132.0000   -56.2350     8.1610     8.1730    10.3780     8.3430   102.5900     2.5710     0.0580
 1132.5000   -56.2940     8.1610     8.1810    11.1240     8.3430   101.6690     2.5590     0.0530
 1133.0000   -56.3500     8.1360     8.1890    11.0150     8.3420   102.8980     2.5550     0.0510
 1133.5000   -56.4080     8.1140     8.1970    10.7260     8.3420   104.1260     2.5680     0.0580
 1134.0000   -56.4650     8.0920     8.2060    10.7260     8.3410   105.3110     2.5780     0.0620
