~VERSION INFORMATION
 VERS.                2.0:   CWLS LOG ASCII STANDARD - VERSION 2.0
 WRAP.                 NO:   ONE LINE PER DEPTH STEP
~WELL INFORMATION
#MNEM.UNIT      DATA TYPE    INFORMATION
#----------   ------------   ------------------------------
 STRT.F          397.0000:   START DEPTH
 STOP.F         5516.0000:   STOP DEPTH
 STEP.F            0.5000:   STEP LENGTH
 NULL.          -999.2500:   NO VALUE
 COMP.  FENIX AND SCISSON:   COMPANY
 WELL.   FENIX TPX #54-10:   WELL
 FLD . NAVAL PETROLEUM RESERVE=3:   FIELD
 LOC .      S10 T38N R78W:   LOCATION
 CNTY.            NATRONA:   COUNTY
 STAT.            WYOMING:   STATE
 CTRY. UNITED STATES OF AMERICA:   COUNTRY
 SRVC.       SCHLUMBERGER:   SERVICE COMPANY
 DATE.        03-APR-1981:   LOGDATE
 API .     49025108690000:   API NUMBER
~CURVE INFORMATION
#MNEM.UNIT       API CODE    CURVE DESCRIPTION
#----------   ------------   ------------------------------
 DEPT.F                  :   
 SPR .MV     11 010 01 00:   SPONTANEOUS POTENTIAL FROM RES.
 TENR.LBS    11 635 01 00:   TENSION FROM RES.
 LLD .OHMM   11 220 10 00:   LATEROLOG DEEP
 LLS .OHMM   11 220 09 00:   LATEROLOG LOG SHALLOW
 TEND.LBS    45 635 01 00:   TENSION FORM DENSITY LOG
 GRD .GAPI   45 310 01 00:   GAMMA RAY FROM DENSITY LOG
 NPHI.DEC    42 890 03 00:   NEUTRON POROSITY SANDSTONE
 CALD.IN     45 280 60 00:   CALIPER FROM DENSITY LOG
 CORR.G/C3   45 356 01 00:   DENSITY CORRECTION
 RHOB.G/C3   45 350 01 00:   BULK DENSITY
~PARAMETER INFORMATION
#MNEM.UNIT          VALUE    DESCRIPTION
#----------   ------------   ------------------------------
 EKB .F         5206.0000:   Kelly bushing
 EGL .F         5196.0000:   Ground level
 EDF .F            0.0000:   Drilling floor
 TD  .F         5498.0000:   Total depth
 CLNT.            A2DTECH:   Client Code
 SL  . 2080' FNL & 2150' FEL:   Surface Location
 PD  .                 GL:   Permanent Datum
 EPD .F              5196:   Elevation Permanent Datum
 LMF .                 KB:   Log Measured From
 DMF .                 KB:   Drilling Measured From
 DAPD.F                10:   Feet Above Permanent Datum
 DATE.         3-APR-1981:   Date Logged [DD-MMM-YYYY]
 DD  .F              5485:   Depth driller
 DL  .F              5498:   Depth logger
 BLI .F              5496:   Bottom log interval
 TLI .F               397:   Top log interval
 CS1 .IN                7:   Casing size
 CBD1.         7" @ 3891':   Casing driller 1
 CBL1.F              3889:   Casing logger 1
 BS1 .IN            6.125:   Bit size
 BSD1.F              5485:   Depth drilled with bit1
 DFT .           CHEM GEL:   Type fluid in hole
 DFD .                9.1:   Density
 DFV .                 42:   Viscosity
 DFPH.                9.0:   pH
 DFL .                5.0:   Fluid loss
 MSS .           MUD TANK:   Source of sample
 RMS .OHMM           0.81:   Rm
 MST .F                62:   Rm Meas. temp.
 RMF .OHMM           0.64:   Rmf
 MFST.F                62:   Rmf Meas. temp.
 MFSS.               MEAS:   Source Rmf.
 RMB .OHMM          0.031:   Rm. at BHT
 BHT .F               174:   BHT.
 TCS .HRS            0830:   Time Circ. stopped
 TLAB.HRS            2130:   Time logger at bottom
 MRT .F               174:   Maximum recorded temp.
 LUN .               8035:   Logging unit number
 LUL .               CSPR:   Logging unit location
 ENGI.             BEATIE:   Recorded By
 WITN.              FIVAS:   Witnessed by
 ORIG.           5" PRINT:   Origin of data
 UWI .     49025108690000:   Unique Well ID
 DICO. A2D TECHNOLOGIES, INC:   Digitizing Company
~OTHER INFORMATION
~A   DEPT      SPR       TENR        LLD        LLS       TEND         GRD        NPHI     CALD       CORR       RHOB   
# ...
 4417.0000   -27.5110  1511.6128   889.3814   648.3557  1581.7069    16.3142     0.0455     6.9403     0.0145     2.7319
 4417.5000   -27.8193  1512.2257   926.7038   671.4902  1582.5760    16.9184     0.0431     6.9403     0.0167     2.7363
 4418.0000   -28.1277  1512.8386   857.6760   685.7469  1583.7312    18.7311     0.0410     6.9552     0.0175     2.7355
 4418.5000   -28.2851  1513.4515   788.4136   608.4973  1584.7428    20.2417     0.0407     6.9552     0.0175     2.7279
 4419.0000   -28.2894  1514.0646   729.8076   547.5992  1585.7576    19.9396     0.0404     6.9552     0.0148     2.7106
 4419.5000   -28.1407  1514.6775   729.3238   514.0126  1586.8179    19.0332     0.0396     6.9552     0.0122     2.6872
 4420.0000   -28.1462  1515.2904   942.9733   555.2733  1588.0302    18.7311     0.0381     6.9552     0.0114     2.6819
 4420.5000   -27.8466  1515.9033  1122.2385   794.4820  1589.0427    17.8248     0.0363     6.9552     0.0121     2.6849
 4421.0000   -27.3821  1516.5162  1237.1239  1001.6918  1590.0544    16.9184     0.0345     6.9552     0.0114     2.6909
 4421.5000   -26.8156  1517.1292  1307.9786  1105.1481  1606.2175    16.3142     0.0339     6.9552     0.0088     2.6908
 4422.0000   -26.4590  1517.7422  1382.8916  1227.8855  1607.4816    15.7100     0.0339     6.9701     0.0076     2.6893
 4422.5000   -26.0418  1518.3551  1485.6492  1354.7035  1623.6447    15.4079     0.0339     6.9701     0.0083     2.6953
 4423.0000   -25.7408  1518.9680  1513.8845  1463.4479  1624.6562    16.3204     0.0340     6.9701     0.0113     2.7141
 4423.5000   -25.4423  1519.5809  1482.5947  1583.3021  1625.6689    17.5227     0.0343     6.9851     0.0143     2.7313
 4424.0000   -25.4690  1520.0876  1307.9786  1637.3315  1626.6805    18.7311     0.0376     6.9851     0.0143     2.7395
 4424.5000   -25.6041  1520.2151  1061.4456  1402.7357  1627.7273    20.5438     0.0437     6.9851     0.0098     2.7312
 4425.0000   -25.6084  1520.3424   898.1221  1022.4614  1628.9562    22.6586     0.0522     6.9851     0.0045     2.7064
 4425.5000   -25.7648  1520.4698   778.6838   755.8232  1629.8481    24.5047     0.0615     6.9851     0.0045     2.7018
 4426.0000   -26.0731  1520.5972   549.2197   573.4840  1625.4558    32.3263     0.0664     6.9851     0.0087     2.7026
 4426.5000   -26.2338  1520.7245   415.0526   410.1176  1616.8179    44.1088     0.0709     6.9701     0.0120     2.6965
 4427.0000   -26.3869  1520.8519   311.2456   286.5978  1617.8792    54.0785     0.0722     6.9552     0.0157     2.6844
 4427.5000   -26.5426  1520.9792   213.3525   205.9879  1614.0082    61.6314     0.0734     6.9701     0.0202     2.6724
 4428.0000   -26.5476  1521.1067   155.3366   137.0403  1604.7240    63.7623     0.0785     6.9851     0.0224     2.6580
 4428.5000   -26.3989  1521.2340   114.0585   102.7363  1605.9094    65.8610     0.0879     7.0149     0.0239     2.6407
 4429.0000   -26.1004  1521.3613    94.3649    85.8002  1606.9996    68.8822     0.0994     7.0299     0.0201     2.6241
 4429.5000   -25.7941  1521.4888    79.1755    71.7880  1608.0300    72.2054     0.1115     7.0412     0.0164     2.6068
 4430.0000   -25.1984  1521.6161    62.8031    56.9294  1624.4279    77.0393     0.1169     7.0468     0.0134     2.5955
 4430.5000   -24.8988  1521.7435    45.1532    45.7850  1625.4395    86.7911     0.1191     7.0746     0.0118     2.5909
 4431.0000   -24.5981  1521.8708    40.9266    38.9510  1611.0471    92.1450     0.1209     7.0746     0.0103     2.6150
 4431.5000   -24.2985  1521.9983    38.1520    34.2359  1612.2729   101.2085     0.1221     7.0746     0.0092     2.6270
 4432.0000   -24.1520  1522.1256    36.0685    30.8863  1613.3335   119.0332     0.1454     7.0746     0.0080     2.6307
 4432.5000   -24.1565  1522.2529    34.0987    30.2401  1614.3936   137.1601     0.1925     7.0746     0.0080     2.6499
 4433.0000   -24.0088  1522.3804    31.2553    29.4002  1615.5995   144.5149     0.2106     7.0746     0.0133     2.6659
 4433.5000   -24.0142  1522.5077    27.4300    26.6444  1601.2072   148.3384     0.2279     7.0896     0.0170     2.6712
 4434.0000   -24.1706  1522.6351    25.0375    23.4684  1587.0673   146.5257     0.2327     7.0896     0.0162     2.6704
 4434.5000   -24.3269  1522.7625    23.1768    22.1928  1588.3334   139.2749     0.2160     7.0896     0.0095     2.6576
 4435.0000   -24.3363  1522.8898    22.0655    22.0363  1589.3937   131.1178     0.1817     7.1045     0.0035     2.6455
 4435.5000   -24.4887  1523.0172    23.0201    23.1451  1590.6079   129.3051     0.1697     7.1045     0.0008     2.6432
 4436.0000   -24.6450  1523.1445    25.0375    24.4816  1591.6195   133.8369     0.1818     7.1045    -0.0018     2.6514
 4436.5000   -24.6494  1523.2720    27.6232    27.0101  1592.6312   142.2961     0.2041     7.1045    -0.0033     2.6544
 4437.0000   -24.8058  1523.3993    30.2627    29.4449  1593.6428   148.6405     0.2201     7.1045    -0.0041     2.6535
 4437.5000   -24.8100  1523.5267    32.2364    30.2193  1594.9078   149.2943     0.2256     7.1194    -0.0034     2.6491
 4438.0000   -24.9666  1523.6541    31.3438    26.4410  1595.9194   143.5903     0.2175     7.1194    -0.0011     2.6475
 4438.5000   -24.9711  1523.7814    25.6248    23.7948  1612.0826   135.0453     0.1876     7.1045    -0.0004     2.6460
 4439.0000   -24.9757  1523.9088    23.8369    23.7755  1613.0942   131.7221     0.1692     7.1045    -0.0012     2.6459
 4439.5000   -24.9802  1524.0361    23.6701    24.8590  1629.2574   131.1178     0.1650     7.1045    -0.0019     2.6497
 4440.0000   -24.9967  1524.1636    25.5704    28.1588  1630.3032   132.3263     0.1662     7.1045    -0.0020     2.6549
 4440.5000   -25.1414  1524.2909    29.6320    32.4046  1631.5342   132.6284     0.1680     7.1045     0.0018     2.6624
 4441.0000   -25.2984  1524.4182    34.8568    36.7703  1632.5458   130.8107     0.1668     7.0896     0.0040     2.6683
 4441.5000   -25.3024  1524.5457    37.3570    37.2887  1633.5574   118.4290     0.1629     7.0896     0.0063     2.6729
 4442.0000   -25.3070  1524.6730    37.0956    37.2856  1634.5690   109.3656     0.1542     7.0746     0.0070     2.6668
 4442.5000   -25.3119  1524.8004    36.0685    36.7629  1635.5807    97.5831     0.1252     7.0746     0.0077     2.6306
 4443.0000   -25.3161  1524.9277    35.8161    38.3425  1606.5426    89.7281     0.1124     7.0746     0.0077     2.6133
 4443.5000   -25.3214  1525.0552    40.3560    39.9189  1607.5542    83.3391     0.0987     7.0746     0.0085     2.6110
 4444.0000   -25.3252  1525.1825    45.3264    42.9911  1608.4845    76.1329     0.0915     7.0746     0.0137     2.6290
 4444.5000   -25.3298  1525.3098    51.5959    46.6685  1609.5775    71.9033     0.0861     7.0896     0.0197     2.6350
 4445.0000   -25.3343  1525.4373    55.7381    50.9156  1595.4376    67.9758     0.0794     7.1045     0.0230     2.6365
 4445.5000   -25.3392  1525.5391    58.9579    56.4076  1596.5151    66.1631     0.0776     7.1045     0.0242     2.6349
 4446.0000   -25.3435  1525.5723    63.6911    60.9356  1597.7142    65.2568     0.0774     7.1194     0.0166     2.6319
 4446.5000   -25.3483  1525.6053    68.3703    65.8270  1583.3210    68.2779     0.0789     7.1343     0.0136     2.6266
 4447.0000   -25.3526  1525.6385    73.2916    71.1110  1584.5861    71.2991     0.0807     7.1343     0.0121     2.6213
 4447.5000   -25.3571  1525.6718    75.3789    74.1676  1585.6060    74.3202     0.0835     7.1343     0.0106     2.6167
 4448.0000   -25.3621  1525.7050    74.3279    69.6174  1602.0142    79.7583     0.0865     7.1343     0.0106     2.6137
 4448.5000   -25.3663  1525.7382    64.1398    61.7760  1603.0259    86.5615     0.0903     7.1343     0.0151     2.6407
 4449.0000   -25.3712  1525.7712    56.9244    55.9855  1604.0375   105.7402     0.0989     7.1343     0.0203     2.6617
 4449.5000   -25.3754  1525.8044    52.5831    46.6356  1605.0491   124.4713     0.1237     7.1509     0.0210     2.6760
 4450.0000   -25.3799  1525.8376    47.7616    41.9683  1606.0607   141.0323     0.1621     7.1940     0.0203     2.6842
