~VERSION INFORMATION
 VERS.                2.0:   CWLS LOG ASCII STANDARD - VERSION 2.0
 WRAP.                 NO:   ONE LINE PER DEPTH STEP
~WELL INFORMATION
#MNEM.UNIT      DATA TYPE    INFORMATION
#----------   ------------   ------------------------------
 STRT.F           30.0000:   START DEPTH
 STOP.F         5698.0000:   STOP DEPTH
 STEP.F            0.5000:   STEP LENGTH
 NULL.          -999.2500:   NO VALUE
 COMP. LAWRRENCE-ALLISON & ASSOCIATES:   COMPANY
 WELL. LAWERNCE "X" #41-3:   WELL
 FLD .           N P R #3:   FIELD
 LOC .       S3 T38N R78W:   LOCATION
 CNTY.            NATRONA:   COUNTY
 STAT.            WYOMING:   STATE
 CTRY. UNITED STATES OF AMERICA:   COUNTRY
 SRVC.      DRESSER ATLAS:   SERVICE COMPANY
 DATE.        04-JUN-1983:   LOGDATE
 API .     49025109200000:   API NUMBER
~CURVE INFORMATION
#MNEM.UNIT       API CODE    CURVE DESCRIPTION
#----------   ------------   ------------------------------
 DEPT.F                  :   
 TENS.LBS    60 635 01 00:   TENSION FROM SONIC
 DT  .US/F   60 520 00 00:   DELTA TIME
 SPR .MV     11 010 01 00:   SPONTANEOUS POTENTIAL FROM RES.
 TENR.LBS    11 635 01 00:   TENSION FROM RES. LOG
 GRR .GAPI   11 310 01 00:   GAMMA RAY FROM RES.
 CALR.IN     11 280 01 00:   CALIPER FROM RES.
 RMLL.OHMM   11 270 04 00:   MICRO LATEROLOG
 RD  .OHMM   11 220 10 00:   RESISTIVITY DEEP
 RS  .OHMM   11 220 09 00:   RESISTIVITY SHALLOW
 TEND.LBS    45 635 01 00:   TENSION FROM DENSITY LOG
 CORR.G/C3   45 356 01 00:   DENSITY CORRECTION
 RHOB.G/C3   45 350 01 00:   BULK DENSITY
 NPHI.DEC    42 890 03 00:   NEUTRON POROSITY SANDSTONE
~PARAMETER INFORMATION
#MNEM.UNIT          VALUE    DESCRIPTION
#----------   ------------   ------------------------------
 EKB .F         5157.5000:   Kelly bushing
 EGL .F         5147.5000:   Ground level
 EDF .F            0.0000:   Drilling floor
 TD  .F         5690.0000:   Total depth
 DATE.        04-JUN-1983:   Date logged
 CLNT.            A2DTECH:   Client Code
 SL  . 2218' FWL & 287' FNL:   Surface Location
 PD  .                 GL:   Permanent Datum
 EPD .F            5147.5:   Elevation Permanent Datum
 LMF .                 KB:   Log Measured From
 DMF .                 KB:   Drilling Measured From
 DD  .F              5690:   Depth driller
 DL  .F              5685:   Depth logger
 BLI .F              5682:   Bottom log interval
 CS1 .IN            9.625:   Casing size
 CBD1.       9.625 @ 568':   Casing driller 1
 CBL1.F               568:   Casing logger 1
 BS1 .IN             8.75:   Bit size
 DFT .        KCL-DRISPAC:   Type fluid in hole
 DFD .                9.1:   Density
 DFV .                 37:   Viscosity
 DFPH.                  8:   pH
 DFL .                3.8:   Fluid loss
 MSS .               TANK:   Source of sample
 RMS .OHMM           0.41:   Rm
 MST .F                75:   Rm Meas. temp.
 RMF .OHMM           0.28:   Rmf
 MFST.F                70:   Rmf Meas. temp.
 RMC .OHMM           0.53:   Rmc
 MCST.F                75:   Rmc Meas. temp.
 MFSS.               MEAS:   Source Rmf.
 RMB .OHMM           0.18:   Rm. at BHT
 BHT .F               160:   BHT.
 TCS .HRS               5:   Time Circ. stopped
 MRT .F               166:   Maximum recorded temp.
 LUN .               6274:   Logging unit number
 LUL .               GLTE:   Logging unit location
 ENGI.             RAUTIO:   Recorded By
 WITN.             STRONG:   Witnessed by
 ORIG.     2.5", 5" PRINT:   Origin of data
 UWI .     49025109200000:   Unique Well ID
 DICO. A2D TECHNOLOGIES, INC.:   Digitizing Company
 MCSS.               CALC:   Source Rmc.
 DAPD.                 10:   Feet Above Permanent Datum
 BSD1.               5690:   Depth drilled with bit1
~OTHER INFORMATION
~A   DEPT     TENS         DT        SPR       TENR         GRR      CALR       RMLL         RD         RS       TEND       CORR       RHOB       NPHI   
# ...
 1928.0000  -999.2500  -999.2500   -84.1570   -48.2280   106.0410    10.0690     7.1800     9.2060     8.0920   -29.4120     0.0660     2.5070     0.2850
 1928.5000  -999.2500  -999.2500   -84.0180   -48.2280   104.8740    10.0710     7.1060     9.1810     8.0430   -29.4120     0.0610     2.5150     0.2910
 1929.0000  -999.2500  -999.2500   -83.8810   -48.2280   106.9310    10.0730     6.9870     9.1570     7.9940   -29.4120     0.0850     2.5220     0.3190
 1929.5000  -999.2500  -999.2500   -83.7380   -48.2280   109.2530    10.0750     6.8670     9.1320     7.9440   -29.4120     0.1100     2.5200     0.3160
 1930.0000  -999.2500  -999.2500   -83.6040   -48.2280   109.5630    10.0770     6.8000     9.1070     7.8950   -29.4120     0.1150     2.5170     0.3130
 1930.5000  -999.2500  -999.2500   -83.4750   -48.2280   107.9510    10.0790     6.7280     9.0890     7.8460   -29.4120     0.1140     2.5220     0.3100
 1931.0000  -999.2500  -999.2500   -83.5530   -48.2280   106.6060    10.0810     6.6150     8.9430     7.7970   -29.4120     0.1140     2.5330     0.3080
 1931.5000  -999.2500  -999.2500   -83.6370   -48.2280   101.7550    10.0830     6.5020     8.7710     7.7470   -29.4120     0.1210     2.5330     0.3110
 1932.0000  -999.2500  -999.2500   -83.7290   -48.2280    98.4340    10.0850     6.4400     8.6080     7.5820   -29.4120     0.1280     2.5120     0.3180
 1932.5000  -999.2500  -999.2500   -83.8180   -48.2280   100.2190    10.0870     6.2110     8.6340     7.6150   -29.4120     0.0850     2.4930     0.3130
 1933.0000  -999.2500  -999.2500   -83.9030   -48.2280   105.2240    10.0890     6.3920     8.6740     7.6470   -29.4120     0.0550     2.4860     0.3110
 1933.5000  -999.2500  -999.2500   -83.9950   -48.2280   109.7090    10.0910     6.6780     8.7140     7.6790   -29.4120     0.0540     2.4920     0.3130
 1934.0000  -999.2500  -999.2500   -84.0860   -48.2280   115.1210    10.0930     6.5390     8.7540     7.7110   -29.4120     0.0480     2.4970     0.3150
 1934.5000  -999.2500  -999.2500   -84.1510   -48.2280   115.5230    10.0950     6.3250     8.7940     7.7430   -29.4120     0.0520     2.5020     0.3160
 1935.0000  -999.2500  -999.2500   -84.4360   -48.2280   115.6080    10.0970     6.3250     8.8330     7.7750   -29.4120     0.0660     2.5060     0.3270
 1935.5000  -999.2500  -999.2500   -84.6490   -48.2280   115.6430    10.0990     6.5960     8.8730     7.8070   -29.4120     0.0730     2.5100     0.3340
 1936.0000  -999.2500  -999.2500   -84.6220   -48.2280   114.1570    10.1010     6.9250     8.9260     7.8550   -29.4120     0.0770     2.4990     0.3320
 1936.5000  -999.2500  -999.2500   -84.5520   -48.2280   111.2680    10.1030     6.8650     8.6580     7.7750   -29.4120     0.0690     2.4910     0.3240
 1937.0000  -999.2500  -999.2500   -84.4960   -48.2280   108.4650    10.1050     6.6780     8.2700     7.4780   -29.4120     0.0600     2.4780     0.3160
 1937.5000  -999.2500  -999.2500   -84.4280   -48.2280   106.9890    10.1070     6.1820     7.9420     7.1810   -30.2020     0.0610     2.4720     0.3090
 1938.0000  -999.2500  -999.2500   -84.3670   -48.2280   109.2840    10.1100     5.7760     7.6410     6.8840   -30.9990     0.0620     2.4700     0.3100
 1938.5000  -999.2500  -999.2500   -84.3040   -48.2280   111.3070    10.1120     5.0690     7.3120     6.6780   -31.7960     0.0630     2.4680     0.3150
 1939.0000  -999.2500  -999.2500   -84.2410   -48.2280   113.7690    10.1140     4.4280     7.3120     6.6780   -32.5930     0.0480     2.4690     0.3190
 1939.5000  -999.2500  -999.2500   -84.1780   -48.2270   113.0990    10.1160     4.2440     7.7640     6.9530   -33.3900     0.0330     2.4740     0.3240
 1940.0000  -999.2500  -999.2500   -84.1150   -48.2280   110.1460    10.1180     5.5960     8.1700     7.2010   -34.1870     0.0170     2.4830     0.3280
 1940.5000  -999.2500  -999.2500   -84.0530   -48.2210   106.9680    10.1200     6.4400     8.6080     7.4480   -34.9840     0.0150     2.4910     0.3300
 1941.0000  -999.2500  -999.2500   -83.9900   -48.2270   103.9170    10.1220     6.2310     8.6080     7.8620   -35.7810     0.0270     2.4980     0.3140
 1941.5000  -999.2500  -999.2500   -83.9270   -48.2290   100.9170    10.1240     5.9900     8.6080     7.8200   -36.5780     0.0400     2.5070     0.3010
 1942.0000  -999.2500  -999.2500   -83.8590   -48.1980    99.7040    10.1260     5.9900     8.5360     7.6950   -37.3750     0.0520     2.5120     0.2920
 1942.5000  -999.2500  -999.2500   -83.8610   -48.2840    99.7290    10.1280     6.0690     8.4590     7.5690   -38.1720     0.0670     2.5130     0.2960
 1943.0000  -999.2500  -999.2500   -84.0060   -48.2490   101.4870    10.1300     6.1380     8.3820     7.4440   -38.9690     0.0690     2.5110     0.3160
 1943.5000  -999.2500  -999.2500   -84.1580   -51.8380   104.4070    10.1320     6.2110     8.3010     7.3120   -39.7660     0.0650     2.5090     0.3310
 1944.0000  -999.2500  -999.2500   -84.3130   -56.8740   104.9490    10.1340     6.3980     8.4220     7.4950   -40.5630     0.0610     2.5060     0.3270
 1944.5000  -999.2500  -999.2500   -84.4680   -61.7430   105.3890    10.1360     6.5950     8.6420     7.6890   -41.3600     0.0620     2.5040     0.3120
 1945.0000  -999.2500  -999.2500   -84.6200   -66.7850   105.5690    10.1380     6.7930     8.8610     7.8820   -42.1570     0.0750     2.5000     0.2980
 1945.5000  -999.2500  -999.2500   -84.7720   -66.6750   106.0010    10.1400     6.9900     9.0890     8.1520   -42.9540     0.0850     2.4940     0.2890
 1946.0000  -999.2500  -999.2500   -84.9410   -62.6970   106.5120    10.1420     7.3120     9.0890     8.1520   -43.7510     0.0810     2.4870     0.2810
 1946.5000  -999.2500  -999.2500   -84.9710   -58.9470   109.9580    10.1430     7.2310     8.9140     8.0010   -44.5480     0.0710     2.4820     0.2830
 1947.0000  -999.2500  -999.2500   -84.8090   -55.1400   112.7880    10.1310     7.0510     8.6860     7.8030   -45.3450     0.0600     2.4800     0.2880
 1947.5000  -999.2500  -999.2500   -84.6540   -51.2920   116.0450    10.1180     6.2260     8.4530     7.6060   -46.1420     0.0560     2.4780     0.2940
 1948.0000  -999.2500  -999.2500   -84.5210   -48.3060   116.5650    10.1050     5.4680     8.3010     7.4460   -46.9390     0.0590     2.4760     0.2980
 1948.5000  -999.2500  -999.2500   -84.3590   -48.2650   115.3240    10.0920     5.6350     8.3860     7.5990   -47.7360     0.0620     2.4740     0.2970
 1949.0000  -999.2500  -999.2500   -84.1700   -48.1970   114.5680    10.0790     5.9700     8.6060     7.7940   -48.5330     0.0450     2.4770     0.2950
 1949.5000  -999.2500  -999.2500   -83.8140   -48.2330   112.6750    10.0670     6.4400     8.8260     7.9900   -49.3300     0.0260     2.4850     0.2940
 1950.0000  -999.2500  -999.2500   -83.8660   -48.2250   107.9800    10.0660     6.3720     9.0890     8.1850   -50.1270     0.0240     2.4910     0.3110
 1950.5000  -999.2500  -999.2500   -83.8650   -48.2230   101.1230    10.0640     6.2590     9.0890     8.3010   -50.9230     0.0350     2.4970     0.3280
 1951.0000  -999.2500  -999.2500   -83.9130   -48.2280   101.1020    10.0630     6.1460     8.9530     8.2590   -51.7200     0.0460     2.5010     0.3270
 1951.5000  -999.2500  -999.2500   -83.9600   -48.2270   104.6510    10.0610     5.9900     8.8180     8.2170   -52.5170     0.0600     2.5000     0.3140
 1952.0000  -999.2500  -999.2500   -84.0010   -48.2280   107.6840    10.0600     6.0990     8.6080     8.1760   -53.3140     0.0660     2.4950     0.2990
 1952.5000  -999.2500  -999.2500   -84.0470   -48.2280   110.6010    10.0590     6.5580     8.6670     8.0060   -54.1110     0.0480     2.4880     0.2880
 1953.0000  -999.2500  -999.2500   -84.0900   -48.2280   109.7210    10.0570     6.4640     8.8030     8.0120   -54.9080     0.0350     2.4850     0.2920
 1953.5000  -999.2500  -999.2500   -84.1350   -48.2280   107.4590    10.0560     6.3250     8.9390     8.0400   -55.7050     0.0370     2.4840     0.3110
