~VERSION INFORMATION
 VERS.                2.0:   CWLS LOG ASCII STANDARD - VERSION 2.0
 WRAP.                 NO:   ONE LINE PER DEPTH STEP
~WELL INFORMATION
#MNEM.UNIT      DATA TYPE    INFORMATION
#----------   ------------   ------------------------------
 STRT.F          208.0000:   START DEPTH
 STOP.F         2950.0000:   STOP DEPTH
 STEP.F            0.5000:   STEP LENGTH
 NULL.          -999.2500:   NO VALUE
 COMP.    FENIX & SCISSON:   COMPANY
 WELL.     FENIX A #56-28:   WELL
 FLD .                NPR:   FIELD
 LOC .      S28 T39N R78W:   LOCATION
 CNTY.            NATRONA:   COUNTY
 STAT.            WYOMING:   STATE
 CTRY. UNITED STATES OF AMERICA:   COUNTRY
 SRVC.              WELEX:   SERVICE COMPANY
 DATE.        20-AUG-1977:   LOGDATE
 API .     49025104140000:   API NUMBER
~CURVE INFORMATION
#MNEM.UNIT       API CODE    CURVE DESCRIPTION
#----------   ------------   ------------------------------
 DEPT.F                  :   
 SPR .MV     07 010 01 00:   SPONTANEOUS POTENTIAL
 RILM.OHMM   07 120 44 00:   INDUCTION LOG MEDIUM RESISTIVITY
 RILD.OHMM   07 120 46 00:   INDUCTION LOG DEEP RESISTIVITY
 SGRD.OHMM   07 220 05 00:   SHALLOW GUARD LOG RESISTIVITY
 CALD.IN     45 280 60 00:   CALIPER FROM DENSITY LOG
 DCOR.G/C3   45 356 01 00:   DENSITY CORRECTION
 GRD .GAPI   45 310 01 00:   GAMMA RAY FROM DENSITY LOG
 RHOB.G/C3   45 350 01 00:   BULK DENSITY
~PARAMETER INFORMATION
#MNEM.UNIT          VALUE    DESCRIPTION
#----------   ------------   ------------------------------
 EKB .F         5088.0000:   Kelly bushing
 EGL .F         5078.0000:   Ground level
 EDF .F            0.0000:   Drilling floor
 EPD .F         5078.0000:   Permanent datum
 TD  .F         2960.0000:   Total depth
 DATE.        20-AUG-1977:   Date logged
 CLNT.            A2DTECH:   Client Code
 SL  . 1650' FSL & 2310' FEL:   Surface Location
 PD  .                 GL:   Permanent Datum
 LMF .                 KB:   Log Measured From
 DMF .                 KB:   Drilling Measured From
 DAPD.F                10:   Feet Above Permanent Datum
 DD  .F              2960:   Depth driller
 DL  .F              2952:   Depth logger
 BLI .F              2950:   Bottom log interval
 TLI .F               210:   Top log interval
 CS1 .IN            8.625:   Casing size
 CBD1.      8.625" @ 215':   Casing driller 1
 CBL1.F               218:   Casing logger 1
 BS1 .IN            7.875:   Bit size
 BSD1.F              2960:   Depth drilled with bit1
 DFT .            KCL MUD:   Type fluid in hole
 DFD .                8.9:   Density
 DFV .                 60:   Viscosity
 DFPH.                 11:   pH
 DFL .                7.2:   Fluid loss
 MSS .           FLOWLINE:   Source of sample
 RMS .OHMM            .78:   Rm
 MST .F                81:   Rm Meas. temp.
 RMF .OHMM            .46:   Rmf
 MFST.F                81:   Rmf Meas. temp.
 RMC .OHMM           1.66:   Rmc
 MCST.F                81:   Rmc Meas. temp.
 MFSS.               CALC:   Source Rmf.
 MCSS.               CALC:   Source Rmc.
 RMB .OHMM            .56:   Rm. at BHT
 BHT .F               112:   BHT.
 TCS .HRS             2.5:   Time Circ. stopped
 MRT .F               112:   Maximum recorded temp.
 LUN .               8611:   Logging unit number
 LUL .             CASPER:   Logging unit location
 ENGI.             C DOAK:   Recorded By
 WITN.       B HARRINGTON:   Witnessed by
 ORIG.           5" PRINT:   Origin of data
 UWI .     49025104140000:   Unique Well ID
 DICO. A2D TECHNOLOGIES, INC.:   Digitizing Company
~OTHER INFORMATION
~A   DEPT      SPR       RILM       RILD       SGRD         CALD     DCOR        GRD       RHOB   
# ...
 1666.0000   -84.0290     8.6540     6.7160    10.4580     9.1640     0.0010   145.3420     2.4990
 1666.5000   -84.1280     8.5440     6.6660    10.4180     9.1700    -0.0010   145.7720     2.4990
 1667.0000   -84.1930     8.4290     6.6160    10.3430     9.1760     0.0010   146.1280     2.5000
 1667.5000   -83.9990     8.2670     6.5660     9.9280     9.1830     0.0020   146.4850     2.5020
 1668.0000   -83.8460     8.3150     6.5160    10.1110     9.1890     0.0040   146.8430     2.5050
 1668.5000   -84.0240     8.3980     6.5160    10.4250     9.1960     0.0050   147.2010     2.5080
 1669.0000   -84.2060     8.4970     6.5560    10.4880     9.2020     0.0040   147.5540     2.5100
 1669.5000   -84.0930     8.4520     6.6580    10.4880     9.2080     0.0030   147.7790     2.5070
 1670.0000   -83.9570     8.3970     6.7590    10.4880     9.2150     0.0020   147.4560     2.5040
 1670.5000   -83.8220     8.3430     6.8610    10.4880     9.2180     0.0010   147.1450     2.5030
 1671.0000   -83.6870     8.9990     6.9630    10.6490     9.2180     0.0000   146.8350     2.5030
 1671.5000   -83.6280     9.0960     7.0640    11.0200     9.2190     0.0000   146.3600     2.5010
 1672.0000   -83.6280     9.1930     7.1450    11.3910     9.2190    -0.0010   145.6490     2.4980
 1672.5000   -83.6270     9.2890     7.1630    11.7630     9.2190     0.0000   145.0040     2.4990
 1673.0000   -83.6270     9.3860     7.1820    11.8820     9.2190     0.0020   144.6880     2.5050
 1673.5000   -83.6270     9.4820     7.2060    11.9600     9.2190     0.0030   146.1620     2.5110
 1674.0000   -83.6270     9.5710     7.1740    12.0320     9.2190     0.0040   147.9590     2.5160
 1674.5000   -83.6280     9.0620     7.1270    11.8140     9.2190     0.0050   149.7750     2.5140
 1675.0000   -83.6290     8.5930     7.0750    10.9630     9.2190     0.0070   151.5800     2.5110
 1675.5000   -83.5780     8.2670     6.8700    10.1110     9.2190     0.0080   153.4030     2.5120
 1676.0000   -83.5170     8.3340     6.6230    10.0190     9.2190     0.0090   153.6570     2.5130
 1676.5000   -83.4550     8.2210     6.3580    10.0710     9.2180     0.0100   151.5710     2.5120
 1677.0000   -83.3930     7.9190     6.0940    10.1270     9.2180     0.0110   149.3520     2.5110
 1677.5000   -83.3320     7.5440     5.8290    10.1830     9.2310     0.0130   149.2900     2.5100
 1678.0000   -83.2710     7.1690     5.5640    10.2390     9.2460     0.0110   150.3670     2.5070
 1678.5000   -83.2560     6.5770     5.2990    10.2980     9.2610     0.0090   151.1700     2.4930
 1679.0000   -83.3030     5.9130     5.1500     8.7200     9.2770     0.0070   151.8970     2.4730
 1679.5000   -83.3500     5.2300     5.0910     4.7670     9.2920     0.0050   152.6380     2.4520
 1680.0000   -83.3960     5.9960     5.0420     5.8030     9.3070     0.0030   151.8890     2.4590
 1680.5000   -83.4230     6.6500     5.2020     9.1430     9.3130     0.0010   150.1300     2.4740
 1681.0000   -83.3830     6.8010     5.3990    10.4040     9.3010    -0.0010   149.0940     2.4890
 1681.5000   -83.3450     7.0640     5.6120    10.4610     9.2890    -0.0030   149.3760     2.5060
 1682.0000   -83.3070     7.4200     5.8250    10.5180     9.2770    -0.0060   148.9000     2.4970
 1682.5000   -83.2690     8.0020     6.0380    10.5750     9.2660    -0.0090   148.2530     2.4840
 1683.0000   -83.2390     8.1520     6.2510    10.5850     9.2540    -0.0120   147.8650     2.4720
 1683.5000   -83.3210     8.6540     6.4560    10.5850     9.2420    -0.0160   147.9700     2.4670
 1684.0000   -83.4010     8.4500     6.5910    10.5850     9.2310    -0.0160   148.0670     2.4700
 1684.5000   -83.4800     8.9770     6.7210    10.6450     9.2190    -0.0140   148.1630     2.4730
 1685.0000   -83.5590     8.8950     6.8510    10.7380     9.2170    -0.0120   148.0340     2.4760
 1685.5000   -83.6180     9.0040     6.9580    10.8310     9.2150    -0.0100   147.4190     2.4790
 1686.0000   -83.5470     9.1690     7.0000    10.9760     9.2140    -0.0080   145.9190     2.4830
 1686.5000   -83.4740     9.3340     7.0420    11.1810     9.2120    -0.0060   145.5470     2.4860
 1687.0000   -83.4020     9.4840     7.0840    11.3380     9.2110    -0.0040   145.2250     2.4900
 1687.5000   -83.3300     9.4400     7.1270    11.4440     9.2090    -0.0030   145.2280     2.4950
 1688.0000   -83.2580     9.3970     7.1690    11.5510     9.2070    -0.0020   145.4870     2.4990
 1688.5000   -83.1850     9.5170     7.2070    11.6570     9.2060     0.0000   145.7470     2.5030
 1689.0000   -83.1130     9.6590     7.2160    11.8140     9.2040     0.0010   146.0090     2.5070
 1689.5000   -83.0420    10.2040     7.2250    11.7690     9.2020     0.0020   146.2680     2.5080
 1690.0000   -83.0670     9.8120     7.2340    11.6830     9.2010     0.0040   146.5290     2.5070
 1690.5000   -83.0970    10.3930     7.2430    11.5970     9.1990     0.0050   146.2930     2.5110
 1691.0000   -83.1270     9.3120     7.2520    11.5110     9.1980     0.0060   145.6470     2.5150
 1691.5000   -83.1560     9.5710     7.2610    11.4250     9.1960     0.0060   144.9960     2.5200
 1692.0000   -83.1860    10.1110     7.2700    11.2960     9.1940     0.0030   145.1340     2.5130
 1692.5000   -83.2150     9.8500     7.2790    11.4480     9.1930     0.0010   145.9470     2.5030
 1693.0000   -83.2450     9.9760     7.2870    11.8780     9.1910    -0.0020   146.5040     2.5000
 1693.5000   -83.2740    10.0770     7.2960    12.3090     9.1900    -0.0040   145.3360     2.5080
 1694.0000   -83.3030    10.1780     7.3050    12.4810     9.1880    -0.0030   146.0420     2.5080
 1694.5000   -83.3330    10.2980     7.3140    12.6010     9.1860     0.0000   146.6470     2.5000
 1695.0000   -83.3620    10.1720     7.3230    12.8290     9.1850     0.0030   147.0360     2.5000
 1695.5000   -83.3920    10.0170     7.3320    12.2400     9.1830     0.0060   148.3780     2.5040
 1696.0000   -83.4230     9.8630     7.3390    11.7560     9.1820     0.0090   149.8310     2.5060
 1696.5000   -83.4190     9.7020     7.2870    11.3890     9.1800     0.0090   151.3110     2.4990
 1697.0000   -83.4020     9.5400     7.2450    11.3890     9.1790     0.0060   150.6980     2.4930
 1697.5000   -83.3840     9.3780     7.2030    11.3890     9.1790     0.0020   149.4580     2.4870
 1698.0000   -83.3660     9.2270     7.1610    11.1900     9.1790    -0.0020   146.7530     2.4800
 1698.5000   -83.3480     9.2870     7.1190    11.0020     9.1790    -0.0050   147.7000     2.4740
 1699.0000   -83.3300     9.3430     7.0770    11.1310     9.1790    -0.0090   148.9020     2.4700
 1699.5000   -83.3120     9.3990     7.0350    11.3030     9.1850    -0.0090   150.1320     2.4670
 1700.0000   -83.2940     9.4840     6.9930    11.6050     9.1920    -0.0090   149.1390     2.4630
 1700.5000   -83.2760     9.3850     6.9470    12.2550     9.1990    -0.0090   147.0210     2.4600
 1701.0000   -83.2580     9.1880     6.8830    11.7380     9.2060    -0.0050   144.9300     2.4630
 1701.5000   -83.2410     8.9920     6.8120    10.2040     9.2130    -0.0020   144.6930     2.4700
 1702.0000   -83.1970     8.8020     6.7410    10.4190     9.2190     0.0020   146.2960     2.4810
 1702.5000   -83.1420     8.6190     6.6700    10.8800     9.2260     0.0060   148.1310     2.4910
 1703.0000   -83.0880     8.4190     6.5990    10.6000     9.2330     0.0090   150.0260     2.5040
 1703.5000   -83.0370     8.3380     6.5280    10.2040     9.2380     0.0100   151.5520     2.4990
 1704.0000   -83.0160     8.2490     6.4570    10.5850     9.2380     0.0070   151.8670     2.4890
 1704.5000   -82.9950     8.1170     6.3860    10.3570     9.2380     0.0050   151.9760     2.4790
 1705.0000   -82.9740     8.1300     6.3150     9.8100     9.2380     0.0050   152.0830     2.4720
 1705.5000   -82.9530     8.1550     6.2810     9.2400     9.2380     0.0090   152.2310     2.4790
 1706.0000   -82.9320     8.1910     6.2810    10.4580     9.2380     0.0120   152.5200     2.4910
