~VERSION INFORMATION
 VERS.                2.0:   CWLS LOG ASCII STANDARD - VERSION 2.0
 WRAP.                 NO:   ONE LINE PER DEPTH STEP
~WELL INFORMATION
#MNEM.UNIT      DATA TYPE    INFORMATION
#----------   ------------   ------------------------------
 STRT.F           34.0000:   START DEPTH
 STOP.F         2909.0000:   STOP DEPTH
 STEP.F            0.5000:   STEP LENGTH
 NULL.          -999.2500:   NO VALUE
 COMP.   TESORO PETROLEUM:   COMPANY
 WELL. TESORO NPR "A" #3-28:   WELL
 FLD .             TEAPOT:   FIELD
 LOC .      S28 T39N R78W:   LOCATION
 CNTY.            NATRONA:   COUNTY
 STAT.            WYOMING:   STATE
 CTRY. UNITED STATES OF AMERICA:   COUNTRY
 SRVC.              WELEX:   SERVICE COMPANY
 DATE.        22-JUL-1968:   LOGDATE
 API .     49025102620000:   API NUMBER
~CURVE INFORMATION
#MNEM.UNIT       API CODE    CURVE DESCRIPTION
#----------   ------------   ------------------------------
 DEPT.F                  :   
 GRD .GAPI   45 310 01 00:   GAMMA RAY FROM DENSITY LOG
 SPR .MV     05 010 01 00:   SPONTANEOUS POTENTIAL FROM RES.
 ASN .OHMM   05 041 16 00:   AMPLIFIED SHORT NORMAL 16"
 ILD .OHMM   05 120 46 00:   INDUCTION LOG DEEP
~PARAMETER INFORMATION
#MNEM.UNIT          VALUE    DESCRIPTION
#----------   ------------   ------------------------------
 EKB .F         5050.0000:   Kelly bushing
 EGL .F         5039.0000:   Ground level
 EDF .F            0.0000:   Drilling floor
 EPD .F         5039.0000:   Permanent datum
 TD  .F         2906.0000:   Total depth
 CLNT.            A2DTECH:   Client Code
 DATE.       22-JULY-1968:   Date Logged [DD-MMM-YYYY]
 DD  .F              2906:   Depth driller
 DL  .F              2906:   Depth logger
 BLI .F              2901:   Bottom log interval
 TLI .F               356:   Top log interval
 CS1 .              10.75:   Casing size
 CBD1.      10.75" @ 356':   Casing driller 1
 CBL1.IN              356:   Casing logger 1
 BS1 .IN                9:   Bit size
 DFT .     WATER BASE MUD:   Type fluid in hole
 DFD .                9.6:   Density
 DFV .                 60:   Viscosity
 DFPH.                9.0:   pH
 DFL .                  6:   Fluid loss
 MSS .               CTRC:   Source of sample
 RMS .OHMM            2.1:   Rm
 MST .F                74:   Rm Meas. temp.
 RMF .OHMM            1.6:   Rmf
 MFST.F                71:   Rmf Meas. temp.
 MFSS.               MEAS:   Source Rmf.
 RMC .OHMM            3.0:   Rmc
 MCST.F                66:   Rmc Meas. temp.
 RMB .OHMM            1.3:   Rm. at BHT
 BHT .F               120:   BHT.
 MRT .F               120:   Maximum recorded temp.
 LUN .               6869:   Logging unit number
 ORIG.         2.5" PRINT:   Origin of data
 UWI .     49025102620000:   Unique Well ID
 DICO. A2D TECHNOLOGIES, INC.:   Digitizing Company
 LUL .          NEWCASTLE:   Logging unit location
~OTHER INFORMATION
~A   DEPT      GRD        SPR         ASN         ILD 
# ...
  253.0000  -999.2500   -26.3969    20.9803    33.7536
  253.5000  -999.2500   -26.0828    20.9794    33.9067
  254.0000  -999.2500   -26.0812    20.8272    33.9029
  254.5000  -999.2500   -26.0797    20.8264    34.0734
  255.0000  -999.2500   -26.3906    20.8257    34.2398
  255.5000  -999.2500   -26.5714    20.8250    34.3618
  256.0000  -999.2500   -27.0123    20.8243    34.2989
  256.5000  -999.2500   -27.0107    20.8235    34.0400
  257.0000  -999.2500   -27.0093    20.8227    33.8793
  257.5000  -999.2500   -26.6952    20.8220    33.8747
  258.0000  -999.2500   -26.3813    20.8212    33.8709
  258.5000  -999.2500   -26.3796    20.6689    34.0243
  259.0000  -999.2500   -26.0657    20.5833    34.0202
  259.5000  -999.2500   -26.0641    20.5158    34.1732
  260.0000  -999.2500   -25.9583    20.5151    34.3261
  260.5000  -999.2500   -25.7485    20.5143    34.3221
  261.0000  -999.2500   -25.7468    20.6651    34.3182
  261.5000  -999.2500   -25.9276    20.6644    34.4716
  262.0000  -999.2500   -26.3687    20.6637    34.5319
  262.5000  -999.2500   -26.9920    20.6629    34.6199
  263.0000  -999.2500   -26.9905    20.6621    34.7727
  263.5000  -999.2500   -26.9890    20.6614    34.9249
  264.0000  -999.2500   -26.6750    20.6606    34.9212
  264.5000  -999.2500   -26.3349    20.6598    35.0742
  265.0000  -999.2500   -25.7344    20.6589    35.0704
  265.5000  -999.2500   -25.7328    20.6582    34.9099
  266.0000  -999.2500   -25.8354    20.6575    34.7325
  266.5000  -999.2500   -26.1724    20.6568    34.3713
  267.0000  -999.2500   -26.5094    20.6560    33.9138
  267.5000  -999.2500   -26.6640    20.6553    33.6403
  268.0000  -999.2500   -26.6623    20.6546    33.6363
  268.5000  -999.2500   -26.6607    20.5022    33.6325
  269.0000  -999.2500   -26.3468    20.5015    33.6278
  269.5000  -999.2500   -26.3452    20.4432    33.7808
  270.0000  -999.2500   -26.0312    20.3485    33.7771
  270.5000  -999.2500   -26.0297    20.3477    33.7733
  271.0000  -999.2500   -25.9760    20.3468    33.7695
  271.5000  -999.2500   -25.7141    20.3461    33.7657
  272.0000  -999.2500   -25.7125    20.3454    33.7617
  272.5000  -999.2500   -25.7110    20.3447    33.6011
  273.0000  -999.2500   -25.7094    20.3439    33.5972
  273.5000  -999.2500   -25.7078    20.3432    33.5932
  274.0000  -999.2500   -25.7060    20.3424    33.5121
  274.5000  -999.2500   -25.7045    20.3417    33.4287
  275.0000  -999.2500   -25.7030    20.3409    33.4241
  275.5000  -999.2500   -25.7015    20.3401    33.2636
  276.0000  -999.2500   -25.3875    20.3394    33.1031
  276.5000  -999.2500   -25.3599    20.3385    32.9427
  277.0000  -999.2500   -25.0198    20.3378    32.9368
  277.5000  -999.2500   -24.7578    20.1855    32.7782
  278.0000  -999.2500   -25.0690    20.1848    32.6175
  278.5000  -999.2500   -25.1974    20.1841    32.5708
  279.0000  -999.2500   -25.3782    20.1833    32.3966
  279.5000  -999.2500   -25.6890    20.1826    32.2924
  280.0000  -999.2500   -25.6873    20.1818    32.2048
  280.5000  -999.2500   -25.6858    20.1811    32.1270
  281.0000  -999.2500   -25.6842    20.1803    32.1233
  281.5000  -999.2500   -25.3703    20.1098    32.1195
  282.0000  -999.2500   -25.0562    20.0273    31.9590
  282.5000  -999.2500   -25.0547    20.0264    31.9553
  283.0000  -999.2500   -25.0531    20.0257    31.7863
  283.5000  -999.2500   -25.0516    20.0249    31.6340
  284.0000  -999.2500   -25.0500    20.0242    31.4379
  284.5000  -999.2500   -25.0484    20.0235    31.1559
  285.0000  -999.2500   -25.0469    20.0127    30.9326
  285.5000  -999.2500   -25.0453    19.8704    30.5253
  286.0000  -999.2500   -24.7310    19.8697    30.2707
  286.5000  -999.2500   -24.7295    19.8690    30.1992
  287.0000  -999.2500   -24.7280    19.8055    30.3527
  287.5000  -999.2500   -24.7265    19.7159    30.3484
  288.0000  -999.2500   -24.7250    19.7150    30.3447
  288.5000  -999.2500   -25.0360    19.7143    30.3398
  289.0000  -999.2500   -25.3470    19.7135    30.1656
  289.5000  -999.2500   -25.3453    19.7128    29.9914
  290.0000  -999.2500   -25.3438    19.7121    29.8171
  290.5000  -999.2500   -25.3422    19.7114    29.6428
  291.0000  -999.2500   -25.0281    19.7106    29.3119
  291.5000  -999.2500   -25.0266    19.7098    29.0635
  292.0000  -999.2500   -25.0247    19.6667    28.9021
  292.5000  -999.2500   -25.0233    19.5569    28.7416
  293.0000  -999.2500   -25.0217    19.4045    28.7378
  293.5000  -999.2500   -25.0203    19.4038    28.7341
  294.0000  -999.2500   -25.0187    19.4029    29.0438
  294.5000  -999.2500   -25.0172    19.5538    29.2040
  295.0000  -999.2500   -25.0157    19.7046    29.5272
  295.5000  -999.2500   -25.0140    19.8553    30.0071
  296.0000  -999.2500   -25.0125    19.8545    30.3783
  296.5000  -999.2500   -25.0109    20.0053    31.0284
  297.0000  -999.2500   -25.3219    20.0045    31.6034
  297.5000  -999.2500   -25.5026    20.0038    31.6810
  298.0000  -999.2500   -25.6313    20.0030    31.5197
  298.5000  -999.2500   -25.9422    20.0023    31.3592
  299.0000  -999.2500   -25.9405    20.0015    30.7285
  299.5000  -999.2500   -25.9390    20.0008    30.0978
  300.0000  -999.2500   -25.9375    19.8484    29.9373
  300.5000  -999.2500   -25.9359    19.7866    29.9197
  301.0000  -999.2500   -25.9344    19.6238    29.7456
  301.5000  -999.2500   -25.9328    19.4608    29.4146
  302.0000  -999.2500   -25.9312    19.0909    29.2403
  302.5000  -999.2500   -25.9297    18.9394    28.9773
  303.0000  -999.2500   -26.2500    18.9394    28.4969
  303.5000  -999.2500   -25.9375    18.7879    27.7148
  304.0000  -999.2500   -25.9375    18.6364    27.4734
  304.5000  -999.2500   -25.6250    18.4848    26.4992
  305.0000  -999.2500   -25.6250    18.4722    25.2482
  305.5000  -999.2500   -25.6250    18.3333    24.3801
  306.0000  -999.2500   -25.3090    18.1465    24.2947
  306.5000  -999.2500   -24.9788    18.0303    24.2947
  307.0000  -999.2500   -24.6875    17.8788    24.6082
  307.5000  -999.2500   -25.0565    17.8788    24.7649
  308.0000  -999.2500   -26.0117    17.9596    25.2351
  308.5000  -999.2500   -26.6543    18.3333    25.3918
  309.0000  -999.2500   -27.1875    18.4848    25.7053
  309.5000  -999.2500   -27.3146    18.6364    26.1888
  310.0000  -999.2500   -27.5000    18.9394    28.4639
  310.5000  -999.2500   -27.6625    19.3939    31.5901
  311.0000  -999.2500   -27.8125    20.0000    33.9321
  311.5000  -999.2500   -28.4375    20.3030    33.8151
  312.0000  -999.2500   -29.0625    20.3232    32.5768
  312.5000  -999.2500   -29.3750    20.4861    31.7463
  313.0000  -999.2500   -29.3750    20.6061    31.2555
  313.5000  -999.2500   -29.0625    20.6061    30.7210
  314.0000  -999.2500   -29.0625    20.6061    30.5643
  314.5000  -999.2500   -28.7500    20.6061    30.5643
  315.0000  -999.2500   -28.4375    20.6061    30.5643
  315.5000  -999.2500   -28.4375    20.6061    30.7210
  316.0000  -999.2500   -28.4375    20.6061    30.8777
  316.5000  -999.2500   -28.4993    20.6061    30.8777
  317.0000  -999.2500   -28.7500    20.4545    31.2074
  317.5000  -999.2500   -29.1596    20.4545    31.5321
  318.0000  -999.2500   -29.3750    20.3030    31.6614
  318.5000  -999.2500   -29.3750    20.3030    31.2981
  319.0000  -999.2500   -29.6875    20.2752    30.9734
  319.5000  -999.2500   -29.6875    20.1515    30.8777
  320.0000  -999.2500   -30.0000    20.0000    30.7210
  320.5000  -999.2500   -30.0000    19.8485    30.5643
  321.0000  -999.2500   -30.0000    19.7753    30.2508
  321.5000  -999.2500   -30.0000    19.6970    30.2508
  322.0000  -999.2500   -30.0000    19.6970    30.2508
  322.5000  -999.2500   -30.0000    19.9060    30.0940
  323.0000  -999.2500   -29.6875    19.9060    29.9373
  323.5000  -999.2500   -29.6875    19.9060    29.6238
  324.0000  -999.2500   -29.6875    20.0627    29.4336
  324.5000  -999.2500   -29.6875    20.0627    28.8122
  325.0000  -999.2500   -29.6875    20.0627    28.8793
  325.5000  -999.2500   -29.3750    20.0627    29.0473
