~VERSION INFORMATION
 VERS.                2.0:   CWLS LOG ASCII STANDARD - VERSION 2.0
 WRAP.                 NO:   ONE LINE PER DEPTH STEP
~WELL INFORMATION
#MNEM.UNIT      DATA TYPE    INFORMATION
#----------   ------------   ------------------------------
 STRT.F           20.0000:   START DEPTH
 STOP.F         4128.0000:   STOP DEPTH
 STEP.F            0.5000:   STEP LENGTH
 NULL.          -999.2500:   NO VALUE
 COMP. LAWRENCE-ALLISON & ASSOCIATES:   COMPANY
 WELL. LAWRENCE "X" #53-3:   WELL
 FLD .             NPR #3:   FIELD
 LOC .       S3 T38N R78W:   LOCATION
 CNTY.            NATRONA:   COUNTY
 STAT.            WYOMING:   STATE
 CTRY. UNITED STATES OF AMERICA:   COUNTRY
 SRVC.      DRESSER ATLAS:   SERVICE COMPANY
 DATE.        18-SEP-1983:   LOGDATE
 API .     49025109370000:   API NUMBER
~CURVE INFORMATION
#MNEM.UNIT       API CODE    CURVE DESCRIPTION
#----------   ------------   ------------------------------
 DEPT.F                  :   
 NPHI.DEC    42 890 03 00:   NEUTRON POROSITY SANDSTONE
 TEND.LBS    45 635 01 00:   TENSION FORM DENSITY LOG
 CORR.G/C3   45 356 01 00:   DENSITY CORRECTION
 RHOB.G/C3   45 350 01 00:   BULK DENSITY
 CALD.IN     45 280 60 00:   CALIPER FROM DENSITY LOG
 GRR .GAPI   07 310 01 00:   GAMMA RAY FROM RESISTIVITY
 TENR.LBS    06 635 01 00:   TENSION FROM RESISTIVITY
 SPR .MV     07 010 01 00:   SPONTANEOUS POTENTIAL
 RILD.OHMM   07 120 46 00:   DEEP INDUCTION RESISTIVITY
 RILM.OHMM   07 120 44 00:   INDUCTION LOG MEDIUM RESISTIVITY
 RSFL.OHMM   07 220 01 00:   SPHERICALLY FOCUSED RESISTIVITY
 TENS.LBS    60 635 01 00:   TENSION FROM SONIC
 DT  .US/F   60 520 00 00:   DELTA TIME
~PARAMETER INFORMATION
#MNEM.UNIT          VALUE    DESCRIPTION
#----------   ------------   ------------------------------
 EKB .F         5214.0000:   Kelly bushing
 EGL .F         5204.0000:   Ground level
 EDF .F            0.0000:   Drilling floor
 TD  .F         4117.0000:   Total depth
 CLNT.            A2DTECH:   Client Code
 PD  .                 GL:   Permanent Datum
 EPD .F              5204:   Elevation Permanent Datum
 LMF .                 KB:   Log Measured From
 DMF .                 KB:   Drilling Measured From
 DAPD.F                10:   Feet Above Permanent Datum
 DATE.        18-SEP-1983:   Date Logged [DD-MMM-YYYY]
 DD  .F              4117:   Depth driller
 DL  .F              4113:   Depth logger
 BLI .F              4110:   Bottom log interval
 TLI .F                 0:   Top log interval
 CS1 .IN            9.625:   Casing size
 CBD1.      9.625" @ 523':   Casing driller 1
 CBL1.F               523:   Casing logger 1
 BS1 .IN            7.875:   Bit size
 BSD1.F              4117:   Depth drilled with bit1
 DFT .            GEL KCL:   Type fluid in hole
 DFD .                9.0:   Density
 DFV .                 42:   Viscosity
 DFPH.                8.5:   pH
 DFL .                 10:   Fluid loss
 MSS .               TANK:   Source of sample
 RMS .OHMM           0.35:   Rm
 MST .F                68:   Rm Meas. temp.
 RMF .OHMM          0.266:   Rmf
 MFST.F                68:   Rmf Meas. temp.
 MFSS.               MEAS:   Source Rmf.
 RMC .OHMM          0.443:   Rmc
 MCST.F                68:   Rmc Meas. temp.
 MCSS.               CALC:   Source Rmc.
 RMB .OHMM          0.185:   Rm. at BHT
 BHT .F               130:   BHT.
 TCS .HRS               4:   Time Circ. stopped
 MRT .F               130:   Maximum recorded temp.
 LUN .               6270:   Logging unit number
 LUL .              WLSTN:   Logging unit location
 ENGI.             REEVES:   Recorded By
 WITN.             STRONG:   Witnessed by
 ORIG.           5" PRINT:   Origin of data
 UWI .     49025109370000:   Unique Well ID
 DICO. A2D TECHNOLOGIES, INC.:   Digitizing Company
~OTHER INFORMATION
~A   DEPT     NPHI       TEND       CORR       RHOB       CALD         GRR      TENR        SPR       RILD       RILM       RSFL       TENS         DT   
# ...
 1944.0000     0.2434   -40.6486     0.0084     2.4960     9.7130   150.5127   -75.6592   -76.0543     8.1498     8.1901    10.2306  -999.2500  -999.2500
 1944.5000     0.2488   -43.0542    -0.0365     2.4997     9.7119   147.7489   -75.9964   -76.3558     8.1451     8.1861    10.0072  -999.2500  -999.2500
 1945.0000     0.2549   -44.1293    -0.0531     2.5035     9.7107   143.1305   -76.3336   -76.8045     8.1404     8.1814     9.7113  -999.2500  -999.2500
 1945.5000     0.2558   -43.9540    -0.0079     2.5080     9.7096   136.7430   -76.6708   -77.4006     8.1353     8.2361     9.6430  -999.2500  -999.2500
 1946.0000     0.2576   -43.8137     0.0177     2.5155     9.7085   133.9791   -77.0080   -77.8509     8.1310     8.2306    10.0642  -999.2500  -999.2500
 1946.5000     0.2600   -43.6383     0.0403     2.5140     9.7074   133.6241   -77.3452   -78.0050     8.1264     8.2262    10.2054  -999.2500  -999.2500
 1947.0000     0.2606   -47.3038     0.0086     2.5072     9.7063   135.4352   -77.6824   -78.0119     8.1810     8.2207    10.1994  -999.2500  -999.2500
 1947.5000     0.2552   -47.1284    -0.0186     2.4989     9.7051   135.7179   -78.0196   -78.0205     8.2026     8.2163    10.2695  -999.2500  -999.2500
 1948.0000     0.2477   -46.9834    -0.0428     2.4944     9.7040   133.5549   -78.3568   -77.8783     8.2373     8.2723    10.2635  -999.2500  -999.2500
 1948.5000     0.2385   -50.5835    -0.0474     2.4921     9.7029   133.2219   -78.6939   -77.5924     8.3442     8.3265    10.2587  -999.2500  -999.2500
 1949.0000     0.2279   -50.4432    -0.0082     2.4952     9.7018   136.2268   -79.0311   -77.3047     8.4001     8.3822    10.3280  -999.2500  -999.2500
 1949.5000     0.2220   -50.3017    -0.0098     2.5011     9.7007   141.6696   -79.3683   -77.0187     8.4564     8.3766    10.4717  -999.2500  -999.2500
 1950.0000     0.2219   -53.9332    -0.0219     2.5019     9.6995   144.0730   -79.7055   -76.8766     8.4194     8.3120    10.6186  -999.2500  -999.2500
 1950.5000     0.2276   -47.2799    -0.0264     2.4989     9.6984   141.0628   -80.0427   -76.8949     8.2660     8.2288    10.4872  -999.2500  -999.2500
 1951.0000     0.2393   -41.1046    -0.0144     2.4936     9.6973   138.8628   -80.3799   -76.4520     8.0853     8.1867    10.3826  -999.2500  -999.2500
 1951.5000     0.2465   -39.0502    -0.0069     2.4906     9.6962   136.4063   -80.7171   -76.3099     7.9649     8.1252    10.3028  -999.2500  -999.2500
 1952.0000     0.2505   -39.1403    -0.0025     2.4921     9.6951   134.8667   -81.0543   -76.1696     7.9611     7.9489    10.1514  -999.2500  -999.2500
 1952.5000     0.2493   -39.2266    -0.0040     2.4958     9.6939   138.4943   -81.3915   -76.0309     7.9574     7.8891    10.1473  -999.2500  -999.2500
 1953.0000     0.2493   -39.2971    -0.0025     2.4973     9.6928   141.8501   -81.4439   -75.8906     7.8397     7.8292     9.7806  -999.2500  -999.2500
 1953.5000     0.2493   -39.3676     0.0265     2.4958     9.6917   141.1852   -81.2641   -75.8992     7.8352     7.8266     9.5017  -999.2500  -999.2500
 1954.0000     0.2484   -43.2266     0.0381     2.4920     9.6906   137.5179   -81.0844   -75.9061     7.8315     7.8240     9.7054  -999.2500  -999.2500
 1954.5000     0.2454   -47.0678     0.0109     2.4905     9.6894   134.4585   -80.9044   -75.9131     7.9415     7.8779     9.8423  -999.2500  -999.2500
 1955.0000     0.2406   -47.1342    -0.0042     2.4928     9.6883   134.1347   -80.7246   -76.0689     8.0008     7.9888     9.9094  -999.2500  -999.2500
 1955.5000     0.2346   -50.9804     0.0033     2.4950     9.6872   134.4188   -80.5447   -76.2231     8.1065     7.9861     9.9770  -999.2500  -999.2500
 1956.0000     0.2295   -51.0678     0.0198     2.4980     9.6861   133.1782   -80.3649   -76.5245     8.1623     7.9834     9.9720  -999.2500  -999.2500
 1956.5000     0.2355   -54.9091     0.0273     2.4995     9.6850   131.6383   -80.1851   -76.6986     8.1575     8.0959     9.9679  -999.2500  -999.2500
 1957.0000     0.2532   -54.9796     0.0167     2.5003     9.6838   132.5256   -80.0052   -76.9819     8.2124     8.0932     9.9629  -999.2500  -999.2500
 1957.5000     0.2695   -55.0678     0.0031     2.4988     9.6827   135.5453   -79.8254   -77.2833     8.2682     8.1489     9.9589  -999.2500  -999.2500
 1958.0000     0.2650   -58.9091    -0.0030     2.4980     9.6816   139.1729   -79.6455   -77.4375     8.2040     8.1455     9.9549  -999.2500  -999.2500
 1958.5000     0.2569   -58.9796     0.0003     2.5002     9.6805   140.6728   -79.4657   -77.4462     8.1403     8.1428     9.9499  -999.2500  -999.2500
 1959.0000     0.2527   -62.8209     0.0150     2.5042     9.6794   138.8242   -79.2859   -77.4531     8.1364     8.0816     9.8745  -999.2500  -999.2500
 1959.5000     0.2521   -62.9090     0.0391     2.5077     9.6782   137.8925   -79.1060   -77.3127     8.0744     8.0789     9.7452  -999.2500  -999.2500
 1960.0000     0.2582   -62.9796     0.0481     2.5062     9.6776   138.2170   -78.9262   -77.3196     8.0123     7.9600     9.5839  -999.2500  -999.2500
 1960.5000     0.2645   -63.0501     0.0315     2.5017     9.6779   140.8874   -78.7464   -77.1792     8.0083     7.9002     9.5133  -999.2500  -999.2500
 1961.0000     0.2696   -63.1222     0.0105     2.4980     9.6782   143.2991   -78.5665   -77.3351     8.0039     7.8067     9.5092  -999.2500  -999.2500
 1961.5000     0.2856   -66.9796    -0.0031     2.4957     9.6785   145.7109   -78.3867   -77.3420     7.9426     7.7260     9.5051  -999.2500  -999.2500
 1962.0000     0.2898   -67.0501    -0.0121     2.4949     9.6788   148.7305   -78.2068   -77.4963     7.8809     7.7228     9.5002  -999.2500  -999.2500
 1962.5000     0.2748   -67.1206    -0.0226     2.4949     9.6791   141.7148   -78.0270   -77.3558     7.8777     7.7202     9.5650  -999.2500  -999.2500
 1963.0000     0.2579   -70.9795    -0.0331     2.4957     9.6794   138.0476   -77.8472   -77.2155     7.7951     7.7176     9.5612  -999.2500  -999.2500
 1963.5000     0.2492   -74.8208    -0.0407     2.4949     9.6797   143.9361   -77.6673   -76.9293     7.7571     7.6590     9.5573  -999.2500  -999.2500
 1964.0000     0.2438   -74.8913    -0.0467     2.4957     9.6800   150.4649   -77.4875   -76.6419     7.7526     7.7118     9.6222  -999.2500  -999.2500
 1964.5000     0.2448   -74.9623    -0.0406     2.4979     9.6803   154.0974   -77.3076   -76.3542     7.7489     7.7092     9.7582  -999.2500  -999.2500
 1965.0000     0.2433   -75.0500    -0.0285     2.5024     9.6805   148.6015   -77.1278   -76.0683     7.7715     7.8184     9.7533  -999.2500  -999.2500
 1965.5000     0.2403   -75.1206    -0.0104     2.5085     9.6808   147.0619   -76.9480   -76.0752     7.8539     7.8723     9.8199  -999.2500  -999.2500
 1966.0000     0.2373   -78.9619     0.0078     2.5107     9.6811   149.7726   -76.7681   -76.8202     7.9212     7.9266     9.8869  -999.2500  -999.2500
 1966.5000     0.2418   -74.7754     0.0063     2.5076     9.6814   150.6646   -76.6602   -77.1217     7.9607     7.9806     9.8819  -999.2500  -999.2500
 1967.0000     0.2436   -71.5615     0.0108     2.5031     9.6817   149.6842   -76.6602   -77.1286     8.0715     7.9771     9.8778  -999.2500  -999.2500
 1967.5000     0.2409   -67.8613     0.0048     2.4964     9.6820   146.3646   -76.6602   -77.2828     8.0088     7.9745     9.9453  -999.2500  -999.2500
 1968.0000     0.2394   -64.1787    -0.0057     2.4926     9.6823   142.6974   -76.6602   -77.5860     8.0054     7.9718     9.9406  -999.2500  -999.2500
 1968.5000     0.2569   -64.2669    -0.0162     2.4918     9.6826   141.7657   -76.6602   -77.7401     8.0013     7.9691     9.9701  -999.2500  -999.2500
 1969.0000     0.2680   -64.3374    -0.0343     2.4926     9.6829   141.1329   -76.6602   -78.0416     8.0554     8.0240    10.0041  -999.2500  -999.2500
 1969.5000     0.2676   -64.4042    -0.0599     2.4956     9.6832   139.8973   -76.6602   -78.1959     8.0507     8.1370     9.9872  -999.2500  -999.2500
