~VERSION INFORMATION
 VERS.                2.0:   CWLS LOG ASCII STANDARD - VERSION 2.0
 WRAP.                 NO:   ONE LINE PER DEPTH STEP
~WELL INFORMATION
#MNEM.UNIT      DATA TYPE    INFORMATION
#----------   ------------   ------------------------------
 STRT.F          211.0000:   START DEPTH
 STOP.F         3244.0000:   STOP DEPTH
 STEP.F            0.5000:   STEP LENGTH
 NULL.          -999.2500:   NO VALUE
 COMP.    FENIX & SCISSON:   COMPANY
 WELL.  FENIX "AX" #84-15:   WELL
 FLD .  TEAPOT DOME NPR-3:   FIELD
 LOC .      S15 T38N R78W:   LOCATION
 CNTY.            NATRONA:   COUNTY
 STAT.            WYOMING:   STATE
 CTRY. UNITED STATES OF AMERICA:   COUNTRY
 SRVC.           BIRDWELL:   SERVICE COMPANY
 DATE.        17-MAR-1978:   LOGDATE
 API .     49025106050000:   API NUMBER
~CURVE INFORMATION
#MNEM.UNIT       API CODE    CURVE DESCRIPTION
#----------   ------------   ------------------------------
 DEPT.F                  :   
 SPR .MV     05 010 01 00:   SPONTANEOUS POTENTIAL
 SN  .OHMM   05 040 16 00:   SHORT NORMAL
 ILD .OHMM   05 120 46 00:   INDUCTION LOG DEEP
 CALD.IN     45 280 60 00:   CALIPER FROM DENSITY LOG
 GRD .GAPI   45 310 01 00:   GAMMA RAY FROM DENSITY LOG
 RHOB.G/C3   45 350 01 00:   BULK DENSITY
 CORR.G/C3   45 356 01 00:   DENSITY CORRECTION
~PARAMETER INFORMATION
#MNEM.UNIT          VALUE    DESCRIPTION
#----------   ------------   ------------------------------
 EKB .F         5251.0000:   Kelly bushing
 EGL .F         5241.0000:   Ground level
 TD  .F         3250.0000:   Total depth
 CLNT.            A2DTECH:   Client Code
 SL  . 359' FEL & 2310' FNL:   Surface Location
 PD  .                 GL:   Permanent Datum
 LMF .                 KB:   Log Measured From
 DMF .                 KB:   Drilling Measured From
 DATE.        17-MAR-1978:   Date Logged [DD-MMM-YYYY]
 DD  .F              3250:   Depth driller
 DL  .F              3250:   Depth logger
 BLI .F              3244:   Bottom log interval
 TLI .F               224:   Top log interval
 CS1 .IN            8.625:   Casing size
 CBD1.             8.625":   Casing driller 1
 CBL1.F               224:   Casing logger 1
 BS1 .IN            7.875:   Bit size
 BSD1.F              3250:   Depth drilled with bit1
 MSS .           FLOWLINE:   Source of sample
 RMS .OHMM            1.3:   Rm
 MST .F                70:   Rm Meas. temp.
 RMF .OHMM            1.1:   Rmf
 MFST.F                70:   Rmf Meas. temp.
 MFSS.               MEAS:   Source Rmf.
 RMC .OHMM            1.4:   Rmc
 MCST.F                70:   Rmc Meas. temp.
 RMB .OHMM           0.77:   Rm. at BHT
 BHT .F               118:   BHT.
 TCS .HRS               6:   Time Circ. stopped
 MRT .F               118:   Maximum recorded temp.
 LUN .               2958:   Logging unit number
 LUL .               CASP:   Logging unit location
 ENGI.             MILLER:   Recorded By
 WITN.           MCGINLEY:   Witnessed by
 ORIG.           5" PRINT:   Origin of data
 UWI .     49025106050000:   Unique Well ID
 DICO. A2D TECHNOLOGIES, INC.:   Digitizing Company
~OTHER INFORMATION
~A   DEPT      SPR         SN        ILD       CALD         GRD      RHOB       CORR   
# ...
 1803.5000   -31.6074     7.3499     7.2648    10.4963    85.6651     2.5474    -0.0084
 1804.0000   -31.5705     7.3535     7.2169    10.4970    89.2524     2.5437    -0.0082
 1804.5000   -31.7119     7.3294     7.2450    10.4976    91.6424     2.5407    -0.0036
 1805.0000   -31.9979     7.3096     7.2740    10.4978    91.6337     2.5393     0.0011
 1805.5000   -31.9857     7.3132     7.2768    10.4979    91.1751     2.5393     0.0057
 1806.0000   -32.1237     7.3171     7.2798    10.4981    88.0180     2.5446     0.0104
 1806.5000   -32.2618     7.3270     7.2833    10.4983    86.6452     2.5613     0.0135
 1807.0000   -32.2489     7.3368     7.2353    10.4985    86.3513     2.5688     0.0166
 1807.5000   -32.5383     7.3466     7.2384    10.4987    87.0900     2.5772     0.0167
 1808.0000   -32.7074     7.3565     7.2414    10.4988    87.3832     2.5810     0.0153
 1808.5000   -32.8149     7.3663     7.2444    10.4990    87.0724     2.5690     0.0109
 1809.0000   -32.9531     7.3762     7.2474    10.4992    87.0637     2.5622     0.0065
 1809.5000   -32.9374     7.3860     7.2509    10.4994    88.2543     2.5600     0.0050
 1810.0000   -32.9261     7.3958     7.2535    10.4995    91.6939     2.5586     0.0052
 1810.5000   -32.7624     7.4057     7.2595    10.4997    93.9340     2.5531     0.0068
 1811.0000   -32.7489     7.4155     7.3102    10.4999    93.2731     2.5472     0.0084
 1811.5000   -32.5855     7.4253     7.3139    10.5001    91.9653     2.5655     0.0115
 1812.0000   -32.4221     7.4352     7.3169    10.5003    91.6567     2.5655     0.0132
 1812.5000   -32.2587     7.4450     7.3199    10.5004    90.4485     2.5663     0.0148
 1813.0000   -32.0950     7.4548     7.3224    10.5006    87.1414     2.5686     0.0179
 1813.5000   -31.9314     7.4660     7.3771    10.5008    86.9849     2.5739     0.0180
 1814.0000   -31.7653     7.5677     7.4316    10.5010    87.7258     2.5808     0.0181
 1814.5000   -31.7528     7.5708     7.4347    10.5012    88.3145     2.5725     0.0122
 1815.0000   -31.8942     7.5739     7.4897    10.5013    88.4557     2.5658     0.0077
 1815.5000   -32.0324     7.5770     7.5450    10.5015    89.3921     2.5636     0.0063
 1816.0000   -32.3215     7.5801     7.5482    10.5017    92.1841     2.5629     0.0064
 1816.5000   -32.4598     7.5831     7.5513    10.5019    92.4774     2.5637     0.0081
 1817.0000   -32.5980     7.5336     7.5019    10.5020    92.1666     2.5647     0.0082
 1817.5000   -32.5823     7.5246     7.4531    10.5022    91.4082     2.5720     0.0098
 1818.0000   -32.5701     7.4876     7.4044    10.5024    90.3500     2.5487     0.0099
 1818.5000   -32.5572     7.4498     7.3051    10.5026    89.5916     2.5571     0.0100
 1819.0000   -32.5445     7.3902     7.2575    10.5028    89.7328     2.5646     0.0116
 1819.5000   -32.5317     7.3935     7.2102    10.5029    90.6236     2.5670     0.0110
 1820.0000   -32.6672     7.3970     7.2132    10.5031    91.0646     2.5873     0.0133
 1820.5000   -32.6546     7.3996     7.2162    10.5033    90.5528     2.5994     0.0180
 1821.0000   -32.7960     7.4027     7.2198    10.5035    89.9954     2.5980     0.0226
 1821.5000   -32.7803     7.4058     7.2228    10.5036    89.9867     2.5845     0.0243
 1822.0000   -32.7677     7.3577     7.2258    10.5038    90.7276     2.5845     0.0213
 1822.5000   -32.7552     7.3607     7.1786    10.5040    91.4684     2.5781     0.0165
 1823.0000   -32.4409     7.3637     7.1816    10.5042    92.5091     2.5661     0.0079
 1823.5000   -32.1267     7.3672     7.1845    10.5044    93.5499     2.5515     0.0020
 1824.0000   -31.8125     7.3699     7.2474    10.5045    94.4407     2.5606    -0.0010
 1824.5000   -31.7999     7.3730     7.2014    10.5047    94.1148     2.5425    -0.0054
 1825.0000   -31.7873     7.3760     7.1555    10.5049    92.8487     2.5456    -0.0098
 1825.5000   -31.7745     7.3791     7.1600    10.5051    91.4137     2.5592    -0.0128
 1826.0000   -31.7617     7.3558     7.1648    10.5053    91.2550     2.5645    -0.0142
 1826.5000   -31.7465     7.3341     7.1690    10.5054    91.6982     2.5525    -0.0156
 1827.0000   -31.8847     7.3884     7.1727    10.5056    92.2870     2.5405    -0.0124
 1827.5000   -31.8722     7.4430     7.1769    10.5058    92.4304     2.5639    -0.0017
 1828.0000   -32.0104     7.5372     7.1815    10.5060    92.2695     2.5745     0.0059
 1828.5000   -32.1487     7.6592     7.2863    10.5061    90.1618     2.5647     0.0076
 1829.0000   -32.2901     7.6682     7.3927    10.5063    89.2535     2.5625     0.0029
 1829.5000   -32.2744     7.7734     7.4486    10.5065    91.3437     2.5573    -0.0028
 1830.0000   -32.4158     7.8308     7.5574    10.5067    91.3327     2.5506    -0.0058
 1830.5000   -32.4001     7.7789     7.5619    10.5069    91.0241     2.5491    -0.0056
 1831.0000   -32.3875     7.7282     7.5148    10.4892    91.0154     2.5507     0.0020
 1831.5000   -32.3748     7.6253     7.5113    10.4784    91.1565     2.5643     0.0097
 1832.0000   -32.3620     7.5231     7.4185    10.4643    91.5976     2.5673     0.0113
 1832.5000   -32.3492     7.4469     7.3724    10.4650    92.3384     2.5629     0.0129
 1833.0000   -32.3341     7.3543     7.3122    10.4658    92.7794     2.5584     0.0040
 1833.5000   -32.3215     7.2750     7.2278    10.4665    93.0759     2.5584    -0.0020
 1834.0000   -32.1581     7.2787     7.2327    10.4711    93.3833     2.5637    -0.0019
 1834.5000   -32.1455     7.2813     7.2372    10.4829    93.3507     2.5676    -0.0018
 1835.0000   -32.1342     7.2843     7.2409    10.4836    93.3419     2.5700    -0.0017
 1835.5000   -32.1214     7.2369     7.2456    10.4844    93.6330     2.5714    -0.0032
 1836.0000   -32.1078     7.2401     7.1985    10.4851    94.3739     2.5541    -0.0075
 1836.5000   -32.0033     7.1927     7.2035    10.4859    94.5173     2.5474    -0.0119
 1837.0000   -31.9321     7.1459     7.2077    10.4866    94.5063     2.5452    -0.0134
 1837.5000   -31.9193     7.1231     7.1618    10.4874    94.4976     2.5430    -0.0148
 1838.0000   -32.0576     7.0537     7.1162    10.4881    94.4888     2.5407    -0.0147
 1838.5000   -32.0445     7.0077     7.0714    10.5037    94.4798     2.5378    -0.0146
 1839.0000   -32.0317     7.0053     7.0271    10.5046    94.4691     2.5378    -0.0145
 1839.5000   -32.0189     6.9641     6.9814    10.5052    94.6125     2.5409    -0.0143
 1840.0000   -32.0041     6.9191     6.9380    10.5061    95.0513     2.5432    -0.0127
 1840.5000   -32.1455     6.9222     6.9421    10.5067    95.6444     2.5432    -0.0120
 1841.0000   -32.1298     6.9250     6.9461    10.5075    96.6830     2.5474    -0.0080
 1841.5000   -32.1173     6.8798     6.9501    10.4933    98.4733     2.5516    -0.0048
 1842.0000   -32.1056     6.8349     6.9562    10.4940    99.5142     2.5411    -0.0017
 1842.5000   -32.2461     6.8377     6.9582    10.4948    99.0555     2.5381    -0.0001
 1843.0000   -32.3812     6.7000     6.7680    10.4955    99.8530     2.5397     0.0000
 1843.5000   -32.5196     6.5637     6.4916    10.4814   100.9848     2.5412     0.0002
 1844.0000   -32.5068     6.4758     6.2370    10.4759   101.7257     2.5435     0.0003
 1844.5000   -32.6452     6.3889     6.1544    10.4680   103.2162     2.5474     0.0019
 1845.0000   -32.6295     6.3473     6.1144    10.4689   105.4563     2.5504     0.0050
 1845.5000   -32.4661     6.3059     6.1188    10.4696   104.8479     2.5550     0.0051
 1846.0000   -32.4555     6.3090     6.1220    10.4657   104.6892     2.5392     0.0007
 1846.5000   -32.2919     6.3116     6.1256    10.4561   104.9803     2.5362    -0.0068
 1847.0000   -32.2775     6.3593     6.1295    10.4569   105.4223     2.5459    -0.0082
 1847.5000   -32.2650     6.4120     6.1330    10.4576   105.8795     2.5559    -0.0066
 1848.0000   -32.3047     6.5488     6.1365    10.4435   105.7015     2.5567    -0.0050
 1848.5000   -32.3914     6.6456     6.1402    10.4442   104.7932     2.5485    -0.0079
