~VERSION INFORMATION
 VERS.                2.0:   CWLS LOG ASCII STANDARD - VERSION 2.0
 WRAP.                 NO:   ONE LINE PER DEPTH STEP
~WELL INFORMATION
#MNEM.UNIT      DATA TYPE    INFORMATION
#----------   ------------   ------------------------------
 STRT.F           76.0000:   START DEPTH
 STOP.F         4972.0000:   STOP DEPTH
 STEP.F            0.5000:   STEP LENGTH
 NULL.          -999.2500:   NO VALUE
 COMP.    PENIX & SCISSON:   COMPANY
 WELL. FENIX NPR 3 "LX" #85-9:   WELL
 FLD .                NPR:   FIELD
 LOC .       S9 T38N R78W:   LOCATION
 CNTY.            NATRONA:   COUNTY
 STAT.            WYOMING:   STATE
 CTRY. UNITED STATES OF AMERICA:   COUNTRY
 SRVC.       SCHLUMBERGER:   SERVICE COMPANY
 DATE.        10-OCT-1978:   LOGDATE
 API .     49025107250000:   API NUMBER
~CURVE INFORMATION
#MNEM.UNIT       API CODE    CURVE DESCRIPTION
#----------   ------------   ------------------------------
 DEPT.F                  :   
 TENR.LBS    07 635 01 00:   TENSION FROM RESISTIVITY
 SPR .MV     07 010 01 00:   SPONTANEOUS POTENTIAL
 SFL .OHMM   07 220 01 00:   SHALLOW FOCUSED LOG RESISTIVITY
 ILD .OHMM   07 120 46 00:   DEEP INDUCTION RESISTIVITY
 ILM .OHMM   07 120 44 00:   INDUCTION LOG MEDIUM RESISTIVITY
 CALD.IN     45 280 60 00:   CALIPER FROM DENSITY LOG
 GRD .GAPI   45 310 01 00:   GAMMA RAY FROM DENSITY LOG
 CORR.G/C3   45 356 01 00:   DENSITY CORRECTION
 TEND.LBS    45 635 01 00:   TENSION FROM DENSITY LOG
 RHOB.G/C3   45 350 01 00:   BULK DENSITY
 NPHI.DEC    42 890 03 00:   NEUTRON POROSITY SANDSTONE
~PARAMETER INFORMATION
#MNEM.UNIT          VALUE    DESCRIPTION
#----------   ------------   ------------------------------
 EKB .F         5288.0000:   Kelly bushing
 EGL .F         5278.0000:   Ground level
 EDF .F            0.0000:   Drilling floor
 TD  .F         4950.0000:   Total depth
 DATE.        10-OCT-1978:   Date logged
 CLNT.            A2DTECH:   Client Code
 SL  . 2310' FSL & 230' FEL:   Surface Location
 PD  .                 GL:   Permanent Datum
 EPD .F              5278:   Elevation Permanent Datum
 LMF .                 KB:   Log Measured From
 DMF .                 KB:   Drilling Measured From
 DAPD.F                10:   Feet Above Permanent Datum
 DD  .F              4950:   Depth driller
 DL  .F              4950:   Depth logger
 BLI .F              4947:   Bottom log interval
 TLI .F               499:   Top log interval
 CS1 .IN            8.625:   Casing size
 CBD1.      8.625" @ 489':   Casing driller 1
 CBL1.F               499:   Casing logger 1
 BS1 .IN            7.875:   Bit size
 BSD1.F              4950:   Depth drilled with bit1
 DFT .            GEL/MUD:   Type fluid in hole
 DFD .                9.3:   Density
 DFV .                175:   Viscosity
 DFPH.                 12:   pH
 DFL .                  4:   Fluid loss
 MSS .               TANK:   Source of sample
 RMS .OHMM           .600:   Rm
 MST .F                71:   Rm Meas. temp.
 RMF .OHMM           .804:   Rmf
 MFST.F                71:   Rmf Meas. temp.
 MFSS.               MEAS:   Source Rmf.
 RMB .OHMM           .308:   Rm. at BHT
 BHT .F               138:   BHT.
 TCS .HRS            1200:   Time Circ. stopped
 TLAB.HRS            0330:   Time logger at bottom
 MRT .F               138:   Maximum recorded temp.
 LUN .               8035:   Logging unit number
 LUL .               CSPR:   Logging unit location
 ENGI.        CRAIG/DFARR:   Recorded By
 WITN.              AMEND:   Witnessed by
 ORIG.           5" PRINT:   Origin of data
 UWI .     49025107250000:   Unique Well ID
 DICO. A2D TECHNOLOGIES, INC.:   Digitizing Company
~OTHER INFORMATION
~A   DEPT     TENR        SPR        SFL        ILD        ILM       CALD         GRD      CORR       TEND       RHOB         NPHI 
# ...
  503.0000   390.2340   -22.3580     4.5430  -999.2500     2.1550    10.5970    94.0070     0.1220   630.0810     2.2470     0.4520
  503.5000   391.6460   -21.7550     5.3940  -999.2500     2.9090    10.8350    95.0090     0.1430   630.0810     2.2680     0.4610
  504.0000   393.0570   -20.5390     6.0570   310.5130     4.7150    10.9170    96.1010     0.1800   630.0810     2.2780     0.4700
  504.5000   394.2910   -19.2700     6.9750   726.1380     5.5390    11.0030    95.6830     0.1620   630.0810     2.2710     0.4780
  505.0000   395.1750   -18.9390     6.8460   975.6390     6.0270    11.0790    93.0250     0.1050   630.9470     2.2780     0.4530
  505.5000   396.5860   -19.2250     6.8900   975.6390     6.0630    11.1600    91.4990     0.0300   630.0810     2.3080     0.4300
  506.0000   397.9980   -19.4290     6.2110   975.6390     6.1220    11.2370    92.9300     0.0400   630.0810     2.4050     0.4080
  506.5000   399.4090   -19.6010     5.7370   225.1930     5.9890    11.3140    94.3630     0.1010   630.0810     2.4520     0.4140
  507.0000   400.8210   -19.2170     5.2630     6.3070     5.6590    11.3920    92.8290     0.1620   630.0810     2.4980     0.4210
  507.5000   402.2320   -18.8270     4.4590     4.5430     5.3290    11.4990    90.1890     0.1890   630.0810     2.4940     0.4270
  508.0000   403.6440   -18.4290     4.6970     4.8490     4.9990    11.6590    89.8560     0.1930   630.0810     2.4710     0.4300
  508.5000   405.0550   -18.0520     5.4840     5.2940     4.7150    11.8070    90.9980     0.1590   630.0810     2.4520     0.4290
  509.0000   406.4670   -18.2570     6.2720     5.6100     4.5430    11.9780    89.4580     0.1410   630.0810     2.4450     0.4350
  509.5000   407.8780   -18.6080     6.5960     5.6820     4.4710    12.0540    87.8680     0.1400   630.0810     2.4480     0.4490
  510.0000   409.2900   -18.9440     4.2160     5.3610     4.3980    12.1480    85.9760     0.1380   630.0810     2.4540     0.4660
  510.5000   410.7010   -19.2700     4.1970     5.0930     4.3250    12.5910    85.9110     0.1750   630.0810     2.4400     0.4620
  511.0000   412.1130   -19.6060     4.1230     4.8260     4.2520    12.5680    88.3670     0.2230   630.0810     2.4010     0.4540
  511.5000   413.5240   -19.9370     4.0490     4.5430     4.1790    12.5270    90.3900     0.2470   630.0810     2.2950     0.4540
  512.0000   414.9360   -20.2700     3.9870     4.6310     4.0620    12.5410    90.2000     0.2420   630.0810     2.1630     0.4560
  512.5000   416.3480   -20.6020     4.0430     4.7910     4.1160    12.4410    87.2960     0.1710   630.0810     2.0190     0.4340
  513.0000   417.7590   -20.9360     4.1380     4.9510     4.2570    12.0620    83.8850     0.1130   630.0810     2.0330     0.4150
  513.5000   419.1710   -21.2680     4.4890     5.1110     4.3970    12.0050    85.1030     0.0500   630.0810     2.2000     0.3960
  514.0000   420.5820   -21.5950     4.9070     5.2710     4.5380    11.9530    88.1250     0.0290   630.0810     2.3380     0.3740
  514.5000   421.9940   -21.9390     5.2730     5.4650     4.6780    12.0890    91.1990     0.0610   630.0810     2.4580     0.3880
  515.0000   423.4050   -21.9260     5.1680     5.4460     4.7150    12.4810    93.5730     0.1000   630.0810     2.4980     0.4040
  515.5000   425.1010   -21.5860     4.8650     5.4090     4.7150    12.7350    94.9340     0.1350   630.0810     2.4970     0.4260
  516.0000   425.1010   -21.2420     4.5610     5.3730     4.7150    12.8590    96.0670     0.1630   630.0810     2.4880     0.4120
  516.5000   425.1010   -20.9710     4.2160     5.3970     4.7150    12.8030    97.2880     0.1270   630.0810     2.4800     0.3940
  517.0000   425.1010   -20.6780     4.1380     5.4210     4.7150    12.5750    97.5960     0.0910   630.0810     2.4820     0.3750
  517.5000   425.1010   -20.3980     4.2710     5.4440     4.7150    12.5690    97.2280     0.0730   630.0810     2.4840     0.3560
  518.0000   425.1010   -20.1140     4.4620     5.4680     4.7490    12.5960    96.9130     0.0780   630.0810     2.4800     0.3380
  518.5000   425.1010   -19.8100     4.6530     5.4890     4.7860    12.6170    96.7230     0.0890   630.0810     2.4700     0.3190
  519.0000   425.1010   -19.6110     4.8290     5.5290     4.8230    12.6070    95.6120     0.0980   630.0810     2.4580     0.3340
  519.5000   425.1010   -19.8050     4.9480     5.5700     4.8600    12.3540    93.8690     0.0860   630.0810     2.4490     0.3580
  520.0000   425.1010   -20.1370     5.0800     5.6110     4.8970    12.1020    92.2510     0.0680   630.0810     2.4450     0.3820
  520.5000   425.1010   -20.4510     5.0290     5.6510     4.9330    12.0890    90.5520     0.0420   630.0810     2.4420     0.3970
  521.0000   425.1010   -20.7680     4.9700     5.6920     4.9860    12.1020    89.9790     0.0230   630.0810     2.4320     0.3860
  521.5000   425.1010   -21.0860     4.9110     5.7320     4.9570    12.1250    90.2000     0.0140   630.0810     2.4210     0.3760
  522.0000   425.1010   -21.4020     4.8530     5.7890     4.9050    12.1370    90.3710     0.0080   630.0810     2.4180     0.3650
  522.5000   425.1010   -21.7220     4.7940     5.7350     4.8520    12.1550    90.6170     0.0120   630.0810     2.4200     0.3550
  523.0000   425.1010   -22.0350     4.7360     5.6480     4.8000    12.1730    91.6030     0.0150   630.0810     2.4220     0.3460
  523.5000   425.1010   -22.3500     4.6770     5.5610     4.7480    12.1860    93.8070     0.0180   630.0810     2.4330     0.3560
  524.0000   425.1010   -22.4250     4.6180     5.4740     4.6950    12.2350    98.0600     0.0220   630.0810     2.4440     0.3760
  524.5000   425.1010   -22.4240     4.5600     5.3870     4.6430    12.3130   100.0510     0.0250   630.0810     2.4480     0.4050
  525.0000   425.1010   -22.4180     4.5010     5.3000     4.5910    12.3340    99.3090     0.0290   630.0810     2.4490     0.4000
  525.5000   425.1010   -22.4180     4.4430     5.2120     4.5380    12.3550    98.7250     0.0320   630.0810     2.4560     0.3910
  526.0000   425.1010   -22.2180     4.3760     5.0800     4.4590    12.3630    97.9690     0.0350   630.0810     2.4600     0.3820
  526.5000   425.1010   -21.9600     4.3760     5.0910     4.4750    12.3730    93.4800     0.0280   630.0810     2.4520     0.3700
  527.0000   425.1010   -21.7020     4.3760     5.1120     4.5080    12.3830    90.6560     0.0170   630.0810     2.4440     0.3740
  527.5000   425.1010   -21.4470     4.3760     5.1330     4.5410    12.3860    90.6020     0.0060   630.0810     2.4400     0.3790
  528.0000   425.1010   -21.1900     4.3760     5.1550     4.5740    12.4420    90.5390    -0.0010   630.0810     2.4420     0.3870
  528.5000   425.1010   -20.9340     4.3760     5.1760     4.6070    12.5290    94.1780     0.0100   630.0810     2.4380     0.3770
  529.0000   425.1010   -20.6780     4.3760     5.1970     4.6390    12.6260    96.1730     0.0060   630.0810     2.4300     0.3570
  529.5000   425.1010   -20.4220     4.3760     5.2190     4.6720    12.6440    96.2980     0.0020   630.0810     2.4250     0.3390
  530.0000   425.1010   -20.1640     4.3760     5.2400     4.7050    12.6620    96.5720    -0.0040   630.0810     2.4230     0.3410
  530.5000   425.1010   -19.9080     4.4360     5.2610     4.7380    12.6750    96.8080     0.0030   630.0810     2.4300     0.3420
  531.0000   425.1010   -19.6550     4.5170     5.2830     4.7710    12.6930    97.0440     0.0120   630.0810     2.4420     0.3380
  531.5000   425.1010   -19.3890     4.5980     5.3040     4.8040    12.7030    96.4420     0.0230   630.0810     2.4530     0.3280
  532.0000   425.1010   -19.1500     4.6930     5.3250     4.8510    12.7630    94.6860     0.0290   630.0810     2.4680     0.3330
  532.5000   425.1010   -18.8790     4.6010     5.3470     4.8940    12.8620    92.5410     0.0370   630.0810     2.4680     0.3450
  533.0000   425.1010   -19.1550     4.5090     5.3680     4.7060    12.9530    90.2580     0.0440   630.0810     2.4680     0.3440
