~VERSION INFORMATION
 VERS.                2.0:   CWLS LOG ASCII STANDARD - VERSION 2.0
 WRAP.                 NO:   ONE LINE PER DEPTH STEP
~WELL INFORMATION
#MNEM.UNIT      DATA TYPE    INFORMATION
#----------   ------------   ------------------------------
 STRT.F           34.0000:   START DEPTH
 STOP.F         2909.0000:   STOP DEPTH
 STEP.F            0.5000:   STEP LENGTH
 NULL.          -999.2500:   NO VALUE
 COMP.   TESORO PETROLEUM:   COMPANY
 WELL. TESORO NPR "A" #3-28:   WELL
 FLD .             TEAPOT:   FIELD
 LOC .      S28 T39N R78W:   LOCATION
 CNTY.            NATRONA:   COUNTY
 STAT.            WYOMING:   STATE
 CTRY. UNITED STATES OF AMERICA:   COUNTRY
 SRVC.              WELEX:   SERVICE COMPANY
 DATE.        22-JUL-1968:   LOGDATE
 API .     49025102620000:   API NUMBER
~CURVE INFORMATION
#MNEM.UNIT       API CODE    CURVE DESCRIPTION
#----------   ------------   ------------------------------
 DEPT.F                  :   
 GRD .GAPI   45 310 01 00:   GAMMA RAY FROM DENSITY LOG
 SPR .MV     05 010 01 00:   SPONTANEOUS POTENTIAL FROM RES.
 ASN .OHMM   05 041 16 00:   AMPLIFIED SHORT NORMAL 16"
 ILD .OHMM   05 120 46 00:   INDUCTION LOG DEEP
~PARAMETER INFORMATION
#MNEM.UNIT          VALUE    DESCRIPTION
#----------   ------------   ------------------------------
 EKB .F         5050.0000:   Kelly bushing
 EGL .F         5039.0000:   Ground level
 EDF .F            0.0000:   Drilling floor
 EPD .F         5039.0000:   Permanent datum
 TD  .F         2906.0000:   Total depth
 CLNT.            A2DTECH:   Client Code
 DATE.       22-JULY-1968:   Date Logged [DD-MMM-YYYY]
 DD  .F              2906:   Depth driller
 DL  .F              2906:   Depth logger
 BLI .F              2901:   Bottom log interval
 TLI .F               356:   Top log interval
 CS1 .              10.75:   Casing size
 CBD1.      10.75" @ 356':   Casing driller 1
 CBL1.IN              356:   Casing logger 1
 BS1 .IN                9:   Bit size
 DFT .     WATER BASE MUD:   Type fluid in hole
 DFD .                9.6:   Density
 DFV .                 60:   Viscosity
 DFPH.                9.0:   pH
 DFL .                  6:   Fluid loss
 MSS .               CTRC:   Source of sample
 RMS .OHMM            2.1:   Rm
 MST .F                74:   Rm Meas. temp.
 RMF .OHMM            1.6:   Rmf
 MFST.F                71:   Rmf Meas. temp.
 MFSS.               MEAS:   Source Rmf.
 RMC .OHMM            3.0:   Rmc
 MCST.F                66:   Rmc Meas. temp.
 RMB .OHMM            1.3:   Rm. at BHT
 BHT .F               120:   BHT.
 MRT .F               120:   Maximum recorded temp.
 LUN .               6869:   Logging unit number
 ORIG.         2.5" PRINT:   Origin of data
 UWI .     49025102620000:   Unique Well ID
 DICO. A2D TECHNOLOGIES, INC.:   Digitizing Company
 LUL .          NEWCASTLE:   Logging unit location
~OTHER INFORMATION
~A   DEPT      GRD        SPR         ASN         ILD 
# ...
 2589.0000    57.0226   -31.2714    11.8157    10.0226
 2589.5000    56.6436   -31.2745    11.4425     9.8870
 2590.0000    58.5286   -31.2776    11.4388     9.8475
 2590.5000    60.4887   -31.2807    11.2836     9.7338
 2591.0000    60.0850   -31.2838    11.2799     9.7366
 2591.5000    57.5667   -31.2869    11.2762     9.8967
 2592.0000    56.6336   -31.2900    11.2725     9.8991
 2592.5000    56.2544   -31.2931    11.2688     9.9019
 2593.0000    55.8752   -31.2962    11.4167     9.9041
 2593.5000    55.1187   -31.2993    11.4129     9.9064
 2594.0000    54.7395   -31.3024    11.4091     9.9087
 2594.5000    53.6056   -31.3055    11.4053     9.9110
 2595.0000    56.6226   -31.3086    11.4015     9.9133
 2595.5000    58.9101   -31.3117    11.3977     9.7578
 2596.0000    60.0654   -31.3148    11.3536     9.6024
 2596.5000    61.1455   -31.3179    11.1427     9.4193
 2597.0000    60.9418   -31.3210    10.7803     9.2915
 2597.5000    58.8773   -31.3241    10.5619     9.1361
 2598.0000    58.1211   -31.3272    10.2474     8.9806
 2598.5000    61.8423   -31.3303    10.0845     8.8257
 2599.0000    63.8025   -31.3334     9.7702     8.6703
 2599.5000    64.5302   -31.3364     9.7001     8.6732
 2600.0000    63.3959   -31.3395     9.9994     8.6755
 2600.5000    62.6394   -31.3426    10.1477     8.6777
 2601.0000    61.8828   -31.3457    10.2950     8.6800
 2601.5000    61.1263   -31.3438    10.4428     8.8400
 2602.0000    62.2565   -31.3283    10.5909     9.1578
 2602.5000    63.3868   -31.3127    10.9187     9.2393
 2603.0000    63.7848   -31.2972    10.7812     9.4029
 2603.5000    62.5100   -31.2816    10.8430     9.5665
 2604.0000    61.1469   -31.2661    10.9375     9.6341
 2604.5000    60.3940   -31.2506    11.0143     9.6356
 2605.0000    60.3962   -31.2350    10.8491     9.5794
 2605.5000    60.7690   -31.2195    10.1562     9.4122
 2606.0000    61.5825   -31.2039    10.7812     9.0873
 2606.5000    62.2890   -31.1884    11.0938     8.9201
 2607.0000    62.6682   -31.1728    10.7812     8.5397
 2607.5000    62.6700   -31.1573    10.0759     8.3833
 2608.0000    63.0492   -31.1417     9.7502     8.0696
 2608.5000    64.1831   -31.1262     9.3750     7.9133
 2609.0000    66.0901   -31.1106     9.1562     7.5994
 2609.5000    68.7151   -31.0951     9.0312     7.4432
 2610.0000    67.4588   -31.0795     8.9644     7.1293
 2610.5000    67.2092   -31.0640     8.7371     7.1094
 2611.0000    69.2176   -31.0484     8.5175     6.9421
 2611.5000    68.1308   -31.0329     8.3262     6.6607
 2612.0000    66.3096   -31.0173     7.9499     6.5045
 2612.5000    64.3398   -31.0018     7.5823     6.2830
 2613.0000    64.9551   -30.9862     7.1633     5.9579
 2613.5000    68.3531   -30.9707     6.8863     5.7908
 2614.0000    71.3738   -30.9551     6.6000     5.5647
 2614.5000    74.7718   -30.9396     6.3721     5.4085
 2615.0000    75.2137   -30.9240     6.3400     5.2523
 2615.5000    73.6434   -30.9123     6.3706     5.2541
 2616.0000    71.7080   -30.9090     6.3698     5.4133
 2616.5000    70.5748   -30.9056     6.4945     5.5726
 2617.0000    70.2526   -30.9022     6.6191     5.7318
 2617.5000    70.2548   -30.8988     6.7124     5.7517
 2618.0000    70.3950   -30.8955     6.8370     5.8927
 2618.5000    70.8026   -30.8921     6.7674     5.8943
 2619.0000    71.2101   -30.8887     6.6063     5.8959
 2619.5000    72.1494   -30.8853     6.5212     5.7394
 2620.0000    72.5286   -30.8820     6.7169     5.6677
 2620.5000    71.7757   -30.8786     6.6874     5.5006
 2621.0000    68.7587   -30.8752     6.5577     5.4290
 2621.5000    65.7416   -30.8718     6.3869     5.2731
 2622.0000    66.4981   -30.8685     6.2042     5.2746
 2622.5000    68.8268   -30.8651     6.1089     5.2762
 2623.0000    71.1182   -30.8617     6.1080     5.2777
 2623.5000    72.6137   -30.8583     6.2013     5.2792
 2624.0000    72.9205   -30.8550     6.3259     5.4385
 2624.5000    71.5326   -30.8516     6.4819     5.4554
 2625.0000    69.2771   -30.8482     6.7006     5.7571
 2625.5000    66.1462   -30.8448     6.9192     5.9164
 2626.0000    63.2299   -30.8415     7.1693     6.1241
 2626.5000    58.5909   -30.8381     7.5139     6.4522
 2627.0000    53.6871   -30.8347     7.8630     6.6225
 2627.5000    49.1606   -30.8313     8.0870     6.7929
 2628.0000    46.5209   -30.8280     8.3014     7.1864
 2628.5000    45.0133   -30.8246     8.7904     7.3457
 2629.0000    46.9214   -30.8212     9.2875     7.6627
 2629.5000    49.1679   -30.8178     9.5902     7.8219
 2630.0000    48.2895   -30.8145    10.3040     7.9812
 2630.5000    47.2847   -30.8111    11.1413     8.4559
 2631.0000    48.6582   -30.8077    11.9786     8.7748
 2631.5000    50.4553   -30.8043    12.9147     9.4296
 2632.0000    49.7812   -30.8010    13.1159     9.9032
 2632.5000    47.0245   -30.7976    13.1151    10.2314
 2633.0000    43.1437   -30.7942    12.9576    10.4017
 2633.5000    46.9192   -30.7908    12.8001    10.5158
 2634.0000    51.8266   -30.7875    12.4858    10.2923
 2634.5000    59.7530   -30.7841    12.3283     9.8892
 2635.0000    63.1510   -30.7807    12.0141     9.3954
 2635.5000    63.5302   -30.7773    11.8494     8.9451
 2636.0000    61.1670   -30.7740    11.2163     8.4734
 2636.5000    59.7603   -30.7706    10.8931     8.3172
 2637.0000    61.2717   -30.7672    10.3456     8.0033
 2637.5000    60.8960   -30.7638     9.7061     7.6893
 2638.0000    63.3385   -30.7605     9.3306     7.5331
 2638.5000    67.7273   -30.7571     8.7713     7.3680
 2639.0000    72.6253   -30.7537     8.4261     7.2207
 2639.5000    74.8664   -30.7503     8.3244     7.2224
 2640.0000    69.9626   -30.7470     8.3239     7.1819
 2640.5000    65.8134   -30.7436     8.4630     7.0676
 2641.0000    64.6830   -30.7402     8.6817     7.0694
 2641.5000    69.2133   -30.7368     8.6182     7.0710
 2642.0000    72.6114   -30.7335     8.3980     6.9863
 2642.5000    73.7452   -30.7301     8.1465     6.9164
 2643.0000    71.3951   -30.7267     7.9576     6.9182
 2643.5000    69.8310   -30.7233     7.9255     6.9197
 2644.0000    68.7447   -30.7200     7.8621     6.9213
 2644.5000    67.5863   -30.7166     7.8300     6.7650
 2645.0000    66.8049   -30.7132     8.0894     6.7666
 2645.5000    67.3292   -30.7098     8.2360     6.7681
 2646.0000    70.7897   -30.7065     8.1210     6.7697
 2646.5000    68.8550   -30.7031     7.9581     6.7434
 2647.0000    69.9889   -30.6997     7.7640     6.6150
 2647.5000    73.7643   -30.6963     7.6685     6.6167
 2648.0000    77.5397   -30.6930     7.6677     6.4603
 2648.5000    77.9189   -30.6896     7.7764     6.3044
 2649.0000    74.1166   -30.6862     7.9689     6.3891
 2649.5000    71.0614   -30.6828     8.2922     6.6233
 2650.0000    69.4966   -30.6795     8.7303     7.0980
 2650.5000    67.9329   -30.6761     8.9803     7.7305
 2651.0000    66.2497   -30.6727     9.3557     8.2052
 2651.5000    64.0496   -30.6693     9.9506     8.6799
 2652.0000    61.5791   -30.6660    10.5730     9.1546
 2652.5000    55.5757   -30.6626    11.8298     9.3139
 2653.0000    56.4268   -30.6592    11.8803     9.3019
 2653.5000    56.5445   -30.6558    11.5148     9.1592
 2654.0000    55.2983   -30.6525    11.0438     8.9675
 2654.5000    56.0549   -30.6491    10.5728     8.8002
 2655.0000    55.6479   -30.6457    10.1352     8.6906
 2655.5000    58.3227   -30.6423     9.7563     8.6924
 2656.0000    60.2113   -30.6390     9.6928     8.8517
 2656.5000    58.3263   -30.6356     9.7591     9.1020
 2657.0000    60.0014   -30.6322    10.0214     9.1706
 2657.5000    60.9717   -30.6288    11.2527     9.1721
 2658.0000    60.3197   -30.6255    11.8589     9.1737
 2658.5000    59.1326   -30.6221    11.8205     9.1752
 2659.0000    58.3481   -30.6187    11.6076     8.8613
 2659.5000    61.3570   -30.6153    11.1920     8.7050
 2660.0000    64.0003   -30.6119    10.5895     8.5383
 2660.5000    67.3984   -30.6086     9.6857     8.3926
 2661.0000    68.9096   -30.6052     9.6536     8.3618
 2661.5000    68.9522   -30.6018     9.5588     8.2380
