~VERSION INFORMATION
 VERS.                2.0:   CWLS LOG ASCII STANDARD - VERSION 2.0
 WRAP.                 NO:   ONE LINE PER DEPTH STEP
~WELL INFORMATION
#MNEM.UNIT      DATA TYPE    INFORMATION
#----------   ------------   ------------------------------
 STRT.F          148.0000:   START DEPTH
 STOP.F         3394.0000:   STOP DEPTH
 STEP.F            0.5000:   STEP LENGTH
 NULL.          -999.2500:   NO VALUE
 COMP.    FENIX & SCISSON:   COMPANY
 WELL.  FENIX "AX" #28-10:   WELL
 FLD .        TEAPOT DOME:   FIELD
 LOC .      S10 T38N R78W:   LOCATION
 CNTY.            NATRONA:   COUNTY
 STAT.            WYOMING:   STATE
 CTRY. UNITED STATES OF AMERICA:   COUNTRY
 SRVC.       SCHLUMBERGER:   SERVICE COMPANY
 DATE.        03-MAR-1981:   LOGDATE
 API .     49025108680000:   API NUMBER
~CURVE INFORMATION
#MNEM.UNIT       API CODE    CURVE DESCRIPTION
#----------   ------------   ------------------------------
 DEPT.F                  :   
 SFL .OHMM   07 220 01 00:   SHALLOW FOCUSED LOG RESISTIVITY
 ILD .OHMM   07 120 46 00:   INDUCTION LOG DEEP RESISTIVITY
 ILM .OHMM   07 120 44 00:   INDUCTION LOG MEDIUM RESISTIVITY
 TENR.LBS    07 635 01 00:   TENSION
 SPR .MV     07 010 01 00:   SPONTANEOUS POTENTIAL
 CALD.IN     45 280 60 00:   CALIPER FROM DENSITY LOG
 GRD .GAPI   45 310 01 00:   GAMMA RAY FROM DENSITY LOG
 TEND.LBS    45 635 01 00:   TENSION FROM DENSITY LOG
 CORR.G/C3   45 356 01 00:   DENSITY CORRECTION
 RHOB.G/C3   45 350 01 00:   BULK DENSITY
~PARAMETER INFORMATION
#MNEM.UNIT          VALUE    DESCRIPTION
#----------   ------------   ------------------------------
 EKB .F         5241.0000:   Kelly bushing
 EGL .F         5231.0000:   Ground level
 EDF .F            0.0000:   Drilling floor
 TD  .F         3381.0000:   Total depth
 DATE.        03-MAR-1981:   Date logged
 CLNT.            A2DTECH:   Client Code
 SL  . 640' FSL & 720' FWL:   Surface Location
 PD  .                 GL:   Permanent Datum
 EPD .F              5231:   Elevation Permanent Datum
 LMF .                 KB:   Log Measured From
 DMF .                 KB:   Drilling Measured From
 DAPD.F                10:   Feet Above Permanent Datum
 DD  .F              3361:   Depth driller
 DL  .F              3381:   Depth logger
 BLI .F              3375:   Bottom log interval
 TLI .F               233:   Top log interval
 CS1 .IN            8.625:   Casing size
 CBD1.      8.625" @ 224':   Casing driller 1
 CBL1.F               233:   Casing logger 1
 BS1 .IN            7.875:   Bit size
 BSD1.F              3361:   Depth drilled with bit1
 DFT .           CHEM/GEL:   Type fluid in hole
 DFD .                  9:   Density
 DFV .                 40:   Viscosity
 DFPH.                8.5:   pH
 DFL .                 11:   Fluid loss
 MSS .           MUD/TANK:   Source of sample
 RMS .OHMM           2.52:   Rm
 MST .F                66:   Rm Meas. temp.
 RMF .OHMM            1.8:   Rmf
 MFST.F                67:   Rmf Meas. temp.
 MFSS.               MEAS:   Source Rmf.
 RMB .OHMM           1.47:   Rm. at BHT
 BHT .F               118:   BHT.
 TCS .HRS            0500:   Time Circ. stopped
 TLAB.HRS            0830:   Time logger at bottom
 MRT .F               118:   Maximum recorded temp.
 LUN .               8035:   Logging unit number
 LUL .               CSPR:   Logging unit location
 ENGI.            BEATTLE:   Recorded By
 WITN.              FIVAS:   Witnessed by
 ORIG.           5" PRINT:   Origin of data
 UWI .     49025108680000:   Unique Well ID
 DICO. A2D TECHNOLOGIES, INC.:   Digitizing Company
~OTHER INFORMATION
~A   DEPT      SFL        ILD        ILM       TENR        SPR         CALD       GRD      TEND       CORR       RHOB   
# ...
 1890.0000     9.4060     8.3760     8.2400   477.6420   -23.1380     8.6880   113.0410   552.2090     0.0290     2.5490
 1890.5000     9.3700     8.3750     8.2200   477.6420   -23.3050     8.6900   110.4180   552.2090     0.0450     2.5870
 1891.0000     9.8960     8.3750     8.2320   477.6420   -23.4720     8.6920   108.0590   552.2090     0.0460     2.5990
 1891.5000    10.2900     8.3780     8.2430   477.6420   -23.6400     8.6930   107.4360   552.2090     0.0440     2.5990
 1892.0000    10.2900     8.3690     8.2540   477.6420   -23.8070     8.6950   109.2980   552.2090     0.0430     2.5950
 1892.5000    10.2900     8.5410     8.2640   477.6420   -23.9720     8.6970   111.2340   552.2090     0.0510     2.6000
 1893.0000    10.4110     8.7210     8.2750   477.6420   -24.1460     8.6990   112.9520   552.2090     0.0630     2.6100
 1893.5000    10.5190     9.0260     8.2850   477.6420   -24.3040     8.7000   111.6210   552.2090     0.0640     2.6090
 1894.0000    10.6280     8.9980     8.2960   477.6420   -24.4750     8.7020   111.4580   552.2090     0.0540     2.5970
 1894.5000    10.6820     8.9020     8.3070   477.6420   -24.3340     8.7040   111.7040   552.2090     0.0460     2.5850
 1895.0000    10.6220     8.8070     8.3180   477.6420   -24.1620     8.7060   112.6430   552.2090     0.0450     2.5860
 1895.5000    10.5330     8.7120     8.3280   477.6420   -23.9790     8.7080   110.8250   552.2090     0.0510     2.5930
 1896.0000    10.4450     8.6170     8.3390   477.6420   -23.8050     8.7090   108.7630   552.2090     0.0570     2.6010
 1896.5000    10.3560     8.5210     8.3500   477.6420   -23.6260     8.7090   109.9450   552.2090     0.0600     2.6020
 1897.0000    10.2190     8.4260     8.3600   477.6420   -23.4500     8.6890   111.8060   552.2090     0.0630     2.5970
 1897.5000     9.9340     8.3310     8.3750   477.6420   -23.2830     8.6700   110.4990   552.2090     0.0660     2.5920
 1898.0000     9.6490     8.2200     8.3620   477.6420   -23.2060     8.6500   108.6960   552.2090     0.0780     2.5880
 1898.5000     9.3700     8.2200     8.3060   477.6420   -23.1300     8.6300   106.6560   552.2090     0.0730     2.5830
 1899.0000     9.4270     8.2200     8.2500   477.6420   -23.0620     8.6100   106.8390   552.2090     0.0650     2.5800
 1899.5000     9.4820     8.2200     8.1940   477.6420   -22.9920     8.5910   108.5390   552.2090     0.0570     2.5800
 1900.0000     9.5480     8.2200     8.1380   477.6420   -22.9020     8.5910   109.7760   552.2090     0.0480     2.5790
 1900.5000     9.5220     8.2190     8.0820   477.6420   -23.0110     8.5900   111.4700   552.2090     0.0420     2.5740
 1901.0000     9.4590     8.2200     8.0260   477.6420   -23.3980     8.5900   112.8980   552.2090     0.0400     2.5700
 1901.5000     9.3700     8.2190     7.9710   477.6420   -23.7610     8.5910   113.7240   552.2090     0.0440     2.5780
 1902.0000     9.6510     8.2190     7.9150   477.6420   -24.1310     8.5910   112.6990   552.2090     0.0570     2.5930
 1902.5000    10.0990     8.2170     7.8590   477.6420   -24.5020     8.6130   111.6140   552.2090     0.0790     2.5890
 1903.0000    10.0120     8.2150     7.8030   477.6420   -24.8700     8.6450   112.9020   552.2090     0.0880     2.5690
 1903.5000     9.6200     8.2240     7.7710   477.6420   -25.2420     8.6750   114.2910   552.2090     0.0750     2.5480
 1904.0000     9.2280     7.9940     7.7500   477.6420   -25.6070     8.7050   115.8530   552.2090     0.0660     2.5390
 1904.5000     8.6940     7.7750     7.6610   477.6420   -25.9830     8.7380   114.8660   552.4880     0.0540     2.5500
 1905.0000     8.7070     7.5560     7.5730   477.6420   -26.1460     8.7520   112.9480   552.8860     0.0550     2.5590
 1905.5000     8.7580     7.3460     7.4840   477.6420   -26.1760     8.7540   110.9470   553.2840     0.0560     2.5690
 1906.0000     8.8100     7.3540     7.3460   477.6420   -26.2160     8.7570   109.0460   553.6820     0.0580     2.5720
 1906.5000     8.8590     7.3610     7.3660   477.6420   -26.2560     8.7610   107.6060   554.0810     0.0560     2.5700
 1907.0000     8.7970     7.3680     7.4100   477.6420   -26.2940     8.7630   107.3620   554.4790     0.0480     2.5550
 1907.5000     8.7380     7.3750     7.4540   477.6420   -26.3340     8.7660   108.4970   554.8770     0.0390     2.5370
 1908.0000     8.6940     7.3820     7.4980   477.6420   -26.3730     8.7690   110.6500   555.2750     0.0260     2.5280
 1908.5000     8.8260     7.3890     7.5420   477.6420   -26.4110     8.7720   112.7990   555.6740     0.0320     2.5560
 1909.0000     9.1090     7.3960     7.5860   477.6420   -26.4520     8.7760   115.0060   556.0720     0.0450     2.5830
 1909.5000     9.3700     7.4040     7.6300   477.6420   -26.4890     8.7790   117.1180   556.4700     0.0590     2.6070
 1910.0000     9.0710     7.4110     7.6310   477.6420   -26.5190     8.7820   119.0460   556.8680     0.0640     2.6130
 1910.5000     8.8860     7.4180     7.4810   477.6420   -26.5270     8.7850   118.0830   557.2670     0.0580     2.6010
 1911.0000     8.7010     7.4250     7.5080   477.6420   -26.6640     8.7870   117.0860   557.6650     0.0520     2.5910
 1911.5000     8.5330     7.4320     7.5330   477.6420   -26.7920     8.7910   116.0720   558.0630     0.0470     2.5890
 1912.0000     8.6400     7.4390     7.5580   477.6420   -26.9280     8.7910   114.7760   558.4610     0.0520     2.5940
 1912.5000     8.7950     7.4460     7.5840   477.6420   -27.0590     8.7910   112.4420   558.8600     0.0660     2.6050
 1913.0000     8.9500     7.4530     7.6100   477.6420   -27.1920     8.7860   110.2900   559.2580     0.0810     2.6150
 1913.5000     9.0260     7.4600     7.6360   477.6420   -27.3240     8.7790   108.6740   559.6560     0.0850     2.6210
 1914.0000     8.9870     7.4680     7.6620   477.6420   -27.4590     8.7720   110.6090   560.0540     0.0630     2.6010
 1914.5000     8.9520     7.4750     7.6890   477.6420   -27.5870     8.7650   113.1480   560.4520     0.0420     2.5720
 1915.0000     8.9170     7.4810     7.7160   477.6420   -27.7230     8.7580   113.6820   560.8510     0.0320     2.5430
 1915.5000     8.8820     7.4940     7.7420   477.6420   -27.7320     8.7510   111.0480   561.2490     0.0480     2.5530
 1916.0000     8.8590     7.5130     7.7710   477.6420   -27.7350     8.7440   108.7730   561.6470     0.0660     2.5690
 1916.5000     8.5770     7.5320     7.7710   477.6420   -27.7320     8.7380   110.4070   562.0450     0.0690     2.5850
 1917.0000     8.3750     7.5500     7.7660   477.6420   -27.7330     8.7310   112.4600   562.4440     0.0680     2.5850
 1917.5000     8.3750     7.5680     7.7500   477.6420   -27.7330     8.7240   114.4870   562.8420     0.0650     2.5860
 1918.0000     8.5520     7.5870     7.7350   477.6420   -27.7330     8.7170   115.8060   563.2400     0.0730     2.5860
 1918.5000     9.1970     7.6050     7.7200   477.6420   -27.7330     8.7110   116.2170   563.6380     0.0680     2.5830
 1919.0000     9.1860     7.6230     7.7050   477.6420   -27.7330     8.7050   116.0300   564.0370     0.0560     2.5800
 1919.5000     9.1550     7.6420     7.6900   477.6420   -27.7310     8.7000   115.9360   564.4350     0.0480     2.5760
 1920.0000     9.1250     7.6600     7.6750   477.6420   -27.7360     8.6950   115.7880   564.8330     0.0450     2.5780
 1920.5000     9.0940     7.6780     7.6600   477.6420   -27.7360     8.6900   115.6710   565.2310     0.0520     2.5820
 1921.0000     9.0640     7.6970     7.6450   477.6420   -27.9450     8.6860   115.8500   565.6290     0.0590     2.5870
 1921.5000     9.0330     7.7150     7.6270   477.6420   -28.2310     8.6800   116.4590   566.0280     0.0670     2.5890
 1922.0000     9.1500     7.7320     7.6430   477.6420   -28.5140     8.6760   118.3730   566.4260     0.0750     2.5860
 1922.5000     9.3100     7.7500     7.6880   477.6420   -28.7950     8.6730   119.7580   566.8240     0.0820     2.5840
 1923.0000     9.4700     7.7680     7.7330   477.6420   -29.0790     8.7050   115.8100   567.2220     0.0900     2.5920
