~VERSION INFORMATION
 VERS.                2.0:   CWLS LOG ASCII STANDARD - VERSION 2.0
 WRAP.                 NO:   ONE LINE PER DEPTH STEP
~WELL INFORMATION
#MNEM.UNIT      DATA TYPE    INFORMATION
#----------   ------------   ------------------------------
 STRT.F           35.5000:   START DEPTH
 STOP.F         6235.5000:   STOP DEPTH
 STEP.F            0.5000:   STEP LENGTH
 NULL.          -999.2500:   NO VALUE
 COMP. LAWRENCE-ALLISON ASSOCIATES:   COMPANY
 WELL. LAWRENCE-ALLISON "X" #62-11:   WELL
 FLD .                NPR:   FIELD
 LOC .      S11 T38N R78W:   LOCATION
 CNTY.            NATRONA:   COUNTY
 STAT.            WYOMING:   STATE
 CTRY. UNITED STATES OF AMERICA:   COUNTRY
 SRVC.      DRESSER ATLAS:   SERVICE COMPANY
 DATE.        18-DEC-1982:   LOGDATE
 API .     49025109020000:   API NUMBER
~CURVE INFORMATION
#MNEM.UNIT       API CODE    CURVE DESCRIPTION
#----------   ------------   ------------------------------
 DEPT.F                  :   
 ILM .OHMM   07 120 44 00:   INDUCTION LOG MEDIUM
 ILD .OHMM   07 120 46 00:   DEEP RESISTIVITY
 RFOC.OHMM   07 220 04 00:   RESISTIVITY FOCUSED LOG RES.
 DT  .US/F   60 520 00 00:   DELTA TIME
 TENS.LBS    60 635 01 00:   TENSION FROM SONIC LOG.
 RS  .OHMM   11 220 09 00:   RESISTIVITY SHALLOW
 RD  .OHMM   11 220 10 00:   RESISTIVITY DEEP
 RLL .OHMM   11 220 00 00:   LATEROLOG RESISTIVITY
 SPR .MV     07 010 01 00:   SPONTANEOUS POTENTIAL
 TENR.LBS    07 635 01 00:   TENSION FROM RES. LOG
 CALD.IN     45 280 60 00:   CALIPER FROM DENSITY LOG
 GRD .GAPI   45 310 01 00:   GAMMA RAY FROM DENSITY LOG
 DEN .G/C3   45 350 01 00:   FORMATION FACTOR DENSITY
 DRHO.G/C3   45 356 01 00:   DENSITY CORRECTION
 TEND.LBS    45 635 01 00:   TENSION FROM DENSITY LOG
 CN  .DEC    42 890 00 00:   NEUTRON POROSITY
~PARAMETER INFORMATION
#MNEM.UNIT          VALUE    DESCRIPTION
#----------   ------------   ------------------------------
 EKB .F         5218.0000:   Kelly bushing
 EGL .F         5208.0000:   Ground level
 EDF .F            0.0000:   Drilling floor
 TD  .F         6232.0000:   Total depth
 DATE.        18-DEC-1982:   Date logged
 CLNT.            A2DTECH:   Client Code
 SL  . 971' FNL & 1898' FEL:   Surface Location
 PD  .                 GL:   Permanent Datum
 EPD .F              5208:   Elevation Permanent Datum
 LMF .                 KB:   Log Measured From
 DMF .                 KB:   Drilling Measured From
 DAPD.F                10:   Feet Above Permanent Datum
 DD  .F              6222:   Depth driller
 DL  .F              6232:   Depth logger
 BLI .F              6230:   Bottom log interval
 CS1 .IN            9.625:   Casing size
 CBD1.     9.625" @ 1002':   Casing driller 1
 CBL1.F              1002:   Casing logger 1
 BS1 .IN             8.75:   Bit size
 BSD1.F              6222:   Depth drilled with bit1
 DFT .                KCL:   Type fluid in hole
 DFD .                  9:   Density
 DFV .                 37:   Viscosity
 DFPH.                  8:   pH
 DFL .                8.4:   Fluid loss
 MSS .           FLOWLINE:   Source of sample
 RMS .OHMM            .25:   Rm
 MST .F                60:   Rm Meas. temp.
 RMF .OHMM            .18:   Rmf
 MFST.F                62:   Rmf Meas. temp.
 RMC .OHMM            .32:   Rmc
 MCST.F                60:   Rmc Meas. temp.
 MFSS.               MEAS:   Source Rmf.
 MCSS.               CALC:   Source Rmc.
 RMB .OHMM            .09:   Rm. at BHT
 BHT .F               166:   BHT.
 TCS .HRS               6:   Time Circ. stopped
 MRT .F               166:   Maximum recorded temp.
 LUN .               6274:   Logging unit number
 LUL .               GLTE:   Logging unit location
 ENGI.             RAUTIO:   Recorded By
 WITN.           JENNINGS:   Witnessed by
 ORIG.           5" PRINT:   Origin of data
 UWI .     49025109020000:   Unique Well ID
 DICO. A2D TECHNOLOGIES, INC.:   Digitizing Company
~OTHER INFORMATION
~A  DEPTH      ILM        ILD       RFOC         DT       TENS         RS         RD        RLL        SPR       TENR       CALD        GRD        DEN       DRHO       TEND         CN
# ...
 4163.5000  -999.2500  -999.2500  -999.2500    88.5929   -56.7916     7.0141     6.6669     6.9505   -77.2431   -71.6082    10.2862   121.1095     2.4534     0.0792   -73.8965     0.2600
 4164.0000  -999.2500  -999.2500  -999.2500    88.8994   -52.8664     6.8676     6.6629     6.8511   -77.5556   -75.5821    10.2843   120.7718     2.4612     0.0822   -73.7279     0.2668
 4164.5000  -999.2500  -999.2500  -999.2500    89.2046   -52.6994     6.6318     6.4770     6.6594   -78.4690   -79.5911    10.2827   122.2379     2.4564     0.0805   -78.6003     0.2684
 4165.0000  -999.2500  -999.2500  -999.2500    89.8121   -44.9920     6.1856     6.1232     6.3843   -79.3839   -79.8002    10.2810   122.5095     2.4462     0.0866   -81.2512     0.2653
 4165.5000  -999.2500  -999.2500  -999.2500    90.5698   -37.2847     5.8502     5.8703     6.1413   -79.9960   -76.2789    10.2794   121.8580     2.4298     0.0943   -84.9768     0.2628
 4166.0000  -999.2500  -999.2500  -999.2500    92.6850   -33.3595     5.6101     5.6273     6.0325   -80.6098   -53.8976    10.2930   121.2125     2.4266     0.1050   -88.7626     0.2628
 4166.5000  -999.2500  -999.2500  -999.2500    95.1025   -36.9894     5.4552     5.4324     5.9457   -80.9207   -54.1414    10.2912   124.4947     2.4297     0.1112   -88.5819     0.2647
 4167.0000  -999.2500  -999.2500  -999.2500    96.3881   -41.3111     5.4538     5.3547     5.9426   -81.0827   -69.4107    10.3050   129.8824     2.4359     0.0736   -96.2739     0.2650
 4167.5000  -999.2500  -999.2500  -999.2500    96.5419   -44.2767     5.4522     5.2048     5.9390   -81.2430   -65.8894    10.3182   131.9579     2.4444     0.0564   -96.0938     0.2659
 4168.0000  -999.2500  -999.2500  -999.2500    96.0942   -48.6783     5.4507     5.1662     5.8949   -81.2543   -47.2731    10.3164   131.3125     2.4507     0.0547   -95.9124     0.2662
 4168.5000  -999.2500  -999.2500  -999.2500    95.2682   -51.5312     5.3740     5.1632     5.7699   -81.4147   -77.6374    10.3147   129.7681     2.4553     0.0701   -95.7813     0.2653
 4169.0000  -999.2500  -999.2500  -999.2500    94.5177   -51.3404     5.2257     5.1247     5.6089   -81.5766   -77.8464    10.3129   127.0110     2.4599     0.0763   -91.6930     0.2647
 4169.5000  -999.2500  -999.2500  -999.2500    93.5414   -54.9795     5.0112     5.0509     5.5667   -81.5863   -51.7350    10.3111   125.1649     2.4654     0.0699   -91.5484     0.2659
 4170.0000  -999.2500  -999.2500  -999.2500    93.0919   -54.8412     4.8057     4.9442     5.4114   -81.7483   -48.1788    10.2947   124.8271     2.4700     0.0853   -87.4735     0.2678
 4170.5000  -999.2500  -999.2500  -999.2500    93.0961   -56.0704     4.6084     4.7726     5.0804   -81.6058   -63.4830    10.2780   124.7850     2.4746     0.0946   -86.1900     0.2703
 4171.0000  -999.2500  -999.2500  -999.2500    93.3258   -58.3325     4.5754     4.6394     4.9386   -81.4665   -82.5171    10.2612   122.9329     2.4558     0.0960   -83.2540     0.2722
 4171.5000  -999.2500  -999.2500  -999.2500    93.6318   -58.1417     4.6058     4.5727     4.8676   -81.3273   -82.7611    10.2594   120.7852     2.4449     0.0908   -79.1911     0.2737
 4172.0000  -999.2500  -999.2500  -999.2500    93.7862   -57.9987     4.6047     4.5703     4.9331   -81.3386   -71.6750    10.2580   117.7265     2.4378     0.0786   -79.0625     0.2678
 4172.5000  -999.2500  -999.2500  -999.2500    93.9406   -57.8556     4.6033     4.6319     4.9996   -81.3500   -68.1537    10.2564   113.3621     2.4330     0.0785   -78.8900     0.2588
 4173.0000  -999.2500  -999.2500  -999.2500    94.1710   -53.9065     4.6021     4.6614     5.0665   -81.3597   -79.6579    10.2546   112.8337     2.4291     0.0690   -78.7500     0.2549
 4173.5000  -999.2500  -999.2500  -999.2500    94.2500   -46.1991     4.5373     4.5625     5.0639   -81.2172   -79.9017    10.2531   116.3994     2.4306     0.0502   -78.5937     0.2510
 4174.0000  -999.2500  -999.2500  -999.2500    94.2536   -44.0973     4.5048     4.4455     5.0608   -81.2301   -76.3457    10.2513   117.2804     2.4338     0.0298   -78.4322     0.2791
 4174.5000  -999.2500  -999.2500  -999.2500    93.7299   -42.1071     4.5350     4.3411     5.0582   -81.2415   -57.7641    10.2496   114.5112     2.4368     0.0281   -78.2635     0.2903
 4175.0000  -999.2500  -999.2500  -999.2500    93.5060   -34.3997     4.6936     4.3691     5.0552   -81.2512   -65.5033    10.2478   113.5701     2.4406     0.0280   -78.0949     0.2922
 4175.5000  -999.2500  -999.2500  -999.2500    93.5108   -34.2663     4.7911     4.4895     5.0526   -81.2626   -80.8075    10.2463   112.6230     2.4437     0.0279   -77.9503     0.2766
 4176.0000  -999.2500  -999.2500  -999.2500    92.5346   -34.1135     4.7565     4.6137     5.0495   -81.2723   -58.4260    10.2445   113.1902     2.4530     0.0184   -73.8755     0.2547
 4176.5000  -999.2500  -999.2500  -999.2500    85.6754   -37.7458     4.5299     4.6758     5.0469   -81.2836   -47.3748    10.2430   116.7680     2.4788     0.0090   -69.8245     0.2476
 4177.0000  -999.2500  -999.2500  -999.2500    82.5116   -41.3917     3.9420     4.5766     5.0439   -81.2934   -66.4090    10.2563   119.1452     2.5154    -0.0005   -65.7738     0.2479
 4177.5000  -999.2500  -999.2500  -999.2500    82.2129   -41.2248     3.3367     3.9806     3.9528   -81.3047   -70.4180    10.2700   116.3881     2.5404    -0.0037   -57.7927     0.2497
 4178.0000  -999.2500  -999.2500  -999.2500    83.4034   -41.0578     2.5987     3.3212     2.3631   -81.3144   -55.5668    10.2983   104.3105     2.5552     0.0460   -53.7500     0.2457
 4178.5000  -999.2500  -999.2500  -999.2500   104.4687   -40.9148     2.4240     2.2653     1.5037   -81.0246   -52.0106    10.3266    97.0127     2.5286     0.1767   -61.3857     0.2473
 4179.0000  -999.2500  -999.2500  -999.2500   105.2270   -40.7480     2.5793     2.2485     1.0185   -80.8804   -63.5497    10.3404   109.3326     2.4379     0.2015   -61.2410     0.2744
 4179.5000  -999.2500  -999.2500  -999.2500   105.0043   -36.8228     2.9013     2.4768     0.9497   -80.4432   -52.4634    10.3537   121.0612     2.4004     0.1702   -53.2600     0.2800
 4180.0000  -999.2500  -999.2500  -999.2500   103.1225   -36.6869     3.2861     2.8442     1.3433   -80.1501   -41.4122    10.3519   123.7460     2.3691     0.1171   -37.4903     0.2785
 4180.5000  -999.2500  -999.2500  -999.2500    96.7913   -40.3177     3.5212     3.1991     1.9809   -79.7096   -45.3863    10.3654   110.7265     2.3581     0.0952   -37.3217     0.2726
 4181.0000  -999.2500  -999.2500  -999.2500    91.6673   -40.6577     3.6445     3.5237     2.2434   -79.7210   -56.9253    10.3634   105.5562     2.4057     0.0639   -45.0137     0.2647
 4181.5000  -999.2500  -999.2500  -999.2500    88.7297   -43.7972     3.6943     3.6973     2.6124   -79.5785   -45.8392    10.3616   100.6935     2.4330     0.0591   -48.7513     0.2553
 4182.0000  -999.2500  -999.2500  -999.2500    88.1293   -47.4539     3.7710     3.8523     3.5442   -79.5915   -53.6130    10.3601    98.2501     2.4423     0.0683   -52.4890     0.2538
 4182.5000  -999.2500  -999.2500  -999.2500    87.9821   -54.8412     3.9301     3.8772     3.9587   -79.6028   -68.8823    10.3583   103.9335     2.4485     0.0900   -52.3437     0.2559
 4183.0000  -999.2500  -999.2500  -999.2500    88.1377   -58.4903     3.7951     3.6654     3.6403   -79.6125   -69.1261    10.3721   106.0090     2.4493     0.0681   -56.4899     0.2570
 4183.5000  -999.2500  -999.2500  -999.2500    88.5938   -50.7353     3.3720     3.3706     3.2554   -79.7745   -58.0400    10.3703   105.9668     2.4469     0.0415   -59.8677     0.2476
 4184.0000  -999.2500  -999.2500  -999.2500    89.9554   -16.5529     3.3017     3.2310     3.1427   -80.0854   -58.2839    10.3889   104.1148     2.4452     0.0209   -59.6629     0.2432
 4184.5000  -999.2500  -999.2500  -999.2500    91.6935     2.5247     3.5133     3.3668     3.4857   -80.5486   -73.5530    10.4006   100.4587     2.4483     0.0163   -63.4375     0.2535
