~VERSION INFORMATION
 VERS.                2.0:   CWLS LOG ASCII STANDARD - VERSION 2.0
 WRAP.                 NO:   ONE LINE PER DEPTH STEP
~WELL INFORMATION
#MNEM.UNIT      DATA TYPE    INFORMATION
#----------   ------------   ------------------------------
 STRT.F           57.0000:   START DEPTH
 STOP.F         5817.0000:   STOP DEPTH
 STEP.F            0.5000:   STEP LENGTH
 NULL.          -999.2500:   NO VALUE
 COMP. DEPARTMENT OF ENERGY:   COMPANY
 WELL. DEPARTMENT NPR 371 "X" #1-4:   WELL
 FLD .              NPR-3:   FIELD
 LOC .       S4 T38N R78W:   LOCATION
 CNTY.            NATRONA:   COUNTY
 STAT.            WYOMING:   STATE
 CTRY. UNITED STATES OF AMERICA:   COUNTRY
 SRVC.       SCHLUMBERGER:   SERVICE COMPANY
 DATE.        25-AUG-2002:   LOGDATE
 API .     49025230480000:   API NUMBER
~CURVE INFORMATION
#MNEM.UNIT       API CODE    CURVE DESCRIPTION
#----------   ------------   ------------------------------
 DEPT.F                  :   
 HCAL.IN     07 280 01 00:   HRLT CALIPER
 RLA1.OHMM   06 120 01 00:   HRLT RESISTIVITY 1
 RLA2.OHMM   06 120 02 00:   HRLT RESISTIVITY 2
 RLA3.OHMM   06 120 03 00:   HRLT RESISTIVITY 3
 RXOZ.OHMM   06 270 04 00:   STAN RES. MICROCFL RESISTIVITY
 TENR.LBS    06 635 01 00:   TENSION FROM RESITIVITY
 GRR .GAPI   07 310 01 00:   GAMMA RAY FROM RESISTIVITY
 SPHI.DEC    60 890 22 00:   SONIC POROSITY SANDSTONE
 DT  .US/F   60 520 00 00:   DELTA TIME
 TENS.LBS    60 635 01 00:   TENSION FROM SONIC
 RT  .OHMM   06 120 00 00:   HRLT TRUE RESISTIVITY
~PARAMETER INFORMATION
#MNEM.UNIT          VALUE    DESCRIPTION
#----------   ------------   ------------------------------
 EKB .F         5196.0000:   Kelly bushing
 EGL .F         5186.0000:   Ground level
 EDF .F         5194.0000:   Drilling floor
 TD  .F         5803.0000:   Total depth
 CLNT.            A2DTECH:   Client Code
 SL  . 794' FEL & 333' FNL:   Surface Location
 PD  .                 GL:   Permanent Datum
 EPD .F              5186:   Elevation Permanent Datum
 LMF .                 KB:   Log Measured From
 DMF .                 KB:   Drilling Measured From
 DAPD.F                10:   Feet Above Permanent Datum
 DATE.        25-AUG-2002:   Date Logged [DD-MMM-YYYY]
 DD  .F              5800:   Depth driller
 DL  .F              5803:   Depth logger
 BLI .F              5803:   Bottom log interval
 TLI .F               656:   Top log interval
 CS1 .IN            9.625:   Casing size
 CBD1.      9.625" @ 660':   Casing driller 1
 CBL1.F               656:   Casing logger 1
 BS1 .IN            8.750:   Bit size
 BSD1.F              5800:   Depth drilled with bit1
 DFT .           GEL CHEM:   Type fluid in hole
 DFD .                  9:   Density
 DFV .                 36:   Viscosity
 DFPH.                8.5:   pH
 DFL .                7.6:   Fluid loss
 MSS .           FLOWLINE:   Source of sample
 RMS .OHMM          0.846:   Rm
 MST .F                90:   Rm Meas. temp.
 RMF .OHMM          0.670:   Rmf
 MFST.F                90:   Rmf Meas. temp.
 MFSS.               MEAS:   Source Rmf.
 RMC .OHMM          1.075:   Rmc
 MCST.F                90:   Rmc Meas. temp.
 MCSS.               CALC:   Source Rmc.
 TCS .HRS            0300:   Time Circ. stopped
 TLAB.HRS            0915:   Time logger at bottom
 MRT .F               156:   Maximum recorded temp.
 LUN .               2211:   Logging unit number
 LUL .             CASPER:   Logging unit location
 ENGI.        J.L. FLORES:   Recorded By
 WITN.        STEVE HARDY:   Witnessed by
 ORIG.        2" 5" PRINT:   Origin of data
 UWI .     49025230480000:   Unique Well ID
 DICO. A2D TECHNOLOGIES, INC.:   Digitizing Company
~OTHER INFORMATION
~A   DEPT     HCAL       RLA1       RLA2       RLA3       RXOZ       TENR         GRR      SPHI         DT       TENS         RT   
# ...
 1673.5000     9.6716     7.2601     6.9972     7.1135     2.6149  1633.3334    86.3293     0.2989    92.3414  1024.0964     7.0102
 1674.0000     9.2181     7.3096     7.3892     7.5875     2.5301  1633.3334    85.8761     0.2980    91.8882  1024.0964     7.7234
 1674.5000    10.1393     7.2580     7.9732     8.0741     3.4536  1623.8833    90.8610     0.2944    91.8127  1039.1566     7.8854
 1675.0000     9.8821     7.2569     7.8095     7.9071     4.1053  1615.0000    96.5257     0.2935    91.5861  1027.5483     7.7234
 1675.5000     9.8818     6.5860     7.4921     7.6356     4.1338  1606.1167   100.1511     0.2896    90.9819  1024.0964     7.5125
 1676.0000     8.9753     5.7675     6.9916     6.8825     3.6753  1597.2333    91.3142     0.2854    90.1511  1024.0964     6.9619
 1676.5000    10.6667     6.0177     6.0049     6.1598     2.6740  1588.3500    89.5015     0.2832    90.5287  1024.0964     6.1008
 1677.0000    10.8931     7.1533     6.5244     6.4922     2.2495  1579.4667    90.4079     0.2854    91.0574  1024.0964     6.6327
 1677.5000    10.5905     7.6120     7.3892     7.3897     2.4272  1570.5834    92.4471     0.2896    91.2840  1024.0964     7.4607
 1678.0000    10.5298     7.2009     7.9732     7.9006     3.6500  1561.7000    91.3142     0.2926    91.6616  1024.0964     7.8854
 1678.5000     9.1852     7.0521     8.0285     8.1779     5.5651  1552.8167    90.4079     0.2938    91.2840  1024.0964     7.9953
 1679.0000     9.8495     6.9540     7.5964     7.8983     6.4348  1543.9333    90.4079     0.2881    90.6798  1024.0964     7.5647
 1679.5000    10.4232     6.9531     7.7022     7.6286     5.6037  1535.0500    90.8610     0.2848    90.0000  1024.0964     7.6701
 1680.0000     9.4864     7.6595     8.0285     7.8961     5.4509  1526.1666    98.7915     0.2805    90.0000  1024.0964     7.8854
 1680.5000     9.0933     7.6055     7.9156     8.0611     5.2269  1517.2833    99.9245     0.2793    89.8489  1024.0964     8.1630
 1681.0000     8.7305     7.1453     7.4921     7.6784     4.3089  1508.4000    96.9789     0.2766    89.1621  1024.0964     7.4607
 1681.5000     9.5308     7.0952     7.3383     7.4677     3.7008  1500.0000    92.9003     0.2751    89.0937  1024.0964     7.9953
 1682.0000    10.3159     7.9796     8.7836     8.6608     3.5017  1500.0000    89.9547     0.2736    89.3202  1024.0964     8.8111
 1682.5000     9.1525     7.8147     8.0270     8.6941     5.1575  1500.0000    92.2205     0.2733    88.9426  1024.0964     8.5090
 1683.0000     8.6991     7.0433     7.5964     7.3617     5.0168  1500.0000    93.5801     0.2730    88.9426  1024.0964     7.3074
 1683.5000     9.4540     7.8667     8.2945     7.9872     4.6704  1500.0000    94.7130     0.2736    89.0181  1024.0964     7.4732
 1684.0000     9.1063     7.9206     8.6630     8.5710     4.5226  1500.0000    95.8459     0.2745    89.0937  1024.0964     8.3921
 1684.5000     8.7283     7.6500     8.7231     8.7495     5.8411  1500.0000    96.9789     0.2736    89.0937  1024.0964     8.8086
 1685.0000     8.7885     8.0287     8.4266     8.8704     6.4348  1500.0000    97.2054     0.2712    88.9426  1024.0964     8.8086
 1685.5000     8.9695     7.4390     7.4921     8.8078     6.5244  1500.0000    97.2054     0.2688    88.4894  1024.0964     8.6276
 1686.0000     8.7878     6.0435     7.0401     7.5622     5.6037  1500.0000    95.8459     0.2661    87.7341  1024.0964     7.3074
 1686.5000     8.8782     5.8778     6.5697     6.6290     3.1349  1500.0000    93.5801     0.2679    88.2628  1024.0964     6.5870
 1687.0000     9.8296     5.7963     6.7540     6.9033     2.4781  1500.0000    94.4864     0.2721    88.9426  1020.9155     6.7718
 1687.5000    10.8414     7.2318     7.2533     7.4731     2.4441  1500.0000    98.1118     0.2782    90.2266  1009.0361     7.1573
 1688.0000     9.9196     7.8572     7.8095     7.8817     2.6740  1499.9888   103.3233     0.2891    90.7553  1009.0361     7.9401
 1688.5000     9.1188     7.7989     8.3686     8.2688     4.3992  1500.0000   100.4912     0.2869    90.7553  1009.0361     8.2197
 1689.0000     9.3300     7.3805     8.3109     8.3831     5.4887  1500.0000    96.7523     0.2788    89.8168  1009.0361     7.9908
 1689.5000     8.8462     6.7447     7.7557     8.0848     5.6037  1514.5621    94.9396     0.2776    89.1692  1009.0361     7.3074
 1690.0000     9.0272     7.4812     7.4405     7.5017     5.3022  1528.4967    94.0332     0.2773    89.2447   993.9759     7.1573
 1690.5000     8.6492     7.3774     7.9741     7.3978     4.4914  1542.4314    95.1662     0.2773    89.3993   993.9759     7.6701
 1691.0000     8.9661     6.9311     8.1968     8.0931     4.4914  1556.3660    99.0181     0.2785    89.6224  1009.0361     7.9401
 1691.5000     9.2075     7.0266     7.7022     8.0363     4.4604  1570.3007   104.0030     0.2809    89.6979  1009.0361     8.1067
 1692.0000     8.9655     7.4258     7.3349     7.6022     4.3388  1584.2354   105.3625     0.2833    89.6979  1012.4498     7.8310
 1692.5000     9.0407     6.9282     7.5964     7.2413     4.6174  1598.1699   100.8308     0.2773    89.6224  1024.0964     7.2570
 1693.0000     9.5993     6.9755     7.9182     7.5476     5.0516  1612.1046    99.0181     0.2767    89.5468  1024.0964     7.4093
 1693.5000     9.2516     7.2700     7.9732     7.8668     4.9099  1626.0392    99.0181     0.2761    89.4713  1039.1566     7.7770
 1694.0000     9.6290     7.6299     7.6491     7.6506     4.8463  1633.3334    98.1118     0.2737    88.9426  1039.1566     7.9953
 1694.5000     9.7948     7.3184     7.6491     7.5444     4.8800  1633.3334    97.2054     0.2731    88.6405  1039.1566     7.6172
 1695.0000     9.1298     7.3175     7.7022     7.6505     4.7468  1633.3334    96.2991     0.2734    88.8671  1039.1566     7.6172
 1695.5000     8.9936     7.3165     7.7022     7.6475     4.6174  1633.3334    94.9396     0.2758    89.2447  1039.1566     7.7234
 1696.0000     9.3860     7.2650     7.7022     7.5937     4.2497  1633.3334    93.5801     0.2770    89.5468  1024.0964     7.7234
 1696.5000     9.2649     7.1642     7.4921     7.2835     3.9933  1633.3334    91.3142     0.2794    89.6979  1024.0964     7.2570
 1697.0000     8.8568     6.5468     7.1381     6.9380     3.8843  1633.3334    94.0332     0.2791    89.8489  1024.0964     7.0102
 1697.5000     9.7477     7.1717     6.9677     6.6091     3.7008  1633.3334    97.6586     0.2797    89.8489  1024.0964     7.1079
 1698.0000     9.9740     7.5812     8.0285     7.8028     3.8843  1633.3334    99.0181     0.2797    89.8489  1027.2590     7.8310
 1698.5000     9.6867     7.7953     8.0842     7.7477     4.8800  1633.3379   100.3776     0.2788    89.8489  1039.1566     7.8898
 1699.0000     8.5800     7.9600     8.1968     8.0197     6.3795  1633.3365   101.2840     0.2761    89.6979  1039.1566     8.2197
 1699.5000     8.6399     8.0723     8.3686     8.2439     7.2767  1633.3334   102.6435     0.2710    88.9426  1039.1566     8.3921
 1700.0000     8.8355     7.5855     8.4266     8.3001     7.6381  1626.3975   100.6035     0.2665    87.8097  1039.1346     8.1630
 1700.5000     8.9257     7.2731     8.0275     7.5843     6.4685  1611.6104   101.5068     0.2656    87.7341  1038.9927     7.8854
 1701.0000     8.8648     7.1784     7.7022     7.6415     5.7901  1596.8232   101.2741     0.2689    88.3384  1038.8507     7.5056
 1701.5000     9.2414     7.3303     7.6491     7.5898     5.5161  1582.0360    98.7775     0.2746    88.7915  1038.7034     7.4607
 1702.0000     9.6331     7.5374     7.7557     7.6979     6.2053  1567.2489    95.6002     0.2774    89.2508  1053.6277     7.6701
 1702.5000     8.7730     7.8039     7.9732     7.9156     7.7446  1552.4618    96.5025     0.2786    89.4790  1053.4576     8.0508
 1703.0000     9.4663     8.1360     8.2556     8.0275     8.2999  1537.6746   100.5759     0.2789    89.7825  1053.2877     8.3959
 1703.5000     9.1491     7.2335     7.5441     7.3381     7.3272  1522.8875   101.4782     0.2786    90.0108  1053.1517     7.6701
