~VERSION INFORMATION
 VERS.                2.0:   CWLS LOG ASCII STANDARD - VERSION 2.0
 WRAP.                 NO:   ONE LINE PER DEPTH STEP
~WELL INFORMATION
#MNEM.UNIT      DATA TYPE    INFORMATION
#----------   ------------   ------------------------------
 STRT.F          502.0000:   START DEPTH
 STOP.F         3068.0000:   STOP DEPTH
 STEP.F            0.5000:   STEP LENGTH
 NULL.          -999.2500:   NO VALUE
 COMP. LAWRENCE ALLISON AND ASSOCIATES:   COMPANY
 WELL. LAWRENCE NPR TX #85-33:   WELL
 FLD .              N P R:   FIELD
 LOC .      S33 T39N R78W:   LOCATION
 CNTY.            NATRONA:   COUNTY
 STAT.            WYOMING:   STATE
 CTRY. UNITED STATES OF AMERICA:   COUNTRY
 SRVC.       SCHLUMBERGER:   SERVICE COMPANY
 DATE.        20-JUN-1982:   LOGDATE
 API .     49025107990001:   API NUMBER
~CURVE INFORMATION
#MNEM.UNIT       API CODE    CURVE DESCRIPTION
#----------   ------------   ------------------------------
 DEPT.F                  :   
 RHOB.G/C3   45 350 01 00:   BULK DENSITY
 GRD .GAPI   45 310 01 00:   GAMMA RAY FROM DENSITY LOG
 CALD.IN     45 280 60 00:   CALIPER FROM DENSITY LOG
 CORR.G/C3   45 356 01 00:   DENSITY CORRECTION
 TEND.LBS    45 635 01 00:   TENSION FROM DENSITY LOG
 NPHI.DEC    42 890 03 00:   NEUTRON POROSITY SANDSTONE
 TENR.LBS    07 635 01 00:   TENSION FROM RESISTIVITY
 SPR .MV     07 010 01 00:   SPONTANEOUS POTENTIAL
 ILD .OHMM   07 120 46 00:   DEEP INDUCTION RESISTIVITY
 ILM .OHMM   07 120 44 00:   INDUCTION LOG MEDIUM RESISTIVITY
 SFL .OHMM   07 220 01 00:   SHALLOW FOCUSED LOG RESISTIVITY
~PARAMETER INFORMATION
#MNEM.UNIT          VALUE    DESCRIPTION
#----------   ------------   ------------------------------
 EKB .F         5123.0000:   Kelly bushing
 EGL .F         5113.0000:   Ground level
 EDF .F         5122.0000:   Drilling floor
 EPD .F         5113.0000:   Permanent datum
 TD  .F         3100.0000:   Total depth
 DATE.        20-JUN-1982:   Date logged
 CLNT.            A2DTECH:   Client Code
 SL  . 2263' FSL & 293' FEL:   Surface Location
 PD  .                 GL:   Permanent Datum
 DD  .F              3100:   Depth driller
 DL  .F              3056:   Depth logger
 BLI .F              3050:   Bottom log interval
 CS1 .IN            9.625:   Casing size
 CBD1.      9.625" @ 524':   Casing driller 1
 CBL1.F               520:   Casing logger 1
 BS1 .IN            7.875:   Bit size
 DFT .           POLY/KCL:   Type fluid in hole
 DFD .                8.4:   Density
 DFV .                 40:   Viscosity
 DFPH.                7.6:   pH
 DFL .                 10:   Fluid loss
 MSS .               TANK:   Source of sample
 RMS .OHMM            .92:   Rm
 MST .F                66:   Rm Meas. temp.
 RMF .OHMM           .603:   Rmf
 MFST.F                68:   Rmf Meas. temp.
 MFSS.               MEAS:   Source Rmf.
 RMB .OHMM           .515:   Rm. at BHT
 BHT .F               118:   BHT.
 TCS .HRS             815:   Time Circ. stopped
 MRT .F               118:   Maximum recorded temp.
 LUN .               8035:   Logging unit number
 LUL .               CSPR:   Logging unit location
 ENGI.              PENNY:   Recorded By
 WITN.           JENNINGS:   Witnessed by
 ORIG.           5" PRINT:   Origin of data
 UWI .     49025107990001:   Unique Well ID
 DICO. A2D TECHNOLOGIES, INC.:   Digitizing Company
 DAPD.                 10:   Feet Above Permanent Datum
 BSD1.               3100:   Depth drilled with bit1
 TLI .                520:   Top log interval
 TLAB.               1100:   Time logger at bottom
~OTHER INFORMATION
~A   DEPT     RHOB         GRD      CALD       CORR       TEND       NPHI       TENR        SPR        ILD        ILM        SFL   
# ...
 1020.5000     2.5450   108.5040    10.2560     0.0360   932.0030     0.3370  1226.3210   -16.2570     7.4530     6.9770     7.6960
 1021.0000     2.5350   106.6290    10.2350     0.0340   931.2990     0.3390  1226.3210   -16.0300     7.4870     7.0070     7.7670
 1021.5000     2.5280   106.5530    10.2360     0.0320   930.5960     0.3390  1226.3210   -15.8070     7.4420     7.0360     7.5970
 1022.0000     2.5380   106.4140    10.2320     0.0370   929.8920     0.3390  1226.3210   -15.5830     7.4190     7.0660     7.5560
 1022.5000     2.5520   104.8660    10.2110     0.0410   929.1890     0.3370  1226.3210   -15.3590     7.6430     7.2000     7.7090
 1023.0000     2.5560   101.9970    10.1910     0.0310   928.4850     0.3350  1226.3210   -15.1380     7.8110     7.5300     7.9140
 1023.5000     2.5430    99.6140    10.1720     0.0200   927.7820     0.3310  1226.3210   -14.9710     7.9840     7.8600     8.1200
 1024.0000     2.5350    96.9850    10.1580     0.0100   927.0780     0.3230  1226.3210   -14.9340     8.3980     8.1890     8.6510
 1024.5000     2.5400    93.5660    10.1850     0.0130   926.3750     0.3080  1226.3210   -14.8020     8.8250     8.5190     9.4240
 1025.0000     2.5390    90.6470    10.2120     0.0150   925.6720     0.2920  1226.3210   -14.8640     9.2520     8.8490    10.1980
 1025.5000     2.5220    88.6650    10.2410     0.0130   924.9680     0.2900  1226.3210   -14.9350     9.5750     9.0880    10.9100
 1026.0000     2.5070    86.5880    10.2700     0.0120   924.2650     0.2950  1226.3210   -14.9030     9.7450     9.3040    10.7110
 1026.5000     2.5090    85.9710    10.2990     0.0170   923.5610     0.3040  1226.3210   -14.7760     9.9150     9.5210    10.0440
 1027.0000     2.5110    86.4170    10.3270     0.0220   922.8580     0.3130  1226.3210   -14.6490    10.0440     9.7370    10.2570
 1027.5000     2.5010    86.7780    10.3560     0.0140   923.5110     0.3160  1226.3210   -14.5210    10.2310     9.7720    10.3700
 1028.0000     2.4900    85.4290    10.3860     0.0050   924.8620     0.3180  1226.3210   -14.3940    10.3550     9.7720    10.4820
 1028.5000     2.4840    83.4910    10.3930     0.0010   926.2120     0.3420  1226.3210   -14.2660    10.4210     9.7720    10.5950
 1029.0000     2.4820    83.4010    10.3930     0.0010   927.5620     0.3540  1226.3210   -14.1830    10.4880     9.7720    10.7070
 1029.5000     2.4750    85.7730    10.3920     0.0010   928.9120     0.3580  1226.3210   -14.3160    10.5540     9.7710    10.8200
 1030.0000     2.4720    88.7640    10.3880     0.0030   930.2630     0.3370  1226.3210   -14.4740    10.6130     9.7720    10.9330
 1030.5000     2.4770    91.6480    10.3840     0.0050   931.6130     0.3220  1226.3210   -14.6350    10.5120     9.7690    11.0110
 1031.0000     2.4980    91.3670    10.3790     0.0110   932.9630     0.3120  1226.3210   -14.7940    10.4190     9.7450    10.8800
 1031.5000     2.5180    90.3840    10.3750     0.0210   934.3130     0.3080  1226.3210   -14.9550    10.3270     9.7200    10.7800
 1032.0000     2.5190    89.4120    10.3820     0.0210   935.6640     0.3110  1226.3210   -15.1210    10.2340     9.6960    10.6800
 1032.5000     2.4990    90.3550    10.3940     0.0180   937.0140     0.3130  1226.3210   -15.1570    10.1370     9.6720    10.5810
 1033.0000     2.4810    93.3430    10.4070     0.0150   938.3640     0.3130  1226.3210   -15.0080    10.1370     9.6470    10.5010
 1033.5000     2.4790    96.3320    10.4190     0.0130   939.7140     0.3110  1226.3210   -14.9680    10.1480     9.6230    10.4590
 1034.0000     2.4910    96.8410    10.4320     0.0210   941.0650     0.3110  1226.3210   -14.8850    10.1620     9.5940    10.4160
 1034.5000     2.5100    95.5860    10.4440     0.0300   942.4150     0.3140  1226.3210   -14.7680    10.1770     9.6260    10.3740
 1035.0000     2.5200    94.5170    10.4500     0.0330   943.7650     0.3180  1226.3210   -14.6490    10.1910     9.6670    10.3320
 1035.5000     2.5140    93.4940    10.4360     0.0240   945.1160     0.3160  1226.3210   -14.5300    10.2050     9.7080    10.2890
 1036.0000     2.5070    92.1400    10.4220     0.0150   946.4660     0.3190  1226.3210   -14.4090    10.2190     9.7500    10.2470
 1036.5000     2.5140    90.7470    10.4090     0.0160   947.8160     0.3240  1226.3210   -14.3780    10.2500     9.7910    10.2310
 1037.0000     2.5280    88.9650    10.3950     0.0250   949.1660     0.3230  1226.3210   -14.5560    10.3350     9.8320    10.5290
 1037.5000     2.5430    85.6710    10.3810     0.0380   950.5170     0.3170  1226.3210   -14.7750    10.4200     9.8730    10.7110
 1038.0000     2.5500    85.0460    10.3740     0.0500   951.8670     0.3100  1226.3210   -14.9940    10.5090     9.9140    10.6950
 1038.5000     2.5260    86.5710    10.3330     0.0460   953.2170     0.3050  1226.3210   -15.1720    10.4560     9.9530    10.6310
 1039.0000     2.5020    88.3460    10.2860     0.0340   954.5670     0.3050  1226.3210   -15.1660    10.3850     9.8740    10.5670
 1039.5000     2.4990    89.7950    10.2400     0.0290   955.9180     0.3110  1226.3210   -15.1590    10.3140     9.8010    10.5030
 1040.0000     2.5070    90.5110    10.2330     0.0280   957.2680     0.3180  1226.3210   -15.1250    10.2440     9.7280    10.4390
 1040.5000     2.5030    92.2370    10.2340     0.0230   958.6180     0.3220  1226.3210   -15.0920    10.1730     9.6550    10.4200
 1041.0000     2.4920    93.9950    10.2260     0.0140   959.9690     0.3230  1226.3210   -15.0590    10.1030     9.5820    10.4200
 1041.5000     2.4710    94.3570    10.2190     0.0060   961.3190     0.3190  1226.3210   -15.0260    10.0320     9.5090    10.4200
 1042.0000     2.4600    94.1780    10.2130     0.0040   962.3020     0.3180  1226.3210   -14.9940     9.9610     9.4350    10.3060
 1042.5000     2.4650    92.6690    10.2060     0.0040   962.3020     0.3300  1226.3210   -14.9940     9.8910     9.3620    10.1720
 1043.0000     2.4770    90.9640    10.1990     0.0100   962.3020     0.3340  1226.3210   -15.0820     9.8200     9.2890    10.0380
 1043.5000     2.4980    89.6380    10.1920     0.0170   962.3020     0.3300  1226.3210   -15.1670     9.7500     9.2160     9.9530
 1044.0000     2.5070    89.9060    10.1850     0.0200   962.3020     0.3240  1226.3210   -15.2520     9.6790     9.1430    10.0840
 1044.5000     2.5040    90.2440    10.1780     0.0160   962.3020     0.3320  1226.3210   -15.3370     9.5940     9.0700    10.1900
 1045.0000     2.4990    90.5810    10.1780     0.0130   962.3020     0.3430  1226.3210   -15.4220     9.7420     8.9960    10.2950
 1045.5000     2.4970    90.9370    10.1800     0.0150   962.3020     0.3430  1226.3210   -15.5030    10.1370     8.9960    10.4200
 1046.0000     2.4970    91.5280    10.1850     0.0170   962.3020     0.3330  1226.3210   -15.5580    10.0740     8.9850    10.2240
 1046.5000     2.4910    92.6550    10.1910     0.0150   962.3020     0.3260  1226.3210   -15.3430     9.9210     8.9670     9.9530
 1047.0000     2.4850    92.7150    10.1970     0.0120   962.3020     0.3230  1226.3210   -15.2360     9.7690     8.9490     9.9530
 1047.5000     2.4820    94.2760    10.2020     0.0120   962.3020     0.3190  1226.3210   -15.0420     9.6010     8.9310     9.9530
 1048.0000     2.4840    97.0930    10.2080     0.0140   962.3020     0.3170  1226.3210   -14.9760     9.6820     8.9130     9.9530
 1048.5000     2.4840    99.4450    10.2130     0.0150   962.3020     0.3190  1226.3210   -14.9330     9.5730     8.8950     9.7640
 1049.0000     2.4800    98.2190    10.2170     0.0080   962.3020     0.3200  1226.3210   -14.7850     9.3390     8.8780     9.4790
 1049.5000     2.4780    96.3480    10.2010     0.0000   962.3020     0.3140  1226.3210   -14.8300     9.1050     8.8600     9.3330
 1050.0000     2.4900    94.6660    10.1320     0.0000   962.3020     0.3090  1226.3210   -14.8830     9.0790     8.8330     9.3890
 1050.5000     2.5130    94.4550    10.0840     0.0080   962.3020     0.3070  1226.3210   -14.9360     9.2660     8.8580     9.4190
