~VERSION INFORMATION
 VERS.                2.0:   CWLS LOG ASCII STANDARD - VERSION 2.0
 WRAP.                 NO:   ONE LINE PER DEPTH STEP
~WELL INFORMATION
#MNEM.UNIT      DATA TYPE    INFORMATION
#----------   ------------   ------------------------------
 STRT.F          450.0000:   START DEPTH
 STOP.F         3098.0000:   STOP DEPTH
 STEP.F            0.5000:   STEP LENGTH
 NULL.          -999.2500:   NO VALUE
 COMP. FENIX & SCISSON - U.S NAVY:   COMPANY
 WELL. FENIX NPR 3 "AX" #11-33:   WELL
 FLD .              N P R:   FIELD
 LOC .      S33 T39N R78W:   LOCATION
 CNTY.            NATRONA:   COUNTY
 STAT.            WYOMING:   STATE
 CTRY. UNITED STATES OF AMERICA:   COUNTRY
 SRVC.              WELEX:   SERVICE COMPANY
 DATE.        12-MAR-1977:   LOGDATE
 API .     49025103210000:   API NUMBER
~CURVE INFORMATION
#MNEM.UNIT       API CODE    CURVE DESCRIPTION
#----------   ------------   ------------------------------
 DEPT.F                  :   
 CALD.IN     45 280 60 00:   CALIPER FROM DENSITY LOG
 GRD .GAPI   45 310 01 00:   GAMMA RAY FROM DENSITY LOG
 RHOB.G/C3   45 350 01 00:   BULK DENSITY
 CORR.G/C3   45 356 01 00:   DENSITY CORRECTION
 SPR .MV     07 010 01 00:   SPONTANEOUS POTENTIAL
 SGRD.MV     07 010 01 00:   SHALLOW GUARD RESISTIVITY
 ILD .OHMM   07 120 46 00:   DEEP INDUCTION RESISTIVITY
 ILM .OHMM   07 120 44 00:   INDUCTION LOG MEDIUM RESISTIVITY
~PARAMETER INFORMATION
#MNEM.UNIT          VALUE    DESCRIPTION
#----------   ------------   ------------------------------
 EKB .F         5133.0000:   Kelly bushing
 EGL .F         5122.0000:   Ground level
 TD  .F         3130.0000:   Total depth
 DATE.        12-MAR-1977:   Date logged
 CLNT.            A2DTECH:   Client Code
 SL  . 331' FNL & 430' FWL:   Surface Location
 PD  .                 GL:   Permanent Datum
 DD  .F              3130:   Depth driller
 DL  .F              3102:   Depth logger
 BLI .F              3100:   Bottom log interval
 CS1 .IN            8.625:   Casing size
 CBD1.      8.625" @ 459':   Casing driller 1
 CBL1.F               455:   Casing logger 1
 BS1 .IN            7.875:   Bit size
 DFT .                KCL:   Type fluid in hole
 DFD .                9.3:   Density
 DFV .                 36:   Viscosity
 DFL .               16.2:   Fluid loss
 MSS .           FLOWLINE:   Source of sample
 RMS .OHMM           0.37:   Rm
 MST .F                50:   Rm Meas. temp.
 RMF .OHMM           0.32:   Rmf
 MFST.F                55:   Rmf Meas. temp.
 RMC .OHMM           0.58:   Rmc
 MCST.F                55:   Rmc Meas. temp.
 MFSS.               MEAS:   Source Rmf.
 RMB .OHMM           .168:   Rm. at BHT
 BHT .F               110:   BHT.
 TCS .HRS               4:   Time Circ. stopped
 MRT .F               110:   Maximum recorded temp.
 LUN .               0716:   Logging unit number
 LUL .             VERNAT:   Logging unit location
 ENGI.        E. CALLAHAN:   Recorded By
 WITN.            K. JAPP:   Witnessed by
 ORIG.           5" PRINT:   Origin of data
 UWI .     49025103210000:   Unique Well ID
 DICO. A2D TECHNOLOGIES, INC.:   Digitizing Company
 DAPD.F                11:   Feet Above Permanent Datum
 BSD1.               3950:   Depth drilled with bit1
 MCSS.               CALC:   Source Rmc.
 EPD .F              5122:   Elevation Permanent Datum
 LMF .                 KB:   Log Measured From
 DMF .                 KB:   Drilling Measured From
 TLI .F               455:   Top log interval
~OTHER INFORMATION
~A   DEPT       CALD       GRD        RHOB      CORR       SPR       SGRD        ILD        ILM   
# ...
 1138.5000    10.2558   103.6238     2.4787     0.0624   -61.5213    11.3941     6.4997    10.5812
 1139.0000    10.2756   103.6237     2.4771     0.0684   -61.5283    11.6020     6.3796    10.3856
 1139.5000    10.2955   103.6237     2.5016     0.0784   -61.5352    11.9229     6.3775    10.0990
 1140.0000    10.2955   105.4100     2.4901     0.0984   -61.5407    11.7017     7.3181    10.0957
 1140.5000    10.2955   104.8145     2.4796     0.0904   -61.5476    11.5908     5.8637    10.2799
 1141.0000    10.2955   104.4174     2.4707     0.0804   -61.5546    11.4810     8.7876    10.2766
 1141.5000    10.2757   104.6158     2.4597     0.0684   -61.5629    11.7985     9.1995     9.8127
 1142.0000    10.2757   106.0050     2.4517     0.0625   -61.5698    12.1249     8.0141     8.4657
 1142.5000    10.2162   106.6004     2.4517     0.0585   -61.5767    12.1210     9.1978     9.6270
 1143.0000    10.1765   106.6003     2.4547     0.0565   -61.7816    11.8961     9.2738     9.6233
 1143.5000    10.0971   105.2108     2.4637     0.0565   -61.7886    11.6755     9.3583     9.6208
 1144.0000    10.0575   106.7984     2.4697     0.0545   -61.5975    11.6717     9.4424     9.8863
 1144.5000    10.0575   106.0045     2.4657     0.0605   -61.6044    11.6680     9.5266    10.0666
 1145.0000    10.0178   105.4090     2.4567     0.0605   -61.6113    11.6643     9.6116    10.4420
 1145.5000    10.0178   104.6151     2.4567     0.0586   -61.6183    11.6605     9.6967    10.0642
 1146.0000    10.0972   106.0041     2.4697     0.0586   -61.4272    12.0938     9.7832    10.0616
 1146.5000    10.1171   106.0040     2.4767     0.0606   -61.4341    12.0899     9.9623    10.0584
 1147.0000    10.1370   106.4007     2.4872     0.0726   -61.4410    11.5426     9.2555    10.0545
 1147.5000    10.1568   106.9959     2.5022     0.0886   -61.6459    11.5389     9.2525    10.0519
 1148.0000    10.1767   111.3612     2.4648     0.0766   -61.6529    11.5352     9.3339    10.0494
 1148.5000    10.1767   109.9720     2.4778     0.0766   -61.6598    11.5315     9.3314     9.8617
 1149.0000    10.1767   109.1782     2.4823     0.0786   -61.6701    11.7404     9.3297     9.7689
 1149.5000    10.1767   109.1780     2.4658     0.0706   -61.8695    11.7382     9.3273    10.1312
 1150.0000    10.1767   109.7730     2.4808     0.0706   -61.8530    11.8429     9.3243    10.6048
 1150.5000    10.1966   107.7888     2.4831     0.0687   -61.8365    11.8391     9.1496    10.6020
 1151.0000    10.1768   106.5981     2.4968     0.0727   -61.8200    11.8353     8.9799     9.8459
 1151.5000    10.1768   106.3997     2.5028     0.0747   -61.8035    11.8315     8.8144     9.3996
 1152.0000    10.0975   105.6059     2.4909     0.0767   -61.7871    11.7201     8.7309     9.9293
 1152.5000    10.0578   106.3994     2.4778     0.0567   -61.7706    11.2915     8.4899    10.0191
 1153.0000    10.0380   108.5815     2.4738     0.0647   -61.7541    11.2886     8.4089    10.0159
 1153.5000    10.0380   107.3911     2.4738     0.0627   -61.7376    10.9778     8.3298     9.8301
 1154.0000    10.0579   106.9942     2.5008     0.0608   -61.7211    10.3848     8.1753     8.7980
 1154.5000    10.0975   107.5892     2.5008     0.0708   -61.7046    10.7686     8.0988     9.0425
 1155.0000    10.1174   109.7711     2.4948     0.0688   -61.6882    10.7665     8.0947     9.2926
 1155.5000    10.1373   110.3660     2.4918     0.0648   -61.6717    10.2792     8.0180     9.4622
 1156.0000    10.1571   110.9609     2.4779     0.0568   -61.6552    10.2759     8.1643     9.0344
 1156.5000    10.1571   112.1509     2.4639     0.0548   -61.6387    10.8556     8.2371     9.0309
 1157.0000    10.1571   111.9523     2.4629     0.0548   -61.6222    10.8521     8.1590     9.4531
 1157.5000    10.1572   110.7619     2.4839     0.0549   -61.6057    10.8487     8.3079     9.7145
 1158.0000    10.1175   113.5386     2.4829     0.0628   -61.5892    10.3575     8.2297     9.5349
 1158.5000    10.0580   113.9351     2.4629     0.0529   -61.5728    10.2594     8.1517     9.0193
 1159.0000    10.0580   114.1332     2.5009     0.0669   -61.5563    10.2561     8.0745     8.7710
 1159.5000    10.0581   115.3227     2.5109     0.0809   -61.5398    10.4432     8.0713     9.0969
 1160.0000    10.0581   113.5376     2.4949     0.0969   -61.5233    10.3443     8.0688     9.0107
 1160.5000    10.0581   114.1323     2.5089     0.0809   -61.5068    10.1524     8.0672     8.8435
 1161.0000    10.0779   114.3304     2.5029     0.0809   -61.4903    10.0562     7.9166     8.8407
 1161.5000    10.0978   113.1400     2.4989     0.0769   -61.4739    10.0530     7.9145     8.9195
 1162.0000    10.1970   113.1399     2.4760     0.0729   -61.4574    10.0510     7.9130     9.1663
 1162.5000    10.2168   112.5447     2.4989     0.0710   -61.4409    10.0465     7.9820     9.2486
 1163.0000    10.2367   111.1562     2.5119     0.0770   -61.4244    10.1368     8.0543     9.1604
 1163.5000    10.2763   111.3544     2.4980     0.0790   -61.4079    10.3198     8.1266     9.1574
 1164.0000    10.2565   111.5525     2.5010     0.0910   -61.3914    10.3178     8.1981     9.5855
 1164.5000    10.2764   111.7505     2.5199     0.0989   -61.3749    10.3151     8.2717     9.6716
 1165.0000    10.2764   110.5605     2.5199     0.0790   -61.3585    10.4065     8.2686     9.3185
 1165.5000    10.2764   109.5688     2.5083     0.0730   -61.3420    10.5964     8.2659     9.0619
 1166.0000    10.2963   106.5943     2.4950     0.0581   -61.3255    10.8901     8.2638     9.5732
 1166.5000    10.2963   106.1976     2.5093     0.0641   -61.3090    11.8258     8.3375    10.1140
 1167.0000    10.2963   105.9992     2.5270     0.0721   -61.2925    11.9313     8.4119    10.1101
 1167.5000    10.2963   106.7922     2.5195     0.0721   -61.2760    10.8790     8.4880    10.1069
 1168.0000    10.2963   108.9731     2.4940     0.0661   -61.2595    10.5801     8.4853     9.3866
 1168.5000    10.2963   107.7833     2.5050     0.0831   -61.2431    10.5760     8.4804     9.2125
 1169.0000    10.2963   106.7918     2.5070     0.0791   -61.2266    10.5733     8.4782     9.4679
 1169.5000    10.3162   109.5673     2.4951     0.0811   -61.2101    10.6669     8.4755    10.0939
 1170.0000    10.3360   109.5672     2.4791     0.0691   -61.1936    10.7634     8.4722    10.0907
 1170.5000    10.3559   107.7827     2.4661     0.0791   -61.1758    10.7593     8.4701    10.0874
 1171.0000    10.3559   109.1703     2.4851     0.0891   -61.1827    10.8546     8.6235    10.0842
 1171.5000    10.3361   110.1613     2.4941     0.1011   -61.1896    10.8511     8.6213    10.0810
 1172.0000    10.2964   108.9717     2.4771     0.0652   -61.1965    10.7483     8.6987    10.0777
 1172.5000    10.2568   108.5750     2.4592     0.0572   -61.2034    10.5489     8.7769    10.0745
 1173.0000    10.2172   107.7819     2.4721     0.0592   -61.2104    10.9409     8.9359    10.0713
 1173.5000    10.1181   106.7907     2.4861     0.0632   -61.2173    10.9374     8.9336     9.1789
 1174.0000     9.9793   104.2136     2.5001     0.0672   -61.2242    11.1369     9.0121     9.9726
 1174.5000     9.9793   104.6100     2.4722     0.0712   -61.2311    11.2363     9.0925     9.9694
 1175.0000     9.9992   104.6099     2.5141     0.0832   -61.2380    11.3365     9.0902     9.9662
 1175.5000    10.0190   103.8169     2.4967     0.0713   -61.2449    11.2291     9.0867     9.9630
 1176.0000    10.0785   100.8437     2.4812     0.0693   -61.2518    11.3292     9.0838     9.9605
 1176.5000    10.0785   100.6455     2.4872     0.0733   -61.2587    11.3256     9.0803     9.9560
 1177.0000    10.0984   100.6455     2.4712     0.0753   -61.2656    11.5322     9.1619     9.9528
 1177.5000    10.1380   100.8437     2.4892     0.0753   -61.2726    11.8512     8.9919     9.9496
 1178.0000    10.1777   101.0419     2.5012     0.0753   -61.2795    11.8474     8.9891    10.4147
 1178.5000    10.1975   102.0328     2.4882     0.0733   -61.2864    11.4156     9.2377    11.0037
