~VERSION INFORMATION
 VERS.                2.0:   CWLS LOG ASCII STANDARD - VERSION 2.0
 WRAP.                 NO:   ONE LINE PER DEPTH STEP
~WELL INFORMATION
#MNEM.UNIT      DATA TYPE    INFORMATION
#----------   ------------   ------------------------------
 STRT.F           32.0000:   START DEPTH
 STOP.F         2998.0000:   STOP DEPTH
 STEP.F            0.5000:   STEP LENGTH
 NULL.          -999.2500:   NO VALUE
 COMP.   TESORO PETROLEUM:   COMPANY
 WELL. TESORO N.P.R. #3-34:   WELL
 FLD .        TEAPOT DOME:   FIELD
 LOC .      S34 T39N R78W:   LOCATION
 CNTY.            NATRONA:   COUNTY
 STAT.            WYOMING:   STATE
 CTRY. UNITED STATES OF AMERICA:   COUNTRY
 SRVC.       SCHLUMBERGER:   SERVICE COMPANY
 DATE.        08-AUG-1969:   LOGDATE
 API .     49025100250000:   API NUMBER
~CURVE INFORMATION
#MNEM.UNIT       API CODE    CURVE DESCRIPTION
#----------   ------------   ------------------------------
 DEPT.F                  :   
 SPR .MV     05 010 01 00:   SPONTANEOUS POTENTIAL FROM RES.
 ASN .OHMM   05 040 16 00:   AMPLIFIED SHORT NORMAL 16"
 ILD .OHMM   05 120 46 00:   INDUCTION LOG DEEP
 CORR.G/C3   45 356 01 00:   DENSITY CORRECTION
 GRD .GAPI   45 310 01 00:   GAMMA RAY FROM DENSITY LOG
 CALD.IN     45 280 60 00:   CALIPER FROM DENSITY LOG
 RHOB.G/C3   45 350 01 00:   BULK DENSITY
~PARAMETER INFORMATION
#MNEM.UNIT          VALUE    DESCRIPTION
#----------   ------------   ------------------------------
 EKB .F         5185.0000:   Kelly bushing
 EGL .F         5172.0000:   Ground level
 TD  .F         2999.0000:   Total depth
 CLNT.            A2DTECH:   Client Code
 SL  . 465' FWL & 1075' FSL':   Surface Location
 DATE.        08-AUG-1969:   Date Logged [DD-MMM-YYYY]
 DD  .F              2998:   Depth driller
 DL  .F              2999:   Depth logger
 BLI .F              2998:   Bottom log interval
 TLI .F               615:   Top log interval
 CS1 .              10.75:   Casing size
 CBD1.      10.75" @ 615':   Casing driller 1
 CBL1.IN              615:   Casing logger 1
 BS1 .IN                9:   Bit size
 BSD1.F              2998:   Depth drilled with bit1
 DFT .      FRESH GEL MUD:   Type fluid in hole
 DFD .                9.6:   Density
 DFV .                 55:   Viscosity
 DFPH.                9.5:   pH
 DFL .                7.0:   Fluid loss
 MSS .           FLOWLINE:   Source of sample
 RMS .OHMM           0.75:   Rm
 MST .F                87:   Rm Meas. temp.
 RMF .OHMM           1.09:   Rmf
 MFST.F                87:   Rmf Meas. temp.
 MFSS.               MEAS:   Source Rmf.
 RMB .OHMM           0.59:   Rm. at BHT
 BHT .F               111:   BHT.
 TCS .HRS               3:   Time Circ. stopped
 MRT .F               111:   Maximum recorded temp.
 LUN .               4507:   Logging unit number
 LUL .               CSPR:   Logging unit location
 ENGI.            ED MIXA:   Recorded By
 WITN.                MAY:   Witnessed by
 ORIG.   1" 2.5" 5" PRINT:   Origin of data
 UWI .     49025100250000:   Unique Well ID
 DICO. A2D TECHNOLOGIES, INC.:   Digitizing Company
~OTHER INFORMATION
~A   DEPT      SPR        ASN        ILD       CORR        GRD       CALD       RHOB   
# ...
 1579.0000   -30.1153     8.9131     7.9571  -999.2500  -999.2500  -999.2500  -999.2500
 1579.5000   -30.1153     9.0339     7.9580  -999.2500  -999.2500  -999.2500  -999.2500
 1580.0000   -30.1153     9.1111     7.9808  -999.2500  -999.2500  -999.2500  -999.2500
 1580.5000   -30.1153     9.0588     8.1072  -999.2500  -999.2500  -999.2500  -999.2500
 1581.0000   -30.1153     8.9982     8.1821  -999.2500  -999.2500  -999.2500  -999.2500
 1581.5000   -30.1153     8.9037     8.2137  -999.2500  -999.2500  -999.2500  -999.2500
 1582.0000   -30.1153     8.8282     8.2574  -999.2500  -999.2500  -999.2500  -999.2500
 1582.5000   -30.1153     8.7608     8.2582  -999.2500  -999.2500  -999.2500  -999.2500
 1583.0000   -29.9712     8.6963     8.3654  -999.2500  -999.2500  -999.2500  -999.2500
 1583.5000   -29.9712     8.6519     8.4815  -999.2500  -999.2500  -999.2500  -999.2500
 1584.0000   -29.9712     8.6370     8.4823  -999.2500  -999.2500  -999.2500  -999.2500
 1584.5000   -29.9712     8.6519     8.5569  -999.2500  -999.2500  -999.2500  -999.2500
 1585.0000   -29.9712     8.7279     8.5577  -999.2500  -999.2500  -999.2500  -999.2500
 1585.5000   -29.9712     8.7809     8.5585  -999.2500  -999.2500  -999.2500  -999.2500
 1586.0000   -29.9712     8.8593     8.5592  -999.2500  -999.2500  -999.2500  -999.2500
 1586.5000   -29.9712     8.9464     8.5485  -999.2500  -999.2500  -999.2500  -999.2500
 1587.0000   -29.9712     9.0998     8.4867  -999.2500  -999.2500  -999.2500  -999.2500
 1587.5000   -29.9712     9.2000     8.4505  -999.2500  -999.2500  -999.2500  -999.2500
 1588.0000   -29.9712     9.2618     8.3275  -999.2500  -999.2500  -999.2500  -999.2500
 1588.5000   -29.9712     9.2889     8.1931  -999.2500  -999.2500  -999.2500  -999.2500
 1589.0000   -29.9712     9.2148     8.0814  -999.2500  -999.2500  -999.2500  -999.2500
 1589.5000   -30.1614     9.1438     7.9583  -999.2500  -999.2500  -999.2500  -999.2500
 1590.0000  -999.2500  -999.2500  -999.2500  -999.2500  -999.2500  -999.2500  -999.2500
 1590.5000   -30.6916     8.8661     7.9940  -999.2500  -999.2500  -999.2500  -999.2500
 1591.0000   -30.6916     8.7338     7.7014  -999.2500  -999.2500  -999.2500  -999.2500
 1591.5000   -30.8357     8.6592     7.6303  -999.2500  -999.2500  -999.2500  -999.2500
 1592.0000   -30.9798     8.5874     7.6338  -999.2500  -999.2500  -999.2500  -999.2500
 1592.5000   -30.9798     8.6175     7.7105  -999.2500  -999.2500  -999.2500  -999.2500
 1593.0000   -31.1239     8.6919     7.7140  -999.2500  -999.2500  -999.2500  -999.2500
 1593.5000   -31.1239     8.7811     7.7906  -999.2500  -999.2500  -999.2500  -999.2500
 1594.0000   -31.1239     8.8559     7.9412  -999.2500  -999.2500  -999.2500  -999.2500
 1594.5000   -31.1239     8.9301     7.9440  -999.2500  -999.2500  -999.2500  -999.2500
 1595.0000   -31.1239     8.9453     7.8729  -999.2500  -999.2500  -999.2500  -999.2500
 1595.5000   -31.1239     8.7983     7.7287  -999.2500  -999.2500  -999.2500  -999.2500
 1596.0000   -31.1239     8.6364     7.7315  -999.2500  -999.2500  -999.2500  -999.2500
 1596.5000   -31.1239     8.5040     7.7343  -999.2500  -999.2500  -999.2500  -999.2500
 1597.0000   -31.1239     8.4455     7.7371  -999.2500  -999.2500  -999.2500  -999.2500
 1597.5000   -31.1239     8.4462     7.7406  -999.2500  -999.2500  -999.2500  -999.2500
 1598.0000   -31.1239     8.4467     7.7434  -999.2500  -999.2500  -999.2500  -999.2500
 1598.5000   -31.1239     8.4621     7.7462  -999.2500  -999.2500  -999.2500  -999.2500
 1599.0000   -31.1239     8.4774     7.7490  -999.2500  -999.2500  -999.2500  -999.2500
 1599.5000   -31.1239     8.4632     7.7518  -999.2500  -999.2500  -999.2500  -999.2500
 1600.0000   -31.1239     8.4490     7.7553     0.0848    85.0173     9.3639     2.6033
 1600.5000   -31.1239     8.4497     7.7581     0.0871    86.4322     9.3324     2.5985
 1601.0000   -31.1239     8.4059     7.9086     0.0886    87.6454     9.3315     2.5855
 1601.5000   -31.1239     8.3917     7.9852     0.0898    88.8583     9.3612     2.5932
 1602.0000   -31.1239     8.3923     7.9887     0.0900    87.8123     9.3603     2.5933
 1602.5000   -31.0966     8.4226     7.9915     0.0875    85.9634     9.3593     2.5750
 1603.0000   -31.0898     8.4822     7.9943     0.0804    85.5535     9.3890     2.5713
 1603.5000   -31.0830     8.5566     7.9971     0.0724    86.9827     9.3863     2.5969
 1604.0000   -31.0760     8.6606     8.0000     0.0687    87.9777     9.3566     2.6002
 1604.5000   -31.0677     8.7520     8.0034     0.0691    87.7410     9.3557     2.5919
 1605.0000   -31.0609     8.8539     8.0801     0.0703    86.2796     9.3242     2.5939
 1605.5000   -31.0541     8.9135     8.0829     0.0731    84.4283     9.2927     2.6028
 1606.0000   -31.0473     8.9584     8.1595     0.0721    82.8052     9.2917     2.6101
 1606.5000   -31.1840     8.9885     8.2369     0.0655    81.5679     9.2908     2.6145
 1607.0000   -31.4641     9.0340     8.2397     0.0557    80.5650     9.2899     2.6129
 1607.5000   -31.6008     9.0636     8.1686     0.0481    84.6891     9.2889     2.5893
 1608.0000   -31.8792     9.0788     8.0237     0.0468    87.1272     9.2880     2.5775
 1608.5000   -32.0263     8.9909     7.9431     0.0508    87.8678     9.3178     2.5936
 1609.0000   -32.1526     8.8437     7.8077     0.0676    87.6127     9.3475     2.6157
 1609.5000   -31.7137     8.7261     7.7367     0.0863    88.0836     9.3771     2.6260
 1610.0000   -30.9895     8.6678     7.6656     0.0937    89.0544     9.4068     2.6127
 1610.5000   -30.5523     8.6534     7.7430     0.0950    89.4048     9.4365     2.5861
 1611.0000   -30.9742     8.6984     7.8203     0.0940    88.7787     9.4355     2.5830
 1611.5000   -31.3978     8.7581     7.8970     0.0913    87.5413     9.4404     2.6037
 1612.0000   -31.6797     8.8473     7.9736     0.0855    85.6921     9.4643     2.5668
 1612.5000   -32.1016     8.9514     8.0503     0.0764    83.9450     9.4633     2.5686
 1613.0000   -32.0948     8.9963     8.0532     0.0687    81.7369     9.4318     2.5746
 1613.5000   -32.5184     8.9377     8.0566     0.0601    80.1447     9.4309     2.5785
 1614.0000   -32.6551     8.7610     8.0594     0.0452    79.4291     9.4300     2.5646
 1614.5000   -32.7900     8.6287     8.1360     0.0311    81.7799     9.4291     2.5361
 1615.0000   -32.7832     8.5849     8.1388     0.0227    84.9133     9.4358     2.5413
 1615.5000   -32.7761     8.6299     8.1423     0.0190    87.0051     9.4579     2.5591
 1616.0000   -32.7679     8.6600     8.0706     0.0179    87.9511     9.4569     2.5600
 1616.5000   -32.6177     8.6754     8.0741     0.0192    88.8930     9.4644     2.5736
 1617.0000   -32.1805     8.6612     8.0769     0.0237    88.8808     9.4858     2.5979
 1617.5000   -31.8866     8.6455     8.0058     0.0307    88.8685     9.4847     2.6002
 1618.0000   -31.4478     8.5295     8.0093     0.0380    89.7452     9.4838     2.5786
 1618.5000   -31.1541     8.4267     8.0121     0.0368    90.0673     9.4829     2.5767
 1619.0000   -30.8603     8.3238     7.9403     0.0391    87.6573     9.4819     2.5882
 1619.5000   -30.5666     8.2358     7.8700     0.0432    85.4781     9.4810     2.5668
 1620.0000   -30.4161     8.2068     7.7989     0.0486    86.2795     9.4801     2.5447
 1620.5000   -30.5530     8.2666     7.8024     0.0557    88.7951     9.4792     2.5642
 1621.0000   -30.6879     8.2967     7.8052     0.0662    88.1712     9.4783     2.5881
 1621.5000   -30.8263     8.2234     7.8080     0.0705    87.2558     9.4774     2.5763
 1622.0000   -30.9613     8.1206     7.7370     0.0685    85.4067     9.4765     2.5895
 1622.5000   -31.2414     8.0615     7.7405     0.0610    86.2794     9.4641     2.5791
 1623.0000   -31.5199     7.9593     7.6687     0.0494    88.4199     9.4440     2.5496
 1623.5000   -31.6582     7.8417     7.5976     0.0412    90.2446     9.4312     2.5658
 1624.0000   -31.6497     7.7537     7.3757     0.0367    92.3711     9.4116     2.5704
