~VERSION INFORMATION
 VERS.                2.0:   CWLS LOG ASCII STANDARD - VERSION 2.0
 WRAP.                 NO:   ONE LINE PER DEPTH STEP
~WELL INFORMATION
#MNEM.UNIT      DATA TYPE    INFORMATION
#----------   ------------   ------------------------------
 STRT.F           29.5000:   START DEPTH
 STOP.F         2719.5000:   STOP DEPTH
 STEP.F            0.5000:   STEP LENGTH
 NULL.          -999.2500:   NO VALUE
 COMP.          INTEX OIL:   COMPANY
 WELL. INTEX NPR 3 "AX" #82-20:   WELL
 FLD .             TEAPOT:   FIELD
 LOC .      S20 T39N R78W:   LOCATION
 CNTY.            NATRONA:   COUNTY
 STAT.            WYOMING:   STATE
 CTRY. UNITED STATES OF AMERICA:   COUNTRY
 SRVC.       SCHLUMBERGER:   SERVICE COMPANY
 DATE.        19-MAY-1956:   LOGDATE
 API .     49025095270000:   API NUMBER
~CURVE INFORMATION
#MNEM.UNIT       API CODE    CURVE DESCRIPTION
#----------   ------------   ------------------------------
 DEPT.F                  :   
 CALD.IN     45 280 60 00:   CALIPER FROM DENSITY LOG
 GRD .GAPI   45 310 01 00:   GAMMA RAY FROM DENSITY LOG
 CORR.G/C3   45 356 01 00:   DENSITY CORRECTION
 RHOB.G/C3   45 350 01 00:   BULK DENSITY
 SPR .MV     05 010 01 00:   SPONTANEOUS POTENTIAL
 ILD .OHMM   05 120 46 00:   DEEP INDUCTION RESISTIVITY
 SN  .OHMM   05 040 00 00:   SHORT NORMAL
~PARAMETER INFORMATION
#MNEM.UNIT          VALUE    DESCRIPTION
#----------   ------------   ------------------------------
 EKB .F         5014.3000:   Kelly bushing
 EGL .F         5004.0000:   Ground level
 EDF .F            0.0000:   Drilling floor
 TD  .F         2717.0000:   Total depth
 DATE.        19-MAY-1956:   Date logged
 CLNT.            A2DTECH:   Client Code
 PD  .                 GL:   Permanent Datum
 EPD .F              5004:   Elevation Permanent Datum
 LMF .                 KB:   Log Measured From
 DMF .                 KB:   Drilling Measured From
 DAPD.F              10.3:   Feet Above Permanent Datum
 DD  .F              2717:   Depth driller
 DL  .F              2717:   Depth logger
 BLI .F              2716:   Bottom log interval
 TLI .F               100:   Top log interval
 CS1 .IN            10.75:   Casing size
 CBD1.       10.75" @ 30':   Casing driller 1
 BS1 .IN            7.875:   Bit size
 BSD1.F              2717:   Depth drilled with bit1
 DFT .        GEL/CAUSTIC:   Type fluid in hole
 DFD .                9.7:   Density
 DFV .                 35:   Viscosity
 DFPH.                7.6:   pH
 DFL .                8.8:   Fluid loss
 MSS .           FLOWLINE:   Source of sample
 RMS .OHMM           1.68:   Rm
 MST .F                58:   Rm Meas. temp.
 RMF .OHMM           1.17:   Rmf
 MFST.F                68:   Rmf Meas. temp.
 MFSS.                 FP:   Source Rmf.
 RMB .OHMM              1:   Rm. at BHT
 BHT .F               101:   BHT.
 TCS .HRS               4:   Time Circ. stopped
 MRT .F               101:   Maximum recorded temp.
 LUN .               4507:   Logging unit number
 LUL .               CSPR:   Logging unit location
 ENGI.            MANGOLD:   Recorded By
 WITN.             TUTTLE:   Witnessed by
 ORIG.           5" PRINT:   Origin of data
 UWI .     49025095270000:   Unique Well ID
 DICO. A2D TECHNOLOGIES, INC.:   Digitizing Company
~OTHER INFORMATION
~A   DEPT     CALD         GRD      CORR       RHOB        SPR        ILD         SN   
# ...
 1303.5000     8.9830    84.6940     0.0660     2.4860   -58.9430     7.3360     9.3530
 1304.0000     8.9900    82.7640     0.0510     2.4960   -58.7330     7.3900     9.4300
 1304.5000     8.9980    81.3610     0.0620     2.4760   -58.7470     7.4050     9.5340
 1305.0000     9.0050    82.1130     0.0580     2.4610   -58.7490     7.4050     9.5890
 1305.5000     9.0130    83.8480     0.0520     2.4710   -58.7500     7.4060     9.5710
 1306.0000     9.0200    88.9730     0.0660     2.4890   -58.8070     7.4060     9.4320
 1306.5000     9.0280    92.2340     0.0800     2.4870   -59.1730     7.4060     9.2910
 1307.0000     9.0360    90.0440     0.0930     2.4820   -59.5400     7.3940     9.1510
 1307.5000     9.0430    87.3600     0.0990     2.4770   -59.9060     7.3770     9.0100
 1308.0000     9.0520    86.2880     0.1010     2.4600   -60.2720     7.3590     8.8700
 1308.5000     9.0720    84.9490     0.1150     2.4440   -60.6380     7.3410     8.7310
 1309.0000     9.1380    84.6250     0.1350     2.4690   -61.0020     7.3230     8.5920
 1309.5000     9.2070    84.0460     0.1510     2.4560   -61.2760     7.3070     8.5010
 1310.0000     9.2710    85.4750     0.0940     2.4350   -60.8590     7.3030     8.5000
 1310.5000     9.1970    86.2610     0.0550     2.4800   -60.4300     7.2340     8.5100
 1311.0000     9.0870    85.8450     0.0670     2.5130   -60.0030     7.1650     8.7710
 1311.5000     8.9760    86.9400     0.0630     2.5190   -59.5760     7.0960     9.0340
 1312.0000     8.8650    88.2170     0.0560     2.5250   -59.1490     7.0270     9.2850
 1312.5000     8.7540    89.4870     0.0630     2.5310   -58.7440     6.9580     9.2930
 1313.0000     8.7370    90.7570     0.0760     2.5320   -58.4690     6.8890     9.1960
 1313.5000     8.7370    93.0970     0.0680     2.5270   -58.2050     6.8210     8.9990
 1314.0000     8.7370    96.8060     0.0650     2.5120   -57.9560     6.7510     8.8020
 1314.5000     8.7370   100.5240     0.0680     2.5040   -57.8610     6.6810     8.6070
 1315.0000     8.7370   101.2450     0.0710     2.4970   -57.7740     6.6170     8.5980
 1315.5000     8.7370    98.6900     0.0590     2.4900   -57.6860     6.7650     8.6030
 1316.0000     8.7370    96.1670     0.0430     2.4770   -57.5980     6.8920     8.7980
 1316.5000     8.7370    94.3340     0.0310     2.4640   -57.5550     7.0190     9.0100
 1317.0000     8.7370    92.3430     0.0430     2.4540   -57.5550     7.1450     9.2220
 1317.5000     8.7370    88.8670     0.0550     2.4730   -57.5550     7.2720     9.4330
 1318.0000     8.7380    85.6610     0.0730     2.4940   -57.5550     7.3970     9.6440
 1318.5000     8.7330    84.9090     0.0920     2.5150   -57.5550     7.5230     9.8550
 1319.0000     8.7180    85.2730     0.0980     2.5220   -57.5550     7.5370     9.9910
 1319.5000     8.7200    85.7840     0.0840     2.5080   -57.5550     7.3500     9.9880
 1320.0000     8.7270    86.5180     0.0660     2.4930   -57.5550     7.1660     9.7630
 1320.5000     8.7340    90.4390     0.0490     2.4780   -57.5550     6.9820     9.5020
 1321.0000     8.7410    94.4170     0.0460     2.4770   -57.5550     6.7970     9.2400
 1321.5000     8.7490    96.0990     0.0430     2.4890   -57.5550     6.6130     8.9780
 1322.0000     8.7560    94.0290     0.0510     2.5020   -57.5550     6.4290     8.7150
 1322.5000     8.7560    91.3260     0.0600     2.5150   -57.5550     6.2480     8.4510
 1323.0000     8.7560    89.4260     0.0680     2.5160   -57.5550     6.1630     8.4020
 1323.5000     8.7550    88.8100     0.0680     2.5110   -57.5540     6.3010     8.4000
 1324.0000     8.7540    88.7880     0.0720     2.5140   -57.5170     6.4150     8.4000
 1324.5000     8.7540    89.2210     0.0820     2.5200   -57.4740     6.5270     8.4000
 1325.0000     8.7530    91.5530     0.0870     2.5180   -57.4320     6.6390     8.3960
 1325.5000     8.7520    93.5410     0.0760     2.5110   -57.3900     6.7510     8.5490
 1326.0000     8.7520    91.6820     0.0710     2.5050   -57.3480     6.8640     8.7440
 1326.5000     8.7510    89.5010     0.0760     2.5470   -57.3050     6.9760     8.9400
 1327.0000     8.7500    91.1600     0.0860     2.5510   -57.2630     7.0890     9.1370
 1327.5000     8.7500    92.9930     0.0970     2.5480   -57.2210     7.2010     9.3330
 1328.0000     8.7490    94.1740     0.0860     2.5580   -57.1790     7.3120     9.5300
 1328.5000     8.7480    92.5210     0.0670     2.5380   -57.1360     7.4080     9.7330
 1329.0000     8.7480    91.2160     0.0610     2.5000   -57.0940     7.3870     9.7680
 1329.5000     8.7470    93.5910     0.0720     2.5010   -57.0520     7.2740     9.6520
 1330.0000     8.7460    95.4420     0.0790     2.5100   -57.0100     7.1610     9.5350
 1330.5000     8.7460    93.5900     0.0830     2.5170   -56.9670     7.0490     9.4170
 1331.0000     8.7450    91.2430     0.0750     2.5240   -56.9570     6.9360     9.2990
 1331.5000     8.7440    91.5210     0.0810     2.5380   -57.0280     6.8240     9.1810
 1332.0000     8.7440    92.5860     0.0890     2.5500   -57.1150     6.7120     9.0620
 1332.5000     8.7430    94.0630     0.0900     2.5450   -57.2020     6.6120     8.9440
 1333.0000     8.7420    96.3390     0.0850     2.5390   -57.2890     6.6100     8.8260
 1333.5000     8.7420    99.0650     0.0800     2.5320   -57.3600     6.6140     8.7080
 1334.0000     8.7410    97.3180     0.0880     2.5510   -57.2440     6.6900     8.6010
 1334.5000     8.7400    95.1360     0.1000     2.5450   -57.0970     6.7640     8.6010
 1335.0000     8.7400    94.8630     0.0940     2.5370   -56.9490     6.8380     8.6500
 1335.5000     8.7390    93.8660     0.0820     2.5290   -56.8020     6.9050     8.7000
 1336.0000     8.7380    92.8710     0.0700     2.5210   -56.6540     6.8660     8.7490
 1336.5000     8.7380    92.0710     0.0660     2.5200   -56.5060     6.8250     8.7980
 1337.0000     8.7370    94.8540     0.0760     2.5310   -56.3580     6.7840     8.8470
 1337.5000     8.7360    97.8280     0.0850     2.5340   -56.2050     6.7430     8.8950
 1338.0000     8.7350   100.8280     0.0780     2.5220   -56.1880     6.7020     8.8950
 1338.5000     8.7340   100.9330     0.0760     2.5200   -56.2190     6.6610     8.8410
 1339.0000     8.7330    98.9150     0.0720     2.5100   -56.2510     6.6200     8.7850
 1339.5000     8.7320    99.2220     0.0570     2.4950   -56.2840     6.5790     8.7280
 1340.0000     8.7300    99.5250     0.0410     2.4670   -56.3170     6.5380     8.6720
 1340.5000     8.7290    99.2080     0.0460     2.4790   -56.3500     6.4970     8.6160
 1341.0000     8.7280    97.3180     0.0560     2.5070   -56.3830     6.4560     8.5580
 1341.5000     8.7270    95.1070     0.0600     2.4950   -56.4160     6.4150     8.5040
 1342.0000     8.7260    92.5800     0.0600     2.4870   -56.4490     6.4840     8.6500
 1342.5000     8.7250    90.9050     0.0600     2.5060   -56.4810     6.5630     8.7770
 1343.0000     8.7240    91.3860     0.0640     2.5110   -56.5140     6.6410     8.9040
 1343.5000     8.7230    88.9460     0.0680     2.5060   -56.5470     6.7200     9.0300
 1344.0000     8.7220    87.2320     0.0690     2.5020   -56.5600     6.7990     9.1570
 1344.5000     8.7200    92.6720     0.0680     2.5090   -56.5600     6.8770     9.2830
 1345.0000     8.7190    95.6670     0.0710     2.5150   -56.5610     6.9550     9.4090
 1345.5000     8.7180    95.3220     0.0740     2.5220   -56.5610     7.0080     9.4940
 1346.0000     8.7170    94.7970     0.0780     2.5260   -56.5610     6.9880     9.4960
 1346.5000     8.7170    94.2640     0.0760     2.4970   -56.5610     6.9200     9.3770
 1347.0000     8.7160    94.4170     0.0660     2.5110   -56.5580     6.8550     9.2410
 1347.5000     8.7150    94.9310     0.0740     2.5030   -56.4960     6.7890     9.1040
 1348.0000     8.7140    97.3960     0.0630     2.4950   -56.4330     6.7240     8.9650
 1348.5000     8.7130   100.8570     0.0850     2.5180   -56.3710     6.6580     8.8200
