~VERSION INFORMATION
 VERS.                2.0:   CWLS LOG ASCII STANDARD - VERSION 2.0
 WRAP.                 NO:   ONE LINE PER DEPTH STEP
~WELL INFORMATION
#MNEM.UNIT      DATA TYPE    INFORMATION
#----------   ------------   ------------------------------
 STRT.F           85.5000:   START DEPTH
 STOP.F         2750.0000:   STOP DEPTH
 STEP.F            0.5000:   STEP LENGTH
 NULL.          -999.2500:   NO VALUE
 COMP.          INTEX OIL:   COMPANY
 WELL. INTEX NPR 3 "AX" #74-20:   WELL
 FLD .             TEAPOT:   FIELD
 LOC .      S20 T39N R78W:   LOCATION
 CNTY.            NATRONA:   COUNTY
 STAT.            WYOMING:   STATE
 CTRY. UNITED STATES OF AMERICA:   COUNTRY
 SRVC.       SCHLUMBERGER:   SERVICE COMPANY
 DATE.        08-MAY-1966:   LOGDATE
 API .     49025095210000:   API NUMBER
~CURVE INFORMATION
#MNEM.UNIT       API CODE    CURVE DESCRIPTION
#----------   ------------   ------------------------------
 DEPT.F                  :   
 CALD.IN     45 280 60 00:   CALIPER FROM DENSITY LOG
 GRD .GAPI   45 310 01 00:   GAMMA RAY FROM DENSITY LOG
 RHOB.G/C3   45 350 01 00:   BULK DENSITY
 CORR.G/C3   45 356 01 00:   DENSITY CORRECTION
 SPR .MV     05 010 01 00:   SPONTANEOUS POTENTIAL FROM RES.
 ILD .OHMM   05 120 46 00:   INDUCTION LOG DEEP
 SN  .OHMM   05 040 00 00:   SHORT NORMAL
~PARAMETER INFORMATION
#MNEM.UNIT          VALUE    DESCRIPTION
#----------   ------------   ------------------------------
 EKB .F         5018.3000:   Kelly bushing
 EGL .F         5008.0000:   Ground level
 EDF .F            0.0000:   Drilling floor
 EPD .F         5008.0000:   Permanent datum
 TD  .F         2750.0000:   Total depth
 DATE.        08-MAY-1966:   Date logged
 CLNT.            A2DTECH:   Client Code
 DAPD.F              10.3:   Feet Above Permanent Datum
 DD  .F              2750:   Depth driller
 DL  .F              2749:   Depth logger
 BLI .F              2748:   Bottom log interval
 TLI .F                87:   Top log interval
 CS1 .IN            10.75:   Casing size
 CBD1.       10.75" @ 30':   Casing driller 1
 BS1 .IN            7.875:   Bit size
 BSD1.F              2750:   Depth drilled with bit1
 DFT .           OIL EMUL:   Type fluid in hole
 DFD .               10.1:   Density
 DFV .                 54:   Viscosity
 MSS .         CIRCULATED:   Source of sample
 RMS .OHMM           1.90:   Rm
 MST .F                72:   Rm Meas. temp.
 RMF .OHMM           1.15:   Rmf
 MFST.F                72:   Rmf Meas. temp.
 MFSS.                 FP:   Source Rmf.
 RMB .OHMM           1.23:   Rm. at BHT
 BHT .F               111:   BHT.
 TCS .HRS             1.5:   Time Circ. stopped
 MRT .F               111:   Maximum recorded temp.
 LUN .               4507:   Logging unit number
 LUL .               CSPR:   Logging unit location
 ENGI.               HAUG:   Recorded By
 WITN.             TUTTLE:   Witnessed by
 ORIG.        2" 5" PRINT:   Origin of data
 UWI .     49025095210000:   Unique Well ID
 DICO. A2D TECHNOLOGIES, INC.:   Digitizing Company
~OTHER INFORMATION
~A   DEPT     CALD        GRD       RHOB       CORR        SPR        ILD         SN   
# ...
 2087.5000     9.2160    98.6900     2.5740     0.0070   -57.6710     5.6600     7.7790
 2088.0000     9.2180    97.7180     2.5640     0.0140   -57.6280     5.5120     7.8300
 2088.5000     9.2200    96.8830     2.5700     0.0300   -57.5010     5.3540     7.8910
 2089.0000     9.2220   100.0200     2.5780     0.0470   -57.3780     5.2070     7.9410
 2089.5000     9.2240   102.7760     2.5870     0.0460   -57.2550     5.0490     7.9810
 2090.0000     9.2260   100.9200     2.5890     0.0400   -57.1300     4.9900     7.7050
 2090.5000     9.2280    99.6210     2.5860     0.0340   -57.0070     4.9330     7.3680
 2091.0000     9.2300   100.8780     2.5940     0.0360   -56.8930     4.8800     7.0310
 2091.5000     9.2320   100.2910     2.6030     0.0380   -56.8430     4.8240     6.6560
 2092.0000     9.2340   105.1720     2.5980     0.0400   -56.7970     4.7690     6.8080
 2092.5000     9.2360   109.2100     2.5890     0.0330   -56.7530     4.7150     6.9940
 2093.0000     9.2380   107.0490     2.5790     0.0220   -56.7070     4.6600     7.0740
 2093.5000     9.2400   103.8340     2.5850     0.0190   -56.6620     4.6450     7.2240
 2094.0000     9.2420   100.7230     2.5890     0.0230   -56.6170     4.6460     7.0480
 2094.5000     9.2440   100.9150     2.5710     0.0180   -56.5740     4.6440     6.7000
 2095.0000     9.2460   103.7700     2.5530     0.0180   -56.5220     4.6510     6.4240
 2095.5000     9.2480   106.1740     2.5730     0.0280   -56.5140     4.6340     6.5620
 2096.0000     9.2430   113.7950     2.6070     0.0370   -56.5800     4.7720     6.9450
 2096.5000     9.2380   118.2460     2.6220     0.0360   -56.6400     5.0370     7.3270
 2097.0000     9.2320   117.0160     2.6080     0.0310   -56.7020     5.2810     7.7040
 2097.5000     9.2270   115.7950     2.6090     0.0410   -56.7650     5.5280     8.0880
 2098.0000     9.2220   110.0070     2.6010     0.0430   -56.8250     5.7760     8.4300
 2098.5000     9.2160   104.3850     2.5850     0.0310   -56.8830     6.0270     8.6110
 2099.0000     9.2110    97.7230     2.5780     0.0240   -56.8560     6.2190     8.5880
 2099.5000     9.2060    96.0250     2.5900     0.0270   -56.8240     6.2370     8.5980
 2100.0000     9.2010    95.1910     2.5810     0.0230   -56.7890     6.2630     8.5950
 2100.5000     9.1950    96.7770     2.6010     0.0330   -56.7570     6.2800     8.5980
 2101.0000     9.1900   100.0810     2.5990     0.0390   -56.7240     6.3020     8.5920
 2101.5000     9.1850   103.1140     2.6090     0.0470   -56.6900     6.3220     8.6500
 2102.0000     9.1790   105.1710     2.6050     0.0500   -56.6570     6.3440     8.8010
 2102.5000     9.1740   102.7480     2.6020     0.0420   -56.6240     6.3630     8.9430
 2103.0000     9.1690   101.8010     2.6080     0.0460   -56.5910     6.3850     9.1040
 2103.5000     9.1640   105.7540     2.6000     0.0410   -56.5570     6.4050     9.1940
 2104.0000     9.1580   107.1240     2.5850     0.0330   -56.5240     6.4170     9.1280
 2104.5000     9.1530   104.7100     2.6050     0.0370   -56.4910     6.3560     9.0710
 2105.0000     9.1480   108.3950     2.5960     0.0310   -56.4570     6.3010     9.0080
 2105.5000     9.1430   105.3350     2.5940     0.0220   -56.4240     6.2410     8.9480
 2106.0000     9.1370   105.8040     2.6070     0.0270   -56.3910     6.1850     8.8880
 2106.5000     9.1320   107.5270     2.6010     0.0350   -56.3570     6.1280     8.8260
 2107.0000     9.1300   109.3270     2.5730     0.0230   -56.3240     6.0670     8.7650
 2107.5000     9.1300   108.3250     2.5610     0.0270   -56.2910     6.0440     8.7050
 2108.0000     9.1300   105.0520     2.5730     0.0390   -56.2570     6.0990     8.6370
 2108.5000     9.1300   102.0400     2.5970     0.0420   -56.2240     6.1520     8.6570
 2109.0000     9.1300   102.0240     2.5790     0.0350   -56.1910     6.2070     8.8770
 2109.5000     9.1300   101.1080     2.5800     0.0400   -56.1570     6.2610     9.0850
 2110.0000     9.1300   101.8470     2.5800     0.0290   -56.1240     6.3160     9.3140
 2110.5000     9.1300   104.0330     2.5650     0.0180   -56.0910     6.3690     9.3650
 2111.0000     9.1300   106.2850     2.5560     0.0100   -56.0570     6.4190     9.2460
 2111.5000     9.1300   103.7420     2.5720     0.0270   -56.0240     6.4220     9.1340
 2112.0000     9.1300   102.1030     2.5800     0.0360   -55.9910     6.4230     9.0250
 2112.5000     9.1300   103.6400     2.5950     0.0560   -55.9570     6.4220     8.9050
 2113.0000     9.1300   105.1260     2.6200     0.0710   -55.9240     6.4230     8.8010
 2113.5000     9.1300   106.2420     2.6150     0.0620   -55.8910     6.4220     8.8450
 2114.0000     9.1300   104.4590     2.6030     0.0460   -55.8570     6.4220     9.3910
 2114.5000     9.1300   101.6360     2.5950     0.0290   -55.8240     6.4230     9.7580
 2115.0000     9.1300    98.6050     2.5810     0.0210   -55.7910     6.4210     9.7850
 2115.5000     9.1300    97.2900     2.5650     0.0190   -55.7580     6.4210     9.7770
 2116.0000     9.1300    97.1840     2.5770     0.0320   -55.7230     6.3510     9.7620
 2116.5000     9.1300    98.2680     2.5900     0.0340   -55.7080     6.2510     9.2850
 2117.0000     9.1300    99.2330     2.5780     0.0230   -55.7090     6.1530     8.9210
 2117.5000     9.1300   100.2980     2.5690     0.0090   -55.7090     6.0550     8.8180
 2118.0000     9.1300   103.7730     2.5620     0.0140   -55.7090     5.9570     8.6740
 2118.5000     9.1320   107.4870     2.5760     0.0300   -55.7090     5.8620     8.5380
 2119.0000     9.1380   109.7740     2.5780     0.0340   -55.7090     5.8040     8.4060
 2119.5000     9.1440   111.4810     2.5690     0.0280   -55.7090     5.7660     8.2640
 2120.0000     9.1500   109.8080     2.5570     0.0240   -55.7090     5.7290     8.1320
 2120.5000     9.1560   105.0640     2.5620     0.0210   -55.7090     5.6880     8.0210
 2121.0000     9.1620   104.2170     2.5790     0.0410   -55.7090     5.6580     8.1560
 2121.5000     9.1680   106.2880     2.5940     0.0490   -55.7090     5.5510     8.2970
 2122.0000     9.1740   105.0780     2.5950     0.0430   -55.7090     5.3340     8.3480
 2122.5000     9.1800   102.2400     2.5830     0.0320   -55.7090     5.2290     8.1490
 2123.0000     9.1850    99.2630     2.5570     0.0220   -55.7090     5.2410     7.9600
 2123.5000     9.1910   100.4350     2.5420     0.0160   -55.7090     5.2350     7.7600
 2124.0000     9.1970   102.2820     2.5550     0.0200   -55.7090     5.2370     7.5670
 2124.5000     9.2030   104.2450     2.5570     0.0290   -55.7080     5.2380     7.3670
 2125.0000     9.2090   104.9010     2.5700     0.0400   -55.7090     5.2320     7.2080
 2125.5000     9.2150   104.2480     2.5630     0.0350   -55.6970     5.2470     7.1150
 2126.0000     9.2210   102.7390     2.5520     0.0240   -55.6650     5.1170     7.0330
 2126.5000     9.2270   101.3240     2.5500     0.0230   -55.6360     4.8750     6.9500
 2127.0000     9.2330    99.7990     2.5570     0.0270   -55.6050     4.6550     6.8730
 2127.5000     9.2380    97.6000     2.5800     0.0350   -55.5740     4.4310     6.7100
 2128.0000     9.2450    95.0270     2.5720     0.0420   -55.5440     4.2060     6.4160
 2128.5000     9.2480    97.0440     2.5650     0.0490   -55.5130     3.9820     6.1240
 2129.0000     9.2440    99.0710     2.5610     0.0510   -55.4830     3.7600     5.8290
 2129.5000     9.2400   101.0010     2.5450     0.0390   -55.4530     3.5320     5.5430
 2130.0000     9.2350   102.9220     2.5500     0.0410   -55.4220     3.3120     5.2180
 2130.5000     9.2310   104.9810     2.5600     0.0410   -55.3910     3.0840     5.0450
 2131.0000     9.2270   109.7840     2.5620     0.0350   -55.3610     3.0780     5.1360
 2131.5000     9.2230   114.6050     2.5560     0.0280   -55.3300     3.2160     5.1900
 2132.0000     9.2190   117.1940     2.5540     0.0210   -55.3030     3.3510     5.2590
 2132.5000     9.2140   111.5760     2.5350     0.0170   -55.2800     3.4880     5.3250
