~VERSION INFORMATION
 VERS.                2.0:   CWLS LOG ASCII STANDARD - VERSION 2.0
 WRAP.                 NO:   ONE LINE PER DEPTH STEP
~WELL INFORMATION
#MNEM.UNIT      DATA TYPE    INFORMATION
#----------   ------------   ------------------------------
 STRT.F           10.0000:   START DEPTH
 STOP.F         5812.0000:   STOP DEPTH
 STEP.F            0.5000:   STEP LENGTH
 NULL.          -999.2500:   NO VALUE
 COMP. LAWRENCE - ALLSISON:   COMPANY
 WELL. LAWRENCE "X" #11-11:   WELL
 FLD .              NPR 3:   FIELD
 LOC .      S11 T38N R78W:   LOCATION
 CNTY.            NATRONA:   COUNTY
 STAT.            WYOMING:   STATE
 CTRY. UNITED STATES OF AMERICA:   COUNTRY
 SRVC.      DRESSER ATLAS:   SERVICE COMPANY
 DATE.        12-NOV-1982:   LOGDATE
 API .     49025109160000:   API NUMBER
~CURVE INFORMATION
#MNEM.UNIT       API CODE    CURVE DESCRIPTION
#----------   ------------   ------------------------------
 DEPT.F                  :   
 TEND.LBS    45 635 01 00:   TENSION FROM DENSITY LOG
 CALD.IN     45 280 60 00:   CALIPER FROM DENSITY LOG
 CORR.G/C3   45 356 01 00:   DENSITY CORRECTION
 RHOB.G/C3   45 350 01 00:   BULK DENSITY
 CN  .DEC    42 890 03 00:   COMPENSATED NEUTRON POROSITY SANDSTONE
 AC  .US/F   60 520 00 00:   ACOUSTIC
 TENS.LBS    60 635 01 00:   TENSION FROM SONIC
 GRR .GAPI   11 310 01 00:   GAMMA RAY FROM RESISTIVITY
 RD  .OHMM   11 220 10 00:   RESISTIVITY DEEP
 RMLL.OHMM   11 270 04 00:   RESISTIVITY MICROLATEROLOG
 RS  .OHMM   11 220 09 00:   RESISTIVITY SHALLOW
 SPR .MV     11 010 01 00:   SPONTANEOUS POTENTIAL FROM RESISTIVITY
 TENR.LBS    11 635 01 00:   TENSION FROM RESISTIVITY
~PARAMETER INFORMATION
#MNEM.UNIT          VALUE    DESCRIPTION
#----------   ------------   ------------------------------
 EKB .F         5160.0000:   Kelly bushing
 EGL .F         5150.0000:   Ground level
 EDF .F            0.0000:   Drilling floor
 TD  .F         5800.0000:   Total depth
 CLNT.            A2DTECH:   Client Code
 SL  . 660' FNL & 660' FWL:   Surface Location
 PD  .                 GL:   Permanent Datum
 EPD .F              5150:   Elevation Permanent Datum
 LMF .                 KB:   Log Measured From
 DMF .                 KB:   Drilling Measured From
 DAPD.F                10:   Feet Above Permanent Datum
 DATE.        12-NOV-1982:   Date Logged [DD-MMM-YYYY]
 DD  .F              5800:   Depth driller
 DL  .F              5795:   Depth logger
 BLI .F              5702:   Bottom log interval
 TLI .F                 0:   Top log interval
 CS1 .IN            9.625:   Casing size
 CBD1.      9.625" @ 664':   Casing driller 1
 CBL1.F               660:   Casing logger 1
 BS1 .IN             8.75:   Bit size
 BSD1.F              5800:   Depth drilled with bit1
 DFT .                KCL:   Type fluid in hole
 DFD .                8.6:   Density
 DFV .                 45:   Viscosity
 DFPH.                8.5:   pH
 DFL .                7.8:   Fluid loss
 MSS .           FLOWLINE:   Source of sample
 RMS .OHMM           0.32:   Rm
 MST .F                92:   Rm Meas. temp.
 RMF .OHMM           0.26:   Rmf
 MFST.F                90:   Rmf Meas. temp.
 MFSS.               MEAS:   Source Rmf.
 RMB .OHMM           0.19:   Rm. at BHT
 BHT .F               160:   BHT.
 TCS .HRS               3:   Time Circ. stopped
 MRT .F               160:   Maximum recorded temp.
 LUN .               6270:   Logging unit number
 LUL .              WLSTN:   Logging unit location
 ENGI.            QUICKEL:   Recorded By
 WITN.             STRONG:   Witnessed by
 ORIG.        2" 5" PRINT:   Origin of data
 UWI .     49025109160000:   Unique Well ID
 DICO. A2D TECHNIOLOGIES,INC.:   Digitizing Company
 RMC .OHMM           0.40:   Rmc
 MCST.F                92:   Rmc Meas. temp.
 MCSS.               CALC:   Source Rmc.
~OTHER INFORMATION
~A  DEPTH     TEND       CALD       CORR       RHOB         CN         AC       TENS        GRR         RD       RMLL         RS        SPR       TENR
# ...
 4404.0000   -57.7825     9.5545    -0.0334     2.5659     0.2340    83.5453   -44.8695    95.9986     6.6972     7.0497     6.9747   -47.3870   -57.2413
 4404.5000   -61.4031     9.5542    -0.0109     2.5666     0.2388    84.3486   -44.5783    98.0889     6.3311     6.8514     6.6392   -47.5495   -61.3768
 4405.0000   -65.0555     9.5388     0.0026     2.5711     0.2458    85.1062   -44.2870    92.9720     6.0685     6.4705     6.4081   -47.4078   -61.7469
 4405.5000   -64.8960     9.5385     0.0115     2.5756     0.2595    86.0899   -43.9940    91.1584     5.9389     6.2075     6.2281   -47.4226   -69.6537
 4406.0000   -68.5166     9.5381     0.0144     2.5763     0.2624    86.5461   -43.6937    90.8463     5.8524     6.2892     6.0531   -47.4344   -65.7700
 4406.5000   -68.3845     9.5377     0.0079     2.5771     0.2597    86.6255   -43.3933    90.2338     5.8073     6.4607     5.8831   -47.4463   -62.8579
 4407.0000   -68.2296     9.5385    -0.0143     2.5770     0.2516    86.6295   -43.0488    89.9217     5.8441     6.6355     5.8787   -47.4582   -63.3209
 4407.5000   -68.1020     9.5381    -0.0250     2.5770     0.2477    86.6336   -39.0038    88.7087     5.7978     6.7240     5.8742   -47.3194   -63.6913
 4408.0000   -67.9745     9.5229    -0.0175     2.5770     0.2576    86.5682   -34.9588    88.7372     5.6348     6.6247     5.8698   -47.1807   -60.2039
 4408.5000   -64.0987     9.5226    -0.0161     2.5784     0.2676    87.1003   -34.6847    91.4684     5.5145     6.3939     5.8644   -47.3434   -64.4319
 4409.0000   -63.9711     9.5073    -0.0252     2.5844     0.2872    87.7131   -34.3843    94.3760     5.4719     6.1711     5.9418   -47.3763   -64.7591
 4409.5000   -63.8436     9.5220    -0.0360     2.5919     0.2770    87.8637   -34.0841    95.8657     5.4674     6.0391     5.9787   -47.8216   -65.1725
 4410.0000   -67.4663     9.5216    -0.0434     2.5979     0.2475    87.7163   -30.0300    96.7577     5.4731     6.0774     6.0169   -47.9841   -65.5429
 4410.5000   -67.3351     9.5214    -0.0074     2.5971     0.2415    87.4200   -29.6756    96.7430     5.6119     6.0712     5.9285   -48.4478   -65.9134
 4411.0000   -67.2039     9.5360     0.0271     2.5948     0.2442    87.4998   -29.3844    94.9294     5.6855     6.0663     5.7620   -48.6102   -66.2835
 4411.5000   -63.3015     9.5357     0.0346     2.5888     0.2569    87.8810   -29.0928    93.1157     5.4486     6.0613     5.6391   -49.0739   -66.6539
 4412.0000   -59.4257     9.5503     0.0240     2.5827     0.2416    88.5706   -32.6281    91.9027     5.3692     5.9279     5.5188   -49.0858   -67.0244
 4412.5000   -66.7944     9.5650     0.0056     2.5810     0.2428    89.5487   -36.0178    94.2933     5.2911     5.8858     5.4387   -49.3988   -67.3947
 4413.0000   -70.4468     9.5647    -0.0018     2.5842     0.2481    90.3821   -39.4894    99.6869     5.2867     5.7990     5.3598   -49.5613   -64.0060
 4413.5000   -74.0674     9.5644     0.0388     2.5826     0.2630    90.4618   -42.9428   100.8763     5.1738     5.7145     5.2820   -49.4196   -64.3825
 4414.0000   -73.9080     9.5641     0.0462     2.5728     0.2877    90.3897   -38.8890    99.6633     5.2055     5.6324     5.2780   -49.1302   -64.8330
 4414.5000   -70.0323     9.5638     0.0401     2.5645     0.2787    90.2445   -38.5334    96.6485     5.2374     5.7848     5.3108   -49.1451   -68.9685
 4415.0000   -69.9026     9.5635     0.0310     2.5675     0.2667    90.2489   -38.2883    94.2342     5.2331     5.8608     5.3067   -49.0060   -69.3390
 4415.5000   -69.7452     9.5632     0.0185     2.5705     0.2722    90.4040   -37.9879    93.9221     5.2289     5.8156     5.2660   -48.8675   -69.7091
 4416.0000   -69.6176     9.5629    -0.0068     2.5735     0.2725    90.7870   -37.6596    96.3933     5.1527     5.6913     5.2612   -48.7288   -70.0795
 4416.5000   -65.7420     9.5626    -0.0144     2.5773     0.2713    91.4971   -37.3683    98.4000     5.1129     5.6866     5.1849   -48.7410   -66.5920
 4417.0000   -58.1181     9.5623     0.0216     2.5809     0.2731    92.0008   -37.0768    99.2891     5.0329     5.8013     5.0392   -48.7530   -67.0180
 4417.5000   -54.2425     9.5620     0.0291     2.5832     0.2783    92.4574   -36.7868    99.2773     4.9299     5.7966     5.0355   -48.7674   -67.4255
 4418.0000   -54.1149     9.5617     0.0275     2.5831     0.2973    93.1400   -36.4865   100.4697     4.8246     5.4795     4.9969   -48.7792   -67.7959
 4418.5000   -57.7354     9.5315     0.0134     2.5831     0.2964    93.8226   -36.1302   101.6590     4.8207     5.1405     4.9587   -48.6375   -71.9311
 4419.0000   -61.3560     9.5312    -0.0058     2.5831     0.2943    94.0531   -35.8389    99.8425     4.8168     4.9950     4.9549   -48.6506   -76.0666
 4419.5000   -61.2256     9.5309    -0.0029     2.5823     0.2907    94.2835   -35.5856    98.9297     4.8128     5.1345     4.9512   -48.6642   -78.4402
 4420.0000   -61.0690     9.5157     0.0001     2.5710     0.2745    95.0415   -35.2853    98.6206     4.8760     5.2745     4.9475   -48.6761   -76.8072
 4420.5000   -60.9413     9.5154    -0.0090     2.5657     0.2733    95.8068   -34.9849   103.4106     4.9069     5.4184     4.9782   -48.5344   -73.4126
 4421.0000   -60.8139     9.5001    -0.0031     2.5702     0.2762    96.2805   -34.6847   106.4018     4.9369     5.4906     5.0092   -48.5492   -73.7951
 4421.5000   -64.4663     9.5148     0.0294     2.5784     0.2854    96.4111   -34.3844   108.7924     5.0007     5.6003     5.1106   -48.5611   -70.4806
 4422.0000   -64.3067     9.5145     0.0991     2.5851     0.2975    95.2109   -34.0840   107.2791     5.0664     5.5957     5.1423   -48.5729   -70.8511
 4422.5000   -64.1793     9.5142     0.0764     2.5911     0.2884    94.3864   -37.5533   104.5646     5.0622     5.5525     5.1383   -48.7354   -71.2215
 4423.0000   -67.7998     9.5139     0.0417     2.5943     0.2870    93.9386   -37.1892   102.3897     4.9870     5.4338     5.0629   -48.7472   -75.3567
 4423.5000   -75.1687     9.5286     0.0236     2.5963     0.2933    94.0937   -40.7245    99.9574     4.9157     5.2445     4.9894   -48.7591   -75.7271
 4424.0000   -67.5412     9.5283     0.0355     2.5971     0.3081    94.0981   -40.3905    99.1208     4.8441     5.1324     4.9857   -48.7711   -76.0976
 4424.5000   -63.6371     9.5279     0.0539     2.5993     0.3060    94.1779   -40.0689    99.1089     4.7728     5.0928     4.9819   -48.7831   -71.5354
 4425.0000   -63.5095     9.5277     0.0715     2.6023     0.2948    94.0253   -43.5313    98.4965     4.7359     5.1955     4.9438   -48.7952   -61.7779
 4425.5000   -63.3819     9.5573     0.0804     2.6045     0.2934    93.7356   -46.9971    97.8841     4.7321     5.3003     4.9754   -48.9601   -58.3829
 4426.0000   -63.2544     9.5569     0.0743     2.5998     0.2940    93.2879   -54.2101    98.1726     4.7621     5.3808     4.9708   -49.4238   -54.8958
 4426.5000   -63.1268     9.5566     0.0622     2.5909     0.2865    92.7648   -53.8460    99.0646     4.8918     5.5922     5.0374   -49.5862   -60.1986
 4427.0000   -59.2510     9.5563     0.0456     2.5848     0.2841    92.2416   -53.5544    99.6505     4.9560     5.7447     5.1039   -49.5981   -63.2590
 4427.5000   -59.1235     9.5560     0.0255     2.5743     0.2887    91.6432   -53.2632    99.0380     5.0210     5.8606     5.1705   -49.6100   -63.6295
 4428.0000   -58.9955     9.5558    -0.0133     2.5667     0.2899    91.1943   -52.9719    97.5247     5.1212     5.8977     5.2387   -49.4683   -67.7712
 4428.5000   -62.6165     9.5555    -0.0465     2.5651     0.2865    91.4259   -56.5072    96.0114     5.1884     5.9339     5.2347   -49.4831   -68.1476
 4429.0000   -61.1566     9.5551    -0.0556     2.5697     0.2806    91.6564   -56.1562    94.7984     5.2203     5.9278     5.2307   -49.1908   -68.8982
 4429.5000   -58.6026     9.5548    -0.0512     2.5719     0.2846    91.8204   -55.8516    94.1860     5.1799     5.9230     5.1860   -49.0520   -72.6411
