~VERSION INFORMATION
 VERS.                2.0:   CWLS LOG ASCII STANDARD - VERSION 2.0
 WRAP.                 NO:   ONE LINE PER DEPTH STEP
~WELL INFORMATION
#MNEM.UNIT      DATA TYPE    INFORMATION
#----------   ------------   ------------------------------
 STRT.F           10.0000:   START DEPTH
 STOP.F         4008.0000:   STOP DEPTH
 STEP.F            0.5000:   STEP LENGTH
 NULL.          -999.2500:   NO VALUE
 COMP. LAWRENCE ALLISON & ASSOC.:   COMPANY
 WELL. LAWRENCE NPR 3 "AX" #75-28:   WELL
 FLD .                NPR:   FIELD
 LOC .      S28 T39N R78W:   LOCATION
 CNTY.            NATRONA:   COUNTY
 STAT.            WYOMING:   STATE
 CTRY. UNITED STATES OF AMERICA:   COUNTRY
 SRVC.      DRESSER ATLAS:   SERVICE COMPANY
 DATE.        28-APR-1983:   LOGDATE
 API .     49025109060000:   API NUMBER
~CURVE INFORMATION
#MNEM.UNIT       API CODE    CURVE DESCRIPTION
#----------   ------------   ------------------------------
 DEPT.F                  :   
 RHOB.G/C3   45 350 01 00:   BULK DENSITY
 CORR.G/C3   45 356 01 00:   DENSITY CORRECTION
 TEND.LBS    45 635 01 00:   TENSION FROM DENSITY LOG
 NPHI.DEC    42 890 03 00:   NEUTRON POROSITY SANDSTONE
 GRR .GAPI   07 310 01 00:   GAMMA RAY FROM RESISTIVITY
 CALR.IN     07 280 01 00:   CALIPER FROM RESISTIVITY
 RFOC.OHMM   07 220 01 00:   RESISTIVITY FOCUSED LOG RES.
 RILD.OHMM   07 120 46 00:   DEEP INDUCTION RESISTIVITY
 TENR.LBS    01 635 01 00:   TENSION FROM RES.
 RILM.OHMM   07 120 44 00:   INDUCTION LOG MEDIUM RESISTIVITY
 TENS.LBS    60 635 01 00:   TENSION FROM SONIC LOG
 DT  .US/F   60 520 00 00:   DELTA TIME
 SPR .MV     07 010 01 00:   SPONTANEOUS POTENTIAL
~PARAMETER INFORMATION
#MNEM.UNIT          VALUE    DESCRIPTION
#----------   ------------   ------------------------------
 EKB .F         5068.0000:   Kelly bushing
 EGL .F         5058.0000:   Ground level
 EDF .F            0.0000:   Drilling floor
 TD  .F         4003.0000:   Total depth
 DATE.        28-APR-1983:   Date logged
 CLNT.            A2DTECH:   Client Code
 SL  . 2100' FSL & 1050' FEL:   Surface Location
 PD  .                 GL:   Permanent Datum
 EPD .F              5058:   Elevation Permanent Datum
 LMF .                 KB:   Log Measured From
 DMF .                 KB:   Drilling Measured From
 DAPD.F                10:   Feet Above Permanent Datum
 DD  .F              4000:   Depth driller
 DL  .F              4003:   Depth logger
 BLI .F              4000:   Bottom log interval
 CS1 .IN            8.625:   Casing size
 CBD1.      8.625" @ 498':   Casing driller 1
 CBL1.F               497:   Casing logger 1
 BS1 .IN            7.875:   Bit size
 BSD1.F              4000:   Depth drilled with bit1
 DFT .            KCL/GEL:   Type fluid in hole
 DFD .                  9:   Density
 DFV .                 43:   Viscosity
 DFPH.                8.5:   pH
 DFL .               12.4:   Fluid loss
 MSS .           MUD/TANK:   Source of sample
 RMS .OHMM            .45:   Rm
 MST .F                43:   Rm Meas. temp.
 RMF .OHMM            .27:   Rmf
 MFST.F                51:   Rmf Meas. temp.
 RMC .OHMM            .56:   Rmc
 MCST.F                43:   Rmc Meas. temp.
 MFSS.               MEAS:   Source Rmf.
 MCSS.               CALC:   Source Rmc.
 RMB .OHMM            .16:   Rm. at BHT
 BHT .F               121:   BHT.
 TCS .HRS               7:   Time Circ. stopped
 MRT .F               121:   Maximum recorded temp.
 LUN .               6274:   Logging unit number
 LUL .               GLTE:   Logging unit location
 ENGI.            WACDELL:   Recorded By
 WITN.             STRONG:   Witnessed by
 ORIG.           5" PRINT:   Origin of data
 UWI .     49025109060000:   Unique Well ID
 DICO. A2D TECHNOLOGIES, INC.:   Digitizing Company
~OTHER INFORMATION
~A   DEPT     RHOB       CORR       TEND       NPHI         GRR      CALR       RFOC       RILD       TENR       RILM       TENS         DT        SPR   
# ...
 3520.0000     2.4280     0.0110   -51.3080     0.2180   142.7300     8.3040     8.5590     6.2520   -70.0040     6.9840   -56.9250    89.2320   -64.2970
 3520.5000     2.4230     0.0080   -49.7240     0.2170   143.1550     8.2960     9.2120     6.2720   -69.8530     6.9840   -56.9250    88.5370   -64.1020
 3521.0000     2.4180     0.0090   -48.1410     0.2170   144.1800     8.2840     9.3840     6.2860   -69.7020     6.9840   -56.9250    88.3460   -63.9140
 3521.5000     2.4170     0.0090   -46.5570     0.2200   145.0450     8.2720     8.6730     6.3010   -69.5510     6.9840   -56.9250    89.2290   -63.7200
 3522.0000     2.4170     0.0110   -44.9730     0.2310   144.5450     8.2700     8.1530     6.3160   -69.4000     6.9840   -56.9250    90.2610   -63.5020
 3522.5000     2.4160     0.0250   -43.3890     0.2370   142.1390     8.2850     7.5190     6.3300   -69.2490     6.9840   -56.9250    90.6960   -63.2650
 3523.0000     2.4160     0.0380   -41.8060     0.2400   138.7400     8.3130     7.8850     6.3450   -69.0980     6.9840   -56.9250    90.6400   -63.0530
 3523.5000     2.4130     0.0510   -40.2220     0.2410   135.9970     8.3400     8.3530     6.3680   -68.9480     6.9840   -56.9250    90.1290   -62.9250
 3524.0000     2.4090     0.0640   -38.6380     0.2410   134.8480     8.3540     8.8210     6.3680   -68.7970     6.9840   -56.9250    89.6170   -62.9090
 3524.5000     2.4050     0.0670   -37.0540     0.2390   135.0340     8.3560     9.3840     6.6210   -68.6460     7.1820   -56.9250    89.1060   -62.9910
 3525.0000     2.4010     0.0550   -35.4700     0.2320   135.9260     8.3530     9.0500     6.8030   -68.4950     7.3810   -56.9250    88.5940   -63.1530
 3525.5000     2.4000     0.0420   -33.8870     0.2240   137.3110     8.3520     8.7160     6.9840   -68.3440     7.5800   -56.9250    88.0830   -63.3930
 3526.0000     2.3990     0.0290   -32.3030     0.2160   138.8240     8.3550     9.3840     7.1660   -68.1930     7.7800   -56.9250    87.5710   -63.6920
 3526.5000     2.4000     0.0170   -30.7190     0.2150   139.2920     8.3590     9.3840     7.3820   -68.0420     8.0960   -56.9250    86.8520   -63.9650
 3527.0000     2.4020     0.0080   -29.1350     0.2210   137.3420     8.3610     9.2120     7.7290   -67.8910     8.0960   -56.9250    85.7090   -64.0730
 3527.5000     2.4060     0.0110   -27.5520     0.2250   133.0090     8.3620     9.2120     8.1560   -67.7400     8.8020   -56.9250    84.3860   -63.9240
 3528.0000     2.4120     0.0270   -25.9680     0.2220   127.9680     8.3630     9.4460     8.5820   -67.5900     9.3010   -56.9250    83.2120   -63.5490
 3528.5000     2.4180     0.0430   -24.3840     0.2110   123.4770     8.3650     9.5580     9.0090   -67.4390     9.8000   -56.9250    82.4320   -63.0740
 3529.0000     2.4240     0.0560   -22.8000     0.2000   118.7390     8.3670    11.7100     9.4360   -67.2880    10.3000   -56.9250    82.0440   -62.6130
 3529.5000     2.4240     0.0460   -21.2160     0.1970   112.5180     8.3690    12.8420    10.1030   -67.1370    11.0790   -56.9250    81.7340   -62.1940
 3530.0000     2.4140     0.0250   -19.6330     0.2100   106.4460     8.3710    15.1220    10.1030   -66.9860    11.0790   -56.9250    80.9660   -61.7940
 3530.5000     2.4040     0.0100   -18.0490     0.2100   105.0910     8.3720    17.2540     9.1700   -66.8350    10.1500   -56.9250    80.2430   -61.4140
 3531.0000     2.3990     0.0210   -16.4650     0.2090   111.1760     8.3740    17.2540     8.5220   -66.6840     9.5030   -56.9250    80.4930   -61.1030
 3531.5000     2.4010     0.0340   -14.8810     0.2010   121.0260     8.3760    12.6080     7.5190   -66.5330     8.8570   -56.9250    81.9790   -60.9090
 3532.0000     2.4150     0.0470   -13.2980     0.1930   126.3850     8.3780    12.6080     7.5190   -66.3830     8.2460   -56.9250    84.0410   -60.8320
 3532.5000     2.4330     0.0440   -11.7140     0.1900   124.5110     8.3790     6.1380     7.8120   -66.2320     8.4790   -56.9250    86.0200   -60.8230
 3533.0000     2.4370     0.0330   -10.1300     0.1930   106.3240     8.3810     8.3040     8.0120   -66.0810     8.6990   -56.9250    85.0610   -60.8320
 3533.5000     2.4340     0.0230    -8.5460     0.1980    95.0460     8.3830    10.8210     8.2130   -65.9300     8.9200   -56.9250    83.1950   -60.8430
 3534.0000     2.4300     0.0130    -6.9620     0.2120    96.9590     8.3850    13.3380     8.4000   -65.7790     9.2120   -56.9250    81.0760   -60.8650
 3534.5000     2.4280     0.0030    -5.3790     0.2260   103.4680     8.3870    15.1630     7.5020   -65.6280     8.5940   -56.9250    79.9410   -60.9110
 3535.0000     2.4310     0.0240    -6.1990     0.2380   108.4490     8.3880    12.9290     6.6650   -65.4770     7.6750   -56.9250    80.2170   -60.9760
 3535.5000     2.4480     0.0560    -8.5810     0.2450   115.7120     8.3890    11.1760     5.8270   -65.3260     6.7570   -56.9250    81.1750   -61.0460
 3536.0000     2.4630     0.0910   -10.9630     0.2650   129.3690     8.3900     8.8780     4.9900   -65.1750     5.8380   -56.9250    82.3660   -61.1100
 3536.5000     2.4370     0.1280   -13.3450     0.2860   146.6900     8.3900     7.6540     3.7290   -65.0250     4.9200   -56.9250    84.2550   -61.1670
 3537.0000     2.4100     0.1750   -15.7270     0.2730   161.2800     8.3900     5.8780     3.7290   -64.8740     4.0890   -56.9250    86.5880   -61.2240
 3537.5000     2.3820     0.1560   -18.1090     0.2610   167.8540     8.3900     3.2170     3.6030   -64.7230     3.9880   -56.9250    90.8480   -61.2820
 3538.0000     2.3670     0.1030   -20.4920     0.2570   165.0710     8.3900     3.1580     3.5280   -64.5720     3.8690   -56.9250    95.6170   -61.3420
 3538.5000     2.4300     0.0670   -22.8740     0.2510   157.5450     8.3900     4.0890     3.6330   -64.4210     3.9980   -56.9250    97.2850   -61.4040
 3539.0000     2.4920     0.1090   -25.2560     0.2380   152.8760     8.3900     4.0890     3.7280   -64.2700     4.1800   -56.9250    94.4180   -61.4660
 3539.5000     2.4740     0.1550   -27.6380     0.2210   153.9200     8.3900     7.8020     3.8230   -64.1190     4.3620   -56.9250    91.5030   -61.5260
 3540.0000     2.4490     0.1600   -30.0200     0.2210   156.4620     8.3900     7.4260     3.9170   -63.9680     4.5440   -56.9250    89.3900   -61.5800
 3540.5000     2.4270     0.0500   -32.4030     0.2340   155.9370     8.3900     6.9840     4.0120   -63.8170     4.7400   -56.9250    88.7120   -61.6260
 3541.0000     2.4530     0.0510   -34.7850     0.2420   152.8550     8.3900     7.1060     4.1070   -63.6670     4.7400   -56.9250    89.2550   -61.6580
 3541.5000     2.4820     0.0820   -37.1670     0.2430   150.1340     8.3900     7.2470     4.2020   -63.5160     4.7400   -56.9250    89.8110   -61.6670
 3542.0000     2.4660     0.1520   -39.5490     0.2450   148.4770     8.3900     6.3510     4.3220   -63.3650     4.7400   -56.9250    90.3670   -61.6470
 3542.5000     2.4440     0.1220   -41.9310     0.2420   147.1390     8.3900     5.3910     4.3520   -63.2140     4.7400   -56.9250    90.9230   -61.6140
 3543.0000     2.4260     0.0570   -44.3140     0.2370   146.4580     8.3900     4.5680     4.3930   -63.0630     4.8000   -56.9250    91.5030   -61.6190
 3543.5000     2.4300     0.0080   -46.6960     0.2330   147.0890     8.3900     5.1980     4.4340   -62.9120     4.8450   -56.9250    91.0260   -61.7150
 3544.0000     2.4330     0.0240   -49.0780     0.2330   148.3530     8.3900     9.0440     4.4850   -62.7610     4.9180   -56.9250    89.9560   -61.9180
 3544.5000     2.4400     0.0410   -51.4600     0.2330   149.1970     8.3900     8.7850     4.8080   -62.6100     4.9180   -56.9250    88.8870   -62.1810
 3545.0000     2.4480     0.0390   -53.8420     0.2320   149.9230     8.3890     8.4410     5.2380   -62.4590     5.5350   -56.9250    89.1040   -62.4260
 3545.5000     2.4540     0.0300   -53.5850     0.2310   151.4400     8.3900     7.9470     5.6680   -62.3090     5.9900   -56.9250    89.7660   -62.5960
