~VERSION INFORMATION
 VERS.                2.0:   CWLS LOG ASCII STANDARD - VERSION 2.0
 WRAP.                 NO:   ONE LINE PER DEPTH STEP
~WELL INFORMATION
#MNEM.UNIT      DATA TYPE    INFORMATION
#----------   ------------   ------------------------------
 STRT.F            0.0000:   START DEPTH
 STOP.F         1071.5000:   STOP DEPTH
 STEP.F            0.5000:   STEP LENGTH
 NULL.          -999.2500:   NO VALUE
 COMP.       FLUOR DANIEL:   COMPANY
 WELL.     FLUOR X #82-22:   WELL
 FLD .                NPR:   FIELD
 LOC .      S22 T38N R78W:   LOCATION
 CNTY.            NATRONA:   COUNTY
 STAT.            WYOMING:   STATE
 CTRY. UNITED STATES OF AMERICA:   COUNTRY
 SRVC.      WESTERN ATLAS:   SERVICE COMPANY
 DATE.        19-SEP-1994:   LOGDATE
 API .     49025226520000:   API NUMBER
~CURVE INFORMATION
#MNEM.UNIT       API CODE    CURVE DESCRIPTION
#----------   ------------   ------------------------------
 DEPT.F                  :   
 GRR .GAPI   07 310 01 00:   GAMMA RAY FROM RESISTIVITY
 TENR.LBS    07 635 01 00:   TENSION
 ILD .OHMM   07 120 46 00:   INDUCTION LOG DEEP RESISTIVITY
 ILM .OHMM   07 120 44 00:   INDUCTION LOG MEDIUM RESISTIVITY
~PARAMETER INFORMATION
#MNEM.UNIT          VALUE    DESCRIPTION
#----------   ------------   ------------------------------
 EKB .F         5288.0000:   Kelly bushing
 EGL .F         5278.0000:   Ground level
 EDF .F         5287.0000:   Drilling floor
 EPD .F         5278.0000:   Permanent datum
 TD  .F         1062.0000:   Total depth
 DATE.        19-SEP-1994:   Date logged
 CLNT.            A2DTECH:   Client Code
 SL  . 937' FNL & 347' FEL:   Surface Location
 PD  .                 GL:   Permanent Datum
 LMF .                 KB:   Log Measured From
 DMF .                 KB:   Drilling Measured From
 DAPD.F                10:   Feet Above Permanent Datum
 DD  .F              1060:   Depth driller
 DL  .F              1062:   Depth logger
 BLI .F              1054:   Bottom log interval
 CS1 .IN            9.625:   Casing size
 CBD1.       9.625" @ 77':   Casing driller 1
 CBL1.F                78:   Casing logger 1
 BS1 .IN             8.75:   Bit size
 BSD1.F              1060:   Depth drilled with bit1
 DFT .                AIR:   Type fluid in hole
 LUN .            HL 6530:   Logging unit number
 LUL .             CASPER:   Logging unit location
 ENGI.      PAT RASMUSSEN:   Recorded By
 WITN.        GARY STRONG:   Witnessed by
 ORIG.           5" PRINT:   Origin of data
 UWI .     49025226520000:   Unique Well ID
 DICO. A2D TECHNOLOGIES, INC.:   Digitizing Company
~OTHER INFORMATION
~A    DEPT      GRR      TENR        ILD        ILM   
# ...
  292.0000   109.4070   -32.0490     6.4760     6.7090
  292.5000   111.7310   -33.7020     6.6710     6.8550
  293.0000   116.2610   -27.8320     6.7700     7.0020
  293.5000   121.6510   -21.7840     6.8730     7.1180
  294.0000   121.0390   -15.7360     6.9750     7.1180
  294.5000   120.1980   -13.5810     7.0520     7.1180
  295.0000   119.3830   -13.5810     6.9930     7.1180
  295.5000   118.5670   -13.5810     6.8830     6.9760
  296.0000   118.2130   -13.5810     6.7650     6.8450
  296.5000   120.0610   -19.2100     6.7000     6.7330
  297.0000   121.6150   -26.9220     6.6550     6.7830
  297.5000   122.3400   -34.6330     6.6090     6.8270
  298.0000   121.5170   -42.3440     6.6330     6.8710
  298.5000   120.6620   -32.3210     6.6570     6.9150
  299.0000   122.3570   -18.3010     6.7370     7.0520
  299.5000   126.3040   -18.8420     6.8870     7.2060
  300.0000   127.6830   -26.7720     7.0360     7.3590
  300.5000   121.6700   -34.7020     7.1860     7.5250
  301.0000   116.1260   -42.6320     7.3350     7.6160
  301.5000   115.7590   -50.5610     7.4850     7.7150
  302.0000   121.8610   -52.1350     7.6340     7.8140
  302.5000   126.3000   -49.2680     7.7840     7.9120
  303.0000   128.0460   -46.4010     7.8430     8.0110
  303.5000   128.0190   -43.7630     7.8970     8.1100
  304.0000   126.7200   -30.9010     7.9510     8.1990
  304.5000   124.2910   -18.9910     8.0050     8.2640
  305.0000   122.0500   -16.7110     8.0590     8.3320
  305.5000   121.4850   -22.4460     8.1040     8.3520
  306.0000   122.1490   -28.1800     8.1040     8.3730
  306.5000   122.7940   -33.7020     8.1040     8.3940
  307.0000   122.7820   -30.1340     8.1040     8.4100
  307.5000   121.1390   -26.6930     8.0760     8.2600
  308.0000   118.8690   -23.2530     8.0440     8.1410
  308.5000   118.6900   -19.8120     7.9290     8.0220
  309.0000   120.2430   -16.3720     7.7410     7.9030
  309.5000   119.0860   -14.1560     7.5520     7.7840
  310.0000   117.1780   -17.1910     7.3640     7.5690
  310.5000   117.9530   -20.2270     7.1840     7.2510
  311.0000   120.8010   -23.2630     7.2240     7.2820
  311.5000   123.7060   -26.2990     7.2630     7.3300
  312.0000   124.4810   -29.3350     7.3010     7.3770
  312.5000   124.1340   -32.3710     7.3400     7.4250
  313.0000   121.9780   -32.4950     7.3860     7.4550
  313.5000   120.2300   -30.3450     7.3280     7.3580
  314.0000   121.6510   -28.1940     7.2540     7.2590
  314.5000   124.6340   -26.0440     7.1840     7.1490
  315.0000   127.6090   -23.8930     6.9930     7.0080
  315.5000   128.3780   -23.6420     6.8110     6.8660
  316.0000   127.6900   -23.6420     6.6290     6.7250
  316.5000   127.7660   -23.6420     6.4470     6.5840
  317.0000   128.1990   -23.6420     6.3220     6.4420
  317.5000   127.5350   -23.6420     6.2400     6.3010
  318.0000   125.2770   -23.6420     6.1580     6.1600
  318.5000   122.3890   -23.6420     6.0760     6.1170
  319.0000   121.8020   -23.6420     5.9940     6.0930
  319.5000   121.8180   -23.6420     5.9610     6.0690
  320.0000   122.2100   -23.6420     5.9500     6.0440
  320.5000   124.0390   -23.6420     5.9390     6.0240
  321.0000   125.8260   -23.6420     5.9290     6.0240
  321.5000   125.8460   -23.6420     5.9140     6.0580
  322.0000   122.2060   -23.6420     5.9860     6.2160
  322.5000   118.8520   -27.0120     6.1000     6.3740
  323.0000   120.8630   -32.1730     6.2150     6.5330
  323.5000   125.7650   -37.3340     6.3300     6.6910
  324.0000   131.1340   -42.4950     6.4280     6.8590
  324.5000   131.4770   -38.8960     6.4280     6.7070
  325.0000   127.2780   -32.4450     6.4280     6.5750
  325.5000   122.8280   -25.9930     6.4280     6.4430
  326.0000   121.4940   -24.3110     6.3300     6.3210
  326.5000   121.2370   -25.3640     6.2110     6.2120
  327.0000   121.8490   -26.4180     6.0930     6.1030
  327.5000   123.6910   -27.4710     5.9750     5.9940
  328.0000   125.6080   -28.5240     5.8560     5.8850
  328.5000   125.1600   -29.5770     5.8000     5.8590
  329.0000   124.3230   -30.6310     5.7900     5.8590
  329.5000   124.6970   -31.6840     5.7810     5.8590
  330.0000   125.3390   -32.7370     5.7710     5.8590
  330.5000   126.2700   -33.7020     5.7620     5.8590
  331.0000   127.4020   -31.0390     5.7520     5.8590
  331.5000   126.2550   -28.5810     5.7510     5.8590
  332.0000   125.0920   -26.1230     5.7510     5.8590
  332.5000   125.8630   -23.6420     5.7510     5.8580
  333.0000   127.7060   -24.2030     5.7680     5.9030
  333.5000   126.8200   -24.7710     5.8110     5.9480
  334.0000   125.6060   -25.3380     5.8530     5.9920
  334.5000   125.2630   -25.9050     5.8950     6.0380
  335.0000   125.9110   -26.4720     5.9370     6.0870
  335.5000   128.1460   -27.0390     5.9790     6.1350
  336.0000   132.6490   -27.6060     6.0220     6.1840
  336.5000   135.8160   -28.1730     6.0800     6.2520
  337.0000   134.6830   -28.7410     6.0190     6.1650
  337.5000   133.6470   -29.3080     5.9180     6.0310
  338.0000   131.1900   -29.8750     5.8180     5.8970
  338.5000   125.8870   -30.4420     5.7170     5.7630
  339.0000   121.1000   -31.0090     5.6160     5.6290
  339.5000   121.1670   -31.5760     5.5160     5.5150
  340.0000   121.4550   -32.1430     5.4150     5.4080
  340.5000   122.9870   -32.7110     5.3140     5.3020
  341.0000   124.5580   -33.2780     5.2130     5.1950
  341.5000   126.1380   -31.3430     5.1130     5.0880
  342.0000   124.9090   -21.9590     5.0000     4.9810
  342.5000   123.3740   -13.1200     4.8860     4.8740
  343.0000   121.8380    -8.8200     4.7720     4.8120
  343.5000   120.3030    -4.5190     4.6580     4.7910
  344.0000   118.4720   -12.8480     4.5440     4.7350
  344.5000   116.1620   -24.9910     4.4300     4.6200
  345.0000   114.3820   -37.1350     4.3160     4.5040
  345.5000   112.8600   -41.6320     4.1260     4.3960
  346.0000   111.1990   -36.9400     3.8950     4.0430
  346.5000   109.2670   -32.2480     3.6630     3.7100
  347.0000   110.1200   -27.5560     3.4320     3.4500
  347.5000   115.3830   -23.8280     3.1490     3.2180
  348.0000   126.6750   -24.9510     3.1560     3.1200
  348.5000   136.9000   -26.0740     3.1660     3.0720
  349.0000   140.3110   -27.1970     3.1770     3.3960
  349.5000   138.2080   -28.3190     3.3460     3.6660
  350.0000   131.7120   -29.4420     3.5420     3.9350
  350.5000   124.9250   -30.5650     3.7390     4.2050
  351.0000   121.8160   -31.6880     4.0360     4.4750
  351.5000   120.5700   -32.8110     4.3700     4.7450
  352.0000   121.9260   -33.5010     4.7030     5.0080
  352.5000   126.0820   -32.5250     5.0220     5.2460
  353.0000   127.0540   -31.5500     5.2940     5.4830
  353.5000   125.1430   -30.5740     5.5660     5.6980
  354.0000   122.6480   -29.5980     5.7270     5.8780
  354.5000   120.1680   -28.6230     5.8410     6.0420
  355.0000   117.8680   -27.6470     6.0080     6.2060
  355.5000   117.2770   -26.6710     6.2640     6.3690
  356.0000   118.0260   -25.6960     6.5190     6.5670
  356.5000   120.1190   -24.7200     6.7750     6.7640
  357.0000   122.3880   -23.7440     6.9810     6.9620
  357.5000   123.1690   -23.6420     7.1630     7.2510
  358.0000   121.0000   -23.6420     7.3180     7.2380
  358.5000   118.3170   -23.6420     7.2520     7.2130
  359.0000   115.8270   -23.6420     7.1950     7.1890
  359.5000   118.2590   -23.6420     7.0750     7.0800
  360.0000   121.4580   -23.6420     6.9410     6.9510
  360.5000   124.0280   -23.6420     6.8070     6.8140
  361.0000   121.5440   -26.8860     6.6720     6.6550
  361.5000   120.6030   -33.3500     6.4870     6.4880
  362.0000   120.5800   -39.8140     6.2560     6.2200
  362.5000   119.3410   -39.8930     6.0240     5.9370
  363.0000   116.4090   -29.9490     5.6590     5.6530
  363.5000   114.9290   -20.0050     5.2940     5.4400
  364.0000   115.8910   -10.0600     4.8910     4.9500
  364.5000   119.8600    -0.1160     4.4820     4.4840
