~VERSION INFORMATION
 VERS.                2.0:   CWLS LOG ASCII STANDARD - VERSION 2.0
 WRAP.                 NO:   ONE LINE PER DEPTH STEP
~WELL INFORMATION
#MNEM.UNIT      DATA TYPE    INFORMATION
#----------   ------------   ------------------------------
 STRT.F           29.5000:   START DEPTH
 STOP.F         2719.5000:   STOP DEPTH
 STEP.F            0.5000:   STEP LENGTH
 NULL.          -999.2500:   NO VALUE
 COMP.          INTEX OIL:   COMPANY
 WELL. INTEX NPR 3 "AX" #82-20:   WELL
 FLD .             TEAPOT:   FIELD
 LOC .      S20 T39N R78W:   LOCATION
 CNTY.            NATRONA:   COUNTY
 STAT.            WYOMING:   STATE
 CTRY. UNITED STATES OF AMERICA:   COUNTRY
 SRVC.       SCHLUMBERGER:   SERVICE COMPANY
 DATE.        19-MAY-1956:   LOGDATE
 API .     49025095270000:   API NUMBER
~CURVE INFORMATION
#MNEM.UNIT       API CODE    CURVE DESCRIPTION
#----------   ------------   ------------------------------
 DEPT.F                  :   
 CALD.IN     45 280 60 00:   CALIPER FROM DENSITY LOG
 GRD .GAPI   45 310 01 00:   GAMMA RAY FROM DENSITY LOG
 CORR.G/C3   45 356 01 00:   DENSITY CORRECTION
 RHOB.G/C3   45 350 01 00:   BULK DENSITY
 SPR .MV     05 010 01 00:   SPONTANEOUS POTENTIAL
 ILD .OHMM   05 120 46 00:   DEEP INDUCTION RESISTIVITY
 SN  .OHMM   05 040 00 00:   SHORT NORMAL
~PARAMETER INFORMATION
#MNEM.UNIT          VALUE    DESCRIPTION
#----------   ------------   ------------------------------
 EKB .F         5014.3000:   Kelly bushing
 EGL .F         5004.0000:   Ground level
 EDF .F            0.0000:   Drilling floor
 TD  .F         2717.0000:   Total depth
 DATE.        19-MAY-1956:   Date logged
 CLNT.            A2DTECH:   Client Code
 PD  .                 GL:   Permanent Datum
 EPD .F              5004:   Elevation Permanent Datum
 LMF .                 KB:   Log Measured From
 DMF .                 KB:   Drilling Measured From
 DAPD.F              10.3:   Feet Above Permanent Datum
 DD  .F              2717:   Depth driller
 DL  .F              2717:   Depth logger
 BLI .F              2716:   Bottom log interval
 TLI .F               100:   Top log interval
 CS1 .IN            10.75:   Casing size
 CBD1.       10.75" @ 30':   Casing driller 1
 BS1 .IN            7.875:   Bit size
 BSD1.F              2717:   Depth drilled with bit1
 DFT .        GEL/CAUSTIC:   Type fluid in hole
 DFD .                9.7:   Density
 DFV .                 35:   Viscosity
 DFPH.                7.6:   pH
 DFL .                8.8:   Fluid loss
 MSS .           FLOWLINE:   Source of sample
 RMS .OHMM           1.68:   Rm
 MST .F                58:   Rm Meas. temp.
 RMF .OHMM           1.17:   Rmf
 MFST.F                68:   Rmf Meas. temp.
 MFSS.                 FP:   Source Rmf.
 RMB .OHMM              1:   Rm. at BHT
 BHT .F               101:   BHT.
 TCS .HRS               4:   Time Circ. stopped
 MRT .F               101:   Maximum recorded temp.
 LUN .               4507:   Logging unit number
 LUL .               CSPR:   Logging unit location
 ENGI.            MANGOLD:   Recorded By
 WITN.             TUTTLE:   Witnessed by
 ORIG.           5" PRINT:   Origin of data
 UWI .     49025095270000:   Unique Well ID
 DICO. A2D TECHNOLOGIES, INC.:   Digitizing Company
~OTHER INFORMATION
~A   DEPT     CALD         GRD      CORR       RHOB        SPR        ILD         SN   
# ...
  939.5000     8.7960    89.4660     0.0600     2.5060   -63.8580     9.8450    12.3770
  940.0000     8.7960    86.9620     0.0570     2.5040   -63.8500     9.7020    12.3510
  940.5000     8.7960    85.2470     0.0610     2.5120   -63.8420     9.5580    12.3050
  941.0000     8.7960    86.1440     0.0650     2.5030   -63.8340     9.4920    12.2590
  941.5000     8.7960    84.0090     0.0560     2.4910   -63.8260     9.4500    12.2130
  942.0000     8.7960    81.6770     0.0410     2.4850   -63.8180     9.4070    12.1670
  942.5000     8.7960    80.1770     0.0530     2.5070   -63.8110     9.3650    12.1220
  943.0000     8.7960    80.9400     0.0720     2.5350   -63.8030     9.3220    12.0760
  943.5000     8.7970    82.4180     0.0530     2.5340   -63.7950     9.2800    12.0300
  944.0000     8.7990    83.8950     0.0670     2.5300   -63.7870     9.2380    11.9840
  944.5000     8.8080    85.2210     0.0810     2.5380   -63.7790     9.1960    11.9390
  945.0000     8.8160    85.2170     0.0700     2.5090   -63.7710     9.1540    11.8930
  945.5000     8.8250    83.0600     0.0590     2.4900   -63.7630     9.1110    11.8470
  946.0000     8.8340    80.1650     0.0480     2.4810   -63.7550     9.0690    11.8020
  946.5000     8.8360    82.3830     0.0420     2.4770   -63.7470     9.0270    11.7750
  947.0000     8.8360    85.5230     0.0640     2.5020   -63.7390     8.9850    11.6560
  947.5000     8.8360    88.6610     0.0720     2.5220   -63.7310     8.9430    11.5330
  948.0000     8.8330    90.8090     0.0710     2.5350   -63.7230     8.9000    11.4110
  948.5000     8.8290    88.5540     0.0700     2.5390   -63.7150     8.8580    11.2890
  949.0000     8.8250    86.4040     0.0800     2.5440   -63.7060     8.8160    11.1680
  949.5000     8.8220    84.3480     0.0860     2.5490   -63.6970     8.7740    11.0460
  950.0000     8.8180    84.6570     0.0770     2.5350   -63.6880     8.7320    11.0350
  950.5000     8.8140    85.5190     0.0680     2.5140   -63.6790     8.6890    11.0850
  951.0000     8.8110    86.0300     0.0600     2.5160   -63.6700     8.6470    11.1170
  951.5000     8.8070    83.8020     0.0650     2.5220   -63.6610     8.6050    11.1830
  952.0000     8.8030    81.6480     0.0760     2.5370   -63.6520     8.5630    11.2480
  952.5000     8.8000    80.0480     0.0860     2.5480   -63.6430     8.5210    11.3160
  953.0000     8.7970    82.9450     0.0860     2.5430   -63.6340     8.4990    11.3830
  953.5000     8.8030    85.5930     0.0730     2.5160   -63.6250     8.5140    11.3740
  954.0000     8.8100    87.6700     0.0640     2.4890   -63.6160     8.5430    11.1620
  954.5000     8.8170    88.8960     0.0580     2.4890   -63.6070     8.5720    11.0080
  955.0000     8.8240    87.5310     0.0910     2.5230   -63.5980     8.6010    10.9170
  955.5000     8.8310    85.7090     0.1140     2.5470   -63.5890     8.6310    10.8310
  956.0000     8.8360    87.4030     0.0960     2.5280   -63.5800     8.6600    10.8130
  956.5000     8.8360    87.1860     0.0760     2.5070   -63.5710     8.6890    10.8690
  957.0000     8.8360    86.0260     0.0570     2.4860   -63.5620     8.7190    10.9260
  957.5000     8.8360    90.0560     0.0470     2.4720   -63.5530     8.7480    10.9820
  958.0000     8.8360    91.8940     0.0600     2.4870   -63.5440     8.7780    11.0390
  958.5000     8.8360    89.0040     0.0730     2.5080   -63.5350     8.8070    11.0950
  959.0000     8.8360    86.1820     0.0760     2.5270   -63.5260     8.8360    11.1520
  959.5000     8.8270    83.3030     0.0730     2.5140   -63.5100     8.8650    11.2080
  960.0000     8.8140    82.1960     0.0770     2.5060   -63.4580     8.8950    11.2650
  960.5000     8.8020    80.8770     0.0900     2.5450   -63.4050     8.8570    11.3220
  961.0000     8.7890    82.1880     0.0960     2.5410   -63.3520     8.7690    11.3750
  961.5000     8.7760    86.2570     0.0790     2.5330   -63.3000     8.6810    11.2320
  962.0000     8.7630    87.2420     0.0760     2.5250   -63.2470     8.5930    11.0730
  962.5000     8.7610    86.3510     0.0720     2.5100   -63.1940     8.5050    10.9140
  963.0000     8.7760    87.7720     0.0570     2.4930   -63.1410     8.4160    10.7560
  963.5000     8.7820    89.1060     0.0440     2.4760   -63.0890     8.3280    10.5980
  964.0000     8.8000    89.0870     0.0520     2.4710   -63.0360     8.2410    10.4400
  964.5000     8.8140    89.0870     0.0570     2.4790   -62.9830     8.1530    10.2820
  965.0000     8.8360    89.9690     0.0380     2.4630   -62.9300     8.1020    10.1950
  965.5000     8.8360    90.8870     0.0410     2.4750   -62.8780     8.1180    10.4820
  966.0000     8.8360    89.2230     0.0440     2.4810   -62.8250     8.1550    10.7960
  966.5000     8.8360    86.8860     0.0270     2.4620   -62.7730     8.1920    10.9830
  967.0000     8.8360    84.4540     0.0370     2.4750   -62.7250     8.2290    10.9790
  967.5000     8.8360    85.6360     0.0560     2.4920   -62.8210     8.2660    10.8420
  968.0000     8.8360    87.8960     0.0750     2.5120   -62.9850     8.3030    10.6890
  968.5000     8.8360    90.2490     0.0790     2.5070   -63.1490     8.3400    10.5360
  969.0000     8.8360    90.6400     0.0720     2.4980   -63.3130     8.3780    10.3820
  969.5000     8.8360    89.8140     0.0640     2.4850   -63.4770     8.4050    10.2910
  970.0000     8.8360    88.7410     0.0570     2.4930   -63.6430     8.4880    10.4430
  970.5000     8.8360    88.5120     0.0500     2.5020   -63.6930     8.4470    10.6120
  971.0000     8.8360    89.1320     0.0470     2.4830   -63.6500     8.5640    10.7820
  971.5000     8.8360    89.4870     0.0590     2.5040   -63.6080     8.6780    10.9510
  972.0000     8.8360    86.1700     0.0730     2.5270   -63.5660     8.7930    11.1210
  972.5000     8.8360    82.6110     0.0810     2.5290   -63.5230     8.9080    11.2920
  973.0000     8.8360    80.7950     0.0790     2.5380   -63.4800     9.0220    11.4600
  973.5000     8.8360    83.6660     0.0990     2.5500   -63.4380     9.0570    11.4810
  974.0000     8.8360    85.1150     0.1130     2.5390   -63.3950     8.9530    11.4800
  974.5000     8.8360    84.8750     0.0770     2.5110   -63.3520     8.8500    11.3730
  975.0000     8.8360    86.6290     0.0460     2.4800   -63.3090     8.7480    11.2520
  975.5000     8.8360    88.5620     0.0350     2.4860   -63.2670     8.6460    11.1300
  976.0000     8.8360    89.2280     0.0500     2.4970   -63.2240     8.5430    11.0080
  976.5000     8.8360    88.2860     0.0620     2.5000   -63.1810     8.4410    10.8860
  977.0000     8.8360    86.1320     0.0700     2.4990   -63.1380     8.3380    10.7640
  977.5000     8.8360    84.6880     0.0770     2.5180   -63.0950     8.2360    10.6420
  978.0000     8.8360    86.7520     0.0820     2.5100   -63.0530     8.1330    10.5190
  978.5000     8.8360    87.6550     0.0810     2.5070   -63.0100     8.0300    10.3970
  979.0000     8.8360    89.2260     0.0790     2.5210   -62.9670     7.9280    10.2760
  979.5000     8.8360    91.0160     0.0780     2.5220   -62.9250     7.8250    10.1540
  980.0000     8.8360    93.7390     0.0770     2.5120   -62.9340     7.7230    10.0310
  980.5000     8.8360    97.3320     0.0750     2.5040   -62.9610     7.6200     9.9100
  981.0000     8.8360    95.2060     0.0690     2.4970   -62.9870     7.6310     9.9060
  981.5000     8.8360    90.8810     0.0630     2.4890   -63.0140     7.6610     9.9540
  982.0000     8.8350    86.9130     0.0580     2.4820   -63.0400     7.6910    10.0000
  982.5000     8.8330    88.4780     0.0570     2.4790   -63.0660     7.7220    10.0470
  983.0000     8.8310    90.4630     0.0580     2.4770   -63.0930     7.7520    10.0930
  983.5000     8.8290    92.5260     0.0590     2.4750   -63.1190     7.7830    10.1400
  984.0000     8.8270    89.9220     0.0600     2.4870   -63.1210     7.8130    10.1870
  984.5000     8.8250    84.3260     0.0600     2.4950   -63.0810     7.8440    10.2330
