~VERSION INFORMATION
 VERS.                2.0:   CWLS LOG ASCII STANDARD - VERSION 2.0
 WRAP.                 NO:   ONE LINE PER DEPTH STEP
~WELL INFORMATION
#MNEM.UNIT      DATA TYPE    INFORMATION
#----------   ------------   ------------------------------
 STRT.F           20.0000:   START DEPTH
 STOP.F         4128.0000:   STOP DEPTH
 STEP.F            0.5000:   STEP LENGTH
 NULL.          -999.2500:   NO VALUE
 COMP. LAWRENCE-ALLISON & ASSOCIATES:   COMPANY
 WELL. LAWRENCE "X" #53-3:   WELL
 FLD .             NPR #3:   FIELD
 LOC .       S3 T38N R78W:   LOCATION
 CNTY.            NATRONA:   COUNTY
 STAT.            WYOMING:   STATE
 CTRY. UNITED STATES OF AMERICA:   COUNTRY
 SRVC.      DRESSER ATLAS:   SERVICE COMPANY
 DATE.        18-SEP-1983:   LOGDATE
 API .     49025109370000:   API NUMBER
~CURVE INFORMATION
#MNEM.UNIT       API CODE    CURVE DESCRIPTION
#----------   ------------   ------------------------------
 DEPT.F                  :   
 NPHI.DEC    42 890 03 00:   NEUTRON POROSITY SANDSTONE
 TEND.LBS    45 635 01 00:   TENSION FORM DENSITY LOG
 CORR.G/C3   45 356 01 00:   DENSITY CORRECTION
 RHOB.G/C3   45 350 01 00:   BULK DENSITY
 CALD.IN     45 280 60 00:   CALIPER FROM DENSITY LOG
 GRR .GAPI   07 310 01 00:   GAMMA RAY FROM RESISTIVITY
 TENR.LBS    06 635 01 00:   TENSION FROM RESISTIVITY
 SPR .MV     07 010 01 00:   SPONTANEOUS POTENTIAL
 RILD.OHMM   07 120 46 00:   DEEP INDUCTION RESISTIVITY
 RILM.OHMM   07 120 44 00:   INDUCTION LOG MEDIUM RESISTIVITY
 RSFL.OHMM   07 220 01 00:   SPHERICALLY FOCUSED RESISTIVITY
 TENS.LBS    60 635 01 00:   TENSION FROM SONIC
 DT  .US/F   60 520 00 00:   DELTA TIME
~PARAMETER INFORMATION
#MNEM.UNIT          VALUE    DESCRIPTION
#----------   ------------   ------------------------------
 EKB .F         5214.0000:   Kelly bushing
 EGL .F         5204.0000:   Ground level
 EDF .F            0.0000:   Drilling floor
 TD  .F         4117.0000:   Total depth
 CLNT.            A2DTECH:   Client Code
 PD  .                 GL:   Permanent Datum
 EPD .F              5204:   Elevation Permanent Datum
 LMF .                 KB:   Log Measured From
 DMF .                 KB:   Drilling Measured From
 DAPD.F                10:   Feet Above Permanent Datum
 DATE.        18-SEP-1983:   Date Logged [DD-MMM-YYYY]
 DD  .F              4117:   Depth driller
 DL  .F              4113:   Depth logger
 BLI .F              4110:   Bottom log interval
 TLI .F                 0:   Top log interval
 CS1 .IN            9.625:   Casing size
 CBD1.      9.625" @ 523':   Casing driller 1
 CBL1.F               523:   Casing logger 1
 BS1 .IN            7.875:   Bit size
 BSD1.F              4117:   Depth drilled with bit1
 DFT .            GEL KCL:   Type fluid in hole
 DFD .                9.0:   Density
 DFV .                 42:   Viscosity
 DFPH.                8.5:   pH
 DFL .                 10:   Fluid loss
 MSS .               TANK:   Source of sample
 RMS .OHMM           0.35:   Rm
 MST .F                68:   Rm Meas. temp.
 RMF .OHMM          0.266:   Rmf
 MFST.F                68:   Rmf Meas. temp.
 MFSS.               MEAS:   Source Rmf.
 RMC .OHMM          0.443:   Rmc
 MCST.F                68:   Rmc Meas. temp.
 MCSS.               CALC:   Source Rmc.
 RMB .OHMM          0.185:   Rm. at BHT
 BHT .F               130:   BHT.
 TCS .HRS               4:   Time Circ. stopped
 MRT .F               130:   Maximum recorded temp.
 LUN .               6270:   Logging unit number
 LUL .              WLSTN:   Logging unit location
 ENGI.             REEVES:   Recorded By
 WITN.             STRONG:   Witnessed by
 ORIG.           5" PRINT:   Origin of data
 UWI .     49025109370000:   Unique Well ID
 DICO. A2D TECHNOLOGIES, INC.:   Digitizing Company
~OTHER INFORMATION
~A   DEPT     NPHI       TEND       CORR       RHOB       CALD         GRR      TENR        SPR       RILD       RILM       RSFL       TENS         DT   
# ...
 2880.0000     0.2734   -35.8337     0.0449     2.5226     9.2860   147.6105   -64.2537   -76.0827     3.4939     3.4347     5.6416   -59.7260    90.6758
 2880.5000     0.2806   -39.6746     0.0358     2.5136     9.2866   156.9182   -65.6814   -76.0841     3.3190     3.2128     4.9446   -59.5434    94.3215
 2881.0000     0.2831   -43.5155     0.0117     2.4993     9.2866   171.4981   -67.1091   -76.2328     3.2025     3.1031     4.1370   -59.3608    95.4653
 2881.5000     0.2743   -43.6032     0.0072     2.4828     9.2866   182.4097   -68.5368   -76.3815     3.1558     3.1033     3.5556   -59.1705    95.3202
 2882.0000     0.2580   -43.6734    -0.0034     2.4896     9.2866   202.1705   -69.9645   -76.5305     3.1324     3.1252     3.1908   -58.9498    94.4170
 2882.5000     0.2290   -43.7435     0.0163     2.5144     9.2866   206.8882   -71.3922   -76.3846     3.2001     3.0608     3.3843   -58.7672    89.9521
 2883.0000     0.2200   -43.8160     0.0435     2.5452     9.2866   193.9054   -72.8199   -76.2383     3.2457     3.1257     4.1633   -58.5997    85.8646
 2883.5000     0.2209   -40.1131     0.0744     2.5565     9.2866   171.4837   -74.2476   -76.0928     3.3638     3.3747     5.0561   -58.4018    82.9902
 2884.0000     0.2208   -36.4125     0.1024     2.5542     9.2866   144.6366   -75.6753   -75.7996     3.5116     3.8256     5.7965   -58.2192    82.2386
 2884.5000     0.2155   -32.6666     0.0585     2.5415     9.2866   135.7843   -76.6602   -75.5068     3.9220     4.9159     6.0522   -58.0289    81.7144
 2885.0000     0.2098   -29.0288     0.0195     2.5325     9.2866   131.6525   -76.6602   -75.3606     4.4205     5.2342     6.1822   -57.8386    81.4177
 2885.5000     0.2055   -21.5751     0.0074     2.5280     9.2866   136.1013   -76.6602   -75.2150     4.8536     5.3080     6.1806   -61.4764    81.1087
 2886.0000     0.2043   -17.8733     0.0056     2.5288     9.2866   139.3152   -76.6602   -74.9222     5.2530     5.4239     6.2690   -61.2481    80.7501
 2886.5000     0.2071   -17.9622     0.0241     2.5325     9.2866   140.1980   -84.7534   -74.7760     5.5289     5.8118     6.3590   -61.0655    80.3776
 2887.0000     0.2083   -18.0323     0.0347     2.5355     9.2866   132.8199   -78.2780   -74.4828     5.6837     6.1881     6.5432   -60.8828    80.0809
 2887.5000     0.2059   -18.1025     0.0483     2.5378     9.2866   128.9577   -72.0794   -74.1900     5.8485     6.2753     6.5892   -60.6925    79.9356
 2888.0000     0.2025   -18.1750     0.0589     2.5385     9.2866   128.0939   -65.7339   -74.0441     5.9510     6.2286     6.4933   -60.4719    79.9424
 2888.5000     0.1993   -18.2603     0.0332     2.5325     9.2866   127.5012   -59.4046   -73.8982     6.0162     6.1038     6.4920   -56.4840    79.9506
 2889.0000     0.1981   -14.5597    -0.0014     2.5325     9.2866   125.4335   -57.6365   -73.8999     6.0145     6.0197     6.6321   -56.3014    79.7297
 2889.5000     0.1978   -14.7570     0.0001     2.5355     9.2866   122.3999   -58.8391   -74.1959     6.0128     5.9783     6.7756   -52.3136    79.4330
 2890.0000     0.1996   -18.4883     0.0137     2.5363     9.2866   121.0032   -60.0357   -74.6394     6.0112     5.9788     6.8725   -52.1309    78.8330
 2890.5000     0.2020   -14.7702     0.0047     2.5295     9.2866   124.5396   -61.2236   -74.7881     5.9233     5.9793     6.9208   -51.9026    79.0670
 2891.0000     0.2041   -14.8579    -0.0013     2.5318     9.2866   125.1484   -62.4115   -75.0840     5.7951     5.9381     6.9190   -47.9148    79.5284
 2891.5000     0.2059   -18.7163     0.0020     2.5363     9.2866   121.8785   -63.5994   -75.2327     5.7106     5.6955     6.8680   -47.7321    80.3184
 2892.0000     0.2059   -18.7865     0.0199     2.5393     9.2866   119.8108   -64.7873   -75.6762     5.6682     5.5761     6.7684   -47.5495    80.9078
 2892.5000     0.2032   -22.6274     0.0380     2.5408     9.2865   121.2830   -65.9752   -75.9721     5.7903     5.6176     6.5276   -51.1796    81.1418
 2893.0000     0.1975   -22.6999     0.0456     2.5371     9.2871   123.3451   -67.1631   -76.4153     5.9582     5.7366     6.1605   -50.9893    80.9209
 2893.5000     0.1887   -18.9969     0.0260     2.5348     9.3015   124.5216   -68.3510   -76.5643     6.0869     5.8581     6.1593   -50.7611    80.6242
 2894.0000     0.1798   -19.0846     0.0094     2.5348     9.3067   124.5188   -69.5389   -76.7129     6.1738     6.0256     6.3380   -50.5784    79.2661
 2894.5000     0.1743   -19.1553     0.0366     2.5461     9.3062   124.8117   -70.7268   -76.5671     6.3524     6.1946     6.5691   -50.3957    78.1862
 2895.0000     0.1737   -19.2308     0.0751     2.5612     9.3062   124.4937   -71.7773   -76.5685     6.3052     6.3258     6.9071   -50.2131    76.3999
 2895.5000     0.1774   -19.3126     0.0955     2.5784     9.3062   121.8550   -71.7414   -76.2756     6.2133     6.1954     7.0565   -53.8433    75.7241
 2896.0000     0.1849   -19.3828     0.0563     2.5882     9.3062   120.0823   -71.5050   -75.9825     6.0351     5.9411     7.1064   -53.6529    76.4130
 2896.5000     0.1951   -19.4705     0.0579     2.5785     9.3061   123.9143   -71.2687   -75.6893     5.7778     5.6996     6.9029   -53.4247    78.8456
 2897.0000     0.2050   -19.5406     0.0715     2.5627     9.3066   128.4371   -71.0324   -75.3961     5.5317     5.5049     6.1943   -53.2420    79.9894
 2897.5000     0.2086   -19.6108     0.0805     2.5503     9.3092   133.9376   -70.7960   -75.1030     5.3345     5.2800     5.7627   -53.0594    81.0590
 2898.0000     0.2080   -19.6832     0.0610     2.5379     9.2732   136.2947   -70.5597   -74.6629     5.1073     4.9927     5.6383   -52.8767    81.5204
 2898.5000     0.2056   -19.7686     0.0308     2.5236     9.2811   133.9321   -70.3234   -74.3697     4.4842     4.3757     5.6779   -48.8889    81.6028
 2899.0000     0.2068   -19.8388     0.0172     2.5084     9.2899   131.5693   -70.0871   -73.9293     3.9946     3.8604     5.8008   -37.2907    81.4577
 2899.5000     0.2156   -16.1382     0.0203     2.4808     9.2994   130.9760   -69.8507   -73.3419     3.1936     3.3588     5.8838   -37.0624    81.3868
 2900.0000     0.2351   -12.4376     0.0113     2.4410     9.3227   134.3465   -69.6144   -72.7541     2.8042     2.9633     5.7609   -36.8797    81.6224
 2900.5000     0.2619   -10.3610    -0.0007     2.3062     9.4089   164.7316   -69.3781   -71.7215     2.5346     2.5074     4.7396   -40.5479    83.2340
 2901.0000     0.2991   -12.9184     0.0129     2.1518     9.5828   180.2246   -69.1417   -70.8365     2.3411     2.3399     3.5534   -44.1705    89.7494
 2901.5000     0.3250   -16.9003     0.0826     2.1075     9.8152   194.5507   -68.9054   -70.0742     2.2742     2.6259     2.7817   -43.9421    96.5035
 2902.0000     0.3409   -20.9350     0.1789     2.1202    10.0747   203.6117   -68.6691   -69.8024     2.0705     2.9469     2.0855   -43.7595   107.0483
 2902.5000     0.3116   -28.6876     0.1010     2.2235     9.8221   198.1298   -68.4327   -70.3901     2.3067     3.2598     2.4438   -43.5312   111.5263
 2903.0000     0.2280   -32.6694     0.0138     2.3680     9.5006   184.4434   -68.1964   -71.1251     2.5885     3.7924     3.8199   -40.7576   100.7688
 2903.5000     0.1883   -36.6516    -0.0222     2.5109     9.1775   169.8715   -67.9601   -71.8726     2.8425     4.2868     5.8012   -40.6061    90.3005
 2904.0000     0.1808   -40.6859     0.0081     2.5350     9.1137   136.3998   -67.7237   -72.7420     3.3647     4.6741     7.6282   -40.4526    78.7213
 2904.5000     0.1775   -44.6677     0.0053     2.5358     9.0947   112.0751   -67.4874   -73.4770     3.8748     5.0965     7.5197   -40.3030    74.7097
 2905.0000     0.1778   -44.8789    -0.0006     2.5335     9.0911   110.5468   -67.2511   -74.2120     4.8100     5.3220     7.3066   -40.1515    74.1081
 2905.5000     0.1793   -48.9135     0.0026     2.5328     9.0911   111.1976   -67.0148   -74.6649     5.8431     6.0591     6.9980   -40.0000    74.4195
