~VERSION INFORMATION
 VERS.                2.0:   CWLS LOG ASCII STANDARD - VERSION 2.0
 WRAP.                 NO:   ONE LINE PER DEPTH STEP
~WELL INFORMATION
#MNEM.UNIT      DATA TYPE    INFORMATION
#----------   ------------   ------------------------------
 STRT.F           30.0000:   START DEPTH
 STOP.F         5698.0000:   STOP DEPTH
 STEP.F            0.5000:   STEP LENGTH
 NULL.          -999.2500:   NO VALUE
 COMP. LAWRRENCE-ALLISON & ASSOCIATES:   COMPANY
 WELL. LAWERNCE "X" #41-3:   WELL
 FLD .           N P R #3:   FIELD
 LOC .       S3 T38N R78W:   LOCATION
 CNTY.            NATRONA:   COUNTY
 STAT.            WYOMING:   STATE
 CTRY. UNITED STATES OF AMERICA:   COUNTRY
 SRVC.      DRESSER ATLAS:   SERVICE COMPANY
 DATE.        04-JUN-1983:   LOGDATE
 API .     49025109200000:   API NUMBER
~CURVE INFORMATION
#MNEM.UNIT       API CODE    CURVE DESCRIPTION
#----------   ------------   ------------------------------
 DEPT.F                  :   
 TENS.LBS    60 635 01 00:   TENSION FROM SONIC
 DT  .US/F   60 520 00 00:   DELTA TIME
 SPR .MV     11 010 01 00:   SPONTANEOUS POTENTIAL FROM RES.
 TENR.LBS    11 635 01 00:   TENSION FROM RES. LOG
 GRR .GAPI   11 310 01 00:   GAMMA RAY FROM RES.
 CALR.IN     11 280 01 00:   CALIPER FROM RES.
 RMLL.OHMM   11 270 04 00:   MICRO LATEROLOG
 RD  .OHMM   11 220 10 00:   RESISTIVITY DEEP
 RS  .OHMM   11 220 09 00:   RESISTIVITY SHALLOW
 TEND.LBS    45 635 01 00:   TENSION FROM DENSITY LOG
 CORR.G/C3   45 356 01 00:   DENSITY CORRECTION
 RHOB.G/C3   45 350 01 00:   BULK DENSITY
 NPHI.DEC    42 890 03 00:   NEUTRON POROSITY SANDSTONE
~PARAMETER INFORMATION
#MNEM.UNIT          VALUE    DESCRIPTION
#----------   ------------   ------------------------------
 EKB .F         5157.5000:   Kelly bushing
 EGL .F         5147.5000:   Ground level
 EDF .F            0.0000:   Drilling floor
 TD  .F         5690.0000:   Total depth
 DATE.        04-JUN-1983:   Date logged
 CLNT.            A2DTECH:   Client Code
 SL  . 2218' FWL & 287' FNL:   Surface Location
 PD  .                 GL:   Permanent Datum
 EPD .F            5147.5:   Elevation Permanent Datum
 LMF .                 KB:   Log Measured From
 DMF .                 KB:   Drilling Measured From
 DD  .F              5690:   Depth driller
 DL  .F              5685:   Depth logger
 BLI .F              5682:   Bottom log interval
 CS1 .IN            9.625:   Casing size
 CBD1.       9.625 @ 568':   Casing driller 1
 CBL1.F               568:   Casing logger 1
 BS1 .IN             8.75:   Bit size
 DFT .        KCL-DRISPAC:   Type fluid in hole
 DFD .                9.1:   Density
 DFV .                 37:   Viscosity
 DFPH.                  8:   pH
 DFL .                3.8:   Fluid loss
 MSS .               TANK:   Source of sample
 RMS .OHMM           0.41:   Rm
 MST .F                75:   Rm Meas. temp.
 RMF .OHMM           0.28:   Rmf
 MFST.F                70:   Rmf Meas. temp.
 RMC .OHMM           0.53:   Rmc
 MCST.F                75:   Rmc Meas. temp.
 MFSS.               MEAS:   Source Rmf.
 RMB .OHMM           0.18:   Rm. at BHT
 BHT .F               160:   BHT.
 TCS .HRS               5:   Time Circ. stopped
 MRT .F               166:   Maximum recorded temp.
 LUN .               6274:   Logging unit number
 LUL .               GLTE:   Logging unit location
 ENGI.             RAUTIO:   Recorded By
 WITN.             STRONG:   Witnessed by
 ORIG.     2.5", 5" PRINT:   Origin of data
 UWI .     49025109200000:   Unique Well ID
 DICO. A2D TECHNOLOGIES, INC.:   Digitizing Company
 MCSS.               CALC:   Source Rmc.
 DAPD.                 10:   Feet Above Permanent Datum
 BSD1.               5690:   Depth drilled with bit1
~OTHER INFORMATION
~A   DEPT     TENS         DT        SPR       TENR         GRR      CALR       RMLL         RD         RS       TEND       CORR       RHOB       NPHI   
# ...
 1590.0000  -999.2500  -999.2500   -86.4420   -43.2030    86.5430    10.1530     5.4710     7.4900     6.5780  -999.2500  -999.2500  -999.2500  -999.2500
 1590.5000  -999.2500  -999.2500   -86.3260   -44.1250    87.1520    10.0590     5.5050     7.4460     6.5640  -999.2500  -999.2500  -999.2500  -999.2500
 1591.0000  -999.2500  -999.2500   -86.2010   -45.1030    85.6950     9.9620     5.5430     7.6050     6.5500  -999.2500  -999.2500  -999.2500  -999.2500
 1591.5000  -999.2500  -999.2500   -86.0810   -46.0340    85.8710     9.8650     5.5820     7.7530     6.5360  -999.2500  -999.2500  -999.2500  -999.2500
 1592.0000  -999.2500  -999.2500   -85.9620   -46.8810    87.6070     9.7640     5.6210     7.8620     6.5210  -999.2500  -999.2500  -999.2500  -999.2500
 1592.5000  -999.2500  -999.2500   -85.8340   -48.1790    88.9810     9.7110     5.6730     7.7430     6.5070  -999.2500  -999.2500  -999.2500  -999.2500
 1593.0000  -999.2500  -999.2500   -85.8320   -45.6300    90.5210     9.7170     5.5420     7.6070     6.4930  -999.2500  -999.2500  -999.2500  -999.2500
 1593.5000  -999.2500  -999.2500   -85.9060   -40.7970    90.4580     9.7170     5.2760     7.4700     6.4790  -999.2500  -999.2500  -999.2500  -999.2500
 1594.0000  -999.2500  -999.2500   -85.9700   -36.3570    87.7980     9.7180     5.3000     7.3120     6.4650  -999.2500  -999.2500  -999.2500  -999.2500
 1594.5000  -999.2500  -999.2500   -86.0330   -31.9040    85.3520     9.7200     5.3970     7.4350     6.4510  -999.2500  -999.2500  -999.2500  -999.2500
 1595.0000  -999.2500  -999.2500   -86.0990   -28.4960    85.4260     9.7210     5.4710     7.5800     6.4220  -999.2500  -999.2500  -999.2500  -999.2500
 1595.5000  -999.2500  -999.2500   -86.1630   -29.3080    86.1590     9.7230     5.4440     7.7200     6.3440  -999.2500  -999.2500  -999.2500  -999.2500
 1596.0000  -999.2500  -999.2500   -86.2280   -31.0510    86.8010     9.7240     5.3840     7.5500     6.2670  -999.2500  -999.2500  -999.2500  -999.2500
 1596.5000  -999.2500  -999.2500   -86.2920   -32.7930    86.4580     9.7250     5.3240     7.2810     6.1900  -999.2500  -999.2500  -999.2500  -999.2500
 1597.0000  -999.2500  -999.2500   -86.3570   -34.5890    85.5990     9.7270     5.2640     7.0630     6.0990  -999.2500  -999.2500  -999.2500  -999.2500
 1597.5000  -999.2500  -999.2500   -86.4220   -36.2610    85.3640     9.7280     5.1810     7.1120     6.1240  -999.2500  -999.2500  -999.2500  -999.2500
 1598.0000  -999.2500  -999.2500   -86.4850   -38.2140    85.9210     9.7290     5.2190     7.1620     6.1530  -999.2500  -999.2500  -999.2500  -999.2500
 1598.5000  -999.2500  -999.2500   -86.5530   -38.5340    86.3890     9.7300     5.3940     7.2120     6.1830  -999.2500  -999.2500  -999.2500  -999.2500
 1599.0000  -999.2500  -999.2500   -86.5780   -39.0230    86.8510     9.7320     5.6730     7.2620     6.2120  -999.2500  -999.2500  -999.2500  -999.2500
 1599.5000  -999.2500  -999.2500   -86.5750   -39.4010    87.4070     9.7330     5.6640     7.3120     6.2420  -999.2500  -999.2500  -999.2500  -999.2500
 1600.0000  -999.2500  -999.2500   -86.5790   -39.8490    87.0620     9.7340     5.6430     7.3120     6.2720  -999.2500  -999.2500  -999.2500  -999.2500
 1600.5000  -999.2500  -999.2500   -86.5350   -40.2720    85.9730     9.7360     5.6220     7.3340     6.3010  -999.2500  -999.2500  -999.2500  -999.2500
 1601.0000  -999.2500  -999.2500   -86.4220   -40.6960    86.5360     9.7370     5.6010     7.3530     6.3250  -999.2500  -999.2500  -999.2500  -999.2500
 1601.5000  -999.2500  -999.2500   -86.3140   -41.1250    87.6160     9.7380     5.5790     7.3720     6.3250  -999.2500  -999.2500  -999.2500  -999.2500
 1602.0000  -999.2500  -999.2500   -86.2040   -41.5510    88.0280     9.7390     5.5580     7.3900     6.2900  -999.2500  -999.2500  -999.2500  -999.2500
 1602.5000  -999.2500  -999.2500   -86.0960   -41.9780    86.8440     9.7410     5.5370     7.4090     6.2560  -999.2500  -999.2500  -999.2500  -999.2500
 1603.0000  -999.2500  -999.2500   -85.9870   -42.4040    86.0480     9.7420     5.5160     7.4280     6.2230  -999.2500  -999.2500  -999.2500  -999.2500
 1603.5000  -999.2500  -999.2500   -85.8740   -42.8310    86.6210     9.7430     5.4950     7.4460     6.1890  -999.2500  -999.2500  -999.2500  -999.2500
 1604.0000  -999.2500  -999.2500   -85.8320   -43.2580    87.5580     9.7450     5.4710     7.4300     6.1550  -999.2500  -999.2500  -999.2500  -999.2500
 1604.5000  -999.2500  -999.2500   -85.9610   -43.6850    86.8100     9.7460     5.3850     7.4150     6.1210  -999.2500  -999.2500  -999.2500  -999.2500
 1605.0000  -999.2500  -999.2500   -86.0850   -44.1120    85.9930     9.7470     5.1810     7.4010     6.0880  -999.2500  -999.2500  -999.2500  -999.2500
 1605.5000  -999.2500  -999.2500   -86.2150   -44.5390    85.6690     9.7480     5.1810     7.3860     6.0540  -999.2500  -999.2500  -999.2500  -999.2500
 1606.0000  -999.2500  -999.2500   -86.3430   -44.9660    85.0310     9.7500     5.4060     7.3720     6.0200  -999.2500  -999.2500  -999.2500  -999.2500
 1606.5000  -999.2500  -999.2500   -86.4710   -45.3940    85.1690     9.7510     5.6120     7.3570     5.9900  -999.2500  -999.2500  -999.2500  -999.2500
 1607.0000  -999.2500  -999.2500   -86.5990   -45.8220    88.0740     9.7520     5.5400     7.3430     6.0680  -999.2500  -999.2500  -999.2500  -999.2500
 1607.5000  -999.2500  -999.2500   -86.7270   -46.2440    89.0050     9.7540     5.3720     7.3300     6.1390  -999.2500  -999.2500  -999.2500  -999.2500
 1608.0000  -999.2500  -999.2500   -86.8550   -46.6830    86.5820     9.7550     5.4090     7.3150     6.2100  -999.2500  -999.2500  -999.2500  -999.2500
 1608.5000  -999.2500  -999.2500   -86.9660   -47.0980    84.5550     9.7590     5.5220     7.4580     6.2810  -999.2500  -999.2500  -999.2500  -999.2500
 1609.0000  -999.2500  -999.2500   -86.9130   -47.5170    82.2370     9.7630     5.6350     7.6090     6.3520  -999.2500  -999.2500  -999.2500  -999.2500
 1609.5000  -999.2500  -999.2500   -86.7570   -48.0320    81.1770     9.7670     5.7760     7.7630     6.4400  -999.2500  -999.2500  -999.2500  -999.2500
 1610.0000  -999.2500  -999.2500   -86.6030   -47.6430    82.1620     9.7710     5.7080     7.8620     6.4150  -999.2500  -999.2500  -999.2500  -999.2500
 1610.5000  -999.2500  -999.2500   -86.4480   -45.7930    84.6160     9.7750     5.5110     7.7840     6.3430  -999.2500  -999.2500  -999.2500  -999.2500
 1611.0000  -999.2500  -999.2500   -86.2940   -44.0610    86.9310     9.7790     5.5850     7.7040     6.2720  -999.2500  -999.2500  -999.2500  -999.2500
 1611.5000  -999.2500  -999.2500   -86.1350   -42.2710    89.3210     9.7830     5.7330     7.6230     6.2000  -999.2500  -999.2500  -999.2500  -999.2500
 1612.0000  -999.2500  -999.2500   -85.9880   -40.5030    89.3440     9.7880     5.8820     7.5420     6.1280  -999.2500  -999.2500  -999.2500  -999.2500
 1612.5000  -999.2500  -999.2500   -85.8120   -38.6040    88.6000     9.7890     5.7510     7.4460     6.0990  -999.2500  -999.2500  -999.2500  -999.2500
 1613.0000  -999.2500  -999.2500   -85.7990   -38.6380    87.7350     9.8280     5.5300     7.3320     6.0720  -999.2500  -999.2500  -999.2500  -999.2500
 1613.5000  -999.2500  -999.2500   -85.7950   -42.9700    88.4730     9.9210     5.1810     7.1900     6.0380  -999.2500  -999.2500  -999.2500  -999.2500
 1614.0000  -999.2500  -999.2500   -85.7990   -47.4220    90.2990    10.0100     5.1870     7.0510     6.0030  -999.2500  -999.2500  -999.2500  -999.2500
 1614.5000  -999.2500  -999.2500   -85.7970   -51.8780    92.2010    10.0990     5.2000     7.0510     5.9690  -999.2500  -999.2500  -999.2500  -999.2500
 1615.0000  -999.2500  -999.2500   -85.7970   -56.6920    92.3890    10.1910     5.2130     7.0410     5.9350  -999.2500  -999.2500  -999.2500  -999.2500
 1615.5000  -999.2500  -999.2500   -85.7990   -56.4120    90.6090    10.2150     5.2260     7.0160     5.8820  -999.2500  -999.2500  -999.2500  -999.2500
