~VERSION INFORMATION
 VERS.                2.0:   CWLS LOG ASCII STANDARD - VERSION 2.0
 WRAP.                 NO:   ONE LINE PER DEPTH STEP
~WELL INFORMATION
#MNEM.UNIT      DATA TYPE    INFORMATION
#----------   ------------   ------------------------------
 STRT.F            0.0000:   START DEPTH
 STOP.F         2775.5000:   STOP DEPTH
 STEP.F            0.5000:   STEP LENGTH
 NULL.          -999.2500:   NO VALUE
 COMP.          U.S. NAVY:   COMPANY
 WELL.   U.S. "A" #107-29:   WELL
 FLD .        TEAPOT DOME:   FIELD
 LOC .      S29 T39N R78W:   LOCATION
 CNTY.            NATRONA:   COUNTY
 STAT.            WYOMING:   STATE
 CTRY. UNITED STATES OF AMERICA:   COUNTRY
 SRVC.         MCCULLOUGH:   SERVICE COMPANY
 DATE.        07-SEP-1966:   LOGDATE
 API .     49025095920000:   API NUMBER
~CURVE INFORMATION
#MNEM.UNIT       API CODE    CURVE DESCRIPTION
#----------   ------------   ------------------------------
 DEPT.F                  :   
 GR  .GAPI   30 310 01 00:   GAMMA RAY
 CALI.IN     70 280 01 00:   CALIPER
~PARAMETER INFORMATION
#MNEM.UNIT          VALUE    DESCRIPTION
#----------   ------------   ------------------------------
 EKB .F            0.0000:   Kelly bushing
 EGL .F            0.0000:   Ground level
 EDF .F            0.0000:   Drilling floor
 EPD .F            0.0000:   Permanent datum
 TD  .F         2777.5000:   Total depth
 DATE.        07-SEP-1966:   Date logged
 CLNT.            A2DTECH:   Client Code
 PD  .                 GL:   Permanent Datum
 LMF .                 GL:   Log Measured From
 DMF .                 GL:   Drilling Measured From
 DL  .F            2777.5:   Depth logger
 BLI .F              2776:   Bottom log interval
 TLI .F              2200:   Top log interval
 CS1 .IN                5:   Casing size
 CBD1.         5" @ 2722':   Casing driller 1
 DFT .              WATER:   Type fluid in hole
 RMB .OHMM           .053:   Rm. at BHT
 TCS .HRS             1.5:   Time Circ. stopped
 LUN .               1460:   Logging unit number
 ENGI.        FITZSIMMONS:   Recorded By
 WITN.             TUTTLE:   Witnessed by
 ORIG.           5" PRINT:   Origin of data
 UWI .     49025095920000:   Unique Well ID
 DICO. A2D TECHNOLOGIES, INC.:   Digitizing Company
~OTHER INFORMATION
~A    DEPT      GR         CALI 
# ...
 1822.5000  -999.2500     6.7020
 1823.0000  -999.2500     6.7030
 1823.5000  -999.2500     6.7030
 1824.0000  -999.2500     6.7040
 1824.5000  -999.2500     6.7040
 1825.0000  -999.2500     6.7050
 1825.5000  -999.2500     6.7060
 1826.0000  -999.2500     6.7060
 1826.5000  -999.2500     6.7070
 1827.0000  -999.2500     6.7080
 1827.5000  -999.2500     6.7080
 1828.0000  -999.2500     6.7090
 1828.5000  -999.2500     6.7090
 1829.0000  -999.2500     6.7100
 1829.5000  -999.2500     6.7110
 1830.0000  -999.2500     6.7110
 1830.5000  -999.2500     6.7120
 1831.0000  -999.2500     6.7120
 1831.5000  -999.2500     6.7130
 1832.0000  -999.2500     6.7140
 1832.5000  -999.2500     6.7140
 1833.0000  -999.2500     6.7150
 1833.5000  -999.2500     6.7160
 1834.0000  -999.2500     6.7160
 1834.5000  -999.2500     6.7210
 1835.0000  -999.2500     6.7280
 1835.5000  -999.2500     6.7350
 1836.0000  -999.2500     6.7310
 1836.5000  -999.2500     6.7260
 1837.0000  -999.2500     6.7200
 1837.5000  -999.2500     6.7150
 1838.0000  -999.2500     6.7090
 1838.5000  -999.2500     6.7040
 1839.0000  -999.2500     6.6980
 1839.5000  -999.2500     6.6920
 1840.0000  -999.2500     6.6880
 1840.5000  -999.2500     6.6920
 1841.0000  -999.2500     6.6960
 1841.5000  -999.2500     6.6960
 1842.0000  -999.2500     6.6960
 1842.5000  -999.2500     6.6950
 1843.0000  -999.2500     6.6950
 1843.5000  -999.2500     6.6940
 1844.0000  -999.2500     6.6940
 1844.5000  -999.2500     6.6940
 1845.0000  -999.2500     6.6930
 1845.5000  -999.2500     6.6930
 1846.0000  -999.2500     6.6920
 1846.5000  -999.2500     6.6920
 1847.0000  -999.2500     6.6910
 1847.5000  -999.2500     6.6910
 1848.0000  -999.2500     6.6900
 1848.5000  -999.2500     6.6900
 1849.0000  -999.2500     6.6890
 1849.5000  -999.2500     6.6890
 1850.0000  -999.2500     6.6890
 1850.5000  -999.2500     6.6880
 1851.0000  -999.2500     6.6880
 1851.5000  -999.2500     6.6870
 1852.0000  -999.2500     6.6870
 1852.5000  -999.2500     6.6870
 1853.0000  -999.2500     6.6870
 1853.5000  -999.2500     6.6870
 1854.0000  -999.2500     6.6870
 1854.5000  -999.2500     6.6870
 1855.0000  -999.2500     6.6870
 1855.5000  -999.2500     6.6870
 1856.0000  -999.2500     6.6870
 1856.5000  -999.2500     6.6870
 1857.0000  -999.2500     6.6870
 1857.5000  -999.2500     6.6860
 1858.0000  -999.2500     6.6850
 1858.5000  -999.2500     6.6840
 1859.0000  -999.2500     6.6830
 1859.5000  -999.2500     6.6820
 1860.0000  -999.2500     6.6810
 1860.5000  -999.2500     6.6800
 1861.0000  -999.2500     6.6780
 1861.5000  -999.2500     6.6770
 1862.0000  -999.2500     6.6760
 1862.5000  -999.2500     6.6760
 1863.0000  -999.2500     6.6750
 1863.5000  -999.2500     6.6750
 1864.0000  -999.2500     6.6740
 1864.5000  -999.2500     6.6730
 1865.0000  -999.2500     6.6730
 1865.5000  -999.2500     6.6720
 1866.0000  -999.2500     6.6710
 1866.5000  -999.2500     6.6710
 1867.0000  -999.2500     6.6700
 1867.5000  -999.2500     6.6690
 1868.0000  -999.2500     6.6690
 1868.5000  -999.2500     6.6680
 1869.0000  -999.2500     6.6680
 1869.5000  -999.2500     6.6670
 1870.0000  -999.2500     6.6670
 1870.5000  -999.2500     6.6670
 1871.0000  -999.2500     6.6670
 1871.5000  -999.2500     6.6670
 1872.0000  -999.2500     6.6670
 1872.5000  -999.2500     6.6670
 1873.0000  -999.2500     6.6670
 1873.5000  -999.2500     6.6670
 1874.0000  -999.2500     6.6670
 1874.5000  -999.2500     6.6650
 1875.0000  -999.2500     6.6630
 1875.5000  -999.2500     6.6620
 1876.0000  -999.2500     6.6600
 1876.5000  -999.2500     6.6580
 1877.0000  -999.2500     6.6570
 1877.5000  -999.2500     6.6550
 1878.0000  -999.2500     6.6540
 1878.5000  -999.2500     6.6520
 1879.0000  -999.2500     6.6500
 1879.5000  -999.2500     6.6490
 1880.0000  -999.2500     6.6470
 1880.5000  -999.2500     6.6450
 1881.0000  -999.2500     6.6430
 1881.5000  -999.2500     6.6410
 1882.0000  -999.2500     6.6390
 1882.5000  -999.2500     6.6370
 1883.0000  -999.2500     6.6340
 1883.5000  -999.2500     6.6320
 1884.0000  -999.2500     6.6300
 1884.5000  -999.2500     6.6280
 1885.0000  -999.2500     6.6310
 1885.5000  -999.2500     6.6350
 1886.0000  -999.2500     6.6400
 1886.5000  -999.2500     6.6440
 1887.0000  -999.2500     6.6470
 1887.5000  -999.2500     6.6460
 1888.0000  -999.2500     6.6460
 1888.5000  -999.2500     6.6450
 1889.0000  -999.2500     6.6440
 1889.5000  -999.2500     6.6440
 1890.0000  -999.2500     6.6430
 1890.5000  -999.2500     6.6420
 1891.0000  -999.2500     6.6410
 1891.5000  -999.2500     6.6410
 1892.0000  -999.2500     6.6400
 1892.5000  -999.2500     6.6390
 1893.0000  -999.2500     6.6390
 1893.5000  -999.2500     6.6380
 1894.0000  -999.2500     6.6390
 1894.5000  -999.2500     6.6450
 1895.0000  -999.2500     6.6500
 1895.5000  -999.2500     6.6560
 1896.0000  -999.2500     6.6620
 1896.5000  -999.2500     6.6670
 1897.0000  -999.2500     6.6730
 1897.5000  -999.2500     6.6800
 1898.0000  -999.2500     6.6940
 1898.5000  -999.2500     6.7070
 1899.0000  -999.2500     6.7200
 1899.5000  -999.2500     6.7270
 1900.0000  -999.2500     6.7290
 1900.5000  -999.2500     6.7310
 1901.0000  -999.2500     6.7330
 1901.5000  -999.2500     6.7350
 1902.0000  -999.2500     6.7130
 1902.5000  -999.2500     6.6820
 1903.0000  -999.2500     6.6770
 1903.5000  -999.2500     6.6780
 1904.0000  -999.2500     6.6790
 1904.5000  -999.2500     6.6800
 1905.0000  -999.2500     6.6810
 1905.5000  -999.2500     6.6820
 1906.0000  -999.2500     6.6830
 1906.5000  -999.2500     6.6840
 1907.0000  -999.2500     6.6840
 1907.5000  -999.2500     6.6850
 1908.0000  -999.2500     6.6860
 1908.5000  -999.2500     6.6870
 1909.0000  -999.2500     6.6880
 1909.5000  -999.2500     6.6890
 1910.0000  -999.2500     6.6900
 1910.5000  -999.2500     6.6910
 1911.0000  -999.2500     6.6920
 1911.5000  -999.2500     6.6920
 1912.0000  -999.2500     6.6930
 1912.5000  -999.2500     6.6940
 1913.0000  -999.2500     6.6950
 1913.5000  -999.2500     6.6960
 1914.0000  -999.2500     6.6960
 1914.5000  -999.2500     6.6960
 1915.0000  -999.2500     6.6950
 1915.5000  -999.2500     6.6950
 1916.0000  -999.2500     6.6940
 1916.5000  -999.2500     6.6930
 1917.0000  -999.2500     6.6930
 1917.5000  -999.2500     6.6920
 1918.0000  -999.2500     6.6920
 1918.5000  -999.2500     6.6910
 1919.0000  -999.2500     6.6900
 1919.5000  -999.2500     6.6900
 1920.0000  -999.2500     6.6890
 1920.5000  -999.2500     6.6890
 1921.0000  -999.2500     6.6880
 1921.5000  -999.2500     6.6870
 1922.0000  -999.2500     6.6870
 1922.5000  -999.2500     6.6810
 1923.0000  -999.2500     6.6740
 1923.5000  -999.2500     6.6680
 1924.0000  -999.2500     6.6610
 1924.5000  -999.2500     6.6540
 1925.0000  -999.2500     6.6470
 1925.5000  -999.2500     6.6480
 1926.0000  -999.2500     6.6480
 1926.5000  -999.2500     6.6480
 1927.0000  -999.2500     6.6490
 1927.5000  -999.2500     6.6490
 1928.0000  -999.2500     6.6500
 1928.5000  -999.2500     6.6500
 1929.0000  -999.2500     6.6500
 1929.5000  -999.2500     6.6510
 1930.0000  -999.2500     6.6510
 1930.5000  -999.2500     6.6510
 1931.0000  -999.2500     6.6520
 1931.5000  -999.2500     6.6520
 1932.0000  -999.2500     6.6530
 1932.5000  -999.2500     6.6530
 1933.0000  -999.2500     6.6530
 1933.5000  -999.2500     6.6540
 1934.0000  -999.2500     6.6540
 1934.5000  -999.2500     6.6550
 1935.0000  -999.2500     6.6550
 1935.5000  -999.2500     6.6550
 1936.0000  -999.2500     6.6560
 1936.5000  -999.2500     6.6560
 1937.0000  -999.2500     6.6570
 1937.5000  -999.2500     6.6570
 1938.0000  -999.2500     6.6570
 1938.5000  -999.2500     6.6550
 1939.0000  -999.2500     6.6540
 1939.5000  -999.2500     6.6530
 1940.0000  -999.2500     6.6520
 1940.5000  -999.2500     6.6510
 1941.0000  -999.2500     6.6490
 1941.5000  -999.2500     6.6480
 1942.0000  -999.2500     6.6470
 1942.5000  -999.2500     6.6460
 1943.0000  -999.2500     6.6450
 1943.5000  -999.2500     6.6430
