~VERSION INFORMATION
 VERS.                2.0:   CWLS LOG ASCII STANDARD - VERSION 2.0
 WRAP.                 NO:   ONE LINE PER DEPTH STEP
~WELL INFORMATION
#MNEM.UNIT      DATA TYPE    INFORMATION
#----------   ------------   ------------------------------
 STRT.F            0.0000:   START DEPTH
 STOP.F         5673.0000:   STOP DEPTH
 STEP.F            0.5000:   STEP LENGTH
 NULL.          -999.2500:   NO VALUE
 COMP.       FLUOR DANIEL:   COMPANY
 WELL.   FLUOR "X" #63-10:   WELL
 FLD .             NPR #3:   FIELD
 LOC .      S10 T38N R78W:   LOCATION
 CNTY.            NATRONA:   COUNTY
 STAT.            WYOMING:   STATE
 CTRY. UNITED STATES OF AMERICA:   COUNTRY
 SRVC.      WESTERN ATLAS:   SERVICE COMPANY
 DATE.        02-MAR-1996:   LOGDATE
 API .     49025227690000:   API NUMBER
~CURVE INFORMATION
#MNEM.UNIT       API CODE    CURVE DESCRIPTION
#----------   ------------   ------------------------------
 DEPT.F                  :   
 GRD .GAPI   45 310 01 00:   GAMMA RAY FROM DENSITY LOG
 TEND.LBS    45 635 01 00:   TENSION FROM DENSITY LOG
 CALD.IN     45 280 60 00:   CALIPER FROM DENSITY LOG
 ZCOR.G/C3   45 356 01 00:   DENSITY CORRECTION
 ZDEN.G/C3   45 350 01 00:   BULK DENSITY
 CNC .DEC    42 890 03 00:   COMPENSATED NEUTRON POROSITY SANDSTONE
 SPR .MV     11 010 01 00:   SPONTANEOUS POTENTIAL FROM RESISTIVITY
 RD  .OHMM   11 220 10 00:   RESISTIVITY DEEP
 RS  .OHMM   11 220 09 00:   RESISTIVITY SHALLOW
~PARAMETER INFORMATION
#MNEM.UNIT          VALUE    DESCRIPTION
#----------   ------------   ------------------------------
 EKB .F         5196.0000:   Kelly bushing
 EGL .F         5186.0000:   Ground level
 EDF .F         5195.0000:   Drilling floor
 TD  .F         5674.0000:   Total depth
 CLNT.            A2DTECH:   Client Code
 SL  . 1688' FNL & 1730' FEL:   Surface Location
 PD  .                 GL:   Permanent Datum
 EPD .F              5186:   Elevation Permanent Datum
 LMF .                 KB:   Log Measured From
 DMF .                 KB:   Drilling Measured From
 DAPD.F                10:   Feet Above Permanent Datum
 DATE.        02-MAR-1996:   Date Logged [DD-MMM-YYYY]
 DD  .F              5674:   Depth driller
 DL  .F              5674:   Depth logger
 BLI .F              5663:   Bottom log interval
 CS1 .IN            9.625:   Casing size
 CBD1.      9.625" @ 448':   Casing driller 1
 CBL1.F               448:   Casing logger 1
 BS1 .IN             8.75:   Bit size
 BSD1.F              5674:   Depth drilled with bit1
 DFT .               CHEM:   Type fluid in hole
 DFD .                9.7:   Density
 DFV .                 53:   Viscosity
 DFPH.                9.0:   pH
 DFL .                9.2:   Fluid loss
 MSS .           FLOWLINE:   Source of sample
 RMS .OHMM          0.628:   Rm
 MST .F                71:   Rm Meas. temp.
 RMF .OHMM          0.477:   Rmf
 MFST.F                71:   Rmf Meas. temp.
 MFSS.               MEAS:   Source Rmf.
 RMC .OHMM          0.779:   Rmc
 MCST.F                71:   Rmc Meas. temp.
 MCSS.               MEAS:   Source Rmc.
 RMB .OHMM          0.251:   Rm. at BHT
 BHT .F               178:   BHT.
 TCS .F               4.5:   Time Circ. stopped
 MRT .HRS             178:   Maximum recorded temp.
 LUN .            HL-6530:   Logging unit number
 LUL .             CASPER:   Logging unit location
 ENGI.      PAT RASMUSSEN:   Recorded By
 ORIG.           5" PRINT:   Origin of data
 UWI .     49025227690000:   Unique Well ID
 WITN.         LAFRENIERE:   Witnessed by
 DICO.   A2D TECHNOLOGIES:   Digitizing Company
~OTHER INFORMATION
~A  DEPTH      GRD       TEND       CALD       ZCOR       ZDEN        CNC        SPR         RD         RS
# ...
 4599.0000    85.8269   -57.0799     9.9850     0.0139     2.6319     0.1142   -92.2888    22.1994    19.6677
 4599.5000    88.5464   -62.5937    10.0000     0.0109     2.6295     0.1146   -92.1607    22.0412    18.7327
 4600.0000    90.6634   -62.5937    10.0150     0.0169     2.6266     0.1140   -92.1683    22.1893    18.7267
 4600.5000    90.0633   -62.5187    10.0152     0.0199     2.6236     0.1077   -92.5983    22.8060    19.5155
 4601.0000    86.1512   -62.4401    10.0157     0.0261     2.6229     0.1011   -93.0089    24.7765    21.0534
 4601.5000    79.2263   -62.3688    10.0009     0.0318     2.6356     0.0876   -93.4209    27.4823    23.1890
 4602.0000    73.8074   -62.2806    10.0012     0.0378     2.6507     0.0774   -93.8324    30.0767    25.7467
 4602.5000    67.7460   -54.7135    10.0016     0.0333     2.6559     0.0666   -93.7359    35.0629    27.5915
 4603.0000    62.3680   -54.6426    10.0018     0.0240     2.6551     0.0618   -93.5338    39.9403    29.3645
 4603.5000    59.9611   -62.0680    10.0021     0.0123     2.6507     0.0603   -93.3308    41.6307    31.6869
 4604.0000    57.2530   -69.4756    10.0024     0.0033     2.6477     0.0603   -93.1288    41.9134    32.5762
 4604.5000    58.1596   -61.9085    10.0027     0.0062     2.6447     0.0612   -92.9200    40.7274    31.9069
 4605.0000    58.1631   -61.8376    10.0030     0.0123     2.6386     0.0639   -92.8215    37.2475    30.8077
 4605.5000    58.1659   -54.2704    10.0033     0.0212     2.6184     0.0712   -92.7528    32.4258    28.1702
 4606.0000    62.0844   -61.6958    10.0036     0.0257     2.6004     0.0825   -92.6847    28.6219    23.8597
 4606.5000    68.4132   -61.6072    10.0039     0.0302     2.5996     0.0900   -92.6162    24.7440    21.2117
 4607.0000    71.1269   -69.0503    10.0043     0.0332     2.6034     0.0945   -92.5478    23.4074    20.3490
 4607.5000    72.9369   -76.4757    10.0045     0.0347     2.6117     0.0999   -92.4793    22.9232    19.5214
 4608.0000    75.3721   -83.8833    10.0048     0.0331     2.6230     0.1050   -92.4108    22.2812    18.7275
 4608.5000    78.6661   -83.7947    10.0051     0.0316     2.6327     0.1134   -92.3417    20.5129    17.5968
 4609.0000    87.1027   -76.2275    10.0055     0.0316     2.6395     0.1228   -92.2720    18.8748    16.3070
 4609.5000    91.0212   -76.1567    10.0058     0.0286     2.6455     0.1299   -92.2685    17.1285    15.7525
 4610.0000    94.2369   -76.0858    10.0060     0.0226     2.6478     0.1314   -92.2690    16.8907    15.5360
 4610.5000    98.5576   -75.9971    10.0063     0.0106     2.6343     0.1281   -92.2687    17.2425    15.7525
 4611.0000    96.4520   -83.4403    10.0066     0.0045     2.6283     0.1152   -92.2684    17.7245    15.9720
 4611.5000    92.5392   -90.8656    10.0070     0.0120     2.6316     0.1101   -92.2981    18.9930    16.5343
 4612.0000    85.3138   -98.2732    10.0072     0.0285     2.6486     0.1026   -92.5036    21.3624    18.0906
 4612.5000    74.4732   -90.7047    10.0075     0.0315     2.6598     0.0906   -92.7082    24.3634    21.1525
 4613.0000    67.8496   -83.1213    10.0078     0.0225     2.6674     0.0786   -92.9125    27.7859    24.6996
 4613.5000    64.8127   -75.5541    10.0082     0.0148     2.6681     0.0723   -93.1168    31.0876    27.5915
 4614.0000    63.6383   -67.9870    10.0085     0.0105     2.6681     0.0732   -93.3209    34.4295    29.5684
 4614.5000    64.2443   -60.4198    10.0087     0.0059     2.6666     0.0799   -93.5249    32.7960    28.7611
 4615.0000    67.5603   -52.8350    10.0391     0.0044     2.6644     0.0903   -93.7152    29.7618    26.8382
 4615.5000    73.5422   -52.7641    10.0545     0.0044     2.6614     0.1026   -93.8797    27.2816    24.0253
 4616.0000    82.6269   -45.1970    10.0698     0.0059     2.6531     0.1116   -94.0412    25.1972    22.1109
 4616.5000    88.3526   -45.1260    10.0851     0.0059     2.6351     0.1162   -94.2027    25.3698    21.8070
 4617.0000    86.5482   -46.1986    10.1005     0.0089     2.6306     0.1117   -94.3642    26.2594    23.0482
 4617.5000    78.7204   -52.4805    10.1158     0.0104     2.6329     0.1075   -94.5258    28.7285    24.0253
 4618.0000    74.5064   -52.3919    10.1312     0.0043     2.6419     0.1094   -94.6876    30.1515    25.0627
 4618.5000    75.1116   -59.8350    10.1315    -0.0002     2.6524     0.1183   -94.8519    29.1216    25.5692
 4619.0000    77.9232   -44.7526    10.1317    -0.0017     2.6592     0.1270   -94.8799    26.0348    22.7315
 4619.5000    87.4673   -29.6728    10.1320    -0.0017     2.6630     0.1282   -94.8799    24.1482    21.5073
 4620.0000    93.7955   -22.1057    10.1324    -0.0002     2.6646     0.1243   -94.8795    23.8130    20.6326
 4620.5000    95.3420   -22.0348    10.1176     0.0013     2.6645     0.1204   -94.8795    24.1421    21.2117
 4621.0000    94.0585   -21.9639    10.1179     0.0057     2.6600     0.1162   -94.8795    25.5130    22.1109
 4621.5000    91.3950   -29.3716    10.1032     0.0072     2.6585     0.1113   -94.8795    27.9128    23.3694
 4622.0000    87.1809   -36.7969    10.1035     0.0072     2.6623     0.1036   -94.8795    30.7505    25.5692
 4622.5000    81.4609   -44.2400    10.1038     0.0072     2.6660     0.0988   -94.8795    33.1802    27.7830
 4623.0000    71.8258   -51.6477    10.1041     0.0027     2.6615     0.0952   -94.8795    37.5789    29.9804
 4623.5000    68.8166   -52.6584    10.1044    -0.0033     2.6593     0.0958   -94.8798    37.8364    30.8218
 4624.0000    67.0115   -59.0021    10.1198    -0.0048     2.6593     0.0973   -94.8800    36.7967    30.1886
 4624.5000    71.2884   -66.4098    10.1200    -0.0019     2.6638     0.1006   -94.8607    35.0367    29.7737
 4625.0000    74.8499   -66.3418    10.1203     0.0071     2.6630     0.1009   -94.7244    34.3247    29.3645
 4625.5000    76.3587   -66.2669    10.1356     0.0161     2.6600     0.0967   -94.5886    34.7989    29.3857
 4626.0000    76.0602   -58.6832    10.1359     0.0054     2.6570     0.0976   -94.4529    35.5248    29.9804
 4626.5000    77.2687   -58.6123    10.1363    -0.0049     2.6525     0.1027   -94.3161    36.0156    30.6093
 4627.0000    78.4763   -51.0451    10.1516    -0.0124     2.6503     0.1098   -94.1811    35.5145    30.8218
 4627.5000    79.0815   -50.9742    10.1669    -0.0080     2.6480     0.1177   -94.1503    34.0647    30.3982
 4628.0000    81.1928   -58.3996    10.1752    -0.0048     2.6481     0.1282   -94.5574    31.1279    26.6531
 4628.5000    94.7505   -58.3110    10.1826    -0.0080     2.6496     0.1444   -94.9522    25.6371    21.5073
 4629.0000   106.8015   -65.7541    10.1979    -0.0170     2.6526     0.1702   -95.2769    20.6814    18.0906
 4629.5000   114.3345   -65.6655    10.2133    -0.0140     2.6563     0.1798   -95.1761    17.8799    16.3070
 4630.0000   118.3133   -58.0960    10.2286    -0.0125     2.6541     0.1807   -95.0839    17.2692    15.4288
 4630.5000   120.3649   -65.5237    10.2440    -0.0095     2.6503     0.1701   -94.9924    19.0242    15.8618
 4631.0000   119.4641   -57.9388    10.2442    -0.0066     2.6488     0.1513   -94.8985    21.5469    17.6527
 4631.5000   116.1537   -57.8679    10.2445    -0.0006     2.6511     0.1393   -94.8796    25.2640    22.7315
 4632.0000   104.7114   -42.8036    10.2599     0.0040     2.6571     0.1261   -94.8794    31.9659    26.8382
 4632.5000    94.1721   -42.7160    10.2451     0.0144     2.6648     0.1141   -94.8796    38.8009    30.1886
 4633.0000    89.6568   -42.6450    10.2303     0.0054     2.6759     0.1073   -94.7489    42.1576    34.4305
 4633.5000    87.5512   -50.0882    10.2307    -0.0006     2.6752     0.1046   -94.4947    43.3361    36.6429
 4634.0000    85.4463   -49.9995    10.2310    -0.0051     2.6729     0.1037   -94.2401    40.9939    37.6714
 4634.5000    82.1359   -19.9259    10.2313    -0.0052     2.6752     0.1052   -93.9852    32.1662    31.6869
 4635.0000    80.9332    -4.8625    10.2316    -0.0052     2.6790     0.1091   -93.7297    24.7205    24.3601
