~VERSION INFORMATION
 VERS.                2.0:   CWLS LOG ASCII STANDARD - VERSION 2.0
 WRAP.                 NO:   ONE LINE PER DEPTH STEP
~WELL INFORMATION
#MNEM.UNIT      DATA TYPE    INFORMATION
#----------   ------------   ------------------------------
 STRT.F            5.5000:   START DEPTH
 STOP.F         3261.0000:   STOP DEPTH
 STEP.F            0.5000:   STEP LENGTH
 NULL.          -999.2500:   NO VALUE
 COMP. LAWRENCE ALLISON & ASSOCIATES:   COMPANY
 WELL. LAWRENCE "X" #12-14:   WELL
 FLD .              NPR 3:   FIELD
 LOC .      S14 T38N R78W:   LOCATION
 CNTY.            NATRONA:   COUNTY
 STAT.            WYOMING:   STATE
 CTRY. UNITED STATES OF AMERICA:   COUNTRY
 SRVC.      DRESSER ATLAS:   SERVICE COMPANY
 DATE.        18-AUG-1986:   LOGDATE
 API .     49025111080000:   API NUMBER
~CURVE INFORMATION
#MNEM.UNIT       API CODE    CURVE DESCRIPTION
#----------   ------------   ------------------------------
 DEPT.F                  :   
 RILM.OHMM   07 120 44 00:   INDUCTION LOG MEDIUM RESISTIVITY
 GRR .GAPI   07 310 01 00:   GAMMA RAY FROM RESISTIVITY
 SPR .MV     07 010 01 00:   SPONTANEOUS POTENTIAL
 NPHI.DEC    42 890 03 00:   NEUTRON POROSITY SANDSTONE
 CALD.IN     45 280 60 00:   CALIPER FROM DENSITY LOG
 TEND.LBS    45 635 01 00:   TENSION FORM DENSITY LOG
 DRHO.G/C3   45 356 01 00:   DENSITY CORRECTION
 DEN .G/C3   45 350 01 00:   BULK DENSITY
 RILD.OHMM   07 120 46 00:   DEEP INDUCTION RESISTIVITY
 RFOC.OHMM   07 220 04 00:   RESISTIVITY FOCUSED LOG RES.
~PARAMETER INFORMATION
#MNEM.UNIT          VALUE    DESCRIPTION
#----------   ------------   ------------------------------
 EKB .F         5245.0000:   Kelly bushing
 EGL .F         5234.0000:   Ground level
 TD  .F         3250.0000:   Total depth
 CLNT.            A2DTECH:   Client Code
 SL  . 901' FNL & 485' FWL:   Surface Location
 PD  .                 GL:   Permanent Datum
 EPD .F              5234:   Elevation Permanent Datum
 LMF .                 KB:   Log Measured From
 DMF .                 KB:   Drilling Measured From
 DAPD.F                11:   Feet Above Permanent Datum
 DATE.        18-AUG-1986:   Date Logged [DD-MMM-YYYY]
 DD  .F              3250:   Depth driller
 DL  .F              3246:   Depth logger
 BLI .F              3244:   Bottom log interval
 TLI .F                 0:   Top log interval
 CS1 .IN            8.625:   Casing size
 CBD1.      8.625" @ 733':   Casing driller 1
 CBL1.F               735:   Casing logger 1
 BS1 .IN            7.875:   Bit size
 BSD1.F              3250:   Depth drilled with bit1
 DFT .            KCL-GEL:   Type fluid in hole
 DFD .                8.8:   Density
 DFV .                 36:   Viscosity
 DFPH.                8.5:   pH
 DFL .               12.8:   Fluid loss
 MSS .           FLOWLINE:   Source of sample
 RMS .OHMM          0.292:   Rm
 MST .F                73:   Rm Meas. temp.
 RMF .OHMM          0.224:   Rmf
 MFST.F                73:   Rmf Meas. temp.
 MFSS.               MEAS:   Source Rmf.
 RMC .OHMM          0.365:   Rmc
 MCST.F                73:   Rmc Meas. temp.
 MCSS.               CALC:   Source Rmc.
 RMB .OHMM          0.154:   Rm. at BHT
 BHT .F               138:   BHT.
 TCS .HRS               5:   Time Circ. stopped
 MRT .F               138:   Maximum recorded temp.
 LUN .            HL-6214:   Logging unit number
 LUL .           GILLETTE:   Logging unit location
 ENGI.             RAUTIO:   Recorded By
 WITN.             STRONG:   Witnessed by
 ORIG.        2" 5" PRINT:   Origin of data
 UWI .     49025111080000:   Unique Well ID
 DICO. A2D TECHNOLOGIES, INC.:   Digitizing Company
~OTHER INFORMATION
~A    DEPT    RILM         GRR       SPR       NPHI       CALD       TEND       DRHO        DEN       RILD       RFOC   
# ...
 2953.5000     6.8616   120.8689   -41.0509     0.2368     8.7858   -69.5489    -0.0358     2.4970     6.5995     6.7960
 2954.0000     7.3022   120.5792   -41.0422     0.2268     8.7854   -54.5113    -0.0404     2.4955     7.0186     7.0906
 2954.5000     7.8294   112.1570   -41.0315     0.2172     8.8003   -39.4737    -0.0404     2.5000     7.3185     7.9901
 2955.0000     8.5715   104.8612   -41.1734     0.2099     8.8000   -24.4361    -0.0358     2.5091     7.6311    10.0413
 2955.5000     8.5133   101.0356   -41.1647     0.2099     8.7997   -24.4361    -0.0253     2.5189     7.7387    10.1122
 2956.0000     8.2233   103.1584   -41.3088     0.2123     8.7994   -16.9173    -0.0099     2.5286     7.8477    10.0427
 2956.5000     8.3399   105.8808   -41.4488     0.2231     8.7991   -24.4361     0.0034     2.5163     8.0139     9.9044
 2957.0000     8.3993   108.0008   -41.4400     0.2413     8.7836   -24.4361    -0.0117     2.5005     8.1269     9.2385
 2957.5000     8.4004   110.1208   -41.5819     0.2583     8.8036   -24.4361    -0.0177     2.4990     8.2414     8.6173
 2958.0000     8.4015   115.3328   -41.7238     0.2673     8.8133   -24.4361    -0.0192     2.4982     8.3575     8.4396
 2958.5000     8.7001   119.4842   -41.8636     0.2556     8.8130   -24.4361    -0.0238     2.4967     8.5344     8.5096
 2959.0000     9.2634   119.7969   -42.0077     0.2344     8.8127   -24.4361    -0.0253     2.4975     8.6547     8.5107
 2959.5000     9.7949   117.0976   -42.2981     0.2250     8.8124   -39.4737    -0.0236     2.5088     8.9620     9.1260
 2960.0000     9.9337   108.6755   -42.3094     0.2142     8.8121   -54.5113    -0.0192     2.5335     9.0882    10.7135
 2960.5000    10.0044    97.2412   -42.4314     0.2042     8.8118   -46.9925    -0.0177     2.5488     9.0889    12.8427
 2961.0000     9.9364    92.7129   -42.2700     0.1996     8.8115   -39.4737    -0.0328     2.5586     9.0263    12.9342
 2961.5000     9.1418    93.0504   -42.2613     0.2039     8.8112   -24.4361    -0.0479     2.5555     9.0270    12.4935
 2962.0000     8.5882    97.8812   -42.2526     0.2126     8.8109   -20.8093    -0.0192     2.5480     8.6583    11.4132
 2962.5000     7.8653   105.1217   -42.2440     0.2178     8.8106   -20.6647     0.0064     2.5374     7.5599    10.2821
 2963.0000     6.9726   115.9766   -42.2332     0.2247     8.8254   -20.5201     0.0170     2.5273     6.6467     8.6396
 2963.5000     6.5503   123.2171   -42.2245     0.2530     8.8403   -12.8567     0.0125     2.5177     6.3310     7.2092
 2964.0000     5.9021   131.5025   -42.3686     0.2803     8.8703   -20.2255     0.0079     2.5185     6.1148     6.0999
 2964.5000     5.5833   137.0985   -42.5105     0.2985     8.8851   -20.0501     0.0049     2.5169     5.5473     6.1010
 2965.0000     5.3558   137.7125   -42.6506     0.3057     8.9151   -19.9055     0.0034     2.5147     5.4330     6.1018
 2965.5000     5.1736   136.8204   -42.7923     0.3015     8.9300   -19.7609     0.0034     2.5161     5.1392     6.1026
 2966.0000     4.9974   135.6272   -42.7814     0.2876     8.9297   -12.0975     0.0034     2.5207     4.8611     6.1034
 2966.5000     4.8947   136.2411   -42.6222     0.2797     8.9294   -11.9530     0.0064     2.5267     4.6625     5.9780
 2967.0000     4.8279   139.6337   -42.7663     0.2788     8.9291   -11.8045     0.0109     2.5252     4.5033     5.7651
 2967.5000     4.7950   140.1828   -42.7554     0.2879     8.9265   -11.6276     0.0170     2.5206     4.3800     5.5386
 2968.0000     4.6641   138.9866   -42.7468     0.3051     8.9133   -19.0380     0.0109     2.5146     4.3499     5.4625
 2968.5000     4.5683   138.3958   -42.7379     0.3187     8.9130   -18.8573     0.0049     2.5130     4.2258     5.4253
 2969.0000     4.5060   138.7114   -42.7273     0.3187     8.9127   -33.7864     0.0034     2.5108     4.1435     5.3884
 2969.5000     4.5066   139.6266   -42.7186     0.3169     8.9124   -41.1278     0.0016     2.5051     4.2313     5.4269
 2970.0000     4.5072   140.2406   -42.5594     0.3215     8.9121   -48.4986    -0.0223     2.4934     4.2612     5.4656
 2970.5000     4.5392   139.0473   -42.4001     0.3124     8.9118   -55.8728    -0.0253     2.4964     4.3818     5.4665
 2971.0000     4.6035   139.9654   -42.3914     0.2964     8.9115   -55.6921    -0.0238     2.5069     4.5058     5.5055
 2971.5000     4.8059   141.4830   -42.2319     0.2873     8.9112   -55.5475    -0.0102     2.5160     4.5694     5.5447
 2972.0000     4.9710   142.6993   -42.2214     0.2873     8.9261   -47.8841    -0.0042     2.5190     4.6338     5.7022
 2972.5000     5.0414   141.8073   -42.2127     0.2849     8.9106   -47.7395    -0.0389     2.5198     4.7649     5.8641
 2973.0000     5.0772   141.4721   -42.2040     0.2843     8.9254   -17.5188    -0.0341     2.5227     4.8998     6.0794
 2973.5000     5.0779   140.3273   -42.1954     0.2927     8.9252    -9.8202    -0.0132     2.5272     4.9001     6.2021
 2974.0000     5.0434   136.4231   -42.1867     0.2952     8.9248    -9.6756     0.0042     2.5325     4.9005     6.2029
 2974.5000     5.0442   134.3263   -42.1777     0.2834     8.9245    -9.5310     0.0057     2.5325     4.8668     6.0754
 2975.0000     4.9750   134.6390   -42.1672     0.2773     8.9242    -9.3865    -0.0079     2.5295     4.7666     5.9506
 2975.5000     4.9069   134.6506   -42.3113     0.2880     8.9239    -9.2419    -0.0140     2.5219     4.7669     5.8690
 2976.0000     4.8400   133.1590   -42.6017     0.2982     8.9236   -16.6166    -0.0125     2.5173     4.8678     5.7484
 2976.5000     4.7737   133.1706   -42.5931     0.2973     8.9082   -16.4662    -0.0050     2.5188     4.8344     5.6304
 2977.0000     4.7744   139.2062   -42.2831     0.3033     8.9079   -16.2907    -0.0019     2.5188     4.7348     5.6312
 2977.5000     4.7750   142.5311   -42.2724     0.3161     8.8924   -23.7011    -0.0005     2.5196     4.6051     5.5926
 2978.0000     4.7758   141.6390   -42.1131     0.3190     8.8921   -31.0753    -0.0080     2.5226     4.6376     5.5936
 2978.5000     4.7764   140.7396   -42.1044     0.3073     8.8918   -30.8945    -0.0201     2.5173     4.7030     5.7935
 2979.0000     4.8104   138.0505   -42.2464     0.3021     8.8915   -30.7499    -0.0262     2.5112     4.7033     5.9573
 2979.5000     4.8446   136.8544   -42.2377     0.3070     8.8912   -30.6015    -0.0156     2.5127     4.7036     5.9998
 2980.0000     4.9132   135.6611   -42.0785     0.3015     8.8909   -30.4246     0.0025     2.5172     4.7039     5.9175
 2980.5000     4.9139   135.3715   -42.0676     0.2952     8.8905   -30.2800     0.0161     2.5225     4.7703     5.7957
 2981.0000     4.9147   135.9883   -42.2117     0.2927     8.8903   -30.1355     0.0070     2.5255     4.7374     5.7564
 2981.5000     4.9496   136.3012   -42.0503     0.3048     8.8900   -29.9909    -0.0172     2.5157     4.7378     5.7975
 2982.0000     4.9848   136.3155   -42.0416     0.3136     8.8897   -29.8463    -0.0142     2.5065     4.7381     5.7984
 2982.5000     4.9855   136.9295   -42.0330     0.3215     8.8894   -29.6992    -0.0175     2.5020     4.7715     5.7992
 2983.0000     4.9862   137.8447   -42.0241     0.3278     8.9194   -29.5209    -0.0263     2.4990     4.8052     5.8405
 2983.5000     5.0569   139.3622   -42.1663     0.3336     8.9191   -14.3387    -0.0369     2.4929     4.8391     5.9233
 2984.0000     5.0929   140.2774   -42.1554     0.3308     8.9187    -6.6753    -0.0354     2.4914     4.8733     6.0492
 2984.5000     5.1291   140.2892   -42.2996     0.3203     8.9184     8.5069    -0.0142     2.4937     4.8736     6.1349
 2985.0000     5.1298   139.0986   -42.2887     0.3130     8.9182    16.1703    -0.0067     2.4967     4.9080     6.0931
 2985.5000     5.1305   138.5078   -42.2801     0.3157     8.9179    16.3158    -0.0264     2.5005     4.9083     6.0516
 2986.0000     5.1311   138.5193   -42.2711     0.3142     8.9176     8.9406    -0.0324     2.5019     4.9086     6.0526
 2986.5000     5.0963   139.1333   -42.4133     0.3115     8.9173     1.5664    -0.0294     2.4989     4.9091     6.0534
