~VERSION INFORMATION
 VERS.                2.0:   CWLS LOG ASCII STANDARD - VERSION 2.0
 WRAP.                 NO:   ONE LINE PER DEPTH STEP
~WELL INFORMATION
#MNEM.UNIT      DATA TYPE    INFORMATION
#----------   ------------   ------------------------------
 STRT.F            0.0000:   START DEPTH
 STOP.F         3110.5000:   STOP DEPTH
 STEP.F            0.5000:   STEP LENGTH
 NULL.          -999.2500:   NO VALUE
 COMP. LAWRENCE  ALLISON AND ASSOCIATES:   COMPANY
 WELL. LAWRENCE NPR 3 "X" #72-15:   WELL
 FLD .                NPR:   FIELD
 LOC .      S15 T38N R78W:   LOCATION
 CNTY.            NATRONA:   COUNTY
 STAT.            WYOMING:   STATE
 CTRY. UNITED STATES OF AMERICA:   COUNTRY
 SRVC.           WIRELINE:   SERVICE COMPANY
 DATE.        16-JAN-1988:   LOGDATE
 API .     49025111930000:   API NUMBER
~CURVE INFORMATION
#MNEM.UNIT       API CODE    CURVE DESCRIPTION
#----------   ------------   ------------------------------
 DEPT.F                  :   
 TENR.LBS    07 635 01 00:   TENSION FROM RESISTIVITY
 GRR .GAPI   07 310 01 00:   GAMMA RAY FROM RESISTIVITY
 SPR .MV     07 010 01 00:   SPONTANEOUS POTENTIAL
 RFOC.OHMM   07 220 04 00:   RESISTIVITY FOCUSED LOG RES.
 RILD.OHMM   07 120 46 00:   DEEP INDUCTION RESISTIVITY
 RILM.OHMM   07 120 44 00:   INDUCTION LOG MEDIUM RESISTIVITY
 TEND.LBS    45 635 01 00:   TENSION FROM DENSITY LOG
 RHOB.G/C3   45 350 01 00:   BULK DENSITY
 CORR.G/C3   45 356 01 00:   DENSITY CORRECTION
 CNC .DEC    42 890 03 00:   NEUTRON PORISITY SANDSTONE
 CALR.IN     07 280 01 00:   CALIPER FROM RESISTIVITY
~PARAMETER INFORMATION
#MNEM.UNIT          VALUE    DESCRIPTION
#----------   ------------   ------------------------------
 EKB .F         5240.0000:   Kelly bushing
 EGL .F         5229.0000:   Ground level
 EDF .F            0.0000:   Drilling floor
 TD  .F         3090.0000:   Total depth
 DATE.        16-JAN-1988:   Date logged
 CLNT.            A2DTECH:   Client Code
 SL  . 814' FNL & 1208' FEL:   Surface Location
 PD  .                 GL:   Permanent Datum
 DD  .F              3085:   Depth driller
 DL  .F              3090:   Depth logger
 BLI .F              3089:   Bottom log interval
 CS1 .IN            8.625:   Casing size
 CBD1.      8.625" @ 610':   Casing driller 1
 CBL1.F               613:   Casing logger 1
 BS1 .IN            7.875:   Bit size
 DFT .            KCL/GEL:   Type fluid in hole
 DFD .                8.8:   Density
 DFV .                 40:   Viscosity
 DFPH.                8.5:   pH
 DFL .                 10:   Fluid loss
 MSS .           FLOWLINE:   Source of sample
 RMS .OHMM           .543:   Rm
 MST .F                65:   Rm Meas. temp.
 RMF .OHMM           .349:   Rmf
 MFST.F                65:   Rmf Meas. temp.
 RMC .OHMM           .557:   Rmc
 MCST.F                65:   Rmc Meas. temp.
 MFSS.               CALC:   Source Rmf.
 RMB .OHMM           .258:   Rm. at BHT
 BHT .F               114:   BHT.
 TCS .HRS               5:   Time Circ. stopped
 MRT .F               114:   Maximum recorded temp.
 LUN .            HL-6321:   Logging unit number
 LUL .           GILLETTE:   Logging unit location
 ENGI.               CAIN:   Recorded By
 WITN.             STRONG:   Witnessed by
 ORIG.           5" PRINT:   Origin of data
 UWI .     49025111930000:   Unique Well ID
 DICO. A2D TECHNOLOGIES, INC.:   Digitizing Company
 DAPD.F                11:   Feet Above Permanent Datum
 BSD1.F              3085:   Depth drilled with bit1
 MCSS.               CALC:   Source Rmc.
 EPD .F              5229:   Elevation Permanent Datum
 LMF .                 KB:   Log Measured From
 DMF .                 KB:   Drilling Measured From
~OTHER INFORMATION
~A    DEPT    TENR         GRR       SPR       RFOC       RILD       RILM       TEND       RHOB       CORR        CNC       CALR   
# ...
 1738.5000   -49.2920   100.7790   -69.4080     8.8040     8.3870     7.9180  -999.2500  -999.2500  -999.2500  -999.2500     8.9650
 1739.0000   -49.8780    98.8570   -69.0760     8.8050     8.4430     8.0220  -999.2500  -999.2500  -999.2500  -999.2500     8.9610
 1739.5000   -50.4630    98.4890   -69.0760     8.8020     8.4980     8.1260  -999.2500  -999.2500  -999.2500  -999.2500     8.9570
 1740.0000   -51.0480    98.0780   -69.1370     8.8890     8.5540     8.2310  -999.2500  -999.2500  -999.2500  -999.2500     8.9530
 1740.5000   -51.6330    96.8700   -69.1980     9.2730     8.6130     8.3350  -999.2500  -999.2500  -999.2500  -999.2500     8.9490
 1741.0000   -52.2190    92.1950   -69.3170     9.6540     8.6920     8.4390  -999.2500  -999.2500  -999.2500  -999.2500     8.9440
 1741.5000   -52.8040    88.9330   -69.4690     9.5840     8.7230     8.5640  -999.2500  -999.2500  -999.2500  -999.2500     8.9400
 1742.0000   -53.3890    90.4880   -69.6190     9.4980     8.7230     8.4870  -999.2500  -999.2500  -999.2500  -999.2500     8.9360
 1742.5000   -53.9750    95.1140   -69.6920     9.4110     8.7230     8.3910  -999.2500  -999.2500  -999.2500  -999.2500     8.9320
 1743.0000   -54.5600    99.7190   -69.7630     9.3250     8.7230     8.2950  -999.2500  -999.2500  -999.2500  -999.2500     8.9280
 1743.5000   -69.2690   102.9580   -69.9070     9.2390     8.6710     8.1990  -999.2500  -999.2500  -999.2500  -999.2500     8.9230
 1744.0000   -84.8350   102.1270   -70.4040     9.1380     8.5830     8.1680  -999.2500  -999.2500  -999.2500  -999.2500     8.9190
 1744.5000   -70.3300   101.4180   -70.5320     9.0510     8.4940     8.1560  -999.2500  -999.2500  -999.2500  -999.2500     8.9150
 1745.0000   -54.8050   103.6100   -70.2980     9.0380     8.4050     8.1430  -999.2500  -999.2500  -999.2500  -999.2500     8.9110
 1745.5000   -44.7950   105.9360   -70.0640     9.0250     8.3280     8.1300  -999.2500  -999.2500  -999.2500  -999.2500     8.9070
 1746.0000   -44.7950   106.9660   -69.8290     9.0110     8.3130     8.1180  -999.2500  -999.2500  -999.2500  -999.2500     8.9030
 1746.5000   -44.7950   106.9520   -69.7880     8.9980     8.2970     8.1050  -999.2500  -999.2500  -999.2500  -999.2500     8.8980
 1747.0000   -44.7950   105.9180   -69.7560     8.9850     8.2820     8.0930  -999.2500  -999.2500  -999.2500  -999.2500     8.8940
 1747.5000   -44.7950   105.3940   -69.7230     8.9680     8.2670     8.0800  -999.2500  -999.2500  -999.2500  -999.2500     8.8900
 1748.0000   -45.8880   106.0760   -69.6910     8.9810     8.2540     8.0670  -999.2500  -999.2500  -999.2500  -999.2500     8.8860
 1748.5000   -47.9620   106.8650   -69.6580     9.0000     8.2720     8.0550  -999.2500  -999.2500  -999.2500  -999.2500     8.8820
 1749.0000   -50.0370   106.3670   -69.6190     9.0190     8.2930     8.0420  -999.2500  -999.2500  -999.2500  -999.2500     8.8840
 1749.5000   -52.1110   105.8730   -69.3080     9.0380     8.3130     8.0290  -999.2500  -999.2500  -999.2500  -999.2500     8.8900
 1750.0000   -54.1850   106.6610   -68.9630     9.0700     8.3330     7.9900  -999.2500  -999.2500  -999.2500  -999.2500     8.8960
 1750.5000   -54.8050   108.1150   -68.6180     9.1350     8.3530     7.9480  -999.2500  -999.2500  -999.2500  -999.2500     8.9020
 1751.0000   -54.8050   111.2970   -68.2730     9.2190     8.3720     7.9060  -999.2500  -999.2500  -999.2500  -999.2500     8.9080
 1751.5000   -49.7140   114.2630   -67.9190     9.1420     8.3920     7.8640  -999.2500  -999.2500  -999.2500  -999.2500     8.9130
 1752.0000   -42.5350   115.3720   -67.7860     8.9890     8.4070     7.8210  -999.2500  -999.2500  -999.2500  -999.2500     8.9190
 1752.5000   -34.7850   115.5590   -67.7200     8.8850     7.8260     7.4320  -999.2500  -999.2500  -999.2500  -999.2500     8.9250
 1753.0000   -41.1790   112.9620   -67.6580     8.9860     7.3050     6.9050  -999.2500  -999.2500  -999.2500  -999.2500     8.9310
 1753.5000   -50.0470   108.8420   -67.4960     9.1260     6.7840     6.3780  -999.2500  -999.2500  -999.2500  -999.2500     8.9370
 1754.0000   -58.9150   104.8480   -67.2470     9.2190     6.3290     5.8520  -999.2500  -999.2500  -999.2500  -999.2500     8.9430
 1754.5000   -63.8420   101.0250   -66.9980     7.9140     6.0070     5.4520  -999.2500  -999.2500  -999.2500  -999.2500     8.9480
 1755.0000   -56.6640    98.2830   -66.7490     6.3980     5.5890     5.3060  -999.2500  -999.2500  -999.2500  -999.2500     8.9540
 1755.5000   -49.4850    95.4730   -66.4930     5.3020     5.0630     5.1590  -999.2500  -999.2500  -999.2500  -999.2500     8.9600
 1756.0000   -44.7950    94.6650   -66.5390     5.6060     5.3560     5.0630  -999.2500  -999.2500  -999.2500  -999.2500     8.9660
 1756.5000   -46.3320    97.1820   -66.7230     6.0740     5.7490     5.5510  -999.2500  -999.2500  -999.2500  -999.2500     8.9720
 1757.0000   -47.9530    99.8970   -66.9190     6.7600     6.1420     6.0170  -999.2500  -999.2500  -999.2500  -999.2500     8.9770
 1757.5000   -49.5740   102.6100   -67.1950     7.8450     6.5350     6.4820  -999.2500  -999.2500  -999.2500  -999.2500     8.9830
 1758.0000   -51.1950   105.3200   -67.2650     8.9680     6.9280     6.9470  -999.2500  -999.2500  -999.2500  -999.2500     8.9890
 1758.5000   -52.8160   108.0320   -67.3130     9.2190     7.3240     7.1480  -999.2500  -999.2500  -999.2500  -999.2500     8.9950
 1759.0000   -54.4370   110.7410   -67.3620     9.1800     7.7200     7.3110  -999.2500  -999.2500  -999.2500  -999.2500     9.0010
 1759.5000   -52.2990   112.3750   -67.4140     9.1400     8.1900     7.4740  -999.2500  -999.2500  -999.2500  -999.2500     9.0070
 1760.0000   -49.0570   111.4750   -67.4650     9.1000     8.3300     7.7190  -999.2500  -999.2500  -999.2500  -999.2500     9.0120
 1760.5000   -45.8150   108.9260   -67.5160     9.0590     8.0590     7.6240  -999.2500  -999.2500  -999.2500  -999.2500     9.0180
 1761.0000   -42.5730   104.8180   -67.5670     8.9510     7.8090     7.3270  -999.2500  -999.2500  -999.2500  -999.2500     9.0240
 1761.5000   -39.3310   100.6570   -67.6190     8.8250     7.5590     7.0300  -999.2500  -999.2500  -999.2500  -999.2500     9.0300
 1762.0000   -36.0890    98.2570   -67.5930     8.5250     7.3270     6.5550  -999.2500  -999.2500  -999.2500  -999.2500     9.0360
 1762.5000   -40.0840    98.9990   -67.5340     7.5070     6.8640     6.6010  -999.2500  -999.2500  -999.2500  -999.2500     9.0410
 1763.0000   -48.9520   105.2250   -67.4790     6.4940     6.8640     6.7190  -999.2500  -999.2500  -999.2500  -999.2500     9.0470
 1763.5000   -57.8200   111.7890   -67.5480     6.6150     6.8640     6.8370  -999.2500  -999.2500  -999.2500  -999.2500     9.0530
 1764.0000   -64.2840   111.0000   -68.1670     7.4360     7.0180     6.9550  -999.2500  -999.2500  -999.2500  -999.2500     9.0590
 1764.5000   -61.7720   108.0010   -68.7790     8.2500     7.1710     7.0720  -999.2500  -999.2500  -999.2500  -999.2500     9.0650
 1765.0000   -59.2590   105.4150   -69.3950     8.8040     7.3240     7.1880  -999.2500  -999.2500  -999.2500  -999.2500     9.0700
 1765.5000   -56.7470   103.5140   -69.6200     8.8040     7.4780     7.2990  -999.2500  -999.2500  -999.2500  -999.2500     9.0760
 1766.0000   -54.2340   101.6120   -69.6150     8.8040     7.6310     7.4080  -999.2500  -999.2500  -999.2500  -999.2500     9.0820
 1766.5000   -51.7220    99.8470   -69.4310     8.8040     7.7840     7.5180  -999.2500  -999.2500  -999.2500  -999.2500     9.0880
 1767.0000   -49.2090   100.0410   -69.2410     8.8040     7.8090     7.6270  -999.2500  -999.2500  -999.2500  -999.2500     9.0940
 1767.5000   -46.6970   100.2050   -69.0460     8.8040     7.8090     7.6820  -999.2500  -999.2500  -999.2500  -999.2500     9.1000
 1768.0000   -44.1840    99.2900   -69.2230     8.8920     8.0230     7.7160  -999.2500  -999.2500  -999.2500  -999.2500     9.1050
 1768.5000   -41.6720    98.3030   -69.4550     9.0300     8.0040     7.7500  -999.2500  -999.2500  -999.2500  -999.2500     9.1110
