~VERSION INFORMATION
 VERS.                2.0:   CWLS LOG ASCII STANDARD - VERSION 2.0
 WRAP.                 NO:   ONE LINE PER DEPTH STEP
~WELL INFORMATION
#MNEM.UNIT      DATA TYPE    INFORMATION
#----------   ------------   ------------------------------
 STRT.F            6.0000:   START DEPTH
 STOP.F         3190.0000:   STOP DEPTH
 STEP.F            0.5000:   STEP LENGTH
 NULL.          -999.2500:   NO VALUE
 COMP. LAWRENCE ALLISON & ASSOCIATES:   COMPANY
 WELL. LAWRENCE N. P. R. 73AX #3-3:   WELL
 FLD .              N P R:   FIELD
 LOC .       S3 T38N R78W:   LOCATION
 CNTY.            NATRONA:   COUNTY
 STAT.            WYOMING:   STATE
 CTRY. UNITED STATES OF AMERICA:   COUNTRY
 SRVC.      DRESSER ATLAS:   SERVICE COMPANY
 DATE.        04-JUN-1986:   LOGDATE
 API .     49025110910000:   API NUMBER
~CURVE INFORMATION
#MNEM.UNIT       API CODE    CURVE DESCRIPTION
#----------   ------------   ------------------------------
 DEPT.F                  :   
 CALD.IN     45 280 60 00:   CALIPER FROM DENSITY LOG
 DEN .LBS    45 635 01 00:   BUCK DENSITY
 CORR.G/C3   45 356 01 00:   DENSITY CORRECTION
 TEND.LBS    45 635 01 00:   TENSION FROM DENSITY LOG
 SPR .MV     07 010 01 00:   SPONTANEOUS POTENTIAL
 GRR .GAPI   07 310 01 00:   GAMMA RAY FROM RESISTIVITY
 SFLU.OHMM   07 220 01 00:   SPHERICALLY FOCUSED LOG UNAVERAGED RESISTIVITY
 ILD .OHMM   07 120 46 00:   DEEP INDUCTION RESISTIVITY
 ILM .OHMM   07 120 44 00:   INDUCTION LOG MEDIUM RESISTIVITY
 TENR.LBS    07 635 01 00:   TENSION FROM RESISTIVITY
 CNC .DEC    42 890 01 00:   NEUTRON PORISITY LIMESTONE
~PARAMETER INFORMATION
#MNEM.UNIT          VALUE    DESCRIPTION
#----------   ------------   ------------------------------
 EKB .F         5173.0000:   Kelly bushing
 EGL .F         5161.0000:   Ground level
 TD  .F         3170.0000:   Total depth
 DATE.        04-JUN-1986:   Date logged
 CLNT.            A2DTECH:   Client Code
 PD  .                 GL:   Permanent Datum
 EPD .F              5161:   Elevation Permanent Datum
 LMF .                 KB:   Log Measured From
 DMF .                 KB:   Drilling Measured From
 DAPD.F                12:   Feet Above Permanent Datum
 DD  .F              3170:   Depth driller
 DL  .F              3168:   Depth logger
 BLI .F               8.9:   Bottom log interval
 TLI .F                38:   Top log interval
 CS1 .IN            8.625:   Casing size
 CBD1.      8.625" @ 603':   Casing driller 1
 CBL1.F               602:   Casing logger 1
 BS1 .IN            7.875:   Bit size
 BSD1.F              3170:   Depth drilled with bit1
 DFT .        KCL/POLYMER:   Type fluid in hole
 DFD .                8.9:   Density
 DFV .                 38:   Viscosity
 DFPH.                9.0:   pH
 DFL .               13.2:   Fluid loss
 MSS .           FLOWLINE:   Source of sample
 RMS .OHMM           .446:   Rm
 MST .F                64:   Rm Meas. temp.
 RMF .OHMM           .361:   Rmf
 MFST.F                64:   Rmf Meas. temp.
 RMC .OHMM            .56:   Rmc
 MCST.F                64:   Rmc Meas. temp.
 MFSS.               MEAS:   Source Rmf.
 MCSS.               CALC:   Source Rmc.
 RMB .OHMM           .242:   Rm. at BHT
 BHT .F               118:   BHT.
 TCS .HRS               3:   Time Circ. stopped
 MRT .F               118:   Maximum recorded temp.
 LUN .               6274:   Logging unit number
 LUL .           GILLETTE:   Logging unit location
 WITN.             STRONG:   Witnessed by
 ORIG.           5" PRINT:   Origin of data
 UWI .     49025110910000:   Unique Well ID
 DICO. A2D TECHNOLOGIES, INC.:   Digitizing Company
~OTHER INFORMATION
~A    DEPT    CALD        DEN       CORR       TEND        SPR         GRR      SFLU        ILD        ILM       TENR        CNC   
# ...
 3147.5000     8.1123     2.4662     0.0354   434.5656   -35.2978   113.9491     3.6982     2.9911     3.0502   434.8408     0.2630
 3148.0000     8.1124     2.4712     0.0355   444.4100   -35.1415   113.5536     3.5972     2.9372     2.9962   444.0027     0.2602
 3148.5000     8.1124     2.4743     0.0355   454.2541   -34.9852   113.5622     3.4989     2.8843     2.9432   453.1645     0.2445
 3149.0000     8.1125     2.4753     0.0356   464.0981   -34.7293   114.3788     3.4033     2.8323     2.8912   462.3263     0.2437
 3149.5000     8.1125     2.4753     0.0376   463.8918   -34.5230   113.9885     3.3104     2.7813     2.8401   474.2425     0.2505
 3150.0000     8.1125     2.4754     0.0357   463.6855   -34.3167   104.6994     3.1902     2.7312     2.7898   484.1140     0.2594
 3150.5000     8.1126     2.4754     0.0357   463.4617   -33.9084    99.4556     3.1905     2.6820     2.7405   483.9922     0.2590
 3151.0000     8.1120     2.4754     0.0357   463.4484   -33.5001    95.0199     3.1323     2.6337     2.6998   483.7892     0.2513
 3151.5000     8.1115     2.4744     0.0357   483.4346   -33.2938   103.9170     3.1912     2.5862     2.7251   483.5862     0.2509
 3152.0000     8.1109     2.4744     0.0357   493.3707   -33.1516   115.2382     3.2213     2.5550     2.7003   503.5335     0.2481
 3152.5000     8.1103     2.4754     0.0358   533.4591   -33.2852   119.2888     3.2216     2.5420     2.6022   523.4813     0.2473
 3153.0000     8.1098     2.4754     0.0358   543.3961   -32.8325   120.1054     3.2520     2.5292     2.6008   523.2791     0.2493
 3153.5000     8.1092     2.4754     0.0372   533.2314   -32.3799   120.1139     3.1339     2.5164     2.5882   513.0010     0.2519
 3154.0000     8.1087     2.4744     0.0378   533.1176   -31.9272  -999.2500     3.0201     2.5036     2.5756   512.7984     0.2553
 3154.5000     8.1081     2.4754     0.0338   543.0322   -31.4491  -999.2500     3.0206     2.4910     2.5632   512.5958     0.2561
 3155.0000     8.1075     2.4744     0.0278   542.9867   -30.9919  -999.2500     3.0490     2.4784     2.5557   532.5048     0.2586
 3155.5000     8.1070     2.4744     0.0198   568.5499   -30.6593  -999.2500     3.0493     2.4658     2.5322   562.5310     0.2517
 3156.0000     8.1064     2.4754     0.0399   582.8973   -30.0213  -999.2500     3.1067     2.4870     2.5180   592.5580     0.2408
 3156.5000     8.1059     2.4744     0.0359   602.8875   -30.2208  -999.2500     3.1359     2.4938     2.5039   602.4330     0.2384
 3157.0000     8.1053     2.4734     0.0369   602.7745   -30.2191  -999.2500     3.0221     2.5005     2.4898   592.1551     0.2235
 3157.5000     8.1048     2.4755     0.0378   602.6615   -30.1762  -999.2500     2.8855     2.5073     2.4758   591.9536     0.2069
 3158.0000     8.1042     2.4755     0.0360   612.6006   -30.1333  -999.2500     2.8592     2.5141     2.4619   601.8290     0.2174
 3158.5000     8.1036     2.4755     0.0360   622.5399   -30.0904  -999.2500     2.8861     2.5209     2.4481   621.7817     0.2521
 3159.0000     8.1031     2.4755     0.0380   632.5246   -30.0475  -999.2500     2.9404     2.5278     2.4344   621.5806     0.2521
 3159.5000     8.1025     2.4755     0.0380   652.4718   -29.9905  -999.2500     2.9681     2.5353     2.4207   621.3795     0.2521
 3160.0000     8.1020     2.4745     0.0380   662.4120   -29.9879  -999.2500     3.0240     2.5120     2.4071   631.2562     0.2521
 3160.5000     8.1014     2.4755     0.0381   682.4052   -30.3803  -999.2500     3.0809     2.5150     2.3757   661.2881     0.2521
 3161.0000     8.1008     2.4745     0.0381   712.3846   -30.5758  -999.2500     3.1099     2.5180     2.3758   701.3986     0.2521
 3161.5000     8.1003     2.4745     0.0381   712.3400   -30.7714  -999.2500     2.8879     2.5210     2.3793   711.2766     0.2521
 3162.0000     8.0997     2.4745     0.0381   712.2060   -30.9670  -999.2500     2.8088     2.5240     2.3828   711.0768     0.2525
 3162.5000     8.0992     2.4745     0.0381   691.9879   -31.1777  -999.2500     2.6327     2.5270     2.3863   720.9551     0.2525
 3163.0000     8.0986     2.4745     0.0382   681.8227   -31.1068  -999.2500     2.5137     2.5300     2.3899   700.5988     0.2525
 3163.5000     8.0980     2.4755     0.0382   661.6037   -31.0360  -999.2500  -999.2500     2.5330     2.3934   660.0848     0.2529
 3164.0000     8.0975     2.4755     0.0382   499.9993   -30.9651  -999.2500  -999.2500     2.5360     2.3969   528.8621     0.2528
 3164.5000     8.0969     2.4755     0.0382   279.3379   -30.8942  -999.2500  -999.2500     2.5379     2.3998   417.7523     0.2528
 3165.0000     8.0964     2.4755     0.0382   155.6749   -30.8233  -999.2500  -999.2500  -999.2500     2.4001   205.8906     0.2528
 3165.5000     8.0958     2.4756     0.0383    32.0118   -30.7524  -999.2500  -999.2500  -999.2500  -999.2500    64.5765     0.2527
 3166.0000     8.0952     2.4756     0.0383  -133.3034   -30.6815  -999.2500  -999.2500  -999.2500  -999.2500   -66.6623     0.2527
 3166.5000     8.0947     2.4746     0.0383  -153.4851   -30.6107  -999.2500  -999.2500  -999.2500  -999.2500  -107.1907     0.2526
 3167.0000     8.0941     2.4746     0.0383  -173.7161   -30.5398  -999.2500  -999.2500  -999.2500  -999.2500  -157.7997     0.2526
 3167.5000     8.0936     2.4746     0.0383  -173.8388   -30.4689  -999.2500  -999.2500  -999.2500  -999.2500  -168.0916     0.2526
 3168.0000     8.0930     2.4746     0.0384  -184.0160   -30.3980  -999.2500  -999.2500  -999.2500  -999.2500  -178.3838     0.2525
 3168.5000     8.0924     2.4746     0.0384  -194.1934   -30.3174  -999.2500  -999.2500  -999.2500  -999.2500  -178.5963     0.2525
 3169.0000     8.0919     2.4756     0.0364  -214.4260   -30.3140  -999.2500  -999.2500  -999.2500  -999.2500  -188.8890     0.2525
 3169.5000     8.0913     2.4756     0.0364  -224.6041   -30.1077  -999.2500  -999.2500  -999.2500  -999.2500  -209.2621     0.2524
 3170.0000     8.0908     2.4756     0.0364  -234.7825  -999.2500  -999.2500  -999.2500  -999.2500  -999.2500  -219.5554     0.2528
 3170.5000     8.0902     2.4756     0.0363  -234.9305  -999.2500  -999.2500  -999.2500  -999.2500  -999.2500  -999.2500  -999.2500
 3171.0000     8.0897     2.4756     0.0362  -245.1093  -999.2500  -999.2500  -999.2500  -999.2500  -999.2500  -999.2500  -999.2500
 3171.5000     8.0891     2.4756     0.0361  -255.2883  -999.2500  -999.2500  -999.2500  -999.2500  -999.2500  -999.2500  -999.2500
 3172.0000     8.0885     2.4756     0.0359  -275.5232  -999.2500  -999.2500  -999.2500  -999.2500  -999.2500  -999.2500  -999.2500
 3172.5000     8.0880     2.4746     0.0358  -285.7028  -999.2500  -999.2500  -999.2500  -999.2500  -999.2500  -999.2500  -999.2500
 3173.0000     8.0874     2.4756     0.0357  -999.2500  -999.2500  -999.2500  -999.2500  -999.2500  -999.2500  -999.2500  -999.2500
 3173.5000     8.0869     2.4756     0.0355  -999.2500  -999.2500  -999.2500  -999.2500  -999.2500  -999.2500  -999.2500  -999.2500
 3174.0000     8.0863     2.4746     0.0354  -999.2500  -999.2500  -999.2500  -999.2500  -999.2500  -999.2500  -999.2500  -999.2500
 3174.5000     8.0857     2.4757     0.0353  -999.2500  -999.2500  -999.2500  -999.2500  -999.2500  -999.2500  -999.2500  -999.2500
 3175.0000     8.0850     2.4757     0.0352  -999.2500  -999.2500  -999.2500  -999.2500  -999.2500  -999.2500  -999.2500  -999.2500
 3175.5000     8.0850     2.4757     0.0350  -999.2500  -999.2500  -999.2500  -999.2500  -999.2500  -999.2500  -999.2500  -999.2500
 3176.0000     8.0848     2.4767     0.0349  -999.2500  -999.2500  -999.2500  -999.2500  -999.2500  -999.2500  -999.2500  -999.2500
 3176.5000     8.0847     2.4757     0.0348  -999.2500  -999.2500  -999.2500  -999.2500  -999.2500  -999.2500  -999.2500  -999.2500
 3177.0000     8.0845     2.4757     0.0346  -999.2500  -999.2500  -999.2500  -999.2500  -999.2500  -999.2500  -999.2500  -999.2500
 3177.5000     8.0844     2.4747     0.0345  -999.2500  -999.2500  -999.2500  -999.2500  -999.2500  -999.2500  -999.2500  -999.2500
