~VERSION INFORMATION
 VERS.                2.0:   CWLS LOG ASCII STANDARD - VERSION 2.0
 WRAP.                 NO:   ONE LINE PER DEPTH STEP
~WELL INFORMATION
#MNEM.UNIT      DATA TYPE    INFORMATION
#----------   ------------   ------------------------------
 STRT.F            0.0000:   START DEPTH
 STOP.F         3110.5000:   STOP DEPTH
 STEP.F            0.5000:   STEP LENGTH
 NULL.          -999.2500:   NO VALUE
 COMP. LAWRENCE  ALLISON AND ASSOCIATES:   COMPANY
 WELL. LAWRENCE NPR 3 "X" #72-15:   WELL
 FLD .                NPR:   FIELD
 LOC .      S15 T38N R78W:   LOCATION
 CNTY.            NATRONA:   COUNTY
 STAT.            WYOMING:   STATE
 CTRY. UNITED STATES OF AMERICA:   COUNTRY
 SRVC.           WIRELINE:   SERVICE COMPANY
 DATE.        16-JAN-1988:   LOGDATE
 API .     49025111930000:   API NUMBER
~CURVE INFORMATION
#MNEM.UNIT       API CODE    CURVE DESCRIPTION
#----------   ------------   ------------------------------
 DEPT.F                  :   
 TENR.LBS    07 635 01 00:   TENSION FROM RESISTIVITY
 GRR .GAPI   07 310 01 00:   GAMMA RAY FROM RESISTIVITY
 SPR .MV     07 010 01 00:   SPONTANEOUS POTENTIAL
 RFOC.OHMM   07 220 04 00:   RESISTIVITY FOCUSED LOG RES.
 RILD.OHMM   07 120 46 00:   DEEP INDUCTION RESISTIVITY
 RILM.OHMM   07 120 44 00:   INDUCTION LOG MEDIUM RESISTIVITY
 TEND.LBS    45 635 01 00:   TENSION FROM DENSITY LOG
 RHOB.G/C3   45 350 01 00:   BULK DENSITY
 CORR.G/C3   45 356 01 00:   DENSITY CORRECTION
 CNC .DEC    42 890 03 00:   NEUTRON PORISITY SANDSTONE
 CALR.IN     07 280 01 00:   CALIPER FROM RESISTIVITY
~PARAMETER INFORMATION
#MNEM.UNIT          VALUE    DESCRIPTION
#----------   ------------   ------------------------------
 EKB .F         5240.0000:   Kelly bushing
 EGL .F         5229.0000:   Ground level
 EDF .F            0.0000:   Drilling floor
 TD  .F         3090.0000:   Total depth
 DATE.        16-JAN-1988:   Date logged
 CLNT.            A2DTECH:   Client Code
 SL  . 814' FNL & 1208' FEL:   Surface Location
 PD  .                 GL:   Permanent Datum
 DD  .F              3085:   Depth driller
 DL  .F              3090:   Depth logger
 BLI .F              3089:   Bottom log interval
 CS1 .IN            8.625:   Casing size
 CBD1.      8.625" @ 610':   Casing driller 1
 CBL1.F               613:   Casing logger 1
 BS1 .IN            7.875:   Bit size
 DFT .            KCL/GEL:   Type fluid in hole
 DFD .                8.8:   Density
 DFV .                 40:   Viscosity
 DFPH.                8.5:   pH
 DFL .                 10:   Fluid loss
 MSS .           FLOWLINE:   Source of sample
 RMS .OHMM           .543:   Rm
 MST .F                65:   Rm Meas. temp.
 RMF .OHMM           .349:   Rmf
 MFST.F                65:   Rmf Meas. temp.
 RMC .OHMM           .557:   Rmc
 MCST.F                65:   Rmc Meas. temp.
 MFSS.               CALC:   Source Rmf.
 RMB .OHMM           .258:   Rm. at BHT
 BHT .F               114:   BHT.
 TCS .HRS               5:   Time Circ. stopped
 MRT .F               114:   Maximum recorded temp.
 LUN .            HL-6321:   Logging unit number
 LUL .           GILLETTE:   Logging unit location
 ENGI.               CAIN:   Recorded By
 WITN.             STRONG:   Witnessed by
 ORIG.           5" PRINT:   Origin of data
 UWI .     49025111930000:   Unique Well ID
 DICO. A2D TECHNOLOGIES, INC.:   Digitizing Company
 DAPD.F                11:   Feet Above Permanent Datum
 BSD1.F              3085:   Depth drilled with bit1
 MCSS.               CALC:   Source Rmc.
 EPD .F              5229:   Elevation Permanent Datum
 LMF .                 KB:   Log Measured From
 DMF .                 KB:   Drilling Measured From
~OTHER INFORMATION
~A    DEPT    TENR         GRR       SPR       RFOC       RILD       RILM       TEND       RHOB       CORR        CNC       CALR   
# ...
 2562.0000   -41.4580   100.9770   -69.8270     8.3590     8.3200     8.1050   -47.0500     2.5980     0.1210     0.2240     9.0200
 2562.5000   -40.1230   100.2200   -69.8870     8.5710     8.4860     8.2120   -45.6050     2.6060     0.1220     0.2120     9.0220
 2563.0000   -38.7890   100.4020   -69.9470     8.8040     8.6520     8.3300   -44.1590     2.6110     0.1240     0.2140     9.0140
 2563.5000   -37.4540   100.5970   -70.0080     8.9320     8.8180     8.4070   -42.7140     2.6160     0.1260     0.2150     9.0060
 2564.0000   -36.1190   100.7930   -70.0680     9.1350     8.9680     8.4430   -41.2690     2.6210     0.1280     0.2140     8.9970
 2564.5000   -34.7850   100.9810   -70.1290     9.0830     8.9380     8.4750   -39.8230     2.6260     0.1360     0.2070     8.9880
 2565.0000   -33.4500   100.2260   -70.1890     9.0100     8.9100     8.4850   -38.3780     2.6320     0.1450     0.2000     8.9800
 2565.5000   -32.1150    99.3630   -70.2490     8.9370     8.8850     8.2740   -36.9330     2.6370     0.1380     0.1990     8.9710
 2566.0000   -30.7810    98.6920   -70.3100     8.8250     8.6460     8.1110   -35.4880     2.6390     0.1430     0.2080     8.9620
 2566.5000   -29.4460   100.2100   -70.3700     8.6240     8.4200     7.9490   -34.0420     2.6380     0.1570     0.2180     8.9530
 2567.0000   -28.1110   101.5590   -70.4300     8.4240     8.1940     7.7870   -36.2510     2.6360     0.1700     0.2280     8.9450
 2567.5000   -26.7770   105.9090   -70.4910     8.2230     7.9680     7.6460   -43.0920     2.6330     0.1900     0.2380     8.9360
 2568.0000   -25.4420   107.8700   -70.5520     8.0220     7.7380     7.5770   -49.9330     2.6300     0.2100     0.2480     8.9270
 2568.5000   -26.4430   107.7390   -70.6150     7.8820     7.7710     7.5070   -53.8230     2.6330     0.2260     0.2500     8.9180
 2569.0000   -29.7800   106.1060   -70.6180     8.0760     7.8190     7.4380   -64.4380     2.6490     0.2210     0.2420     8.9100
 2569.5000   -33.1160   104.9610   -70.6180     8.2250     7.8670     7.3890   -65.0960     2.6660     0.1690     0.2350     8.9010
 2570.0000   -36.4530   105.6250   -70.6180     8.3300     7.8820     7.3280   -65.7530     2.6830     0.1090     0.2320     8.8920
 2570.5000   -39.7900   106.8690   -70.6180     8.1530     7.7490     7.2720   -66.4110     2.6840     0.1060     0.2360     8.8840
 2571.0000   -43.1260   107.4020   -70.6180     7.9930     7.6470     7.2160   -67.0690     2.6670     0.1410     0.2400     8.8750
 2571.5000   -44.7950   105.8250   -70.6170     7.8320     7.5270     7.1880   -67.7270     2.6510     0.1790     0.2420     8.8660
 2572.0000   -44.7950   103.5980   -70.6170     7.6710     7.5270     7.2210   -68.3850     2.6420     0.2180     0.2410     8.8590
 2572.5000   -44.7950   103.3650   -70.6180     7.5270     7.5270     7.2590   -69.0420     2.6390     0.2200     0.2360     8.8540
 2573.0000   -44.7950   103.7330   -70.7200     7.7660     7.5320     7.2960   -69.7000     2.6360     0.2140     0.2300     8.8490
 2573.5000   -44.7950   102.7670   -70.8340     7.9840     7.5480     7.3330   -70.3580     2.6240     0.2290     0.2230     8.8440
 2574.0000   -44.7950   101.8170   -70.9480     8.2020     7.5650     7.3710   -71.0160     2.6110     0.2810     0.2220     8.8380
 2574.5000   -44.7950   101.0900   -71.0610     8.4850     7.5810     7.3890   -71.6740     2.6040     0.3130     0.2310     8.8330
 2575.0000   -44.7950   102.9540   -71.1750     8.3430     7.5960     7.2350   -72.3310     2.6220     0.3010     0.2400     8.8280
 2575.5000   -44.7950   104.5350   -71.2900     8.1400     7.3820     7.0950   -72.9890     2.6420     0.2660     0.2470     8.8230
 2576.0000   -44.7950   103.8620   -71.4080     7.9380     7.1870     6.9550   -73.6470     2.6610     0.2320     0.2480     8.8180
 2576.5000   -40.6240   103.1740   -71.4120     7.7350     6.9920     6.8010   -57.0420     2.6710     0.1990     0.2480     8.8130
 2577.0000   -26.7210   102.6730   -71.4330     7.5320     6.7970     6.7460   -26.2580     2.6720     0.1830     0.2460     8.8080
 2577.5000   -12.8180   104.4730   -71.8490     7.3300     6.7220     6.6850   -13.0870     2.6710     0.1900     0.2440     8.8030
 2578.0000     1.0840   105.5560   -72.2510     7.1880     6.6980     6.6240   -12.2460     2.6590     0.2080     0.2450     8.7970
 2578.5000     8.4400   104.5820   -72.6070     7.3150     6.6740     6.5630   -11.4040     2.6430     0.2250     0.2460     8.7920
 2579.0000    12.9900   102.2510   -72.6110     7.5710     6.6510     6.5020   -10.5630     2.6270     0.2330     0.2430     8.7870
 2579.5000    17.5400   100.5540   -72.6100     7.8270     6.6150     6.4350    -9.7220     2.6170     0.2100     0.2400     8.7820
 2580.0000    22.0900   100.6120   -72.6090     7.9550     6.6650     6.4350    -8.8810     2.6110     0.1980     0.2400     8.7770
 2580.5000    25.2750   102.8990   -72.5740     7.7250     6.7660     6.9350    -8.0400     2.6060     0.1860     0.2460     8.7720
 2581.0000    25.2750   104.0190   -72.4380     7.4690     6.8660     7.3900    -7.1990     2.6010     0.1730     0.2490     8.7670
 2581.5000    25.2750   103.4540   -72.2990     7.1880     6.9660     7.8440    -6.3580     2.5930     0.1600     0.2450     8.7610
 2582.0000    25.2750    99.9450   -72.0170     7.1880     7.0560     8.2540    -5.5170     2.5640     0.1450     0.2340     8.7560
 2582.5000    23.7520    91.0200   -71.2860     7.5960     9.1550    10.9800    -4.6760     2.5340     0.1280     0.2210     8.7510
 2583.0000    21.5760    75.0590   -70.5740    10.2820    11.0620    13.4590    -3.8340     2.5040     0.0990     0.2100     8.7460
 2583.5000    19.4000    59.4430   -69.8630    12.9670    12.9700    15.9380   -10.6750     2.4740     0.0590     0.2000     8.7410
 2584.0000    17.2240    48.3460   -69.1520    19.4290    14.8770    18.4170   -22.0770     2.4560     0.0210     0.1900     8.7360
 2584.5000    15.2650    43.3750   -68.4400    25.8910    18.3390    20.8950   -33.4790     2.4410     0.0210     0.1860     8.7310
 2585.0000     5.2550    43.2710   -67.7310    26.1300    22.4660    22.8030   -43.7630     2.4260     0.0350     0.1870     8.7250
 2585.5000    -4.7550    45.3270   -67.2220    25.4110    26.5930    24.2720   -41.7510     2.4160     0.0490     0.1860     8.7210
 2586.0000    -4.7550    48.6250   -67.5300    24.6120    31.1330    24.7240   -38.9000     2.4200     0.0530     0.1830     8.7210
 2586.5000    -4.7550    55.3570   -67.8640    23.8130    31.4210    24.9530   -36.0500     2.4290     0.0500     0.1880     8.7220
 2587.0000    -4.7550    61.2070   -68.0050    23.0140    31.1440    24.9530   -33.1990     2.4260     0.0430     0.1960     8.7220
 2587.5000    -4.7550    62.9270   -67.4870    22.1350    30.8370    24.9530   -30.3490     2.4230     0.0360     0.2000     8.7230
 2588.0000    -4.7550    60.8040   -67.2150    22.4540    30.5290    24.9530   -27.4980     2.4290     0.0300     0.2000     8.7230
 2588.5000    -4.7550    62.3470   -68.0840    23.0920    30.2210    24.9530   -24.6480     2.4340     0.0270     0.2000     8.7230
 2589.0000    -3.0860    61.5860   -69.7330    23.7310    30.0060    24.9530   -23.6420     2.4360     0.0270     0.2050     8.7240
 2589.5000     2.4750    61.8010   -71.4130    24.0500    30.1450    24.9530   -23.6420     2.4290     0.0270     0.2070     8.7240
 2590.0000     8.0360    62.3130   -71.7550    24.0500    30.2840    24.9530   -23.6420     2.4210     0.0270     0.2060     8.7250
 2590.5000    13.5970    62.6850   -72.0580    24.0500    30.1700    24.9530   -23.6420     2.4190     0.0320     0.2020     8.7250
 2591.0000    19.1580    61.3540   -72.3650    24.0500    29.9410    24.9530   -23.6420     2.4220     0.0360     0.1960     8.7250
 2591.5000    25.2750    60.0680   -72.6740    24.0500    29.7130    24.9530   -23.6420     2.4240     0.0380     0.1890     8.7260
 2592.0000    15.2650    59.1390   -72.9790    24.0500    29.4840    24.9530   -23.6420     2.4270     0.0350     0.1810     8.7260
