~VERSION INFORMATION
 VERS.                2.0:   CWLS LOG ASCII STANDARD - VERSION 2.0
 WRAP.                 NO:   ONE LINE PER DEPTH STEP
~WELL INFORMATION
#MNEM.UNIT      DATA TYPE    INFORMATION
#----------   ------------   ------------------------------
 STRT.F          196.5000:   START DEPTH
 STOP.F         3202.0000:   STOP DEPTH
 STEP.F            0.5000:   STEP LENGTH
 NULL.          -999.2500:   NO VALUE
 COMP.    FENIX & SCISSON:   COMPANY
 WELL.   FENIX "AX" #26-3:   WELL
 FLD .              NPR-3:   FIELD
 LOC .       S3 T38N R78W:   LOCATION
 CNTY.            NATRONA:   COUNTY
 STAT.            WYOMING:   STATE
 CTRY. UNITED STATES OF AMERICA:   COUNTRY
 SRVC.              WELEX:   SERVICE COMPANY
 DATE.        19-JUN-1977:   LOGDATE
 API .     49025103800000:   API NUMBER
~CURVE INFORMATION
#MNEM.UNIT       API CODE    CURVE DESCRIPTION
#----------   ------------   ------------------------------
 DEPT.F                  :   
 CALD.IN     45 280 60 00:   CALIPER FROM DENSITY LOG
 GRD .GAPI   45 310 01 00:   GAMMA RAY FROM DENSITY LOG
 RHOB.G/C3   45 350 01 00:   BULK DENSITY
 CORR.G/C3   45 356 01 00:   DENSITY CORRECTION
 SPR .MV     07 010 01 00:   SPONTANEOUS POTENTIAL
 ILD .OHMM   07 120 46 00:   DEEP INDUCTION RESISTIVITY
 ILM .OHMM   07 120 44 00:   INDUCTION LOG MEDIUM RESISTIVITY
 SGRD.OHMM   07 220 05 00:   SHALLOW SHORT GUARD RESISTIVITY
~PARAMETER INFORMATION
#MNEM.UNIT          VALUE    DESCRIPTION
#----------   ------------   ------------------------------
 EKB .F         5231.0000:   Kelly bushing
 EGL .F         5221.0000:   Ground level
 EDF .F            0.0000:   Drilling floor
 TD  .F         3204.0000:   Total depth
 CLNT.            A2DTECH:   Client Code
 SL  . 1320' FSL & 740' FWL:   Surface Location
 PD  .                 GL:   Permanent Datum
 EPD .F              5221:   Elevation Permanent Datum
 LMF .                 KB:   Log Measured From
 DMF .                 KB:   Drilling Measured From
 DAPD.F                10:   Feet Above Permanent Datum
 DATE.        19-JUN-1977:   Date Logged [DD-MMM-YYYY]
 DD  .F              3200:   Depth driller
 DL  .F              3204:   Depth logger
 BLI .F              3202:   Bottom log interval
 TLI .F               220:   Top log interval
 CS1 .IN            8.625:   Casing size
 CBD1.      8.625" @ 220':   Casing driller 1
 CBL1.F               220:   Casing logger 1
 BS1 .IN            7.875:   Bit size
 BSD1.F              3200:   Depth drilled with bit1
 DFT .                KCL:   Type fluid in hole
 DFD .                9.1:   Density
 RMS .OHMM           1.19:   Rm
 MST .F                65:   Rm Meas. temp.
 TCS .HRS               4:   Time Circ. stopped
 MRT .F               115:   Maximum recorded temp.
 LUN .               8766:   Logging unit number
 ENGI.          T. JOYNER:   Recorded By
 WITN.         PETTINGILL:   Witnessed by
 ORIG.           5" PRINT:   Origin of data
 UWI .     49025103800000:   Unique Well ID
 DICO. A2D TECHNOLOGIES, INC.:   Digitizing Company
 DFPH.                7.5:   pH
 DFL .                4.2:   Fluid loss
 MSS .            MUD PIT:   Source of sample
 RMF .OHMM           1.19:   Rmf
 MFST.F                65:   Rmf Meas. temp.
 MFSS.               MEAS:   Source Rmf.
 RMC .OHMM           2.01:   Rmc
 MCST.F                65:   Rmc Meas. temp.
 MCSS.               MEAS:   Source Rmc.
 RMB .OHMM            .67:   Rm. at BHT
 BHT .F               115:   BHT.
~OTHER INFORMATION
~A   DEPT     CALD         GRD      RHOB       CORR        SPR        ILD        ILM       SGRD   
# ...
  804.0000     9.5226    90.2423     2.4538     0.0207   -53.1405     6.3741     7.9363     7.9910
  804.5000     9.5244    89.3933     2.4532     0.0209   -52.9867     6.3788     8.0516     8.1083
  805.0000     9.5262    86.7585     2.4518     0.0210   -53.1194     6.3836     8.1686     8.1602
  805.5000     9.5283    89.7785     2.4497     0.0211   -53.1080     6.3858     8.2873     8.1654
  806.0000     9.5301    87.1437     2.4469     0.0212   -53.0946     6.3468     8.2923     8.2266
  806.5000     9.5319    86.5871     2.4442     0.0214   -53.0814     6.3514     8.2974     8.3463
  807.0000     9.5336    90.8036     2.4414     0.0215   -53.0680     6.3565     8.3612     8.4098
  807.5000     9.5200    89.3585     2.4385     0.0216   -53.0524     6.3610     8.4243     8.5471
  808.0000     9.5222    91.1989     2.4364     0.0217   -52.8935     6.3655     8.4294     8.6560
  808.5000     9.5239    90.6475     2.4350     0.0219   -52.8802     6.3700     8.4345     8.7216
  809.0000     9.5256    88.0127     2.4352     0.0212   -52.8669     6.4185     8.4396     8.7273
  809.5000     9.5274    88.6518     2.4360     0.0191   -52.7753     6.4674     8.4447     8.6740
  810.0000     9.5292    90.7789     2.4362     0.0192   -52.6923     6.5168     8.3914     8.6795
  810.5000     9.5310    90.2275     2.4356     0.0193   -52.6777     6.5215     8.3388     8.6240
  811.0000     9.5178    88.1770     2.4349     0.0187   -52.6657     6.5340     8.3440     8.7507
  811.5000     9.5196    90.6127     2.4344     0.0181   -52.6524     6.5309     8.2586     9.1893
  812.0000     9.5217    87.3827     2.4345     0.0174   -52.6391     6.5362     8.1839     9.5176
  812.5000     9.5235    86.8055     2.4338     0.0168   -52.6257     6.5408     8.1317     9.7227
  813.0000     9.5252    89.8513     2.4340     0.0169   -52.6124     6.4993     8.1374     9.7963
  813.5000     9.5270    88.9408     2.4349     0.0171   -52.5526     6.5051     8.1423     9.8111
  814.0000     9.5286    87.8555     2.4350     0.0164   -52.2879     6.5096     8.1473     9.8782
  814.5000     9.5305    87.3041     2.4351     0.0166   -52.2766     6.4252     8.1522     9.8150
  815.0000     9.5323    87.9541     2.4345     0.0167   -52.2620     6.4308     8.2706     9.8228
  815.5000     9.5340    90.3789     2.4339     0.0160   -52.2479     6.3474     8.2757     9.8291
  816.0000     9.5358    92.8036     2.4333     0.0162   -52.2367     6.3083     8.2808     9.7663
  816.5000     9.5380    88.9784     2.4334     0.0163   -52.2231     6.2683     8.1720     9.7054
  817.0000     9.5397    87.8317     2.4337     0.0164   -52.2090     6.2738     8.0647     9.7131
  817.5000     9.5415    88.4707     2.4352     0.0165   -52.1967     6.2349     7.9052     9.6525
  818.0000     9.5433    89.3964     2.4369     0.0166   -52.1831     6.2395     7.7477     9.6588
  818.5000     9.5450    86.1774     2.4385     0.0168   -52.1701     6.2643     7.6449     9.5985
  819.0000     9.5468    89.7926     2.4394     0.0161   -52.1568     6.2916     7.4937     9.6061
  819.5000     9.5486    88.0507     2.4402     0.0155   -52.1421     6.2961     7.4009     9.5462
  820.0000     9.5349    86.0112     2.4404     0.0149   -52.1302     6.3015     7.2480     9.4852
  820.5000     9.5220    87.5431     2.4360     0.0142   -52.1151     6.3059     7.1529     9.2346
  821.0000     9.5238    83.4312     2.4294     0.0136   -52.1036     6.3098     7.1583     8.9267
  821.5000     9.5256    80.7854     2.4236     0.0138   -52.0902     6.3143     7.1626     8.6901
  822.0000     9.5124    86.7926     2.4185     0.0131   -52.0769     6.3192     7.1664     8.6357
  822.5000     9.5142    83.5626     2.4156     0.0132   -52.0636     6.3235     7.1713     8.6414
  823.0000     9.5163    82.4049     2.4128     0.0134   -52.0502     6.3281     7.1753     8.6471
  823.5000     9.5181    86.0311     2.4129     0.0127   -52.0351     6.3326     7.1800     8.6527
  824.0000     9.5196    87.5521     2.4161     0.0128   -52.0237     6.3372     7.2345     8.5408
  824.5000     9.5216    84.0354     2.4169     0.0130   -52.0092     6.3418     7.1887     8.4875
  825.0000     9.5234    85.5673     2.4171     0.0123   -51.9970     6.3471     7.1931     8.3191
  825.5000     9.5250    86.5566     2.4164     0.0125   -51.9837     6.3509     7.0997     8.0980
  826.0000     9.5268    84.1667     2.4173     0.0126   -51.9704     6.3555     7.1033     7.9909
  826.5000     9.5287    85.9970     2.4190     0.0127   -51.9552     6.4041     7.0977     7.8878
  827.0000     9.5304    85.7425     2.4213     0.0121   -51.9444     6.4356     7.0150     7.8928
  827.5000     9.5322    88.1782     2.4244     0.0122   -52.0784     6.4576     7.0193     7.7897
  828.0000     9.5344    89.6992     2.4268     0.0123   -52.2111     6.4623     7.0232     7.7194
  828.5000     9.5304    86.1825     2.4277     0.0124   -52.1997     6.4670     7.0278     7.6843
  829.0000     9.5379    84.1320     2.4278     0.0118   -52.1864     6.4726     7.0324     7.5924
  829.5000     9.5397    87.4606     2.4280     0.0127   -52.1722     6.4316     7.0851     7.5978
  830.0000     9.5414    86.0163     2.4296     0.0143   -52.1598     6.3919     7.1387     7.6033
  830.5000     9.5432    84.5610     2.4312     0.0151   -52.1465     6.3976     7.0936     7.5935
  831.0000     9.5450    86.9967     2.4336     0.0153   -52.2823     6.4021     7.0491     7.5595
  831.5000     9.5317    85.5525     2.4345     0.0154   -52.2661     6.4063     6.9097     7.5134
  832.0000     9.5335    87.6796     2.4339     0.0147   -52.2544     6.4111     6.7720     7.5183
  832.5000     9.5352    88.9139     2.4325     0.0126   -52.2411     6.4156     6.6821     7.5232
  833.0000     9.5370    85.3336     2.4282     0.0113   -52.2272     6.4220     6.6872     7.5282
  833.5000     9.5388    83.3467     2.4223     0.0099   -52.0642     6.4758     6.6912     7.5052
  834.0000     9.5410    85.4848     2.4195     0.0100   -52.0533     6.5195     6.7885     7.4629
  834.5000     9.5424    84.6358     2.4174     0.0101   -52.0393     6.5240     6.7994     7.4391
  835.0000     9.5442    84.9772     2.4160     0.0103   -52.0266     6.5280     6.8923     7.4451
  835.5000     9.5463    86.8067     2.4161     0.0096   -52.0133     6.5327     6.8958     7.4494
  836.0000     9.5326    85.6600     2.4185     0.0090   -51.8521     6.5378     6.9961     7.4034
  836.5000     9.5193    84.8110     2.4224     0.0084   -51.6908     6.5424     7.0009     7.3570
  837.0000     9.4911    85.7476     2.4233     0.0077   -51.6775     6.5470     7.0537     7.3623
  837.5000     9.4933    88.1724     2.4226     0.0078   -51.6642     6.4844     7.0083     7.3152
  838.0000     9.4951    87.9186     2.4213     0.0080   -51.6495     6.4666     7.0136     7.3214
  838.5000     9.4969    85.2838     2.4229     0.0073   -51.4886     6.4714     7.0505     7.3257
  839.0000     9.4987    88.6014     2.4238     0.0060   -51.3284     6.4765     7.0709     7.2797
  839.5000     9.5005    84.1309     2.4232     0.0061   -51.3151     6.4808     7.0264     7.2855
  840.0000     9.5026    83.6295     2.4233     0.0055   -51.2996     6.4860     7.0310     7.2396
  840.5000     9.5043    84.5662     2.4227     0.0056   -51.2885     6.4449     7.0360     7.1945
  841.0000     9.5061    81.9423     2.4229     0.0057   -51.2726     6.4052     6.9907     7.1993
  841.5000     9.5079    80.7957     2.4252     0.0058   -51.2378     6.4112     6.9963     7.2040
  842.0000     9.5096    83.8157     2.4276     0.0067   -50.9527     6.4153     7.0000     7.1920
  842.5000     9.5114    81.7761     2.4300     0.0068   -50.9379     6.3759     7.0043     7.1863
  843.0000     9.5131    80.0342     2.4316     0.0077   -50.9260     6.4246     7.0087     7.2181
  843.5000     9.5148    79.7695     2.4340     0.0078   -50.7640     6.4293     7.0130     7.2229
  844.0000     9.5167    83.3847     2.4356     0.0079   -50.6035     6.5238     7.0669     7.2276
