~VERSION INFORMATION
 VERS.                2.0:   CWLS LOG ASCII STANDARD - VERSION 2.0
 WRAP.                 NO:   ONE LINE PER DEPTH STEP
~WELL INFORMATION
#MNEM.UNIT      DATA TYPE    INFORMATION
#----------   ------------   ------------------------------
 STRT.F           10.0000:   START DEPTH
 STOP.F         2950.0000:   STOP DEPTH
 STEP.F            0.5000:   STEP LENGTH
 NULL.          -999.2500:   NO VALUE
 COMP.    FENIX & SCISSON:   COMPANY
 WELL.   PENIX SHX #11-23:   WELL
 FLD .  TEAPOT DOME NPR-3:   FIELD
 LOC .      S23 T38N R78W:   LOCATION
 CNTY.            NATRONA:   COUNTY
 STAT.            WYOMING:   STATE
 CTRY. UNITED STATES OF AMERICA:   COUNTRY
 SRVC.           BIRDWELL:   SERVICE COMPANY
 DATE.        19-MAY-1979:   LOGDATE
 API .     49025107790000:   API NUMBER
~CURVE INFORMATION
#MNEM.UNIT       API CODE    CURVE DESCRIPTION
#----------   ------------   ------------------------------
 DEPT.F                  :   
 ILD .OHMM   05 120 46 00:   INDUCTION LOG DEEP
 SN  .OHMM   05 040 16 00:   SHORT NORMAL 16"
 CALD.IN     45 280 60 00:   CALIPER FROM DENSITY LOG
 GRD .GAPI   45 310 01 00:   GAMMA RAY FROM DENSITY LOG
 RHOB.G/C3   45 350 01 00:   BULK DENSITY
 CORR.G/C3   45 356 01 00:   DENSITY CORRECTION
~PARAMETER INFORMATION
#MNEM.UNIT          VALUE    DESCRIPTION
#----------   ------------   ------------------------------
 EKB .F         5275.0000:   Kelly bushing
 EGL .F         5265.0000:   Ground level
 EDF .F            0.0000:   Drilling floor
 TD  .F         2995.0000:   Total depth
 DATE.        19-MAY-1979:   Date logged
 CLNT.            A2DTECH:   Client Code
 SL  . 337' FNL & 237' FWL:   Surface Location
 PD  .                 GL:   Permanent Datum
 EPD .F              5265:   Elevation Permanent Datum
 LMF .                 KB:   Log Measured From
 DMF .                 KB:   Drilling Measured From
 DAPD.F                10:   Feet Above Permanent Datum
 DD  .F              2995:   Depth driller
 DL  .F              2950:   Depth logger
 BLI .F              2944:   Bottom log interval
 TLI .F              1050:   Top log interval
 CS1 .IN            9.625:   Casing size
 CBD1.     9.625" @ 2050':   Casing driller 1
 CBL1.F              1050:   Casing logger 1
 BS1 .IN             8.75:   Bit size
 BSD1.F              2995:   Depth drilled with bit1
 DFT . AIR/FORRATION FLUIDS:   Type fluid in hole
 TCS .HRS              12:   Time Circ. stopped
 LUN .               3029:   Logging unit number
 LUL .             CASPER:   Logging unit location
 ENGI.         B. ROLLINS:   Recorded By
 ORIG.         2.5" PRINT:   Origin of data
 UWI .     49025107790000:   Unique Well ID
 DICO. A2D TECHNOLOGIES, INC.:   Digitizing Company
~OTHER INFORMATION
~A   DEPT      ILD         SN       CALD        GRD       RHOB         CORR 
# ...
 2506.0000     8.0320    11.7130     8.7290   164.5110     2.4980    -0.0050
 2506.5000     7.9300    10.8100     8.7290   172.6950     2.5010    -0.0010
 2507.0000     7.8280    10.8640     8.7290   178.5740     2.5020     0.0040
 2507.5000     7.7160    10.9280     8.7290   182.4160     2.4930     0.0060
 2508.0000     7.7160    10.9920     8.7290   186.1990     2.4830     0.0040
 2508.5000     7.7160    11.0550     8.7290   190.2150     2.4760     0.0030
 2509.0000     7.7690    11.1190     8.7290   191.4300     2.4800     0.0020
 2509.5000     7.8250    11.1820     8.7290   195.1890     2.4810     0.0010
 2510.0000     7.8810    11.2330     8.7290   198.5520     2.4720     0.0000
 2510.5000     7.9370    12.3670     8.7290   194.6390     2.4680    -0.0020
 2511.0000     7.9930    12.2800     8.7290   194.4960     2.4750    -0.0010
 2511.5000     8.0490    12.1950     8.7290   197.4210     2.4790     0.0010
 2512.0000     8.1050    12.1100     8.7250   201.3430     2.4720     0.0030
 2512.5000     8.1560    12.0250     8.7100   196.3940     2.4740     0.0040
 2513.0000     8.0010    11.9400     8.6950   192.1920     2.4830     0.0060
 2513.5000     7.8590    11.7520     8.6800   194.0660     2.4910     0.0080
 2514.0000     7.7180    11.4710     8.6660   187.0210     2.4950     0.0100
 2514.5000     7.5770    11.0190     8.6510   177.1770     2.4910     0.0090
 2515.0000     7.4360    11.0460     8.6530   166.9160     2.4870     0.0070
 2515.5000     7.4900    11.1140     8.6670   169.3900     2.4850     0.0060
 2516.0000     7.5450    11.1830     8.6810   177.0090     2.4880     0.0050
 2516.5000     7.6000    11.2610     8.6950   186.1850     2.4980     0.0030
 2517.0000     7.6550    11.3700     8.7100   189.5110     2.5010     0.0020
 2517.5000     7.7160    11.4790     8.7240   188.6550     2.4970     0.0100
 2518.0000     8.3080    11.5880     8.7380   184.5260     2.5000     0.0100
 2518.5000     8.3080    11.6970     8.7520   180.2850     2.5080     0.0100
 2519.0000     8.3080    11.8060     8.7660   181.0900     2.5130     0.0100
 2519.5000     8.3080    11.9150     8.7690   177.7720     2.5060     0.0100
 2520.0000     8.2240    12.0240     8.7690   174.3070     2.4910     0.0100
 2520.5000     8.1390    12.1310     8.7690   179.4050     2.4900     0.0100
 2521.0000     8.0530    12.1310     8.7690   180.2270     2.4920     0.0130
 2521.5000     8.0060    12.1310     8.7690   182.3630     2.4900     0.0190
 2522.0000     8.1990    12.1790     8.7690   181.6630     2.4930     0.0180
 2522.5000     8.2640    12.3520     8.7690   187.4730     2.4770     0.0060
 2523.0000     8.3600    12.5250     8.7690   185.4250     2.4720     0.0080
 2523.5000     8.5260    12.6070     8.7690   180.1340     2.4800     0.0100
 2524.0000     8.6920    12.8270     8.7690   181.6100     2.4930     0.0120
 2524.5000     8.8570    13.1220     8.7690   184.2860     2.4860     0.0130
 2525.0000     9.0230    13.4170     8.7690   175.2600     2.4760     0.0020
 2525.5000     9.1890    13.7120     8.7690   167.6940     2.4810     0.0030
 2526.0000     9.3010    13.8790     8.7690   159.7750     2.4840     0.0040
 2526.5000     9.3410    13.9590     8.7690   153.8520     2.4870     0.0050
 2527.0000     9.3810    14.0350     8.7690   153.7730     2.4890     0.0060
 2527.5000     9.4210    14.1110     8.7690   154.3760     2.4940     0.0070
 2528.0000     9.4560    14.1490     8.7690   149.9460     2.4980     0.0090
 2528.5000     9.2860    13.8120     8.7690   144.4100     2.5030     0.0100
 2529.0000     9.1340    13.6110     8.7690   144.9710     2.4920     0.0110
 2529.5000     8.9820    13.4090     8.7690   150.5080     2.4820     0.0120
 2530.0000     8.8300    13.2070     8.7690   155.1020     2.4900     0.0130
 2530.5000     8.6780    13.0060     8.7690   160.2760     2.4990     0.0140
 2531.0000     8.6060    12.6070     8.7690   165.1660     2.5040     0.0140
 2531.5000     8.5810    12.3670     8.7690   169.6130     2.5040     0.0130
 2532.0000     8.5560    12.3670     8.7690   173.2630     2.5090     0.0200
 2532.5000     8.5310    12.3670     8.7690   176.0740     2.5060     0.0190
 2533.0000     8.5060    12.3670     8.7690   182.8520     2.4980     0.0150
 2533.5000     8.4810    12.3270     8.7690   180.2670     2.4990     0.0110
 2534.0000     8.4560    12.2840     8.7690   176.4590     2.5000     0.0130
 2534.5000     8.4310    12.2410     8.7690   171.8950     2.5090     0.0230
 2535.0000     8.4060    12.1980     8.7690   170.1320     2.5190     0.0310
 2535.5000     8.3810    12.1550     8.7690   168.8700     2.5340     0.0420
 2536.0000     8.3560    12.1310     8.7690   161.7750     2.5280     0.0350
 2536.5000     8.3320    12.1310     8.7690   156.6190     2.5050     0.0270
 2537.0000     8.3100    12.1310     8.7690   157.6370     2.4850     0.0220
 2537.5000     8.3060    12.1310     8.7690   155.2680     2.4430     0.0240
 2538.0000     8.3130    12.1310     8.7690   154.4330     2.4130     0.0840
 2538.5000     8.3240    12.0600     8.7690   147.9500     2.4450     0.1770
 2539.0000     8.1400    11.9950     8.7690   150.8340     2.3970     0.0520
 2539.5000     8.1620    11.9310     8.7690   156.8290     2.4180    -0.0150
 2540.0000     8.1560    11.8670     8.7690   162.4700     2.4860     0.0040
 2540.5000     8.0800    11.8030     8.7690   167.6070     2.5160     0.0180
 2541.0000     8.0060    11.7390     8.7690   164.1410     2.5020     0.0140
 2541.5000     7.9800    11.6740     8.7690   160.4070     2.5040     0.0140
 2542.0000     7.9490    11.6100     8.7690   157.5020     2.5050     0.0100
 2542.5000     7.9180    11.5460     8.7690   157.3520     2.5050     0.0080
 2543.0000     7.8870    11.4820     8.7690   158.6900     2.5030     0.0060
 2543.5000     7.8600    11.4510     8.7690   160.2100     2.5000     0.0060
 2544.0000     8.1560    11.5810     8.7690   161.1460     2.4930     0.0060
 2544.5000     8.3080    11.7540     8.7690   164.9440     2.4850     0.0060
 2545.0000     8.2440    11.9270     8.7690   165.8530     2.4890     0.0090
 2545.5000     8.0810    12.1310     8.7690   172.2260     2.4910     0.0100
 2546.0000     7.9170    11.8720     8.7690   174.7620     2.4930     0.0060
 2546.5000     7.5730    11.2710     8.7690   180.3450     2.4970     0.0110
 2547.0000     7.1660    10.6700     8.7690   189.2500     2.5010     0.0200
 2547.5000     7.2190    10.0090     8.7690   190.1420     2.5040     0.0260
 2548.0000     7.2680    10.3510     8.7690   185.8570     2.5020     0.0250
 2548.5000     7.3170    10.8100     8.7690   175.9690     2.4940     0.0240
 2549.0000     7.3660    10.6040     8.7690   175.2210     2.4950     0.0240
 2549.5000     7.4150    11.3420     8.7690   174.6650     2.5060     0.0230
 2550.0000     7.7130    11.9800     8.7690   174.2380     2.5170     0.0220
 2550.5000     8.1840    12.6180     8.7690   184.9310     2.5110     0.0200
 2551.0000     8.6550    13.3560     8.7690   182.5940     2.5010     0.0120
 2551.5000     9.1260    13.7360     8.7690   176.1260     2.4750    -0.0020
 2552.0000     9.6650    14.1870     8.7690   170.2400     2.4620    -0.0070
 2552.5000    10.1830    14.6390     8.7690   168.2040     2.4680     0.0010
 2553.0000    10.1830    15.0900     8.7690   173.8320     2.4860     0.0090
 2553.5000    10.1830    15.5410     8.7690   180.1100     2.4910     0.0100
 2554.0000    10.1830    15.9930     8.7690   187.1900     2.4810     0.0100
 2554.5000    10.2740    16.1870     8.7690   210.9180     2.4860     0.0100
 2555.0000    10.3730    16.1870     8.7690   209.7490     2.4920     0.0140
 2555.5000    10.7640    16.1870     8.7690   210.0120     2.5020     0.0250
 2556.0000    10.9640    16.2620     8.7690   216.4100     2.4940     0.0140
 2556.5000    11.1690    16.4360     8.7690   211.7160     2.4760     0.0100
 2557.0000    11.3780    16.6100     8.7690   202.7800     2.4680     0.0060
 2557.5000    11.4310    16.7830     8.7690   197.1270     2.4630     0.0090
