~VERSION INFORMATION
 VERS.                2.0:   CWLS LOG ASCII STANDARD - VERSION 2.0
 WRAP.                 NO:   ONE LINE PER DEPTH STEP
~WELL INFORMATION
#MNEM.UNIT      DATA TYPE    INFORMATION
#----------   ------------   ------------------------------
 STRT.F          200.0000:   START DEPTH
 STOP.F         3160.0000:   STOP DEPTH
 STEP.F            0.5000:   STEP LENGTH
 NULL.          -999.2500:   NO VALUE
 COMP.    FENIX & SCISSON:   COMPANY
 WELL. FENIX NPR 3 "AX" #72-3:   WELL
 FLD .             TEAPOT:   FIELD
 LOC .       S3 T38N R78W:   LOCATION
 CNTY.            NATRONA:   COUNTY
 STAT.            WYOMING:   STATE
 CTRY. UNITED STATES OF AMERICA:   COUNTRY
 SRVC.           BIRDWELL:   SERVICE COMPANY
 DATE.        10-JAN-1978:   LOGDATE
 API .     49025105530000:   API NUMBER
~CURVE INFORMATION
#MNEM.UNIT       API CODE    CURVE DESCRIPTION
#----------   ------------   ------------------------------
 DEPT.F                  :   
 CALD.IN     45 280 60 00:   CALIPER FROM DENSITY LOG
 GRD .GAPI   45 310 01 00:   GAMMA RAY FROM DENSITY LOG
 DEN .LBS    45 635 01 00:   BUCK DENSITY
 CORR.G/C3   45 356 01 00:   DENSITY CORRECTION
 SPR .MV     07 010 01 00:   SPONTANEOUS POTENTIAL
 ILD .OHMM   07 120 46 00:   DEEP INDUCTION RESISTIVITY
 ILM .OHMM   07 120 44 00:   INDUCTION LOG MEDIUM RESISTIVITY
~PARAMETER INFORMATION
#MNEM.UNIT          VALUE    DESCRIPTION
#----------   ------------   ------------------------------
 EKB .F         5164.0000:   Kelly bushing
 EGL .F         5153.0000:   Ground level
 TD  .F         3157.0000:   Total depth
 DATE.        10-JAN-1978:   Date logged
 CLNT.            A2DTECH:   Client Code
 SL  . 900' FNL & 900' FEL:   Surface Location
 PD  .                 GL:   Permanent Datum
 EPD .F              5153:   Elevation Permanent Datum
 LMF .                 KB:   Log Measured From
 DMF .                 KB:   Drilling Measured From
 DAPD.F                11:   Feet Above Permanent Datum
 DD  .F              3156:   Depth driller
 DL  .F              3157:   Depth logger
 BLI .F              3157:   Bottom log interval
 TLI .F               200:   Top log interval
 CS1 .IN            8.625:   Casing size
 CBD1.      8.625" @ 222':   Casing driller 1
 CBL1.F               220:   Casing logger 1
 BS1 .IN            7.875:   Bit size
 BSD1.F              3156:   Depth drilled with bit1
 DFT .                KCL:   Type fluid in hole
 DFD .                8.5:   Density
 DFV .                 36:   Viscosity
 DFPH.                 10:   pH
 DFL .                8.8:   Fluid loss
 MSS .           FLOWLINE:   Source of sample
 RMS .OHMM            1.4:   Rm
 MST .F                66:   Rm Meas. temp.
 RMF .OHMM            .85:   Rmf
 MFST.F                74:   Rmf Meas. temp.
 RMC .OHMM            1.4:   Rmc
 MCST.F                72:   Rmc Meas. temp.
 MFSS.               MEAS:   Source Rmf.
 MCSS.               MEAS:   Source Rmc.
 RMB .OHMM            .83:   Rm. at BHT
 BHT .F               112:   BHT.
 TCS .HRS               4:   Time Circ. stopped
 MRT .F               112:   Maximum recorded temp.
 LUN .               2958:   Logging unit number
 LUL .             CASPER:   Logging unit location
 ENGI.            POINTER:   Recorded By
 WITN.         HARRINGTON:   Witnessed by
 ORIG.           5" PRINT:   Origin of data
 UWI .     49025105530000:   Unique Well ID
 DICO. A2D TECHNOLOGIES, INC.:   Digitizing Company
~OTHER INFORMATION
~A   DEPT     CALD        GRD          DEN     CORR        SPR        ILD        ILM   
# ...
 2338.5000     9.4037   110.8403     2.4359     0.1012   -59.2884    10.1479     4.5078
 2339.0000     9.9509   109.4536     2.4549     0.1272   -59.2916    10.0531     4.5070
 2339.5000     9.4202   106.8779     2.4609     0.1272   -59.2948    10.2386     4.5061
 2340.0000     9.4395   107.0767     2.4480     0.1212   -58.5015    10.2369     4.5470
 2340.5000     9.4809   108.6627     2.4390     0.1272   -58.1065    10.0482     4.5883
 2341.0000     9.4227   110.2487     2.4699     0.1272   -58.5079    10.0466     4.5875
 2341.5000     9.4238   111.0421     2.4620     0.1272   -58.7102    10.0450     4.6295
 2342.0000     9.8232   113.0245     2.4700     0.1032   -59.1117    10.1364     4.6283
 2342.5000     9.3960   115.9978     2.4789     0.0813   -58.5174    10.1348     4.6703
 2343.0000     9.3671   117.1876     2.4949     0.0753   -58.3215    10.2271     4.8449
 2343.5000     9.6634   117.5847     2.4849     0.0733   -58.1249    10.3202     4.9799
 2344.0000     9.5166   119.5673     2.5199     0.0573   -58.1281    10.4142     5.4601
 2344.5000     9.7538   120.9553     2.5029     0.0453   -58.1313    10.5090     5.7700
 2345.0000     9.3709   123.5326     2.5019     0.0454   -58.1344    10.8021     6.0413
 2345.5000     9.3569   125.3171     2.5050     0.0434   -58.1376    11.1035     6.3253
 2346.0000     9.6532   128.6873     2.5050     0.0434   -57.9416    11.2046     6.8717
 2346.5000     9.4177   130.4719     2.5050     0.0414   -59.1398    11.4118     7.3288
 2347.0000     9.4187   130.6709     2.5100     0.0414   -59.3422    11.5158     7.8164
 2347.5000     9.4047   130.4718     2.5060     0.0414   -59.3454    11.7284     8.1837
 2348.0000     9.4057   130.0761     2.5060     0.0454   -58.9502    12.0556     8.3350
 2348.5000     9.4214   126.3126     2.5080     0.0534   -59.3518    11.8334     8.2571
 2349.0000     9.4223   120.9616     2.5150     0.0634   -59.3550    11.8315     8.2557
 2349.5000     9.4231   116.6016     2.5140     0.0714   -59.1590    11.8080     8.2543
 2350.0000     9.4357   115.2130     2.5130     0.0794   -58.9631    11.8062     8.2532
 2350.5000     9.4542   116.0065     2.5150     0.0674   -59.1643    11.8044     8.2521
 2351.0000     9.4551   119.9733     2.5170     0.0415   -58.1704    11.8258     8.2518
 2351.5000     9.4408   123.1456     2.5190     0.0335   -57.7740    11.8248     8.2512
 2352.0000     9.4417   124.7321     2.5690     0.0315   -57.7760    11.9334     8.4042
 2352.5000     9.4425   124.5346     2.5440     0.0315   -57.7781    12.1547     8.7195
 2353.0000     9.4432   123.3460     2.5160     0.0315   -57.7797    12.3800     9.1305
 2353.5000     9.4587   119.3821     2.5030     0.0275   -57.7817    12.6098     9.4730
 2354.0000     9.4445   113.6341     2.5030     0.0276   -57.7837    12.7256    10.5812
 2354.5000     9.4293   110.6613     2.5030     0.0336   -57.7858    13.0816    10.8774
 2355.0000     9.4165   110.4635     2.5001     0.0436   -57.7878    13.2017    11.3900
 2355.5000     9.4173   111.8518     2.4911     0.0456   -57.7898    13.4464    11.6012
 2356.0000     9.4182   113.6366     2.4821     0.0456   -57.7918    13.5698    12.0362
 2356.5000     9.4188   115.2231     2.4831     0.0456   -57.7939    13.5687    12.1468
 2357.0000     9.4196   116.2150     2.4861     0.0396   -57.7959    13.4427    12.2583
 2357.5000     9.4203   116.4143     2.4841     0.0256   -57.7979    13.4417    12.2573
 2358.0000     9.4210   115.6216     2.4811     0.0236   -57.9992    13.5652    12.2563
 2358.5000     9.4219   112.0537     2.4831     0.0217   -57.8020    13.5640    12.2553
 2359.0000     9.4521   108.8823     2.4831     0.0217   -57.8036    13.5631    12.2542
 2359.5000     9.4676   108.2881     2.4761     0.0217   -57.8056    13.5619    12.2534
 2360.0000     9.4683   110.6678     2.4801     0.0257   -57.8077    13.5612    12.8307
 2360.5000     9.4247   115.6248     2.4911     0.0457   -57.8097    13.5596    12.5951
 2361.0000     9.4256   121.5733     2.5081     0.0497   -57.8117    13.5584    12.7107
 2361.5000     9.4114   124.9444     2.4941     0.0497   -57.6145    13.5573    12.7097
 2362.0000     9.4122   125.7382     2.4891     0.0557   -57.6166    13.5561    12.7086
 2362.5000     9.4129   125.7390     2.4981     0.0577   -57.6186    13.8073    12.7075
 2363.0000     9.4136   124.3519     2.4961     0.0637   -57.6206    13.8061    12.5898
 2363.5000     9.4145   122.7664     2.4911     0.0637   -57.6226    14.0617    12.7054
 2364.0000     9.4152   123.9568     2.4911     0.0717   -57.4255    13.9797    12.7043
 2364.5000     9.4159   124.9489     2.4991     0.0677   -57.2279    13.9307    12.7032
 2365.0000     9.4165   124.3548     2.4992     0.0697   -57.0307    13.9295    12.7022
 2365.5000     9.4173   122.9676     2.4972     0.0697   -57.0328    13.9283    12.7011
 2366.0000     9.4181   120.7872     2.4962     0.0698   -57.2340    13.9271    12.7002
 2366.5000     9.4189   117.6154     2.5072     0.0658   -57.2360    13.9261    12.6994
 2367.0000     9.4196   115.2367     2.5162     0.0618   -57.6364    13.9249    12.5600
 2367.5000     9.4202   111.6682     2.5162     0.0598   -57.6385    13.9234    12.6878
 2368.0000     9.3914   109.2894     2.5172     0.0598   -57.6405    13.9225    12.8168
 2368.5000     9.3773   103.1431     2.5062     0.0598   -57.6425    14.0503    13.0510
 2369.0000     9.3781    99.9710     2.5002     0.0638   -57.6445    14.0488    13.1707
 2369.5000     9.3790    95.2124     2.5022     0.0618   -57.6466    14.0478    13.2916
 2370.0000     9.3796    94.6180     2.5022     0.0618   -57.6486    14.0464    13.4136
 2370.5000     9.3804    96.7997     2.5032     0.0618   -57.6502    14.0454    13.5155
 2371.0000     9.3811    99.1797     2.5062     0.0619   -57.6522    14.0442    13.5146
 2371.5000     9.3820    99.9734     2.5072     0.0639   -57.2559    14.0430    13.5136
 2372.0000     9.3827   100.9653     2.5052     0.0639   -56.8595    14.0418    13.6379
 2372.5000     9.3833   104.3370     2.4992     0.0639   -56.6623    14.0408    13.6047
 2373.0000     9.3693   108.1054     2.4803     0.0679   -56.6644    14.1696    13.5715
 2373.5000     9.3700   114.0552     2.4813     0.0679   -56.4672    14.1682    13.5384
 2374.0000     9.3708   119.6086     2.4673     0.0679   -56.4692    14.1669    13.2608
 2374.5000     9.3716   120.9958     2.4693     0.0679   -55.6744    14.1657    13.5276
 2375.0000     9.3723   119.8066     2.4713     0.0679   -55.9269    14.1645    13.4023
 2375.5000     9.3730   113.0662     2.4773     0.0659   -56.0765    14.1632    13.2782
 2376.0000     9.3737   112.4719     2.4863     0.0680   -55.4809    14.1620    13.1553
 2376.5000     9.3745   112.4725     2.4903     0.0660   -56.0805    14.1613    13.1541
 2377.0000     9.3753   112.2748     2.4863     0.0660   -56.2818    14.1598    13.0328
 2377.5000     9.3908   112.0771     2.4803     0.0680   -56.4830    14.1586    13.0317
 2378.0000     9.3915   114.6559     2.4793     0.0640   -56.6842    14.0277    12.9108
 2378.5000     9.3922   117.6315     2.4783     0.0580   -56.4870    13.8976    12.9097
 2379.0000     9.3931   120.6071     2.4823     0.0580   -56.4891    13.8966    12.9086
 2379.5000     9.3938   121.2028     2.4953     0.0580   -56.4911    13.7677    12.9075
 2380.0000     9.3059   119.8152     2.4893     0.0580   -56.4931    13.7665    12.7881
 2380.5000     9.6904   117.6342     2.4843     0.0581   -56.4951    13.7653    12.6697
 2381.0000     9.3810   113.6681     2.4823     0.0541   -56.4972    13.6379    12.4372
 2381.5000     9.3967   110.2969     2.4843     0.0521   -56.4992    13.5116    12.3221
 2382.0000     9.3825   106.9257     2.4893     0.0481   -56.5008    13.2637    12.2080
 2382.5000     9.3833   104.7445     2.5003     0.0441   -55.5069    13.1408    12.0951
 2383.0000     9.3842   104.5467     2.4993     0.0441   -55.7081    13.1401    11.9831
 2383.5000     9.3701   105.3406     2.4913     0.0461   -55.5109    13.1390    11.7633
