~VERSION INFORMATION
 VERS.                2.0:   CWLS LOG ASCII STANDARD - VERSION 2.0
 WRAP.                 NO:   ONE LINE PER DEPTH STEP
~WELL INFORMATION
#MNEM.UNIT      DATA TYPE    INFORMATION
#----------   ------------   ------------------------------
 STRT.F          216.0000:   START DEPTH
 STOP.F         3184.0000:   STOP DEPTH
 STEP.F            0.5000:   STEP LENGTH
 NULL.          -999.2500:   NO VALUE
 COMP.    FENIX & SCISSON:   COMPANY
 WELL. FENIX & SCISSON INCNRP "A" #311-14:   WELL
 FLD .                NPR:   FIELD
 LOC .      S14 T38N R78W:   LOCATION
 CNTY.            NATRONA:   COUNTY
 STAT.            WYOMING:   STATE
 CTRY. UNITED STATES OF AMERICA:   COUNTRY
 SRVC.              WELEX:   SERVICE COMPANY
 DATE.        22-JUN-1977:   LOGDATE
 API .     49025103810000:   API NUMBER
~CURVE INFORMATION
#MNEM.UNIT       API CODE    CURVE DESCRIPTION
#----------   ------------   ------------------------------
 DEPT.F                  :   
 CALD.IN     45 280 60 00:   CALIPER FROM DENSITY LOG
 GRD .GAPI   45 310 01 00:   GAMMA RAY FROM DENSITY LOG
 DPHI.DEC    45 890 12 00:   DENSITY POROSITY SANDSTONE
 RHOB.G/C3   45 350 01 00:   BULK DENSITY
 CORR.G/C3   45 356 01 00:   DENSITY CORRECTION
 SPR .MV     07 010 01 00:   SPONTANEOUS POTENTIAL
 SFLU.OHMM   07 220 01 00:   SPHERICALLY FOCUSED LOG UNAVERAGED RESISTIVITY
 ILD .OHMM   07 120 46 00:   DEEP INDUCTION RESISTIVITY
 ILM .OHMM   07 120 44 00:   INDUCTION LOG MEDIUM RESISTIVITY
~PARAMETER INFORMATION
#MNEM.UNIT          VALUE    DESCRIPTION
#----------   ------------   ------------------------------
 EKB .F         5225.0000:   Kelly bushing
 EGL .F         5215.0000:   Ground level
 TD  .F         3183.0000:   Total depth
 DATE.        22-JUN-1977:   Date logged
 CLNT.            A2DTECH:   Client Code
 CTRY.                USA:   Country
 SL  . 330' FNL & 330' FWL:   Surface Location
 PD  .                 GL:   Permanent Datum
 EPD .F              5215:   Elevation Permanent Datum
 LMF .                 KB:   Log Measured From
 DMF .                 KB:   Drilling Measured From
 DAPD.F                10:   Feet Above Permanent Datum
 DD  .F              3178:   Depth driller
 DL  .F              3183:   Depth logger
 BLI .F              3181:   Bottom log interval
 TLI .F                20:   Top log interval
 CS1 .IN            8.625:   Casing size
 CBD1.      8.625" @ 217':   Casing driller 1
 BS1 .IN            7.875:   Bit size
 BSD1.F              3178:   Depth drilled with bit1
 DFT .            KCL MUD:   Type fluid in hole
 DFD .                9.5:   Density
 DFV .                 40:   Viscosity
 DFPH.                7.5:   pH
 DFL .               13.6:   Fluid loss
 MSS .           FLOWLINE:   Source of sample
 RMS .OHMM            .36:   Rm
 MST .F                80:   Rm Meas. temp.
 RMF .OHMM            .30:   Rmf
 MFST.F                80:   Rmf Meas. temp.
 RMC .OHMM            .86:   Rmc
 MCST.F                80:   Rmc Meas. temp.
 MFSS.               FANN:   Source Rmf.
 MCSS.                KIT:   Source Rmc.
 RMB .OHMM            .25:   Rm. at BHT
 BHT .F               114:   BHT.
 TCS .HRS             2.5:   Time Circ. stopped
 MRT .F               114:   Maximum recorded temp.
 LUN .               8766:   Logging unit number
 LUL .             CASPER:   Logging unit location
 ENGI.          T. TOYNER:   Recorded By
 WITN.      B. HARRINGTON:   Witnessed by
 PWI .                  -:   Primary Well Identifier
 ORIG.           5" PRINT:   Origin of data
 UWI .     49025103810000:   Unique Well ID
 DICO. A2D TECHNOLOGIES, INC.:   Digitizing Company
~OTHER INFORMATION
~A   DEPT       CALD       GRD        DPHI       RHOB       CORR      SPR         SFLU      ILD        ILM   
# ...
  617.5000    10.1018    82.0360     0.1121     2.4698     0.0208   -54.4899     8.1926     7.8966     8.4100
  618.0000    10.1023    83.2428     0.1113     2.4718     0.0208   -54.8831     8.4228     8.0442     8.4888
  618.5000    10.1027    82.4548     0.1117     2.4709     0.0189   -54.4840     8.5803     8.1945     8.5684
  619.0000    10.0821    82.4652     0.1132     2.4669     0.0189   -54.4816     8.5813     8.2713     8.7287
  619.5000    10.0615    84.0680     0.1148     2.4629     0.0150   -54.4780     8.6616     8.3487     8.8920
  620.0000    10.0409    84.4764     0.1160     2.4599     0.0150   -54.0800     8.6626     8.4269     9.0584
  620.5000    10.0054    84.0884     0.1164     2.4590     0.0150   -54.4721     8.7437     8.5057     9.0595
  621.0000    10.0059    84.0988     0.1160     2.4600     0.0191   -54.4697     8.8256     8.5854     9.1444
  621.5000    10.0064    84.9052     0.1160     2.4600     0.0209   -54.4661     8.9082     8.6657     9.1455
  622.0000    10.0268    85.7116     0.1148     2.4630     0.0232   -54.4638     8.9916     8.8277     9.1466
  622.5000    10.0273    85.7218     0.1148     2.4631     0.0232   -54.4602     8.9927     8.9927     9.2323
  623.0000    10.0279    85.3340     0.1152     2.4621     0.0233   -54.4578     9.0769     9.0769     9.1488
  623.5000    10.0483    84.9462     0.1152     2.4621     0.0248   -54.4543     9.0779     9.2465     9.1498
  624.0000    10.0488    83.3642     0.1131     2.4671     0.0253   -54.4519     9.1629     9.4193     8.9839
  624.5000    10.0493    82.9766     0.1115     2.4762     0.0274   -54.4483     9.3342     9.6840     9.0681
  625.0000    10.0498    82.9868     0.1115     2.4712     0.0275   -54.8416     9.4215     9.6851     9.0692
  625.5000    10.0503    82.9972     0.1135     2.4662     0.0295   -54.4424     9.5097     9.8661     9.1542
  626.0000    10.0509    85.7936     0.1163     2.4593     0.0275   -54.4400     9.5987     9.7770     9.1553
  626.5000    10.0315    85.4058     0.1183     2.4553     0.0276   -54.4365     9.5120     9.6886     9.0725
  627.0000    10.0519    83.4260     0.1203     2.4513     0.0276   -54.4341     9.5131     9.6897     9.0735
  627.5000    10.0524    84.6304     0.1211     2.4503     0.0257   -54.4305     9.3408     9.6022     8.9090
  628.0000    10.0529    83.4466     0.1215     2.4524     0.0277   -54.4282     9.1716     9.5154     8.8284
  628.5000    10.0534    83.4568     0.1214     2.4554     0.0297   -54.4246     9.0055     9.1727     8.6683
  629.0000    10.0540    85.0590     0.1210     2.4464     0.0277   -54.8178     8.8424     9.0898     8.6694
  629.5000    10.0545    85.8632     0.1222     2.4435     0.0238   -54.8143     8.7625     9.0077     8.6704
  630.0000    10.0550    87.0674     0.1246     2.4435     0.0239   -54.8119     8.8445     9.0088     8.6922
  630.5000    10.0555    87.4756     0.1254     2.4465     0.0219   -54.8083     8.8456     9.0098     8.6933
  631.0000    10.0560    87.4858     0.1262     2.4455     0.0180   -55.2016     8.8466     8.9284     8.6141
  631.5000    10.0565    87.0980     0.1274     2.4426     0.0160   -55.1980     8.8477     8.9295     8.6152
  632.0000    10.0571    86.3124     0.1262     2.4386     0.0140   -55.1956     8.8488     8.8488     8.5367
  632.5000    10.0377    86.7204     0.1258     2.4436     0.0141   -55.5877     8.7688     8.7686     8.4590
  633.0000    10.0382    87.1286     0.1213     2.4466     0.0142   -55.5853     8.5312     8.6300     8.3046
  633.5000    10.0387    86.3430     0.1197     2.4506     0.0162   -55.5818     8.3767     8.4936     7.7709
  634.0000    10.0392    87.1490     0.1189     2.4557     0.0182   -55.5794     8.3010     8.3016     7.7713
  634.5000    10.0398    87.9550     0.1189     2.4557     0.0183   -55.5758     8.1506     8.3019     7.6487
  635.0000    10.0204    88.3632     0.1205     2.4547     0.0163   -55.5735     8.1516     8.2265     7.5280
  635.5000    10.0010    88.3732     0.1221     2.4487     0.0163   -55.5699     8.0040     8.1487     7.4092
  636.0000    10.0015    89.1792     0.1249     2.4468     0.0124   -55.9631     7.9317     8.0716     7.2923
  636.5000    10.0020    89.1894     0.1269     2.4438     0.0125   -55.9596     7.7880     7.9952     7.1773
  637.0000     9.9827    88.4038     0.1265     2.4438     0.0030   -55.9572     7.7176     7.9196     7.0640
  637.5000     9.9832    88.0162     0.1272     2.4429     0.0066   -56.3493     7.7186     7.8446     6.9526
  638.0000    10.0036    87.2308     0.1272     2.4419     0.0106   -55.9513     7.6488     7.7704     6.8428
  638.5000    10.0041    88.0366     0.1244     2.4429     0.0106   -56.3433     7.5103     7.6969     6.7144
  639.0000    10.0245    88.8424     0.1212     2.4519     0.0119   -56.3410     7.4421     7.6240     6.7150
  639.5000    10.0250    88.0570     0.1172     2.4569     0.0147   -56.3374     7.2408     7.5519     6.5933
  640.0000    10.0057    87.2716     0.1164     2.4590     0.0148   -56.3350     7.2417     7.4804     6.5334
  640.5000    10.0062    86.8840     0.1152     2.4620     0.0148   -56.7271     7.3096     7.4097     6.4153
  641.0000     9.9868    87.2920     0.1124     2.4690     0.0209   -56.7247     7.2434     7.3108     6.4159
  641.5000    10.0072    87.7000     0.1068     2.4800     0.0269   -56.7211     7.2443     7.2439     6.4167
  642.0000     9.9878    88.1080     0.1028     2.4860     0.0269   -56.7188     7.2451     7.2444     6.4768
  642.5000    10.0082    89.7092     0.1024     2.4860     0.0310   -56.7152     7.3130     7.2099     6.5375
  643.0000     9.9889    88.9238     0.1056     2.4831     0.0330   -56.7128     7.3138     7.3140     6.4784
  643.5000     9.9894    88.5362     0.1076     2.4771     0.0301   -57.1049     7.1814     7.3142     6.2448
  644.0000     9.9700    87.3532     0.1084     2.4701     0.0271   -57.1025     7.1165     7.3149     6.3617
  644.5000     9.9507    87.7612     0.1087     2.4742     0.0272   -57.0990     6.9876     7.2497     6.3624
  645.0000     9.9706    88.5668     0.1087     2.4742     0.0292   -57.0966     6.9885     7.1851     6.3046
  645.5000     9.9517    88.5770     0.1095     2.4742     0.0272   -57.0930     6.9253     7.1210     6.0218
  646.0000     9.9721    86.9962     0.1087     2.4702     0.0293   -57.0906     6.9902     7.0576     6.0783
  646.5000     9.9205    86.2110     0.1075     2.4743     0.0333   -57.4827     6.9910     6.9946     6.0233
  647.0000     9.8737    85.4280     0.1059     2.4793     0.0362   -57.4803     6.9275     6.9323     5.9688
  647.5000     9.8543    84.6428     0.1043     2.4843     0.0374   -57.4768     6.8653     6.8705     5.9695
  648.0000     9.7952    84.2554     0.1015     2.4843     0.0394   -57.4744     6.7411     6.8093     5.9702
  648.5000     9.7957    83.8680     0.1035     2.4853     0.0381   -57.4708     6.6191     6.7486     5.9162
  649.0000     9.7565    83.4806     0.1071     2.4844     0.0375   -57.4685     6.4992     6.6884     5.8089
  649.5000     9.7769    84.2862     0.1074     2.4864     0.0356   -57.4649     6.5000     6.6288     5.9176
  650.0000     9.7575    85.4894     0.1078     2.4854     0.0336   -57.4625     6.4413     6.5697     5.6519
  650.5000     9.7581    86.2940     0.1086     2.4835     0.0312   -57.4590     6.3831     6.5112     5.4985
  651.0000     9.7582    86.6946     0.1098     2.4794     0.0257   -57.4566     6.3835     6.4531     5.4488
  651.5000     9.7583    87.0984     0.1110     2.4755     0.0241   -57.4530     6.2109     6.3848     5.3992
  652.0000     9.7588    87.8998     0.1118     2.4735     0.0238   -57.4506     6.1548     6.2687     5.1097
  652.5000     9.7393    87.5084     0.1130     2.4705     0.0238   -57.4471     6.0434     6.1599     5.0635
  653.0000     9.7396    87.1170     0.1150     2.4665     0.0219   -57.4447     5.8796     6.0530     5.0176
  653.5000     9.7598    86.7256     0.1154     2.4646     0.0219   -57.4411     5.7732     5.9480     4.9722
