~VERSION INFORMATION
 VERS.                2.0:   CWLS LOG ASCII STANDARD - VERSION 2.0
 WRAP.                 NO:   ONE LINE PER DEPTH STEP
~WELL INFORMATION
#MNEM.UNIT      DATA TYPE    INFORMATION
#----------   ------------   ------------------------------
 STRT.F            0.5000:   START DEPTH
 STOP.F         4128.0000:   STOP DEPTH
 STEP.F            0.5000:   STEP LENGTH
 NULL.          -999.2500:   NO VALUE
 COMP. LAWRENCE ALLISON ASSOC WEST:   COMPANY
 WELL. LAWRENCE NPR "AX" #12-33:   WELL
 FLD .      NPR - WILDCAT:   FIELD
 LOC .      S33 T39N R78W:   LOCATION
 CNTY.            NATRONA:   COUNTY
 STAT.            WYOMING:   STATE
 CTRY. UNITED STATES OF AMERICA:   COUNTRY
 SRVC.      DRESSER ATLAS:   SERVICE COMPANY
 DATE.        04-AUG-1984:   LOGDATE
 API .     49025109720000:   API NUMBER
~CURVE INFORMATION
#MNEM.UNIT       API CODE    CURVE DESCRIPTION
#----------   ------------   ------------------------------
 DEPT.F                  :   
 CORR.G/C3   45 356 01 00:   DENSITY CORRECTION
 TEND.LBS    45 635 01 00:   TENSION FROM DENSITY LOG
 RHOB.G/C3   45 350 01 00:   BULK DENSITY
 GRR .GAPI   07 310 01 00:   GAMMA RAY FROM RESISTIVITY
 SPR .MV     07 010 01 00:   SPONTANEOUS POTENTIAL
 RFOC.OHMM   07 220 04 00:   RESISTIVITY FOCUSED LOG RES.
 RILM.OHMM   07 120 44 00:   RESISTIVITY INDUCTION LOG MEDIUM
 RILD.OHMM   07 120 46 00:   RESISTIVITY INDUCTION LOG MEDIUM
 TENR.LBS    07 635 01 00:   TENSION FROM RESISTIVITY
 CALR.IN     07 280 01 00:   CALIPER FROM RESISTIVITY
 DT  .US/F   60 520 00 00:   DELTA TIME
 TENS.LBS    60 635 01 00:   TENSION FROM SONIC
 SPHI.DEC    60 890 00 00:   SONIC POROSITY
~PARAMETER INFORMATION
#MNEM.UNIT          VALUE    DESCRIPTION
#----------   ------------   ------------------------------
 EKB .F         5170.0000:   Kelly bushing
 EGL .F         5157.0000:   Ground level
 EDF .F            0.0000:   Drilling floor
 TD  .F         4121.0000:   Total depth
 DATE.        04-AUG-1984:   Date logged
 CLNT.            A2DTECH:   Client Code
 SL  . 857' FNL & 751' FWL:   Surface Location
 PD  .                 GL:   Permanent Datum
 EPD .F              5157:   Elevation Permanent Datum
 LMF .                 KB:   Log Measured From
 DMF .                 KB:   Drilling Measured From
 DAPD.F                13:   Feet Above Permanent Datum
 DD  .F              4120:   Depth driller
 DL  .F              4121:   Depth logger
 BLI .F              4119:   Bottom log interval
 CS1 .IN            8.625:   Casing size
 CBD1.      8.625" @ 625':   Casing driller 1
 CBL1.F               624:   Casing logger 1
 BS1 .IN            7.875:   Bit size
 BSD1.F              4120:   Depth drilled with bit1
 DFT .            GEL/KCL:   Type fluid in hole
 DFD .                9.1:   Density
 DFV .                 40:   Viscosity
 DFPH.                8.5:   pH
 DFL .                 11:   Fluid loss
 MSS .               TANK:   Source of sample
 RMS .OHMM           .302:   Rm
 MST .F                84:   Rm Meas. temp.
 RMF .OHMM            .22:   Rmf
 MFST.F                84:   Rmf Meas. temp.
 RMC .OHMM            .38:   Rmc
 MCST.F                84:   Rmc Meas. temp.
 MFSS.               CALC:   Source Rmf.
 MCSS.               CALC:   Source Rmc.
 RMB .OHMM            .19:   Rm. at BHT
 BHT .F               132:   BHT.
 TCS .HRS               4:   Time Circ. stopped
 MRT .F               132:   Maximum recorded temp.
 LUN .               6307:   Logging unit number
 LUL .               GLTE:   Logging unit location
 ENGI.           FAHLSING:   Recorded By
 WITN.       ROBERT SCOTT:   Witnessed by
 ORIG.           5" PRINT:   Origin of data
 UWI .     49025109720000:   Unique Well ID
 DICO. A2D TECHNOLOGIES, INC.:   Digitizing Company
~OTHER INFORMATION
~A    DEPT    CORR       TEND       RHOB         GRR       SPR       RFOC       RILM       RILD       TENR       CALR         DT       TENS       SPHI   
# ...
 2704.5000     0.0460   -55.0000     2.4600    96.4640   -40.9400    12.8290    11.9250    10.7250   -45.6920     8.2690    76.3170   -39.5300     0.1820
 2705.0000     0.0530   -55.0000     2.4600    99.6580   -40.8520    13.0460    12.2910    11.0800   -45.6830     8.2420    76.1780   -39.6530     0.1820
 2705.5000     0.0600   -55.0000     2.4840    98.7100   -40.7630    13.1670    12.7420    11.4350   -45.6730     8.2190    75.7420   -39.7760     0.1770
 2706.0000     0.0670   -55.0000     2.4960    95.1450   -40.6730    13.9570    12.6140    11.7290   -45.6630     8.2140    74.8850   -39.8980     0.1710
 2706.5000     0.0640   -55.0000     2.5020    91.5650   -40.5840    15.6000    12.4470    11.8370   -45.6540     8.2090    74.1300   -40.0210     0.1660
 2707.0000     0.0610   -55.0000     2.5000    92.8350   -40.4950    15.1610    12.2810    11.8370   -45.6440     8.2030    73.3350   -40.1440     0.1610
 2707.5000     0.0570   -55.0000     2.4870    94.8980   -40.4060    14.0090    12.1140    11.8370   -45.6340     8.1980    73.2980   -40.2670     0.1610
 2708.0000     0.0460   -55.0000     2.4750    97.0050   -40.3370    12.3950    11.9470    11.8370   -45.6250     8.1920    74.1780   -40.3890     0.1660
 2708.5000     0.0330   -55.0000     2.4800    99.1850   -40.3370    12.5410    11.8370    11.7450   -45.6150     8.1860    75.0850   -40.5120     0.1720
 2709.0000     0.0480   -55.0000     2.4860    99.6600   -40.3340    12.9080    11.8370    11.6280   -45.6050     8.1820    75.6010   -40.6350     0.1800
 2709.5000     0.0700   -55.0000     2.4910    99.5230   -40.1940    12.9780    11.8370    11.5120   -45.5950     8.1870    76.2100   -40.7580     0.1830
 2710.0000     0.0760   -55.0000     2.4790    99.3640   -39.7830    12.6370    11.8370    11.3950   -45.5860     8.1920    76.5070   -40.8800     0.1850
 2710.5000     0.0770   -55.0000     2.4720    99.2070   -39.4100    12.5090    11.8370    11.3050   -45.5760     8.1970    76.7170   -41.0030     0.1870
 2711.0000     0.0790   -55.0000     2.4750    99.0800   -38.8200    12.6700    11.8370    11.3050   -45.5660     8.2000    76.8560   -41.1260     0.1870
 2711.5000     0.0800   -55.0000     2.4780    97.3050   -38.0990    12.7420    11.8370    11.3050   -45.5570     8.1950    76.6870   -41.2490     0.1850
 2712.0000     0.0810   -55.0000     2.4810    95.0210   -37.3780    12.7420    11.8370    11.3050   -45.5470     8.1890    76.8250   -41.3710     0.1850
 2712.5000     0.0650   -55.0000     2.4690    92.8690   -36.6530    12.5000    11.8370    11.3180   -45.5370     8.1840    76.9650   -41.4940     0.1860
 2713.0000     0.0490   -55.0000     2.4580    92.4210   -35.9170    12.2810    11.8370    11.3680   -45.5280     8.1750    77.1040   -41.6170     0.1870
 2713.5000     0.0480   -55.0000     2.4530    91.0730   -35.7320    12.2810    11.8370    11.4180   -45.5180     8.1570    77.2020   -41.7400     0.1880
 2714.0000     0.0470   -55.0000     2.4370    87.7570   -35.5350    12.2460    11.8370    11.4680   -45.5080     8.1410    77.2390   -41.8620     0.1890
 2714.5000     0.0520   -55.0000     2.4200    83.4910   -35.3430    12.2130    11.8370    11.5150   -45.4990     8.1410    77.2760   -41.9850     0.1900
 2715.0000     0.0580   -55.0000     2.4060    83.5650   -35.1490    12.1790    11.8370    11.5150   -45.4890     8.1470    77.3120   -42.1080     0.1900
 2715.5000     0.0630   -55.0000     2.4050    90.1010   -34.9520    12.0570    11.8370    11.5150   -45.4790     8.1560    77.3490   -42.2300     0.1900
 2716.0000     0.0690   -55.0000     2.4170    95.6370   -35.4560    12.0570    11.8370    11.5160   -45.4690     8.1560    77.3860   -42.3530     0.1900
 2716.5000     0.0670   -55.0000     2.4300   100.8780   -36.0540    12.1970    11.8370    11.5090   -45.4600     8.1430    77.4230   -42.4760     0.1900
 2717.0000     0.0650   -55.0000     2.4430   101.6410   -36.6550    12.3980    11.8380    11.4020   -45.4500     8.1410    77.4600   -42.5990     0.1910
 2717.5000     0.0780   -55.0000     2.4550    98.5400   -36.7540    12.6000    11.8380    11.4160   -45.4400     8.1420    77.4870   -42.7210     0.1910
 2718.0000     0.0910   -55.0000     2.4580    94.9830   -36.3750    12.8010    11.8370    11.4100   -45.4310     8.1240    77.1640   -42.8440     0.1910
 2718.5000     0.1010   -55.0000     2.4560    91.2610   -35.8110    12.9780    11.8370    11.3050   -45.4210     8.0970    76.7800   -42.9670     0.1870
 2719.0000     0.1000   -55.0000     2.4530    92.6580   -35.2440    12.9780    12.0180    11.3510   -45.4110     8.0710    76.3960   -43.0900     0.1840
 2719.5000     0.0900   -55.0000     2.4540    93.9640   -34.6710    12.9780    12.2140    11.7070   -45.4020     8.0440    76.2690   -43.2120     0.1820
 2720.0000     0.0700   -55.0000     2.4570    93.8930   -34.0600    12.9780    12.4100    12.0640   -45.3920     8.0170    76.4520   -43.3350     0.1830
 2720.5000     0.0500   -55.0000     2.4610    92.4290   -33.8010    13.0980    12.6060    12.4200   -45.3820     7.9910    76.5210   -43.4580     0.1840
 2721.0000     0.0640   -55.0000     2.4730    90.9800   -33.6080    14.4980    12.8010    12.7770   -45.3730     7.9630    75.6860   -43.5810     0.1830
 2721.5000     0.0840   -55.0000     2.4850    89.4680   -33.5670    15.7450    12.9970    13.2190   -45.3630     7.9370    75.1150   -43.7030     0.1750
 2722.0000     0.1030   -55.0000     2.4930    87.6110   -33.5670    14.8360    13.1930    13.1160   -45.3530     7.9090    74.4110   -43.8260     0.1680
 2722.5000     0.1230   -55.0000     2.4870    83.1100   -33.8820    13.7150    13.3890    12.9800   -45.3430     7.8820    74.5810   -43.9490     0.1650
 2723.0000     0.1350   -55.0000     2.4810    82.0860   -34.5010    13.7710    13.5890    12.8440   -45.3340     7.8550    75.1680   -44.0720     0.1720
 2723.5000     0.1250   -55.0000     2.5010    81.5920   -35.2280    13.8700    13.6910    12.7080   -45.3240     7.8190    75.5860   -44.1940     0.1790
 2724.0000     0.1150   -55.0000     2.5280    81.0760   -35.9710    13.9700    13.7940    12.6250   -45.3140     7.8660    75.4030   -44.3170     0.1770
 2724.5000     0.1060   -55.0000     2.5290    80.5600   -36.7170    14.0990    13.8980    12.6250   -45.3050     7.8940    75.2360   -44.4400     0.1750
 2725.0000     0.1020   -55.0000     2.5170    78.5360   -37.4600    14.0990    14.0020    12.6250   -45.2950     7.9250    75.0850   -44.5630     0.1740
 2725.5000     0.0970   -55.0000     2.5000    74.0030   -38.1840    15.5890    14.1060    12.6250   -45.2850     7.9570    74.9850   -44.6850     0.1740
 2726.0000     0.0770   -55.0000     2.4990    69.4830   -39.2390    18.0620    14.2290    12.6250   -45.2760     7.9830    74.5850   -44.7750     0.1660
 2726.5000     0.0600   -55.0000     2.5390    69.5260   -40.3210    20.1850    13.7700    12.5160   -45.2660     7.9880    72.8040   -44.5910     0.1590
 2727.0000     0.0560   -55.0000     2.5760    77.5000   -41.4100    20.3710    13.2060    12.0120   -45.2560     7.9940    70.6810   -44.4070     0.1430
 2727.5000     0.0600   -55.0000     2.5850    85.6340   -42.4980    18.2220    12.6420    11.5090   -45.2470     8.0000    70.4800   -44.2230     0.1410
 2728.0000     0.0730   -55.0000     2.5650    93.7720   -43.5200    14.0610    12.0770    11.0060   -45.2370     8.0060    71.7140   -44.0390     0.1480
 2728.5000     0.0920   -55.0000     2.5370    98.3380   -43.9390    11.6220    11.5130    10.5020   -45.2270     8.0120    73.0830   -43.8550     0.1610
 2729.0000     0.0800   -55.0000     2.5220    98.7330   -44.3290    11.6220    10.9490     9.9990   -45.2170     8.0180    74.9850   -43.6710     0.1750
 2729.5000     0.0560   -55.0000     2.5060    97.7970   -44.7200    11.6220    10.3840     9.4960   -45.2080     8.0240    75.8280   -43.4870     0.1800
 2730.0000     0.0330   -55.0000     2.4900    95.3710   -44.9180    11.4290     9.8200     8.9920   -45.1980     8.0300    75.9530   -43.3020     0.1820
