~VERSION INFORMATION
 VERS.                2.0:   CWLS LOG ASCII STANDARD - VERSION 2.0
 WRAP.                 NO:   ONE LINE PER DEPTH STEP
~WELL INFORMATION
#MNEM.UNIT      DATA TYPE    INFORMATION
#----------   ------------   ------------------------------
 STRT.F           46.0000:   START DEPTH
 STOP.F         2952.5000:   STOP DEPTH
 STEP.F            0.5000:   STEP LENGTH
 NULL.          -999.2500:   NO VALUE
 COMP.    FENIX & SCISSON:   COMPANY
 WELL. FENIX NPR 3 "SHX" #11-15:   WELL
 FLD .        TEAPOT DOME:   FIELD
 LOC .      S15 T38N R78W:   LOCATION
 CNTY.            NATRONA:   COUNTY
 STAT.            WYOMING:   STATE
 CTRY. UNITED STATES OF AMERICA:   COUNTRY
 SRVC.           BIRDWELL:   SERVICE COMPANY
 DATE.        19-JAN-1979:   LOGDATE
 API .     49025107640000:   API NUMBER
~CURVE INFORMATION
#MNEM.UNIT       API CODE    CURVE DESCRIPTION
#----------   ------------   ------------------------------
 DEPT.F                  :   
 GRD .GAPI   45 310 01 00:   GAMMA RAY FROM DENSITY LOG
 CALD.IN     45 280 60 00:   CALIPER FROM DENSITY LOG
 RHOB.G/C3   45 350 01 00:   BULK DENSITY
 CORR.G/C3   45 356 01 00:   DENSITY CORRECTION
 SPR .MV     07 010 01 00:   SPONTANEOUS POTENTIAL
 SN  .OHMM   01 040 00 00:   SHORT NORMAL
 ILD .OHMM   07 120 46 00:   INDUCTION LOG DEEP RESISTIVITY
~PARAMETER INFORMATION
#MNEM.UNIT          VALUE    DESCRIPTION
#----------   ------------   ------------------------------
 EKB .F         5258.0000:   Kelly bushing
 EGL .F         5248.0000:   Ground level
 EDF .F            0.0000:   Drilling floor
 TD  .F         1300.0000:   Total depth
 DATE.        19-JAN-1979:   Date logged
 CLNT.            A2DTECH:   Client Code
 SL  . 177' FNL & 155' FWL:   Surface Location
 PD  .                 GL:   Permanent Datum
 EPD .F              5248:   Elevation Permanent Datum
 LMF .                 KB:   Log Measured From
 DMF .                 KB:   Drilling Measured From
 DAPD.F                10:   Feet Above Permanent Datum
 DD  .F              1300:   Depth driller
 DL  .F              1283:   Depth logger
 BLI .F              1277:   Bottom log interval
 TLI .F               100:   Top log interval
 CBD1.F                40:   Casing driller 1
 CBL1.F                40:   Casing logger 1
 BS1 .IN            7.875:   Bit size
 BSD1.F              1300:   Depth drilled with bit1
 DFT .           CHEM/GEL:   Type fluid in hole
 DFD .                8.8:   Density
 DFV .                 37:   Viscosity
 DFL .               15.4:   Fluid loss
 MSS .           FLOWLINE:   Source of sample
 RMS .OHMM            .75:   Rm
 MST .F                68:   Rm Meas. temp.
 RMF .OHMM            .75:   Rmf
 MFST.F                64:   Rmf Meas. temp.
 RMC .OHMM            1.3:   Rmc
 MCST.F                68:   Rmc Meas. temp.
 MFSS.               MEAS:   Source Rmf.
 MCSS.               MEAS:   Source Rmc.
 RMB .OHMM            .73:   Rm. at BHT
 BHT .F                70:   BHT.
 TCS .HRS               2:   Time Circ. stopped
 MRT .F                70:   Maximum recorded temp.
 LUN .               3029:   Logging unit number
 LUL .               CSPR:   Logging unit location
 ENGI.            ROLLINS:   Recorded By
 WITN.           DINSMORE:   Witnessed by
 ORIG.           5" PRINT:   Origin of data
 UWI .     49025107640000:   Unique Well ID
 DICO. A2D TECHNOLOGIES, INC.:   Digitizing Company
~OTHER INFORMATION
~A   DEPT      GRD       CALD       RHOB       CORR        SPR           SN        ILD 
# ...
 1866.0000   142.1130    10.5860     2.4110     0.1280  -999.2500  -999.2500  -999.2500
 1866.5000   139.7440    10.5470     2.4430     0.1130  -999.2500  -999.2500  -999.2500
 1867.0000   140.6430    10.5130     2.4570     0.1140  -999.2500  -999.2500  -999.2500
 1867.5000   143.2080    10.5160     2.4460     0.1100  -999.2500  -999.2500  -999.2500
 1868.0000   146.4950    10.5160     2.4470     0.1350  -999.2500  -999.2500  -999.2500
 1868.5000   148.7890    10.5150     2.4510     0.1500  -999.2500  -999.2500  -999.2500
 1869.0000   147.8410    10.5160     2.4560     0.1470  -999.2500  -999.2500  -999.2500
 1869.5000   146.6620    10.5170     2.4660     0.1320  -999.2500  -999.2500  -999.2500
 1870.0000   145.1650    10.5400     2.4770     0.1220  -999.2500  -999.2500  -999.2500
 1870.5000   144.9000    10.5610     2.4810     0.1300  -999.2500  -999.2500  -999.2500
 1871.0000   144.6450    10.5830     2.4880     0.1380  -999.2500  -999.2500  -999.2500
 1871.5000   141.6350    10.6040     2.5030     0.1310  -999.2500  -999.2500  -999.2500
 1872.0000   142.4500    10.6260     2.5030     0.1210  -999.2500  -999.2500  -999.2500
 1872.5000   146.5630    10.6480     2.5030     0.1120  -999.2500  -999.2500  -999.2500
 1873.0000   149.3570    10.6700     2.4970     0.1030  -999.2500  -999.2500  -999.2500
 1873.5000   148.9860    10.6910     2.4910     0.0970  -999.2500  -999.2500  -999.2500
 1874.0000   147.3080    10.7130     2.4840     0.0930  -999.2500  -999.2500  -999.2500
 1874.5000   148.7010    10.7350     2.4750     0.0940  -999.2500  -999.2500  -999.2500
 1875.0000   149.7600    10.7530     2.4580     0.0960  -999.2500  -999.2500  -999.2500
 1875.5000   149.7810    10.7750     2.4450     0.0970  -999.2500  -999.2500  -999.2500
 1876.0000   149.7050    10.7930     2.4430     0.0990  -999.2500  -999.2500  -999.2500
 1876.5000   148.3000    10.8120     2.4260     0.1000  -999.2500  -999.2500  -999.2500
 1877.0000   147.1870    10.8300     2.4070     0.1040  -999.2500  -999.2500  -999.2500
 1877.5000   145.8950    10.8490     2.4090     0.1180  -999.2500  -999.2500  -999.2500
 1878.0000   146.2870    10.8670     2.4040     0.1260  -999.2500  -999.2500  -999.2500
 1878.5000   147.4040    10.8860     2.3970     0.1470  -999.2500  -999.2500  -999.2500
 1879.0000   148.1830    10.9040     2.3950     0.1580  -999.2500  -999.2500  -999.2500
 1879.5000   148.2880    10.9030     2.3970     0.1440  -999.2500  -999.2500  -999.2500
 1880.0000   147.5300    10.8920     2.3960     0.1430  -999.2500  -999.2500  -999.2500
 1880.5000   146.1430    10.8830     2.3920     0.1660  -999.2500  -999.2500  -999.2500
 1881.0000   144.5470    10.8730     2.3570     0.1890  -999.2500  -999.2500  -999.2500
 1881.5000   142.4190    10.8630     2.3770     0.2040  -999.2500  -999.2500  -999.2500
 1882.0000   144.0880    10.8530     2.4320     0.1840  -999.2500  -999.2500  -999.2500
 1882.5000   152.3390    10.8440     2.4410     0.1540  -999.2500  -999.2500  -999.2500
 1883.0000   153.0350    10.8340     2.4490     0.1330  -999.2500  -999.2500  -999.2500
 1883.5000   153.7680    10.8240     2.4510     0.1330  -999.2500  -999.2500  -999.2500
 1884.0000   148.9440    10.8140     2.4490     0.1330  -999.2500  -999.2500  -999.2500
 1884.5000   146.2310    10.8050     2.4250     0.1310  -999.2500  -999.2500  -999.2500
 1885.0000   145.1730    10.7940     2.4100     0.1480  -999.2500  -999.2500  -999.2500
 1885.5000   143.8910    10.7990     2.4090     0.1790  -999.2500  -999.2500  -999.2500
 1886.0000   141.4070    10.8150     2.4190     0.1790  -999.2500  -999.2500  -999.2500
 1886.5000   137.9050    10.8280     2.4310     0.1570  -999.2500  -999.2500  -999.2500
 1887.0000   137.5940    10.8420     2.4410     0.1360  -999.2500  -999.2500  -999.2500
 1887.5000   137.8740    10.8560     2.4580     0.1150  -999.2500  -999.2500  -999.2500
 1888.0000   138.5030    10.8670     2.4770     0.0970  -999.2500  -999.2500  -999.2500
 1888.5000   139.0700    10.8390     2.4980     0.0970  -999.2500  -999.2500  -999.2500
 1889.0000   139.1420    10.8100     2.4970     0.0960  -999.2500  -999.2500  -999.2500
 1889.5000   138.9570    10.7790     2.4940     0.0960  -999.2500  -999.2500  -999.2500
 1890.0000   135.5570    10.7480     2.4910     0.0970  -999.2500  -999.2500  -999.2500
 1890.5000   134.8290    10.7180     2.4910     0.0960  -999.2500  -999.2500  -999.2500
 1891.0000   136.1160    10.6870     2.4900     0.0960  -999.2500  -999.2500  -999.2500
 1891.5000   134.4180    10.6710     2.4810     0.0970  -999.2500  -999.2500  -999.2500
 1892.0000   130.8070    10.6880     2.4600     0.0940  -999.2500  -999.2500  -999.2500
 1892.5000   128.8370    10.7310     2.4220     0.1090  -999.2500  -999.2500  -999.2500
 1893.0000   129.6580    10.7740     2.3820     0.1370  -999.2500  -999.2500  -999.2500
 1893.5000   131.7170    10.8180     2.3660     0.2020  -999.2500  -999.2500  -999.2500
 1894.0000   133.8690    10.8300     2.3690     0.2050  -999.2500  -999.2500  -999.2500
 1894.5000   133.8310    10.8350     2.4230     0.1880  -999.2500  -999.2500  -999.2500
 1895.0000   132.0270    10.7890     2.4400     0.1440  -999.2500  -999.2500  -999.2500
 1895.5000   135.2650    10.7140     2.4410     0.1260  -999.2500  -999.2500  -999.2500
 1896.0000   142.6610    10.6480     2.4420     0.1240  -999.2500  -999.2500  -999.2500
 1896.5000   143.0030    10.5760     2.4440     0.1370  -999.2500  -999.2500  -999.2500
 1897.0000   142.8830    10.5720     2.4510     0.1710  -999.2500  -999.2500  -999.2500
 1897.5000   137.2900    10.6100     2.4670     0.1720  -999.2500  -999.2500  -999.2500
 1898.0000   138.2590    10.6330     2.4840     0.1720  -999.2500  -999.2500  -999.2500
 1898.5000   145.6860    10.6360     2.4980     0.1530  -999.2500  -999.2500  -999.2500
 1899.0000   143.8560    10.6050     2.5010     0.1270  -999.2500  -999.2500  -999.2500
 1899.5000   141.7760    10.5470     2.4770     0.1250  -999.2500  -999.2500  -999.2500
 1900.0000   140.4910    10.4960     2.4750     0.1260  -999.2500  -999.2500  -999.2500
 1900.5000   141.9400    10.4440     2.4740     0.1380  -999.2500  -999.2500  -999.2500
 1901.0000   145.0270    10.3870     2.4750     0.1330  -999.2500  -999.2500  -999.2500
 1901.5000   148.0840    10.3570     2.4750     0.1380  -999.2500  -999.2500  -999.2500
 1902.0000   150.4730    10.3630     2.4820     0.1450  -999.2500  -999.2500  -999.2500
 1902.5000   150.3200    10.3640     2.4890     0.1490  -999.2500  -999.2500  -999.2500
 1903.0000   144.0580    10.3670     2.4970     0.1480  -999.2500  -999.2500  -999.2500
 1903.5000   139.7390    10.3700     2.5040     0.1480  -999.2500  -999.2500  -999.2500
 1904.0000   140.0830    10.3720     2.5060     0.1230  -999.2500  -999.2500  -999.2500
 1904.5000   139.2820    10.3750     2.4980     0.1170  -999.2500  -999.2500  -999.2500
 1905.0000   137.7460    10.3780     2.5030     0.1190  -999.2500  -999.2500  -999.2500
 1905.5000   137.4380    10.3800     2.5120     0.1200  -999.2500  -999.2500  -999.2500
 1906.0000   140.4670    10.3830     2.5040     0.1130  -999.2500  -999.2500  -999.2500
 1906.5000   142.4900    10.3860     2.4820     0.1080  -999.2500  -999.2500  -999.2500
 1907.0000   141.5110    10.3880     2.4830     0.1080  -999.2500  -999.2500  -999.2500
 1907.5000   146.1430    10.3910     2.4850     0.1090  -999.2500  -999.2500  -999.2500
 1908.0000   147.4440    10.3940     2.4890     0.1020  -999.2500  -999.2500  -999.2500
 1908.5000   147.3030    10.3950     2.4880     0.0890  -999.2500  -999.2500  -999.2500
 1909.0000   146.9560    10.4100     2.4840     0.0880  -999.2500  -999.2500  -999.2500
 1909.5000   147.6140    10.4390     2.4690     0.0910  -999.2500  -999.2500  -999.2500
 1910.0000   149.8630    10.4660     2.4470     0.1040  -999.2500  -999.2500  -999.2500
 1910.5000   150.3200    10.4950     2.4330     0.1310  -999.2500  -999.2500  -999.2500
 1911.0000   149.6970    10.5210     2.4350     0.1310  -999.2500  -999.2500  -999.2500
