~VERSION INFORMATION
 VERS.                2.0:   CWLS LOG ASCII STANDARD - VERSION 2.0
 WRAP.                 NO:   ONE LINE PER DEPTH STEP
~WELL INFORMATION
#MNEM.UNIT      DATA TYPE    INFORMATION
#----------   ------------   ------------------------------
 STRT.F           80.0000:   START DEPTH
 STOP.F         2730.0000:   STOP DEPTH
 STEP.F            0.5000:   STEP LENGTH
 NULL.          -999.2500:   NO VALUE
 COMP.          U.S. NAVY:   COMPANY
 WELL. US NPR 3 "AX" #57-20:   WELL
 FLD .             TEAPOT:   FIELD
 LOC .      S20 T39N R78W:   LOCATION
 CNTY.            NATRONA:   COUNTY
 STAT.            WYOMING:   STATE
 CTRY. UNITED STATES OF AMERICA:   COUNTRY
 SRVC.       SCHLUMBERGER:   SERVICE COMPANY
 DATE.        31-JUL-1964:   LOGDATE
 API .     49025066320000:   API NUMBER
~CURVE INFORMATION
#MNEM.UNIT       API CODE    CURVE DESCRIPTION
#----------   ------------   ------------------------------
 DEPT.F                  :   
 SPR .MV     01 010 01 00:   SPONTANEOUS POTENTIAL FROM RES.
 LN  .OHMM   01 060 39 00:   LONG NORMAL 39"
 ASN .OHMM   01 041 16 00:   AMPLIFIED SHORT NORMAL 16"
 LAT .OHMM   01 070 00 00:   LATERAL
 GRN .GAPI   35 310 30 00:   GAMMA RAY
 NEUT.NAPI   35 330 01 00:   NEUTRON
~PARAMETER INFORMATION
#MNEM.UNIT          VALUE    DESCRIPTION
#----------   ------------   ------------------------------
 EKB .F         5019.0000:   Kelly bushing
 EGL .F         5011.0000:   Ground level
 TD  .F         2696.0000:   Total depth
 DATE.        31-JUL-1964:   Date logged
 CLNT.            A2DTECH:   Client Code
 PD  .                 GL:   Permanent Datum
 EPD .F              5011:   Elevation Permanent Datum
 LMF .                 KB:   Log Measured From
 DMF .                 KB:   Drilling Measured From
 DAPD.F                 8:   Feet Above Permanent Datum
 DD  .F              2690:   Depth driller
 DL  .F              2696:   Depth logger
 BLI .F              2695:   Bottom log interval
 TLI .F                82:   Top log interval
 CS1 .IN            12.25:   Casing size
 CBD1.       12.25" @ 15':   Casing driller 1
 BS1 .IN               11:   Bit size
 BSD1.F              2690:   Depth drilled with bit1
 DFT .                GEL:   Type fluid in hole
 MSS .           FLOWLINE:   Source of sample
 RMS .OHMM           2.48:   Rm
 MST .F                83:   Rm Meas. temp.
 RMF .OHMM           1.87:   Rmf
 MFST.F                83:   Rmf Meas. temp.
 MFSS.                 FP:   Source Rmf.
 MCSS.                 FP:   Source Rmc.
 TCS .HRS               4:   Time Circ. stopped
 LUN .               3527:   Logging unit number
 LUL .               CSPR:   Logging unit location
 ENGI.            WINKLER:   Recorded By
 WITN.          GORGENSEN:   Witnessed by
 ORIG.         2.5" PRINT:   Origin of data
 UWI .     49025066320000:   Unique Well ID
 DICO.   A2D TECHNOLOGIES:   Digitizing Company
~OTHER INFORMATION
~A   DEPT      SPR         LN        ASN        LAT        GRN       NEUT   
# ...
 1484.0000   -37.4840     6.9000     6.6930     7.5950  -999.2500  -999.2500
 1484.5000   -37.4690     6.9110     6.6540     7.5830  -999.2500  -999.2500
 1485.0000   -37.4530     6.9220     6.6140     7.5710  -999.2500  -999.2500
 1485.5000   -37.4380     6.9320     6.5760     7.5600  -999.2500  -999.2500
 1486.0000   -37.4220     6.9430     6.5320     7.5480  -999.2500  -999.2500
 1486.5000   -37.4060     6.9540     6.5230     7.5360  -999.2500  -999.2500
 1487.0000   -37.3910     6.9650     6.5450     7.5250  -999.2500  -999.2500
 1487.5000   -37.3750     6.9760     6.5770     7.5130  -999.2500  -999.2500
 1488.0000   -37.3600     6.9860     6.6270     7.5010  -999.2500  -999.2500
 1488.5000   -37.3440     6.9970     6.6730     7.4900  -999.2500  -999.2500
 1489.0000   -37.3290     7.0080     6.7200     7.4780  -999.2500  -999.2500
 1489.5000   -37.3110     7.0190     6.7700     7.4670  -999.2500  -999.2500
 1490.0000   -37.3120     7.0290     6.8030     7.4550  -999.2500  -999.2500
 1490.5000   -37.3300     7.0400     6.8210     7.4440  -999.2500  -999.2500
 1491.0000   -37.3450     7.0510     6.8420     7.4300  -999.2500  -999.2500
 1491.5000   -37.3620     7.0620     6.8610     7.4340  -999.2500  -999.2500
 1492.0000   -37.3780     7.0730     6.8830     7.4550  -999.2500  -999.2500
 1492.5000   -37.3940     7.0830     6.9070     7.4730  -999.2500  -999.2500
 1493.0000   -37.4100     7.0940     6.9310     7.4930  -999.2500  -999.2500
 1493.5000   -37.4270     7.1050     6.9540     7.5120  -999.2500  -999.2500
 1494.0000   -37.4430     7.1160     6.9780     7.5310  -999.2500  -999.2500
 1494.5000   -37.4590     7.1270     7.0020     7.5500  -999.2500  -999.2500
 1495.0000   -37.4750     7.1370     7.0260     7.5690  -999.2500  -999.2500
 1495.5000   -37.4920     7.1480     7.0500     7.5880  -999.2500  -999.2500
 1496.0000   -37.5080     7.1590     7.0730     7.6070  -999.2500  -999.2500
 1496.5000   -37.5240     7.1700     7.0980     7.6270  -999.2500  -999.2500
 1497.0000   -37.5400     7.1810     7.1050     7.6460  -999.2500  -999.2500
 1497.5000   -37.5570     7.1910     7.0930     7.6650  -999.2500  -999.2500
 1498.0000   -37.5730     7.2020     7.0840     7.6840  -999.2500  -999.2500
 1498.5000   -37.5890     7.2130     7.0740     7.7030  -999.2500  -999.2500
 1499.0000   -37.6050     7.2240     7.0640     7.7220  -999.2500  -999.2500
 1499.5000   -37.6210     7.2350     7.0550     7.7410  -999.2500  -999.2500
 1500.0000   -37.6380     7.2450     7.0450     7.7600  -999.2500  -999.2500
 1500.5000   -37.6540     7.2560     7.0350     7.7790  -999.2500  -999.2500
 1501.0000   -37.6690     7.2670     7.0280     7.7990  -999.2500  -999.2500
 1501.5000   -37.6880     7.2780     7.0480     7.8180  -999.2500  -999.2500
 1502.0000   -37.6850     7.2880     7.0890     7.8370  -999.2500  -999.2500
 1502.5000   -37.6570     7.2990     7.1290     7.8560  -999.2500  -999.2500
 1503.0000   -37.6320     7.3090     7.1590     7.8750  -999.2500  -999.2500
 1503.5000   -37.6060     7.3220     7.1770     7.8940  -999.2500  -999.2500
 1504.0000   -37.5800     7.3140     7.1990     7.9130  -999.2500  -999.2500
 1504.5000   -37.5540     7.2820     7.2140     7.9320  -999.2500  -999.2500
 1505.0000   -37.5290     7.2520     7.2730     7.9510  -999.2500  -999.2500
 1505.5000   -37.5030     7.2220     7.3790     7.9710  -999.2500  -999.2500
 1506.0000   -37.4770     7.1910     7.4910     7.9890  -999.2500  -999.2500
 1506.5000   -37.4510     7.1610     7.5390     8.0090  -999.2500  -999.2500
 1507.0000   -37.4260     7.1310     7.5020     8.0210  -999.2500  -999.2500
 1507.5000   -37.4000     7.1000     7.4830     8.0090  -999.2500  -999.2500
 1508.0000   -37.3740     7.0700     7.4160     7.9830  -999.2500  -999.2500
 1508.5000   -37.3490     7.0400     7.2960     7.9570  -999.2500  -999.2500
 1509.0000   -37.3210     7.0100     7.1790     7.9320  -999.2500  -999.2500
 1509.5000   -37.2950     6.9790     7.0620     7.9060  -999.2500  -999.2500
 1510.0000   -37.2700     6.9490     6.9370     7.8800  -999.2500  -999.2500
 1510.5000   -37.2430     6.9090     6.8470     7.8550  -999.2500  -999.2500
 1511.0000   -37.2160     6.8580     6.8040     7.8290  -999.2500  -999.2500
 1511.5000   -37.1900     6.8060     6.7540     7.8030  -999.2500  -999.2500
 1512.0000   -37.1630     6.7540     6.7010     7.7780  -999.2500  -999.2500
 1512.5000   -37.1360     6.7030     6.6680     7.7520  -999.2500  -999.2500
 1513.0000   -37.1100     6.6510     6.6620     7.7260  -999.2500  -999.2500
 1513.5000   -37.0830     6.5990     6.6520     7.7000  -999.2500  -999.2500
 1514.0000   -37.0560     6.5470     6.6430     7.6750  -999.2500  -999.2500
 1514.5000   -37.0300     6.4950     6.6340     7.6490  -999.2500  -999.2500
 1515.0000   -37.0030     6.4430     6.6240     7.6230  -999.2500  -999.2500
 1515.5000   -36.9760     6.3920     6.6150     7.5970  -999.2500  -999.2500
 1516.0000   -36.9500     6.3400     6.6060     7.5720  -999.2500  -999.2500
 1516.5000   -36.9230     6.2880     6.5960     7.5460  -999.2500  -999.2500
 1517.0000   -36.8960     6.2360     6.5870     7.5200  -999.2500  -999.2500
 1517.5000   -36.8700     6.1850     6.5780     7.4940  -999.2500  -999.2500
 1518.0000   -36.8430     6.1330     6.5690     7.4680  -999.2500  -999.2500
 1518.5000   -36.8160     6.0810     6.5610     7.4450  -999.2500  -999.2500
 1519.0000   -36.7900     6.0310     6.5150     7.3700  -999.2500  -999.2500
 1519.5000   -36.7630     5.9700     6.2980     7.1980  -999.2500  -999.2500
 1520.0000   -36.7360     5.9780     5.8070     7.0280  -999.2500  -999.2500
 1520.5000   -36.7100     6.1120     5.4630     6.8550  -999.2500  -999.2500
 1521.0000   -36.6830     6.2530     5.3850     6.6830  -999.2500  -999.2500
 1521.5000   -36.6560     6.3450     5.2460     6.5110  -999.2500  -999.2500
 1522.0000   -36.6300     6.3330     5.1220     6.3410  -999.2500  -999.2500
 1522.5000   -36.6030     6.3380     5.1310     6.1590  -999.2500  -999.2500
 1523.0000   -36.5760     6.3360     5.4010     6.0920  -999.2500  -999.2500
 1523.5000   -36.5500     6.3360     5.6660     6.2700  -999.2500  -999.2500
 1524.0000   -36.5250     6.3370     5.9390     6.4410  -999.2500  -999.2500
 1524.5000   -36.5240     6.3370     6.2080     6.6220  -999.2500  -999.2500
 1525.0000   -36.5230     6.3370     6.4790     6.7970  -999.2500  -999.2500
 1525.5000   -36.5240     6.3370     6.7480     6.9740  -999.2500  -999.2500
 1526.0000   -36.5230     6.3360     7.0240     7.1520  -999.2500  -999.2500
 1526.5000   -36.5240     6.3500     7.2180     7.3270  -999.2500  -999.2500
 1527.0000   -36.5230     6.4040     7.1960     7.5050  -999.2500  -999.2500
 1527.5000   -36.5230     6.4570     7.2010     7.6860  -999.2500  -999.2500
 1528.0000   -36.5230     6.5110     7.2250     7.8060  -999.2500  -999.2500
 1528.5000   -36.5230     6.5640     7.2050     7.6960  -999.2500  -999.2500
 1529.0000   -36.5230     6.6180     6.9830     7.6050  -999.2500  -999.2500
 1529.5000   -36.5230     6.6720     6.7960     7.5020  -999.2500  -999.2500
 1530.0000   -36.5230     6.7250     6.5920     7.4060  -999.2500  -999.2500
 1530.5000   -36.5230     6.7790     6.3960     7.3070  -999.2500  -999.2500
 1531.0000   -36.5230     6.8330     6.2610     7.2090  -999.2500  -999.2500
 1531.5000   -36.5230     6.8870     6.4380     7.1120  -999.2500  -999.2500
 1532.0000   -36.5230     6.9330     6.5920     7.0120  -999.2500  -999.2500
 1532.5000   -36.5230     6.9770     6.7620     6.9130  -999.2500  -999.2500
 1533.0000   -36.5230     7.0160     6.9210     6.8430  -999.2500  -999.2500
 1533.5000   -36.5230     7.0560     7.0850     6.9210  -999.2500  -999.2500
 1534.0000   -36.5230     7.0950     7.2500     6.9910  -999.2500  -999.2500
 1534.5000   -36.5230     7.1350     7.3810     7.0680  -999.2500  -999.2500
 1535.0000   -36.5230     7.1740     7.4000     7.1400  -999.2500  -999.2500
 1535.5000   -36.5230     7.2130     7.4140     7.2140  -999.2500  -999.2500
