~VERSION INFORMATION
 VERS.                2.0:   CWLS LOG ASCII STANDARD - VERSION 2.0
 WRAP.                 NO:   ONE LINE PER DEPTH STEP
~WELL INFORMATION
#MNEM.UNIT      DATA TYPE    INFORMATION
#----------   ------------   ------------------------------
 STRT.F          590.0000:   START DEPTH
 STOP.F         3428.0000:   STOP DEPTH
 STEP.F            0.5000:   STEP LENGTH
 NULL.          -999.2500:   NO VALUE
 COMP.    FENIX & SCISSON:   COMPANY
 WELL. FENIX NPR 3 "AX" #25-27:   WELL
 FLD .                NPR:   FIELD
 LOC .      S27 T39N R78W:   LOCATION
 CNTY.            NATRONA:   COUNTY
 STAT.            WYOMING:   STATE
 CTRY. UNITED STATES OF AMERICA:   COUNTRY
 SRVC.       SCHLUMBERGER:   SERVICE COMPANY
 DATE.        13-AUG-1981:   LOGDATE
 API .     49025108780000:   API NUMBER
~CURVE INFORMATION
#MNEM.UNIT       API CODE    CURVE DESCRIPTION
#----------   ------------   ------------------------------
 DEPT.F                  :   
 CALD.IN     45 280 60 00:   CALIPER FROM DENSITY LOG
 GRD .GAPI   45 310 01 00:   GAMMA RAY FROM DENSITY LOG
 CORR.G/C3   45 356 01 00:   DENSITY CORRECTION
 RHOB.G/C3   45 350 01 00:   BULK DENSITY
 NPHI.DEC    42 890 03 00:   NEUTRON POROSITY SANDSTONE
 TENR.LBS    07 635 01 00:   TENSION
 SPR .MV     07 010 01 00:   SPONTANEOUS POTENTIAL
 ILD .OHMM   07 120 46 00:   INDUCTION LOG DEEP RESISTIVITY
 ILM .OHMM   07 120 44 00:   INDUCTION LOG MEDIUM RESISTIVITY
 SFL .OHMM   07 220 01 00:   SHALLOW FOCUSED LOG RESISTIVITY
 TEND.LBS    45 635 01 00:   TENSION FROM DENSITY LOG
~PARAMETER INFORMATION
#MNEM.UNIT          VALUE    DESCRIPTION
#----------   ------------   ------------------------------
 EKB .F         5057.0000:   Kelly bushing
 EGL .F         5047.0000:   Ground level
 EDF .F            0.0000:   Drilling floor
 TD  .F         3415.0000:   Total depth
 DATE.        13-AUG-1981:   Date logged
 CLNT.            A2DTECH:   Client Code
 SL  . 2100' FSL & 1050' FWL:   Surface Location
 PD  .                 GL:   Permanent Datum
 EPD .F              5047:   Elevation Permanent Datum
 LMF .                 KB:   Log Measured From
 DMF .                 KB:   Drilling Measured From
 DAPD.F                10:   Feet Above Permanent Datum
 DD  .F              3400:   Depth driller
 DL  .F              3415:   Depth logger
 BLI .F              3409:   Bottom log interval
 TLI .F               603:   Top log interval
 CS1 .IN            9.625:   Casing size
 CBD1.      9.625" @ 607':   Casing driller 1
 CBL1.F               603:   Casing logger 1
 BS1 .IN            7.875:   Bit size
 BSD1.F              3400:   Depth drilled with bit1
 DFT .                FGM:   Type fluid in hole
 DFD .                8.7:   Density
 DFV .                 36:   Viscosity
 DFPH.                  9:   pH
 DFL .                 13:   Fluid loss
 MSS .           MUD/TANK:   Source of sample
 RMS .OHMM           1.69:   Rm
 MST .F                75:   Rm Meas. temp.
 RMF .OHMM           1.34:   Rmf
 MFST.F                75:   Rmf Meas. temp.
 MFSS.               MEAS:   Source Rmf.
 RMB .OHMM           1.09:   Rm. at BHT
 BHT .F               120:   BHT.
 TCS .HRS            2145:   Time Circ. stopped
 TLAB.HRS            0200:   Time logger at bottom
 MRT .F               120:   Maximum recorded temp.
 LUN .               8039:   Logging unit number
 LUL .               CSPR:   Logging unit location
 ENGI.            PURPICH:   Recorded By
 WITN.              FIVAS:   Witnessed by
 ORIG.           5" PRINT:   Origin of data
 UWI .     49025108780000:   Unique Well ID
 DICO. A2D TECHNOLOGIES, INC.:   Digitizing Company
~OTHER INFORMATION
~A   DEPT     CALD         GRD      CORR       RHOB         NPHI     TENR        SPR        ILD        ILM        SFL       TEND   
# ...
 1871.0000     8.3800   124.5330     0.0340     2.5250     0.3400   812.6310   -79.5680     7.0820     6.5670     8.9280   843.8970
 1871.5000     8.3810   124.2210     0.0260     2.5170     0.3500   812.7350   -79.2700     7.0650     6.5090     9.1930   843.9790
 1872.0000     8.3820   124.9860     0.0190     2.5060     0.3470   812.8390   -78.9690     7.0650     6.4500     9.4610   844.0620
 1872.5000     8.3830   126.6290     0.0140     2.4930     0.3420   812.9420   -78.6820     7.0650     6.3910     8.9070   844.1450
 1873.0000     8.3840   123.5110     0.0070     2.4800     0.3400   813.0460   -78.7570     7.1740     6.3320     8.3460   844.2270
 1873.5000     8.3850   119.1720     0.0010     2.4730     0.3480   813.1500   -78.8390     7.2840     6.4510     7.6700   844.3100
 1874.0000     8.3860   114.7240    -0.0030     2.4790     0.3450   813.2530   -79.2330     7.3950     6.5710     8.4900   844.3920
 1874.5000     8.3870   113.4410    -0.0020     2.4910     0.3370   813.3570   -79.6850     7.2400     6.6910     9.5240   844.4750
 1875.0000     8.3880   116.8070     0.0000     2.4990     0.3250   813.4600   -80.1420     7.1300     6.8110    10.5570   844.5570
 1875.5000     8.3890   121.5930     0.0020     2.4990     0.3310   813.5640   -80.6010     7.2220     6.7560    10.2360   844.6400
 1876.0000     8.3900   128.4190     0.0010     2.4940     0.3440   813.6680   -81.0400     7.3150     6.7000     9.8360   844.7220
 1876.5000     8.3910   132.7160    -0.0010     2.4890     0.3550   813.7710   -81.0520     7.4620     6.6450     9.4360   844.8050
 1877.0000     8.3920   131.1900    -0.0010     2.4880     0.3490   813.8750   -81.1330     7.4140     6.5890     9.0390   844.8870
 1877.5000     8.3930   129.5300    -0.0020     2.4930     0.3390   813.9790   -81.2280     7.2950     6.5030     8.8980   844.9700
 1878.0000     8.3940   130.1270     0.0010     2.4990     0.3290   814.0820   -81.3750     7.1760     6.3990     8.6650   845.0520
 1878.5000     8.3950   131.1190     0.0030     2.5030     0.3340   814.1860   -81.5250     7.0650     6.2940     8.4330   845.1350
 1879.0000     8.3960   131.0750     0.0020     2.5060     0.3460   814.2900   -81.5850     7.0010     6.2170     8.2510   845.2170
 1879.5000     8.3970   130.9250     0.0000     2.5040     0.3460   814.3930   -81.2470     7.0090     6.1610     8.5460   845.3000
 1880.0000     8.3980   132.0540    -0.0010     2.5000     0.3330   814.4970   -80.8760     7.0290     6.1960     8.7880   845.3830
 1880.5000     8.3990   133.1980    -0.0010     2.4950     0.3270   814.6000   -80.4480     7.0490     6.2540     9.0310   845.4650
 1881.0000     8.4000   134.3230     0.0030     2.4860     0.3290   814.7040   -80.0180     7.0690     6.3120     9.2900   845.5480
 1881.5000     8.4010   134.0080     0.0030     2.4930     0.3310   814.8080   -79.8240     7.0890     6.3690     9.2130   845.6300
 1882.0000     8.4020   132.5310     0.0140     2.5100     0.3260   814.9110   -79.7600     7.1090     6.4470     9.0890   845.7130
 1882.5000     8.4030   129.3230     0.0210     2.5260     0.3200   815.0150   -79.6990     7.1290     6.4440     8.9650   845.7950
 1883.0000     8.4040   128.3080     0.0230     2.5290     0.3250   815.1190   -79.6850     7.1490     6.4360     8.8410   845.8780
 1883.5000     8.4050   128.6710     0.0240     2.5160     0.3330   815.2220   -79.7360     7.1690     6.4290     8.6360   845.9600
 1884.0000     8.4060   129.5830     0.0160     2.5040     0.3380   815.3260   -79.7870     7.1900     6.4220     8.6580   846.0430
 1884.5000     8.4070   128.7980     0.0070     2.4940     0.3340   815.4300   -79.8380     7.2100     6.4140     8.7080   846.1250
 1885.0000     8.4080   128.1240    -0.0010     2.4890     0.3280   815.5330   -79.8890     7.2300     6.4070     8.7580   846.2080
 1885.5000     8.4090   128.3670    -0.0010     2.4950     0.3250   815.6370   -79.9400     7.2610     6.4000     8.8080   846.2900
 1886.0000     8.4100   129.2070     0.0040     2.5030     0.3220   815.7400   -79.9900     7.1810     6.3920     8.8580   846.3730
 1886.5000     8.4110   130.5500     0.0160     2.5120     0.3190   815.8440   -80.0420     7.0010     6.2880     8.8760   846.4550
 1887.0000     8.4120   132.1000     0.0220     2.5130     0.3180   815.9480   -80.0330     6.8040     6.1290     8.8180   846.5380
 1887.5000     8.4130   133.5860     0.0210     2.5030     0.3220   816.0510   -79.9920     6.5070     5.9310     8.5840   846.6200
 1888.0000     8.4140   134.6580     0.0150     2.4920     0.3280   816.1550   -79.9510     6.2090     5.6630     8.3500   846.7030
 1888.5000     8.4150   131.8530     0.0260     2.4900     0.3390   816.2590   -79.9110     5.9120     5.2760     8.1010   846.7860
 1889.0000     8.4160   126.7540     0.0440     2.5000     0.3510   816.3620   -79.8700     5.6150     4.8690     7.8020   846.8680
 1889.5000     8.4170   122.1460     0.0650     2.4970     0.3630   816.4660   -79.8290     5.3170     4.4620     6.6930   846.9510
 1890.0000     8.4180   123.1400     0.0510     2.4780     0.3750   816.5700   -79.7880     5.0640     4.1610     4.5580   847.0330
 1890.5000     8.4200   126.2240     0.0330     2.4600     0.3700   816.6730   -79.7470     4.8170     4.6000     4.9110   847.1160
 1891.0000     8.4210   130.9520     0.0320     2.4820     0.3590   816.7770   -79.7060     4.6000     4.5160     5.6760   847.1980
 1891.5000     8.4220   133.3410     0.0380     2.5100     0.3570   816.8800   -79.6650     4.3150     4.3330     6.4400   847.2810
 1892.0000     8.4240   132.8030     0.0490     2.5000     0.3710   816.9840   -79.6250     4.4750     4.1990     7.0010   847.3630
 1892.5000     8.4250   129.9810     0.0440     2.4700     0.3850   817.0880   -79.5840     4.8160     4.1610     6.3410   847.4460
 1893.0000     8.4260   128.5520     0.0240     2.4400     0.3890   817.1910   -79.5430     5.1330     4.3920     5.1800   847.5280
 1893.5000     8.4280   128.3260     0.0070     2.4290     0.3790   817.2950   -79.5030     5.1450     4.6140     5.6470   847.6110
 1894.0000     8.4290   129.8960     0.0070     2.4530     0.3650   817.3990   -79.4570     5.1570     4.8320     6.6500   847.6930
 1894.5000     8.4300   132.7220     0.0060     2.4750     0.3550   817.5020   -79.2620     5.1690     4.9940     7.6530   847.7760
 1895.0000     8.4320   135.5340     0.0110     2.4930     0.3590   817.6060   -79.0710     5.1800     4.9940     8.2510   847.8580
 1895.5000     8.4330   138.5500     0.0100     2.4980     0.3650   817.7100   -78.8800     5.3400     4.9940     7.4490   847.9410
 1896.0000     8.4340   142.2770     0.0090     2.4940     0.3710   817.8130   -78.6960     5.5210     4.9940     6.6880   848.0240
 1896.5000     8.4360   145.9570     0.0070     2.4900     0.3780   817.9170   -79.0800     5.7030     4.9940     6.7710   848.1060
 1897.0000     8.4370   148.4940     0.0080     2.4900     0.3860   818.0210   -79.5450     5.9400     5.0800     6.8920   848.1890
 1897.5000     8.4380   147.4090     0.0160     2.5010     0.3940   818.1240   -80.0060     5.9270     5.2740     7.0140   850.2280
 1898.0000     8.4400   144.5090     0.0240     2.5120     0.3960   818.2280   -80.1110     5.9000     5.2660     7.1350   853.1510
 1898.5000     8.4410   141.5740     0.0250     2.5150     0.3770   818.3310   -80.1680     5.8320     5.2550     7.2560   856.0750
 1899.0000     8.4420   137.0380     0.0160     2.5000     0.3560   818.4350   -80.2240     5.7790     5.2450     7.3770   858.0280
 1899.5000     8.4440   132.8460     0.0080     2.4890     0.3360   818.5390   -80.2810     5.6430     5.2350     7.5310   857.6680
 1900.0000     8.4450   130.0450     0.0050     2.4930     0.3260   818.6420   -80.3380     5.4910     5.1810     7.1360   857.3080
 1900.5000     8.4460   128.0630     0.0060     2.5000     0.3200   818.7460   -80.3960     5.3390     5.0250     6.7770   856.9480
 1901.0000     8.4480   130.8630     0.0090     2.5020     0.3220   818.8500   -80.4550     5.1870     4.8690     6.4180   856.5870
