~VERSION INFORMATION
 VERS.                2.0:   CWLS LOG ASCII STANDARD - VERSION 2.0
 WRAP.                 NO:   ONE LINE PER DEPTH STEP
~WELL INFORMATION
#MNEM.UNIT      DATA TYPE    INFORMATION
#----------   ------------   ------------------------------
 STRT.F          514.0000:   START DEPTH
 STOP.F         4154.0000:   STOP DEPTH
 STEP.F            0.5000:   STEP LENGTH
 NULL.          -999.2500:   NO VALUE
 COMP.    FENIX & SCISSON:   COMPANY
 WELL.  FENIX "MX" #86-10:   WELL
 FLD .        TEAPOT DOME:   FIELD
 LOC .      S10 T38N R78W:   LOCATION
 CNTY.            NATRONA:   COUNTY
 STAT.            WYOMING:   STATE
 CTRY. UNITED STATES OF AMERICA:   COUNTRY
 SRVC.       SCHLUMBERGER:   SERVICE COMPANY
 DATE.        30-SEP-1978:   LOGDATE
 API .     49025107290000:   API NUMBER
~CURVE INFORMATION
#MNEM.UNIT       API CODE    CURVE DESCRIPTION
#----------   ------------   ------------------------------
 DEPT.F                  :   
 SPR .MV     07 010 01 00:   SPONTANEOUS POTENTIAL
 TENR.LBS    07 635 01 00:   TENSION FROM RESISTIVITY
 SFL .OHMM   07 220 01 00:   SHALLOW FOCUSED LOG RESISTIVITY
 ILM .OHMM   07 120 44 00:   INDUCTION LOG MEDIUM RESISTIVITY
 ILD .OHMM   07 120 46 00:   INDUCTION LOG DEEP RESISTIVITY
 CALD.IN     45 280 60 00:   CALIPER FROM DENSITY LOG
 GRD .GAPI   45 310 01 00:   GAMMA RAY FROM DENSITY LOG
 TEND.LBS    45 635 01 00:   TENSION FROM DENSITY LOG
 CORR.G/C3   45 356 01 00:   DENSITY CORRECTION
 RHOB.G/C3   45 350 01 00:   BULK DENSITY
 NPHI.DEC    42 890 03 00:   NEUTRON POROSITY SANDSTONE
~PARAMETER INFORMATION
#MNEM.UNIT          VALUE    DESCRIPTION
#----------   ------------   ------------------------------
 EKB .F         5233.0000:   Kelly bushing
 EGL .F         5222.0000:   Ground level
 EDF .F            0.0000:   Drilling floor
 TD  .F         4150.0000:   Total depth
 DATE.        30-SEP-1978:   Date logged
 CLNT.            A2DTECH:   Client Code
 SL  . 1450' FSL & 600' FEL:   Surface Location
 PD  .                 GL:   Permanent Datum
 LMF .                 KB:   Log Measured From
 DMF .                 KB:   Drilling Measured From
 DAPD.F                11:   Feet Above Permanent Datum
 DD  .F              4150:   Depth driller
 DL  .F              4141:   Depth logger
 BLI .F              4135:   Bottom log interval
 TLI .F               520:   Top log interval
 CS1 .IN            9.625:   Casing size
 CBD1.      9.625" @ 529':   Casing driller 1
 CBL1.F               529:   Casing logger 1
 BS1 .IN             8.75:   Bit size
 BSD1.F              4150:   Depth drilled with bit1
 DFT .                FGM:   Type fluid in hole
 DFD .                9.5:   Density
 DFV .                 36:   Viscosity
 DFPH.                 11:   pH
 DFL .                 60:   Fluid loss
 MSS .           MUD TANK:   Source of sample
 RMS .OHMM            .57:   Rm
 MST .F                68:   Rm Meas. temp.
 RMF .OHMM           .449:   Rmf
 MFST.F                68:   Rmf Meas. temp.
 MFSS.               MEAS:   Source Rmf.
 RMB .OHMM            .27:   Rm. at BHT
 BHT .F               142:   BHT.
 TCS .HRS            1500:   Time Circ. stopped
 TLAB.HRS            0700:   Time logger at bottom
 MRT .F               142:   Maximum recorded temp.
 LUN .               8043:   Logging unit number
 LUL .               CSPR:   Logging unit location
 ENGI.             LARSON:   Recorded By
 WITN.           DINSMORE:   Witnessed by
 ORIG.           5" PRINT:   Origin of data
 UWI .     49025107290000:   Unique Well ID
 DICO. A2D TECHNOLOGIES, INC.:   Digitizing Company
 EPD .               5222:   Elevation Permanent Datum
~OTHER INFORMATION
~A   DEPT      SPR       TENR        SFL        ILM        ILD       CALD         GRD      TEND       CORR       RHOB         NPHI 
# ...
 2435.5000   -32.8850   815.1090     6.8860     6.7600     6.9600    13.5200   110.5930  1015.9360     0.0140     2.5410     0.2760
 2436.0000   -33.0750   815.1090     7.1010     6.7600     6.8860    13.5200   112.7520  1015.9360     0.0200     2.5530     0.2880
 2436.5000   -33.2720   815.1090     7.4610     6.7600     6.8860    13.5210   111.8480  1015.9360     0.0250     2.5600     0.2820
 2437.0000   -33.4520   815.1090     7.8210     6.7600     6.7540    13.5440   110.0920  1015.9360     0.0280     2.5570     0.2720
 2437.5000   -33.6490   815.1090     7.9770     6.7600     6.6320    13.5700   108.5040  1015.9360     0.0270     2.5540     0.2610
 2438.0000   -33.5060   815.1090     7.5300     6.7600     6.5160    13.5970   108.6010  1015.9360     0.0250     2.5480     0.2630
 2438.5000   -33.3380   815.1090     6.9800     6.6970     6.4210    13.6250   109.3060  1015.9360     0.0200     2.5370     0.2800
 2439.0000   -33.1580   815.1090     6.5160     6.6040     6.3310    13.6450   107.7570  1015.9360     0.0160     2.5280     0.2800
 2439.5000   -32.9840   815.1090     6.7560     6.5100     6.2410    13.6530   105.7920  1015.9360     0.0150     2.5300     0.2790
 2440.0000   -32.8070   815.1090     6.9630     6.4160     6.1500    13.6620   103.3570  1015.9360     0.0140     2.5330     0.2670
 2440.5000   -32.6350   815.1090     7.1440     6.3220     6.0600    13.6710   101.4250  1015.9360     0.0130     2.5330     0.2550
 2441.0000   -32.4790   815.1090     7.1440     6.2290     5.9700    13.6790   103.0930  1015.9360     0.0120     2.5270     0.2470
 2441.5000   -32.5250   814.6520     6.9230     6.1350     5.8790    13.6870   105.6560  1015.9360     0.0140     2.5290     0.2460
 2442.0000   -32.5700   812.7060     6.5640     6.0410     5.7290    13.6930   106.4690  1015.9360     0.0220     2.5390     0.2580
 2442.5000   -32.6230   810.7600     6.0540     5.9440     5.7600    13.7000   106.4230  1015.9360     0.0280     2.5520     0.2700
 2443.0000   -32.6730   808.8140     6.0790     5.9640     5.8480    13.7060   106.4560  1015.9360     0.0320     2.5480     0.2750
 2443.5000   -32.7220   806.8680     6.1210     5.9980     5.9360    13.7130   107.7330  1015.9360     0.0340     2.5440     0.2780
 2444.0000   -32.7740   804.9210     6.1670     6.0320     6.0240    13.7210   109.2110  1015.9360     0.0170     2.5370     0.2810
 2444.5000   -32.8210   802.9750     6.5080     6.0670     6.1120    13.7060   109.1750  1015.9360     0.0110     2.5270     0.2840
 2445.0000   -32.8630   801.0290     6.8740     6.1010     6.2010    13.6760   109.7430  1015.9360     0.0090     2.5250     0.2800
 2445.5000   -32.7920   799.0830     7.2760     6.1350     6.2890    13.6470   112.2950  1015.9360     0.0130     2.5300     0.2750
 2446.0000   -32.7230   797.1370     7.1440     6.1690     6.3770    13.6190   114.5650  1015.9360     0.0200     2.5250     0.2730
 2446.5000   -32.6560   795.1900     6.9960     6.2040     6.3980    13.5910   116.4880  1015.9360     0.0150     2.5130     0.2740
 2447.0000   -32.5840   793.2440     6.8820     6.2380     6.3980    13.5620   112.6270  1015.9360     0.0050     2.5020     0.2750
 2447.5000   -32.4990   791.2980     6.8690     6.2720     6.4370    13.5570   110.0290  1015.9360     0.0020     2.5060     0.2760
 2448.0000   -32.5410   789.3520     6.8550     6.3060     6.4810    13.5530   107.3530  1015.9360     0.0030     2.5110     0.2720
 2448.5000   -32.7060   787.4060     6.8410     6.3400     6.5070    13.5500   106.3700  1015.9360     0.0070     2.5150     0.2690
 2449.0000   -32.7980   785.4590     6.8270     6.3980     6.4660    13.5460   108.2180  1015.9360     0.0110     2.5150     0.2690
 2449.5000   -32.5600   783.5130     6.8130     6.3750     6.4260    13.5420   110.2970  1015.9360     0.0150     2.5180     0.2700
 2450.0000   -32.8630   781.5670     6.7990     6.3030     6.3850    13.5380   110.0340  1015.9360     0.0200     2.5270     0.2770
 2450.5000   -32.6970   779.6210     6.7860     6.2320     6.3440    13.5340   109.7210  1015.9360     0.0210     2.5350     0.2830
 2451.0000   -32.4770   777.6750     6.7720     6.1610     6.3030    13.5310   109.3110  1015.9360     0.0180     2.5320     0.2850
 2451.5000   -32.2790   775.7280     6.7600     6.0900     6.2620    13.5270   108.9390  1015.9360     0.0150     2.5240     0.2810
 2452.0000   -32.0990   775.5150     6.7170     6.0190     6.2210    13.5230   109.0280  1015.9360     0.0050     2.5210     0.2750
 2452.5000   -32.4240   775.7220     6.6810     5.9480     6.1800    13.5200   109.3570  1015.9360    -0.0060     2.5060     0.2700
 2453.0000   -32.7320   775.9300     6.6370     5.8770     6.1390    13.5200   109.7010  1015.9360    -0.0090     2.5040     0.2730
 2453.5000   -33.0760   776.1370     6.7380     5.8060     6.0990    13.5200   111.2620  1015.9360    -0.0120     2.4970     0.2790
 2454.0000   -33.3910   776.3440     6.6990     5.7290     6.0540    13.5200   112.7350  1015.9360    -0.0070     2.5000     0.2870
 2454.5000   -33.6320   776.5520     6.4900     5.6240     5.9200    13.5200   114.3500  1015.9360    -0.0020     2.5060     0.2880
 2455.0000   -33.2850   776.7590     6.2800     5.5090     5.7730    13.5200   113.9180  1015.9360    -0.0020     2.5110     0.2890
 2455.5000   -32.9870   776.9670     6.0710     5.3940     5.6260    13.5200   113.7620  1015.9360    -0.0020     2.5060     0.2900
 2456.0000   -32.6370   777.1740     5.8610     5.2790     5.4790    13.5200   114.0560  1015.9360    -0.0040     2.4970     0.3000
 2456.5000   -32.4970   777.3820     5.6520     5.1640     5.3320    13.5210   114.3950  1015.9360    -0.0040     2.4890     0.3050
 2457.0000   -32.6420   777.5890     5.4220     5.0380     5.2480    13.5200   114.2650  1015.9360    -0.0010     2.4850     0.3110
 2457.5000   -32.7510   777.7960     5.4790     5.0960     5.3240    13.5200   113.8290  1015.9360     0.0040     2.5020     0.3090
 2458.0000   -32.8500   778.0040     5.5870     5.1620     5.4000    13.4620   113.9490  1015.9360     0.0080     2.5190     0.3010
 2458.5000   -32.7460   778.2110     5.7860     5.2270     5.4770    13.3980   114.9500  1015.9360     0.0100     2.5380     0.2970
 2459.0000   -32.6380   778.4190     6.0360     5.2920     5.5530    13.3870   115.7960  1015.9360     0.0110     2.5410     0.2900
 2459.5000   -32.4850   778.6260     6.2810     5.3570     5.6290    13.3760   116.7540  1015.9360     0.0120     2.5350     0.2840
 2460.0000   -32.7360   778.8340     6.2630     5.4220     5.7060    13.3650   115.2850  1015.9360     0.0130     2.5280     0.2770
 2460.5000   -33.2470   779.0410     6.2340     5.4870     5.7820    13.3530   113.6620  1015.9360     0.0140     2.5220     0.2710
 2461.0000   -33.7290   779.2480     6.2050     5.5520     5.8590    13.3370   112.2940  1015.9360     0.0160     2.5280     0.2690
 2461.5000   -33.9970   779.4560     6.1770     5.6250     5.9440    13.3210   112.9590  1015.9360     0.0180     2.5350     0.2740
 2462.0000   -33.7510   779.6630     6.1480     5.5530     5.9120    13.3050   116.3400  1015.9360     0.0210     2.5340     0.2800
 2462.5000   -33.5180   779.8710     6.1190     5.4710     5.8760    13.2880   120.6940  1015.9360     0.0230     2.5290     0.2860
 2463.0000   -33.2700   780.0780     6.0900     5.3880     5.8360    13.2770   119.5260  1015.9360     0.0250     2.5280     0.2860
 2463.5000   -33.0080   780.2860     6.0620     5.3060     5.7280    13.2780   118.3450  1015.9360     0.0280     2.5360     0.2860
 2464.0000   -32.8560   780.4930     5.9740     5.2240     5.6040    13.2780   117.8680  1015.9360     0.0300     2.5460     0.2930
 2464.5000   -32.8710   780.7000     5.8660     5.1420     5.4800    13.2780   118.2140  1015.9360     0.0230     2.5480     0.3000
 2465.0000   -32.8690   780.9080     5.7580     5.0450     5.3560    13.2780   117.0420  1015.9360     0.0140     2.5350     0.2990
 2465.5000   -32.8660   781.1150     5.6960     5.0610     5.3230    13.2780   115.6430  1015.9360     0.0050     2.5230     0.2960
