~VERSION INFORMATION
 VERS.                2.0:   CWLS LOG ASCII STANDARD - VERSION 2.0
 WRAP.                 NO:   ONE LINE PER DEPTH STEP
~WELL INFORMATION
#MNEM.UNIT      DATA TYPE    INFORMATION
#----------   ------------   ------------------------------
 STRT.F          200.0000:   START DEPTH
 STOP.F         2968.0000:   STOP DEPTH
 STEP.F            0.5000:   STEP LENGTH
 NULL.          -999.2500:   NO VALUE
 COMP. FENIX & SCISSON U.S. NAVY:   COMPANY
 WELL.   FENIX "A" #23-28:   WELL
 FLD .              NPR 3:   FIELD
 LOC .      S28 T39N R78W:   LOCATION
 CNTY.            NATRONA:   COUNTY
 STAT.            WYOMING:   STATE
 CTRY. UNITED STATES OF AMERICA:   COUNTRY
 SRVC.       SCHLUMBERGER:   SERVICE COMPANY
 DATE.        10-JUN-1977:   LOGDATE
 API .     49025103860000:   API NUMBER
~CURVE INFORMATION
#MNEM.UNIT       API CODE    CURVE DESCRIPTION
#----------   ------------   ------------------------------
 DEPT.F                  :   
 SPR .MV     07 010 01 00:   SPONTANEOUS POTENTIAL
 RILM.OHMM   07 120 44 00:   INDUCTION LOG MEDIUM RESISTIVITY
 RILD.OHMM   07 120 46 00:   DEEP INDUCTION RESISTIVITY
 LL8 .None   99 022 08 00:   LATEROLOG
 GRD .GAPI   45 310 01 00:   GAMMA RAY FROM DENSITY LOG
 CALD.IN     45 280 60 00:   CALIPER FROM DENSITY LOG
 RHOB.G/C3   45 350 01 00:   BULK DENSITY
 DRHO.G/C3   45 356 01 00:   DENSITY CORRECTION
~PARAMETER INFORMATION
#MNEM.UNIT          VALUE    DESCRIPTION
#----------   ------------   ------------------------------
 EKB .F         5019.0000:   Kelly bushing
 EGL .F         5009.0000:   Ground level
 EDF .F            0.0000:   Drilling floor
 EPD .F         5009.0000:   Permanent datum
 TD  .F         2971.0000:   Total depth
 DATE.        10-JUN-1977:   Date logged
 CLNT.            A2DTECH:   Client Code
 SL  . 1650' FNL & 990' FWL:   Surface Location
 DAPD.F                10:   Feet Above Permanent Datum
 DD  .F              2970:   Depth driller
 DL  .F              2971:   Depth logger
 BLI .F              2905:   Bottom log interval
 TLI .F               216:   Top log interval
 CS1 .IN            8.625:   Casing size
 CBD1.      9.625" @ 216':   Casing driller 1
 CBL1.F               216:   Casing logger 1
 BS1 .IN            7.875:   Bit size
 BSD1.F              2970:   Depth drilled with bit1
 DFT .            KCL MUD:   Type fluid in hole
 DFD .                8.8:   Density
 DFV .                 32:   Viscosity
 DFPH.                8.5:   pH
 DFL .                7.4:   Fluid loss
 MSS .               CIRC:   Source of sample
 RMS .OHMM           1.87:   Rm
 MST .F                85:   Rm Meas. temp.
 RMF .OHMM           1.69:   Rmf
 MFST.F                85:   Rmf Meas. temp.
 RMC .OHMM           2.80:   Rmc
 MCST.F                85:   Rmc Meas. temp.
 MFSS.               MEAS:   Source Rmf.
 MCSS.               CALC:   Source Rmc.
 RMB .OHMM           1.43:   Rm. at BHT
 BHT .F               111:   BHT.
 TCS .HRS            1600:   Time Circ. stopped
 TLAB.HRS            0945:   Time logger at bottom
 MRT .F               111:   Maximum recorded temp.
 LUN .               7711:   Logging unit number
 LUL .               CSPR:   Logging unit location
 ENGI.             SAYLER:   Recorded By
 WITN.         HARRINGTON:   Witnessed by
 ORIG.           5" PRINT:   Origin of data
 UWI .     49025103860000:   Unique Well ID
 DICO. A2D TECHNOLOGIES, INC.:   Digitizing Company
~OTHER INFORMATION
~A  DEPTH      SPR       RILM       RILD        LL8        GRD       CALD       RHOB       DRHO
# ...
 2913.5000   -54.0270     6.4800     6.0120     6.7690    89.2550     7.7380     2.5150     0.0150
 2914.0000   -54.1130     6.3510     5.6370     6.5920    93.6290     7.6960     2.5230     0.0210
 2914.5000   -54.2960     6.2210     5.7090     6.9670    98.8220     7.6540     2.5320     0.0320
 2915.0000   -54.4770     6.0910     5.7420     6.7480   103.3530     7.6080     2.5260     0.0390
 2915.5000   -54.6570     5.9570     5.5640     6.5350   103.9410     7.5810     2.5140     0.0400
 2916.0000   -54.8380     6.0880     5.4830     6.3760   101.6030     7.5840     2.5020     0.0180
 2916.5000   -55.0180     6.3040     5.6380     6.9200   101.1010     7.6470     2.4930     0.0160
 2917.0000   -55.1980     6.4130     5.6890     7.4140   104.4810     7.6070     2.4990     0.0190
 2917.5000   -55.3790     6.0680     5.6340     7.7810   109.7190     7.6140     2.5060     0.0230
 2918.0000   -55.5630     6.4720     5.5850     7.1850   115.6820     7.7040     2.5000     0.0120
 2918.5000   -55.7370     6.0680     5.6360     6.4740   112.9700     7.7130     2.4930     0.0130
 2919.0000   -56.0750     6.1420     5.7420     6.7280   108.9220     7.7240     2.4960     0.0110
 2919.5000   -56.1580     6.2380     5.6450     7.6390   106.6090     7.7360     2.5050     0.0060
 2920.0000   -56.2630     6.0970     5.4670     7.0290   106.1740     7.7610     2.5070     0.0120
 2920.5000   -56.3720     5.9010     5.2900     6.3710   107.0520     7.7700     2.5090     0.0180
 2921.0000   -56.4810     5.7530     5.1130     5.9020   103.9580     7.7770     2.5060     0.0180
 2921.5000   -56.5890     5.5850     5.0470     6.0120   101.5120     7.7840     2.5170     0.0210
 2922.0000   -56.6980     5.5000     5.0250     5.7190   100.3880     7.7780     2.5270     0.0150
 2922.5000   -56.8060     5.2360     4.9100     5.5340   103.6990     7.7670     2.5220     0.0080
 2923.0000   -56.9150     5.2560     4.7940     5.6890   106.3180     7.7570     2.5160     0.0110
 2923.5000   -57.0230     5.2940     4.6880     5.5320   108.4770     7.7450     2.5130     0.0170
 2924.0000   -57.1310     5.3310     4.8200     5.3340   112.9020     7.6590     2.5160     0.0220
 2924.5000   -57.2400     5.3780     4.7560     5.5600   117.9340     7.5640     2.5100     0.0150
 2925.0000   -57.3480     5.2400     4.6950     5.9090   116.0880     7.4970     2.5050     0.0130
 2925.5000   -57.4560     4.9550     4.6450     6.2580   113.7460     7.4710     2.5130     0.0190
 2926.0000   -57.5730     5.2380     4.6920     6.4130   112.1590     7.5520     2.5240     0.0260
 2926.5000   -57.8010     5.5850     4.7320     5.8040   112.4250     7.6620     2.5340     0.0260
 2927.0000   -57.8870     5.1750     4.6450     5.4830   112.2320     7.7630     2.5360     0.0230
 2927.5000   -57.9350     5.5340     4.6030     5.6250   111.5710     7.7650     2.5190     0.0180
 2928.0000   -57.9840     5.4030     4.6200     5.7420   111.4400     7.7650     2.5060     0.0060
 2928.5000   -58.0350     5.1000     4.6340     5.5160   112.8940     7.7650     2.4940     0.0000
 2929.0000   -58.0860     4.9090     4.6450     5.0470   114.3330     7.7650     2.4950     0.0080
 2929.5000   -58.1370     5.0310     4.1070     5.1410   115.7700     7.7650     2.4940     0.0160
 2930.0000   -58.1870     4.7550     4.0670     5.1880   117.2090     7.7650     2.4880     0.0100
 2930.5000   -58.2330     4.4980     4.0460     4.9420   118.6460     7.7650     2.4820     0.0060
 2931.0000   -58.2500     4.1980     4.0910     4.7540   120.0880     7.7650     2.4830     0.0120
 2931.5000   -58.2690     4.3800     4.1590     4.6450   121.5400     7.7650     2.4790     0.0120
 2932.0000   -58.2870     4.5970     4.1370     4.7880   122.9920     7.7650     2.4690     0.0070
 2932.5000   -58.3060     4.8150     4.1010     5.0430   121.9710     7.7650     2.4750     0.0060
 2933.0000   -58.3240     5.1410     4.0460     5.3320   120.7560     7.7650     2.4820     0.0130
 2933.5000   -58.3430     4.9880     4.1260     5.5340   119.5430     7.7650     2.4900     0.0170
 2934.0000   -58.3610     4.6870     4.2760     5.1230   118.3350     7.7660     2.4970     0.0150
 2934.5000   -58.3790     4.4950     4.1300     4.7460   117.1250     7.7810     2.5010     0.0110
 2935.0000   -58.3980     4.3960     3.8890     4.5570   115.9150     7.7850     2.4920     0.0060
 2935.5000   -58.4260     4.2970     3.6480     4.4460   114.7070     7.7850     2.4840     0.0040
 2936.0000   -58.5900     4.1980     3.4920     4.3350   113.5100     7.7850     2.4990     0.0030
 2936.5000   -58.7090     4.0980     3.6140     4.2230   112.3280     7.7850     2.4950     0.0040
 2937.0000   -58.8050     3.9990     3.6900     4.1210   111.6150     7.7850     2.4900     0.0070
 2937.5000   -58.9030     3.8640     3.4770     4.1210   115.2030     7.7850     2.4990     0.0150
 2938.0000   -59.0020     3.9240     3.3650     4.1210   120.8520     7.7740     2.4950     0.0290
 2938.5000   -59.1020     4.0310     3.4830     4.2180   121.5040     7.7590     2.5030     0.0350
 2939.0000   -59.2030     4.1390     3.4130     4.2890   122.1710     7.7460     2.4970     0.0240
 2939.5000   -59.2150     4.2760     3.0980     4.3610   122.8260     7.7630     2.4870     0.0150
 2940.0000   -59.1810     4.0660     3.1810     4.4360   123.2890     7.7810     2.4780     0.0100
 2940.5000   -59.1470     3.7750     3.3440     4.0600   123.7390     7.7740     2.4880     0.0270
 2941.0000   -59.1130     3.5570     3.2780     3.7240   124.2530     7.7410     2.5000     0.0310
 2941.5000   -59.0790     3.5760     3.1920     3.8290   123.1500     7.7090     2.4940     0.0180
 2942.0000   -59.0450     3.5940     3.0690     3.7610   121.9350     7.7190     2.4920     0.0240
 2942.5000   -59.0110     3.6130     3.2350     3.6900   120.8040     7.7390     2.4990     0.0300
 2943.0000   -58.9770     3.6320     3.4810     3.8520   120.1200     7.7590     2.4890     0.0250
 2943.5000   -58.9430     3.6560     3.3970     3.9720   124.0450     7.7800     2.4790     0.0170
 2944.0000   -58.9090     3.5680     3.3130     3.8640   126.4400     7.7440     2.4700     0.0100
 2944.5000   -58.8750     3.3640     3.2290     3.9970   128.9090     7.7130     2.4680     0.0100
 2945.0000   -58.8410     3.2440     3.1620     4.1590   129.4610     7.7430     2.4710     0.0170
 2945.5000   -58.8070     3.2440     3.0370     3.9100   127.3680     7.7730     2.4730     0.0230
 2946.0000   -58.7730     3.2280     2.9040     3.6610   125.0680     7.7240     2.4690     0.0200
 2946.5000   -58.7390     3.1190     2.9250     3.4920   122.7430     7.7420     2.4710     0.0180
 2947.0000   -58.7050     3.0410     2.8410     3.6230   120.3410     7.7840     2.4790     0.0240
 2947.5000   -58.6710     3.0410     2.7600     3.4580   119.7410     7.7620     2.4850     0.0160
 2948.0000   -58.6360     3.0410     2.6980     3.3070   122.0450     7.7280     2.4790     0.0150
 2948.5000   -58.7010     3.0890     2.7130     3.1840   124.7280     7.7330     2.4730     0.0180
 2949.0000   -58.8130     3.2070     2.7230     3.3500   127.4120     7.7390     2.4660     0.0140
 2949.5000   -58.9260     3.3340     2.6810     3.5570   128.3710     7.7440     2.4600     0.0090
 2950.0000   -59.0270     3.2400     2.6520     3.4700   126.7640     7.7500     2.4590     0.0150
 2950.5000   -59.0070     3.1080     2.6800     3.3030   125.3900     7.7550     2.4600     0.0120
 2951.0000   -58.9840     2.9770     2.7230     3.2140  -999.2500     7.7610     2.4550     0.0080
 2951.5000   -58.9610     2.8700     2.6920     3.4600  -999.2500     7.7650     2.4560     0.0120
 2952.0000   -58.9380     2.7770     2.6230     3.6900  -999.2500     7.7630     2.4480     0.0150
 2952.5000   -58.9150     2.6850     2.5540     3.3680  -999.2500     7.7580     2.4510     0.0130
 2953.0000   -58.8920     2.5920     2.4850     3.1260  -999.2500     7.7530     2.4540     0.0190
 2953.5000   -58.8690     2.4990     2.4160     3.0420  -999.2500     7.7490     2.4580     0.0210
