~VERSION INFORMATION
 VERS.                2.0:   CWLS LOG ASCII STANDARD - VERSION 2.0
 WRAP.                 NO:   ONE LINE PER DEPTH STEP
~WELL INFORMATION
#MNEM.UNIT      DATA TYPE    INFORMATION
#----------   ------------   ------------------------------
 STRT.F          508.0000:   START DEPTH
 STOP.F         3170.0000:   STOP DEPTH
 STEP.F            0.5000:   STEP LENGTH
 NULL.          -999.2500:   NO VALUE
 COMP. FENIX & SCISSON - U.S. NAVY:   COMPANY
 WELL. FENIX NPR-3 "A" #58-34:   WELL
 FLD .                NPR:   FIELD
 LOC .      S34 T39N R78W:   LOCATION
 CNTY.            NATRONA:   COUNTY
 STAT.            WYOMING:   STATE
 CTRY. UNITED STATES OF AMERICA:   COUNTRY
 SRVC.       SCHLUMBERGER:   SERVICE COMPANY
 DATE.        15-MAR-1977:   LOGDATE
 API .     49025103180000:   API NUMBER
~CURVE INFORMATION
#MNEM.UNIT       API CODE    CURVE DESCRIPTION
#----------   ------------   ------------------------------
 DEPT.F                  :   
 CALD.IN     45 280 60 00:   CALIPER FROM DENSITY LOG
 GRD .GAPI   45 310 01 00:   GAMMA RAY FROM DENSITY LOG
 RHOB.G/C3   45 350 01 00:   BULK DENSITY
 CORR.G/C3   45 356 01 00:   DENSITY CORRECTION
 SPR .MV     07 010 01 00:   SPONTANEOUS POTENTIAL
 LL8 .OHMM   07 220 08 00:   LATEROLOG-8 RES.
 ILD .OHMM   07 120 46 00:   DEEP INDUCTION RESISTIVITY
 ILM .OHMM   07 120 44 00:   INDUCTION LOG MEDIUM RESISTIVITY
~PARAMETER INFORMATION
#MNEM.UNIT          VALUE    DESCRIPTION
#----------   ------------   ------------------------------
 EKB .F         5129.0000:   Kelly bushing
 EGL .F         5117.0000:   Ground level
 EDF .F            0.0000:   Drilling floor
 EPD .F            0.0000:   Permanent datum
 TD  .F         3170.0000:   Total depth
 DATE.        15-MAR-1977:   Date logged
 CLNT.            A2DTECH:   Client Code
 SL  . 2310' FEL & 330' FSL:   Surface Location
 PD  .                 GL:   Permanent Datum
 DAPD.F                12:   Feet Above Permanent Datum
 DD  .F              3170:   Depth driller
 DL  .F              3170:   Depth logger
 BLI .F              3169:   Bottom log interval
 TLI .F               508:   Top log interval
 CS1 .IN            8.625:   Casing size
 CBD1.      8.625" @ 524':   Casing driller 1
 CBL1.F               522:   Casing logger 1
 BS1 .IN            7.875:   Bit size
 BSD1.F              3170:   Depth drilled with bit1
 DFT .                KCL:   Type fluid in hole
 DFD .                9.2:   Density
 DFV .                 36:   Viscosity
 DFPH.                  9:   pH
 DFL .                  9:   Fluid loss
 MSS .                PIT:   Source of sample
 RMS .OHMM             .3:   Rm
 MST .F                58:   Rm Meas. temp.
 RMF .OHMM            .29:   Rmf
 MFST.F                58:   Rmf Meas. temp.
 MFSS.               MEAS:   Source Rmf.
 RMB .OHMM            .15:   Rm. at BHT
 BHT .F               120:   BHT.
 TCS .HRS               6:   Time Circ. stopped
 MRT .F               120:   Maximum recorded temp.
 LUN .               7711:   Logging unit number
 LUL .               CSPR:   Logging unit location
 ENGI.             SAYLER:   Recorded By
 WITN.               JAPP:   Witnessed by
 ORIG.           5" PRINT:   Origin of data
 UWI .     49025103180000:   Unique Well ID
 DICO. A2D TECHNOLOGIES, INC.:   Digitizing Company
~OTHER INFORMATION
~A   DEPT       CALD       GRD      RHOB        CORR       SPR        LL8        ILD        ILM   
# ...
  670.0000    10.5091   138.2316     2.4907     0.0071   -42.8982     8.6049     8.2940     7.7768
  670.5000    10.5092   139.2297     2.5037     0.0191   -42.6655     8.6088     8.3745     7.7803
  671.0000    10.4303   139.4325     2.5057     0.0181   -42.2129     8.6923     8.3783     7.7126
  671.5000    10.4108   138.0447     2.5197     0.0241   -41.7604     8.7766     8.3821     7.6454
  672.0000    10.3914   136.8558     2.5297     0.0341   -41.3080     8.7806     8.3851     7.6489
  672.5000    10.3719   134.8716     2.5367     0.0361   -40.8530     8.8658     8.3897     7.5823
  673.0000    10.3723   133.6826     2.5317     0.0231   -40.6205     8.8698     8.3935     7.5163
  673.5000    10.3726   133.2878     2.5177     0.0161   -40.3880     8.9559     8.3205     7.4509
  674.0000    10.3731   137.2694     2.5107     0.0151   -39.7159     8.9599     8.4019     7.3860
  674.5000    10.3735   140.6526     2.5027     0.0071   -39.4834     9.0468     8.4056     7.3217
  675.0000    10.3540   141.6515     2.4978     0.0111   -39.4708     9.0510     8.4088     7.1915
  675.5000    10.3740   139.4676     2.4998     0.0172   -39.6780     9.0551     8.4111     6.9996
  676.0000    10.3548   137.2854     2.4978     0.0202   -40.1049     8.8150     8.4165     6.8751
  676.5000    10.3751   135.5000     2.4958     0.0172   -40.5318     8.7359     8.3432     6.7529
  677.0000    10.3553   135.1052     2.4908     0.0122   -40.7390     8.5028     8.0462     6.7559
  677.5000    10.3559   138.4895     2.4858     0.0132   -40.7263     8.3516     7.8307     6.7578
  678.0000    10.3563   141.2770     2.4958     0.0152   -40.9334     8.2789     7.5513     6.5780
  678.5000    10.3567   142.4739     2.5008     0.0202   -41.3602     8.2068     7.4856     6.6419
  679.0000    10.3770   142.2791     2.5038     0.0222   -41.7870     8.1353     7.4204     6.7683
  679.5000    10.3774   143.2772     2.4988     0.0172   -42.2137     8.1390     7.4238     6.9608
  680.0000    10.3778   143.6788     2.4888     0.0142   -42.4207     7.9943     7.4271     7.0283
  680.5000    10.3782   142.2911     2.4968     0.0172   -42.4080     7.9980     7.4305     7.0972
  681.0000    10.3786   141.1021     2.5038     0.0192   -42.6149     8.0755     7.5026     7.2316
  681.5000    10.3193   139.7144     2.5048     0.0193   -42.8219     8.3820     7.5754     7.2349
  682.0000    10.2800   138.1290     2.5058     0.0223   -43.0262     8.7001     7.6489     7.1725
  682.5000    10.2207   139.5235     2.5198     0.0183   -43.0134     8.9477     7.7231     7.1751
  683.0000    10.2211   140.5216     2.5218     0.0183   -43.0007     8.8698     7.7980     7.2447
  683.5000    10.2016   140.9233     2.5118     0.0153   -42.7683     8.3973     7.8015     7.3150
  684.0000    10.2020   141.7225     2.5028     0.0133   -42.3163     8.2480     7.8051     7.4542
  684.5000    10.1826   142.7195     2.4988     0.0183   -42.0839     8.2517     7.7371     7.5265
  685.0000    10.1830   144.1152     2.5098     0.0253   -41.6320     8.2555     7.7407     7.5300
  685.5000    10.1632   148.0960     2.5069     0.0233   -41.3997     8.3356     7.9609     7.5341
  686.0000    10.1440   149.6906     2.5009     0.0153   -41.1674     8.3394     7.9652     7.4685
  686.5000    10.1245   148.7005     2.4969     0.0123   -40.9351     8.4210     7.8959     7.3357
  687.0000    10.1247   146.7162     2.4949     0.0163   -40.4833     8.4249     7.8271     7.2052
  687.5000    10.1054   145.9249     2.4939     0.0163   -40.2511     8.4287     7.7590     7.1425
  688.0000    10.1058   145.7301     2.4969     0.0143   -40.0190     8.3553     7.7625     7.1458
  688.5000    10.1061   145.5353     2.4979     0.0204   -40.0063     8.2826     7.7661     7.1490
  689.0000    10.0867   142.5578     2.5019     0.0214   -40.2132     8.1353     7.7696     7.1523
  689.5000    10.0871   140.9712     2.4979     0.0134   -39.9811     8.0645     7.7731     7.3557
  690.0000    10.0875   139.7822     2.4939     0.0084   -39.5294     8.1427     7.7767     7.3591
  690.5000    10.0879   137.9968     2.4889     0.0084   -39.2973     8.3744     7.7802     7.4992
  691.0000    10.0883   137.4044     2.4889     0.0094   -39.2847     8.6922     7.8557     7.5719
  691.5000    10.0689   137.2095     2.4889     0.0074   -39.4916     8.8576     7.9319     7.5753
  692.0000    10.0693   137.8100     2.4819     0.0094   -39.6985     8.8616     8.0088     7.5781
  692.5000    10.0696   138.8081     2.4909     0.0124   -39.9053     8.6244     8.0865     7.7223
  693.0000    10.0700   139.8062     2.4899     0.0074   -40.1122     8.5493     8.1650     7.7258
  693.5000    10.0506   141.5996     2.5019     0.0124   -40.0996     8.4749     8.2442     7.7301
  694.0000    10.0510   142.5969     2.5089     0.0154   -40.7428     8.5571     8.2479     7.7336
  694.5000    10.0712   143.7938     2.5239     0.0265   -41.1690     8.5610     8.2517     7.7371
  695.0000    10.0518   143.7978     2.5299     0.0345   -41.8146     8.4864     8.1813     7.8122
  695.5000    10.0522   139.4285     2.5350     0.0315   -42.2407     8.5688     8.1843     7.8887
  696.0000    10.0526   135.2573     2.5330     0.0205   -42.4474     8.7326     8.1880     7.8922
  696.5000    10.0530   134.2671     2.5300     0.0135   -42.2152     8.8173     8.2675     7.8958
  697.0000    10.0530   134.8676     2.5260     0.0115   -41.9832     8.8214     8.3477     7.8994
  697.5000    10.0538   136.0645     2.5200     0.0125   -41.7511     8.7446     8.4287     7.9030
  698.0000    10.0542   137.0626     2.5120     0.0175   -41.2997     8.6684     8.4325     8.0534
  698.5000    10.0546   136.4701     2.5120     0.0165   -41.0676     8.6724     8.4363     8.0571
  699.0000    10.0550   137.0706     2.5130     0.0135   -40.6163     8.6763     8.4402     8.1353
  699.5000    10.0554   138.4671     2.5120     0.0085   -40.3843     8.7605     8.4440     8.2142
  700.0000    10.0756   144.0357     2.5150     0.0075   -39.2751     8.8455     8.4479     8.2179
  700.5000    10.0755   143.4900     2.5170     0.0092   -39.2610     8.9238     8.5231     8.2914
  701.0000    10.0355   142.8404     2.5230     0.0075   -39.2525     9.0180     8.6126     8.3015
  701.5000    10.0353   141.8444     2.5320     0.0075   -39.0219     9.1056     8.6946     8.3507
  702.0000    10.0351   141.6437     2.5300     0.0075   -39.2300     9.0247     8.8618     8.5425
  702.5000    10.0548   142.4357     2.5000     0.0065   -39.2187     9.0305     8.8659     8.5456
  703.0000    10.0546   142.4353     2.5000     0.0055   -39.4268     9.0339     8.9520     8.4713
  703.5000    10.0345   134.0829     2.5039     0.0065   -39.1962     9.0389     8.9561     8.3976
  704.0000    10.0343   130.1049     2.5129     0.0155   -39.4043     9.0430     8.9602     8.3245
  704.5000    10.0341   134.2777     2.5059     0.0165   -38.9544     9.2152     8.9644     8.2521
  705.0000    10.0141   136.8602     2.4959     0.0144   -39.1625     9.3046     8.8864     8.2559
  705.5000    10.0337   138.4486     2.4829     0.0144   -39.3706     9.3089     8.8913     8.4908
  706.0000    10.0335   139.6394     2.4809     0.0194   -39.1400     9.3132     8.9768     8.6525
  706.5000    10.0333   139.6374     2.5069     0.0204   -39.1287     9.4036     9.0639     8.7365
  707.0000    10.0331   137.2498     2.5149     0.0184   -39.1175     9.5827     9.1519     8.7405
  707.5000    10.0329   134.6634     2.5219     0.0194   -39.3256     9.6757     9.3261     8.9069
  708.0000    10.0327   133.6675     2.5329     0.0224   -39.5337     9.7696     9.4167     8.9110
  708.5000    10.0325   134.0631     2.5329     0.0214   -39.7419     9.7741     9.4210     8.9975
  709.0000    10.0323   136.8443     2.5329     0.0184   -39.9501     9.7786     9.4254     9.0017
  709.5000    10.0322   138.4327     2.5209     0.0134   -39.9388     9.7804     9.3434     9.0058
  710.0000    10.0320   138.0331     2.5108     0.0063   -39.4887     9.7849     9.3477     9.0100
