~VERSION INFORMATION
 VERS.                2.0:   CWLS LOG ASCII STANDARD - VERSION 2.0
 WRAP.                 NO:   ONE LINE PER DEPTH STEP
~WELL INFORMATION
#MNEM.UNIT      DATA TYPE    INFORMATION
#----------   ------------   ------------------------------
 STRT.F          261.0000:   START DEPTH
 STOP.F         2875.0000:   STOP DEPTH
 STEP.F            0.5000:   STEP LENGTH
 NULL.          -999.2500:   NO VALUE
 COMP.   LAWRENCE ALLISON:   COMPANY
 WELL. LAWRENCE ALLISON "X" #85-20:   WELL
 FLD .          N.P.R. #3:   FIELD
 LOC .      S20 T39N R78W:   LOCATION
 CNTY.            NATRONA:   COUNTY
 STAT.            WYOMING:   STATE
 CTRY. UNITED STATES OF AMERICA:   COUNTRY
 SRVC.      DRESSER ATLAS:   SERVICE COMPANY
 DATE.        23-JUL-1986:   LOGDATE
 API .     49025111030000:   API NUMBER
~CURVE INFORMATION
#MNEM.UNIT       API CODE    CURVE DESCRIPTION
#----------   ------------   ------------------------------
 DEPT.F                  :   
 CORR.G/C3   45 356 01 00:   DENSITY CORRECTION
 RHOB.G/C3   45 350 01 00:   BULK DENSITY
 CNC .DEC    42 890 03 00:   NEUTRON POROSITY SANDSTONE
 GRR .GAPI   07 310 01 00:   GAMMA RAY FROM RESISTIVITY
 CALR.IN     07 280 01 00:   CALIPER FROM RESISTIVITY
 SPR .MV     07 010 01 00:   SPONTANEOUS POTENTIAL
 TENR.LBS    07 635 01 00:   TENSION FROM RESISTIVITY
 RILD.OHMM   07 120 46 00:   DEEP INDUCTION RESISTIVITY
 RILM.OHMM   07 120 44 00:   INDUCTION LOG MEDIUM RESISTIVITY
 RFOC.OHMM   07 220 04 00:   RESISTIVITY FOCUSED LOG RES.
~PARAMETER INFORMATION
#MNEM.UNIT          VALUE    DESCRIPTION
#----------   ------------   ------------------------------
 EKB .F         5007.0000:   Kelly bushing
 EGL .F         4995.0000:   Ground level
 EDF .F            0.0000:   Drilling floor
 EPD .F         4995.0000:   Permanent datum
 TD  .F         2874.0000:   Total depth
 CLNT.            A2DTECH:   Client Code
 SL  . 307' FEL & 2237' FSL:   Surface Location
 DATE.        23-JUL-1986:   Date Logged [DD-MMM-YYYY]
 DD  .F              2870:   Depth driller
 DL  .F              2874:   Depth logger
 BLI .F              2872:   Bottom log interval
 TLI .F              2205:   Top log interval
 CS1 .              8.625:   Casing size
 CBD1.      8.625" @ 261':   Casing driller 1
 CBL1.IN              261:   Casing logger 1
 BS1 .IN            7.875:   Bit size
 BSD1.F              2870:   Depth drilled with bit1
 DFT .            KCL-GEL:   Type fluid in hole
 DFD .                9.0:   Density
 DFV .                 37:   Viscosity
 MSS .           MUD TANK:   Source of sample
 RMS .OHMM          0.257:   Rm
 MST .F                89:   Rm Meas. temp.
 RMF .OHMM           0.19:   Rmf
 MFST.F                89:   Rmf Meas. temp.
 MFSS.               CALC:   Source Rmf.
 RMC .OHMM           0.32:   Rmc
 MCST.F                89:   Rmc Meas. temp.
 MCSS.               CALC:   Source Rmc.
 RMB .OHMM           0.20:   Rm. at BHT
 BHT .F               116:   BHT.
 TCS .HRS               4:   Time Circ. stopped
 MRT .F               116:   Maximum recorded temp.
 LUN .            HL 6264:   Logging unit number
 LUL .           GILLETTE:   Logging unit location
 ENGI.      P.M. FAHLSING:   Recorded By
 WITN.           JENNINGS:   Witnessed by
 ORIG.         2.5" PRINT:   Origin of data
 UWI .     49025111030000:   Unique Well ID
 DICO. A2D TECHNOLOGIES, INC.:   Digitizing Company
~OTHER INFORMATION
~A   DEPT     CORR       RHOB        CNC         GRR        CALR      SPR        TENR       RILD      RILM         RFOC 
# ...
 1601.0000  -999.2500  -999.2500  -999.2500   177.5489     9.6795   -92.6588   -82.3021     7.2422     6.2209     9.1068
 1601.5000  -999.2500  -999.2500  -999.2500   182.3921     9.6795   -92.9588   -82.5673     7.6588     6.5664     9.7615
 1602.0000  -999.2500  -999.2500  -999.2500   187.5019     9.6795   -93.3882   -82.8325     8.2054     7.3198    10.4327
 1602.5000  -999.2500  -999.2500  -999.2500   186.2314     9.6795   -93.9903   -83.0977     8.7908     8.0491    10.8679
 1603.0000  -999.2500  -999.2500  -999.2500   184.5163     9.6795   -94.1529   -83.3629     9.5475     8.7311    11.1674
 1603.5000  -999.2500  -999.2500  -999.2500   185.5163     9.6795   -94.4529   -83.6473    10.2052     9.2335    11.3121
 1604.0000  -999.2500  -999.2500  -999.2500   192.0939     9.6795   -94.4588   -84.7848    10.7538     9.4864    11.3089
 1604.5000  -999.2500  -999.2500  -999.2500   200.2654     9.7092   -94.2960   -86.0112    11.0519     9.6145    11.2966
 1605.0000  -999.2500  -999.2500  -999.2500   216.0039     9.7120   -93.8835   -87.2375    11.2043     9.7439    10.9977
 1605.5000  -999.2500  -999.2500  -999.2500   215.2343     9.7149   -93.5952   -88.4639    11.3192     9.8751    11.8341
 1606.0000  -999.2500  -999.2500  -999.2500   208.6167     9.7179   -93.3069   -89.6903    11.4716    10.0077    13.1912
 1606.5000  -999.2500  -999.2500  -999.2500   198.6967     9.7208   -93.0186   -90.9167    11.4680    10.0049    14.2688
 1607.0000  -999.2500  -999.2500  -999.2500   174.6001     9.7238   -92.4361   -92.1431    11.4649     9.8667    14.4444
 1607.5000  -999.2500  -999.2500  -999.2500   167.4084     9.7267   -91.8537   -93.3695    11.4618     9.8640    13.4133
 1608.0000  -999.2500  -999.2500  -999.2500   166.0783     9.7297   -91.5654   -94.5959    11.4007     9.7276    12.1975
 1608.5000  -999.2500  -999.2500  -999.2500   168.9079     9.7326   -90.9830   -95.8223    11.0281     9.4632    11.5941
 1609.0000  -999.2500  -999.2500  -999.2500   170.6864     9.7356   -90.4005   -97.0487    10.2267     9.0812    11.7701
 1609.5000  -999.2500  -999.2500  -999.2500   169.6304     9.7389   -89.8181   -98.2751     9.7160     8.7146    12.0945
 1610.0000  -999.2500  -999.2500  -999.2500   155.6095     9.7389   -89.8239   -99.5015     9.4517     8.1376    12.0483
 1610.5000  -999.2500  -999.2500  -999.2500   137.8946     9.7389   -89.8297  -100.7278     9.2251     7.5989    11.6967
 1611.0000  -999.2500  -999.2500  -999.2500   124.4791     9.7389   -90.1296  -101.9542     9.2238     7.4939    10.9180
 1611.5000  -999.2500  -999.2500  -999.2500   119.8517     9.7389   -90.7237  -103.1806     9.3838     7.5949    10.3318
 1612.0000  -999.2500  -999.2500  -999.2500   116.0355     9.7685   -91.3177  -104.4070     9.5129     7.9099     9.9331
 1612.5000  -999.2500  -999.2500  -999.2500   111.0288     9.7685   -92.1691  -105.6334     9.7763     8.5824     9.6833
 1613.0000  -999.2500  -999.2500  -999.2500   107.1098     9.7982   -92.4676  -106.8598    10.1851     9.3121     9.6807
 1613.5000  -999.2500  -999.2500  -999.2500    98.8799     9.7982   -92.6018  -108.0862    10.4670     9.6986     9.9366
 1614.0000  -999.2500  -999.2500  -999.2500    94.5361     9.8279   -92.4764  -109.3126    10.5639     9.8294    11.5224
 1614.5000  -999.2500  -999.2500  -999.2500    96.0595     9.8279   -92.1868  -110.5390    10.5623     9.8264    13.9951
 1615.0000  -999.2500  -999.2500  -999.2500   102.2556     9.8279   -92.1912  -111.7654    10.5106     9.6906    15.6122
 1615.5000  -999.2500  -999.2500  -999.2500   111.7152     9.8279   -91.9015  -112.9918    10.2247     9.4272    13.8067
 1616.0000  -999.2500  -999.2500  -999.2500   123.5132     9.8279   -91.9068  -114.2181     9.9466     8.9240    11.3836
 1616.5000  -999.2500  -999.2500  -999.2500   122.9831     9.8279   -91.6170  -115.4445     9.6258     8.5638    10.4267
 1617.0000  -999.2500  -999.2500  -999.2500   122.0534     9.8279   -91.6214  -116.6709     9.2851     7.9968    10.0643
 1617.5000  -999.2500  -999.2500  -999.2500   124.8364     9.8576   -91.6258  -117.8973     9.1565     7.5700    10.0616
 1618.0000  -999.2500  -999.2500  -999.2500   134.6081     9.8576   -91.6302  -119.1237     8.9074     7.3642    10.0588
 1618.5000  -999.2500  -999.2500  -999.2500   133.7881     9.8872   -91.6346  -120.3501     8.6651     7.2624    10.0223
 1619.0000  -999.2500  -999.2500  -999.2500   128.3326     9.8872   -91.3441  -121.5765     8.4293     7.1620     9.8825
 1619.5000  -999.2500  -999.2500  -999.2500   125.3094     9.8872   -91.3493  -122.8029     8.3642     7.2585     9.7792
 1620.0000  -999.2500  -999.2500  -999.2500   124.7083     9.8872   -91.3537  -124.0293     8.3630     7.3563     9.7765
 1620.5000  -999.2500  -999.2500  -999.2500   124.9792     9.8872   -91.3581  -125.2557     8.2486     7.5576     9.7738
 1621.0000  -999.2500  -999.2500  -999.2500   125.5668     9.8872   -91.3625  -126.4821     8.2474     7.6595     9.7711
 1621.5000  -999.2500  -999.2500  -999.2500   126.1543     9.8872   -91.6610  -127.7084     8.1903     7.7626     9.7684
 1622.0000  -999.2500  -999.2500  -999.2500   124.6767     9.8872   -91.6654  -128.9348     8.1334     7.7604     9.7658
 1622.5000  -999.2500  -999.2500  -999.2500   123.1945     9.8872   -91.9639  -129.4511     8.1323     7.7583     9.7233
 1623.0000  -999.2500  -999.2500  -999.2500   121.1159     9.8872   -92.5565  -129.0610     8.1312     7.6510     9.6278
 1623.5000  -999.2500  -999.2500  -999.2500   117.8339     9.8872   -92.8550  -128.7092     8.1301     7.6490     9.4943
 1624.0000  -999.2500  -999.2500  -999.2500   117.2144     9.8872   -93.4476  -128.3383     8.1290     7.6469     9.4917
 1624.5000  -999.2500  -999.2500  -999.2500   122.8452     9.8872   -93.7462  -127.9674     8.1279     7.5412     9.4891
 1625.0000  -999.2500  -999.2500  -999.2500   128.4858     9.8872   -94.0447  -127.5964     8.1268     7.4370     9.6177
 1625.5000  -999.2500  -999.2500  -999.2500   134.7224     9.8872   -94.0491  -127.2255     8.0155     7.2348     9.6147
 1626.0000  -999.2500  -999.2500  -999.2500   140.6527     9.8872   -94.0535  -126.8546     8.0142     7.1348     9.6119
 1626.5000  -999.2500  -999.2500  -999.2500   135.5310     9.8872   -94.0579  -126.4837     7.9046     6.9408     9.6093
 1627.0000  -999.2500  -999.2500  -999.2500   129.3296     9.8872   -93.7681  -126.1127     7.9035     6.8449     9.6067
 1627.5000  -999.2500  -999.2500  -999.2500   130.5641     9.8872   -93.4779  -125.7418     7.9024     6.8430     9.4735
 1628.0000  -999.2500  -999.2500  -999.2500   132.6053     9.8872   -92.8946  -125.3709     7.9013     6.8412     9.2948
 1628.5000  -999.2500  -999.2500  -999.2500   131.6953     9.8872   -92.6048  -125.0000     7.9003     6.9333     8.9944
 1629.0000  -999.2500  -999.2500  -999.2500   130.8131     9.8872   -92.3151  -124.6291     7.8992     6.9314     8.7200
 1629.5000  -999.2500  -999.2500  -999.2500   132.6232     9.8872   -92.0254  -124.2581     7.8981     7.0247     9.1817
 1630.0000  -999.2500  -999.2500  -999.2500   134.0850     9.8872   -91.7357  -123.8872     8.0057     7.1193     9.5128
 1630.5000  -999.2500  -999.2500  -999.2500   133.7188     9.9169   -91.4459  -123.5163     8.1146     7.2151     9.9096
 1631.0000  -999.2500  -999.2500  -999.2500   130.3744     9.9169   -91.4503  -123.1454     8.2250     7.4127    10.1827
 1631.5000  -999.2500  -999.2500  -999.2500   123.7776     9.9466   -91.4547  -122.7744     8.3368     7.6157    10.4634
 1632.0000  -999.2500  -999.2500  -999.2500   117.8792    10.0059   -91.4591  -122.4035     8.3355     7.7182    10.6890
 1632.5000  -999.2500  -999.2500  -999.2500   120.2080    10.0356   -91.7576  -122.0326     8.4490     7.9296    10.8333
 1633.0000  -999.2500  -999.2500  -999.2500   123.7069    10.0950   -92.0561  -121.6617     8.5639     8.1468    10.9795
 1633.5000  -999.2500  -999.2500  -999.2500   125.4184    10.1246   -92.6488  -121.2908     8.7996     8.4851    11.0440
 1634.0000  -999.2500  -999.2500  -999.2500   125.4125    10.1543   -92.9473  -120.9198     8.9192     8.8378    11.1942
