~VERSION INFORMATION
 VERS.                2.0:   CWLS LOG ASCII STANDARD - VERSION 2.0
 WRAP.                 NO:   ONE LINE PER DEPTH STEP
~WELL INFORMATION
#MNEM.UNIT      DATA TYPE    INFORMATION
#----------   ------------   ------------------------------
 STRT.F          190.0000:   START DEPTH
 STOP.F         2998.5000:   STOP DEPTH
 STEP.F            0.5000:   STEP LENGTH
 NULL.          -999.2500:   NO VALUE
 COMP.    FENIX & SCISSON:   COMPANY
 WELL.   FENIX "A" #52-28:   WELL
 FLD .        TEAPOT DOME:   FIELD
 LOC .      S28 T39N R78W:   LOCATION
 CNTY.            NATRONA:   COUNTY
 STAT.            WYOMING:   STATE
 CTRY. UNITED STATES OF AMERICA:   COUNTRY
 SRVC.           BIRDWELL:   SERVICE COMPANY
 DATE.        14-AUG-1977:   LOGDATE
 API .     49025104130000:   API NUMBER
~CURVE INFORMATION
#MNEM.UNIT       API CODE    CURVE DESCRIPTION
#----------   ------------   ------------------------------
 DEPT.F                  :   
 SPR .MV     05 010 01 00:   SPONTANEOUS POTENTIAL FROM RES.
 SN  .OHMM   05 040 16 00:   SHORT NORMAL 16"
 ILD .OHMM   05 120 46 00:   INDUCTION LOG DEEP
 GRD .GAPI   45 310 01 00:   GAMMA RAY FROM DENSITY LOG
 CALD.IN     45 280 60 00:   CALIPER FROM DENSITY LOG
 RHOB.G/C3   45 350 01 00:   BULK DENSITY
 CORR.G/C3   45 356 01 00:   DENSITY CORRECTION
~PARAMETER INFORMATION
#MNEM.UNIT          VALUE    DESCRIPTION
#----------   ------------   ------------------------------
 EKB .F         5026.0000:   Kelly bushing
 EGL .F         5016.0000:   Ground level
 EDF .F            0.0000:   Drilling floor
 TD  .F         3000.0000:   Total depth
 DATE.        14-AUG-1977:   Date logged
 CLNT.            A2DTECH:   Client Code
 SL  . 990' FNL & 2310' FEL:   Surface Location
 PD  .                 GL:   Permanent Datum
 EPD .F              5016:   Elevation Permanent Datum
 LMF .                 KB:   Log Measured From
 DMF .                 KB:   Drilling Measured From
 DAPD.F                10:   Feet Above Permanent Datum
 DD  .F              3000:   Depth driller
 DL  .F              3000:   Depth logger
 BLI .F              2994:   Bottom log interval
 TLI .F               214:   Top log interval
 CS1 .IN            8.625:   Casing size
 CBD1.      8.625" @ 214':   Casing driller 1
 CBL1.F               212:   Casing logger 1
 BS1 .IN            7.875:   Bit size
 BSD1.F              3000:   Depth drilled with bit1
 DFT .                KCL:   Type fluid in hole
 DFD .                8.8:   Density
 DFV .                 30:   Viscosity
 DFPH.               10.5:   pH
 DFL .               10.4:   Fluid loss
 MSS .           FLOWLINE:   Source of sample
 RMS .OHMM           0.13:   Rm
 MST .F                82:   Rm Meas. temp.
 RMF .OHMM           0.12:   Rmf
 MFST.F                72:   Rmf Meas. temp.
 RMC .OHMM           0.16:   Rmc
 MCST.F                72:   Rmc Meas. temp.
 MFSS.               MEAS:   Source Rmf.
 MCSS.               MEAS:   Source Rmc.
 TCS .HRS               4:   Time Circ. stopped
 LUN .               2958:   Logging unit number
 LUL .             CASPER:   Logging unit location
 ENGI.                LAW:   Recorded By
 WITN.         PETTINGILL:   Witnessed by
 ORIG.           5" PRINT:   Origin of data
 UWI .     49025104130000:   Unique Well ID
 DICO. A2D TECHNOLOGIES, INC.:   Digitizing Company
~OTHER INFORMATION
~A   DEPT      SPR         SN        ILD         GRD      CALD       RHOB       CORR   
# ...
 2783.5000   -80.2140     4.5590     5.0020   144.4310     9.2940     2.5620     0.0250
 2784.0000   -80.9370     4.5630     4.9870   140.4120     9.2910     2.5560     0.0220
 2784.5000   -82.3260     4.5680     4.9710   140.9970     9.2890     2.5530     0.0230
 2785.0000   -82.7800     4.5750     4.9600   147.7260     9.2870     2.5530     0.0230
 2785.5000   -83.0070     4.5880     4.9690   148.6020     9.2850     2.5530     0.0170
 2786.0000   -83.0700     4.6010     4.9760   144.9050     9.2820     2.5510     0.0120
 2786.5000   -83.1340     4.6130     4.9820   141.7550     9.2800     2.5520     0.0170
 2787.0000   -83.3280     4.6260     4.9890   141.5450     9.2780     2.5560     0.0240
 2787.5000   -83.7370     4.6390     4.9960   144.9560     9.2780     2.5600     0.0280
 2788.0000   -84.1410     4.6550     5.0030   142.4950     9.2780     2.5610     0.0300
 2788.5000   -84.5470     4.6510     5.0120   143.8860     9.2780     2.5590     0.0300
 2789.0000   -85.1700     4.6470     5.0240   146.1130     9.2780     2.5540     0.0270
 2789.5000   -86.9830     4.6420     5.0350   143.6890     9.2780     2.5490     0.0230
 2790.0000   -88.3380     4.6370     5.0470   146.7830     9.2780     2.5420     0.0180
 2790.5000   -88.9560     4.6330     5.0580   149.6550     9.2780     2.5320     0.0080
 2791.0000   -89.3310     4.6280     5.0700   151.1680     9.2780     2.5220     0.0040
 2791.5000   -89.6390     4.6240     5.0810   157.5290     9.2780     2.5200     0.0100
 2792.0000   -89.9510     4.6190     5.0960   154.9160     9.2780     2.5310     0.0160
 2792.5000   -90.2370     4.6140     5.0700   148.4580     9.2780     2.5400     0.0170
 2793.0000   -90.6710     4.6130     5.0250   150.1220     9.2780     2.5420     0.0250
 2793.5000   -91.5580     4.6130     4.9800   150.7590     9.2780     2.5520     0.0290
 2794.0000   -92.0330     4.6130     4.9350   148.9350     9.2780     2.5420     0.0200
 2794.5000   -92.0770     4.6130     4.8890   148.5210     9.2780     2.5370     0.0210
 2795.0000   -91.7530     4.6130     4.8440   148.2970     9.2780     2.5380     0.0210
 2795.5000   -91.3900     4.6130     4.7990   148.6350     9.2780     2.5400     0.0250
 2796.0000   -90.0460     4.6130     4.7650   149.3150     9.2780     2.5480     0.0290
 2796.5000   -88.8330     4.6130     4.7380   147.6450     9.2780     2.5520     0.0310
 2797.0000   -87.6460     4.5960     4.7100   138.8880     9.2790     2.5520     0.0280
 2797.5000   -86.6340     4.5800     4.6820   140.0970     9.2800     2.5480     0.0250
 2798.0000   -85.6440     4.5640     4.6550   140.6730     9.2820     2.5440     0.0220
 2798.5000   -84.6580     4.5480     4.6270   139.0060     9.2840     2.5410     0.0230
 2799.0000   -83.6840     4.5320     4.6130   143.1840     9.2860     2.5440     0.0250
 2799.5000   -82.9140     4.5160     4.6170   141.1740     9.2870     2.5460     0.0260
 2800.0000   -82.2310     4.5000     4.6230   144.0780     9.2890     2.5340     0.0250
 2800.5000   -81.9870     4.4890     4.6280   147.5690     9.2910     2.5320     0.0230
 2801.0000   -82.2150     4.4960     4.6340   146.4440     9.2930     2.5300     0.0190
 2801.5000   -82.5500     4.5020     4.6390   143.8660     9.2940     2.5220     0.0130
 2802.0000   -83.1480     4.5080     4.6450   141.2100     9.2960     2.5130     0.0130
 2802.5000   -83.3050     4.5140     4.6500   140.3310     9.3030     2.5130     0.0150
 2803.0000   -83.4420     4.5200     4.6580   141.4090     9.3210     2.5130     0.0160
 2803.5000   -83.5950     4.5260     4.6840   145.0010     9.3390     2.5140     0.0110
 2804.0000   -83.8250     4.5320     4.7090   148.6100     9.3570     2.5080     0.0140
 2804.5000   -84.0560     4.5370     4.7350   145.2360     9.3740     2.5080     0.0210
 2805.0000   -84.5300     4.5430     4.7600   141.5100     9.3920     2.5230     0.0240
 2805.5000   -85.3700     4.5480     4.7860   140.7850     9.4100     2.5250     0.0180
 2806.0000   -86.5560     4.5540     4.8110   145.1860     9.4270     2.5210     0.0200
 2806.5000   -87.3120     4.5600     4.8430   140.5900     9.4450     2.5270     0.0240
 2807.0000   -87.3010     4.5650     4.8840   143.1430     9.4580     2.5340     0.0250
 2807.5000   -87.2380     4.5710     4.9260   145.6550     9.4660     2.5300     0.0240
 2808.0000   -87.1410     4.5850     4.9680   146.1120     9.4740     2.5290     0.0230
 2808.5000   -86.7080     4.5990     5.0100   139.1680     9.4820     2.5330     0.0210
 2809.0000   -86.0730     4.6130     5.0510   132.9460     9.4900     2.5310     0.0190
 2809.5000   -84.8360     4.6270     5.1240   129.8160     9.4980     2.5260     0.0180
 2810.0000   -83.9500     4.6410     5.1960   129.7340     9.5060     2.5300     0.0210
 2810.5000   -83.5720     4.6550     5.2380   125.1460     9.5130     2.5360     0.0240
 2811.0000   -83.5620     4.6310     5.1970   123.9770     9.5240     2.5400     0.0250
 2811.5000   -83.5680     4.6070     5.1390   126.6910     9.5370     2.5380     0.0250
 2812.0000   -83.1730     4.5840     5.0770   127.2870     9.5500     2.5390     0.0330
 2812.5000   -82.9650     4.5390     5.0150   127.8310     9.5640     2.5520     0.0300
 2813.0000   -82.9170     4.4680     4.8890   128.1000     9.5770     2.5440     0.0250
 2813.5000   -82.8710     4.3980     4.7520   130.9650     9.5900     2.5390     0.0290
 2814.0000   -82.8270     4.3270     4.6150   135.0040     9.6030     2.5460     0.0310
 2814.5000   -82.7810     4.2890     4.4890   136.6340     9.6170     2.5370     0.0270
 2815.0000   -82.5750     4.3050     4.3820   139.2250     9.6300     2.5320     0.0240
 2815.5000   -82.3490     4.3280     4.4600   142.2770     9.6540     2.5320     0.0250
 2816.0000   -82.1930     4.3520     4.5640   145.0320     9.6850     2.5340     0.0270
 2816.5000   -82.2430     4.3710     4.6690   146.0360     9.7400     2.5390     0.0280
 2817.0000   -82.2880     4.3800     4.7830   143.1980     9.7930     2.5460     0.0280
 2817.5000   -82.3320     4.3900     4.8450   144.2320     9.8220     2.5480     0.0270
 2818.0000   -82.3820     4.3990     4.9140   145.0290     9.8750     2.5460     0.0240
 2818.5000   -82.6280     4.4070     4.9830   138.6400     9.9250     2.5410     0.0210
 2819.0000   -82.9020     4.3870     5.0510   133.5410     9.9740     2.5360     0.0190
 2819.5000   -83.3450     4.3690     5.0970   130.4550    10.0070     2.5340     0.0200
 2820.0000   -84.7170     4.3510     5.0970   127.8750    10.0120     2.5370     0.0230
 2820.5000   -86.6870     4.3330     5.0970   126.8680    10.0190     2.5420     0.0260
 2821.0000   -87.8200     4.2720     5.0970   127.8040    10.0230     2.5470     0.0290
 2821.5000   -88.7380     4.1960     5.0800   133.2190    10.0840     2.5510     0.0290
 2822.0000   -89.5140     4.1210     4.9670   133.6390    10.1570     2.5510     0.0290
 2822.5000   -89.0830     4.0450     4.8540   130.3190    10.1820     2.5510     0.0290
 2823.0000   -88.9010     3.9690     4.6880   128.4370    10.1920     2.5450     0.0240
 2823.5000   -89.0890     3.8570     4.3820   133.1450    10.2030     2.5350     0.0180
 2824.0000   -89.9090     3.7340     3.9940   130.3240    10.2140     2.5220     0.0140
 2824.5000   -90.2910     3.6110     3.6060   138.8370    10.2220     2.5110     0.0140
 2825.0000   -90.3610     3.5120     3.3030   140.9750    10.2240     2.5130     0.0240
 2825.5000   -90.4290     3.4000     3.0570   145.1250    10.3160     2.5170     0.0310
 2826.0000   -90.5260     3.2590     3.0100   156.7470    10.3220     2.5050     0.0340
 2826.5000   -90.7040     3.1180     3.0310   154.2140    10.3210     2.4920     0.0390
 2827.0000   -90.8230     3.0930     3.0660   152.0900    10.3210     2.4890     0.0520
 2827.5000   -90.6640     3.1920     3.1270   156.8330    10.3210     2.4890     0.0720
 2828.0000   -89.2490     3.3130     3.2770   161.5880    10.3210     2.5230     0.0930
 2828.5000   -87.6180     3.4510     3.4270   163.8000    10.3210     2.5490     0.0610
