~VERSION INFORMATION
 VERS.                2.0:   CWLS LOG ASCII STANDARD - VERSION 2.0
 WRAP.                 NO:   ONE LINE PER DEPTH STEP
~WELL INFORMATION
#MNEM.UNIT      DATA TYPE    INFORMATION
#----------   ------------   ------------------------------
 STRT.F            4.5000:   START DEPTH
 STOP.F         3216.0000:   STOP DEPTH
 STEP.F            0.5000:   STEP LENGTH
 NULL.          -999.2500:   NO VALUE
 COMP. LAWRENCE ALLISON & ASSCOCIATES:   COMPANY
 WELL. LAWRENCE ALLISON #38-34:   WELL
 FLD . NAVAL PET. RES. NO. 3:   FIELD
 LOC .      S34 T39N R78W:   LOCATION
 CNTY.            NATRONA:   COUNTY
 STAT.            WYOMING:   STATE
 CTRY. UNITED STATES OF AMERICA:   COUNTRY
 SRVC.      DRESSER ATLAS:   SERVICE COMPANY
 DATE.        12-OCT-1986:   LOGDATE
 API .     49025111120000:   API NUMBER
~CURVE INFORMATION
#MNEM.UNIT       API CODE    CURVE DESCRIPTION
#----------   ------------   ------------------------------
 DEPT.F                  :   
 CALD.IN     45 280 60 00:   CALIPER FROM DENSITY LOG
 RHOB.G/C3   45 350 01 00:   BULK DENSITY
 CORR.G/C3   45 356 01 00:   DENSITY CORRECTION
 CNC .DEC    42 890 01 00:   NEUTRON POROSITY
 SPR .MV     07 010 01 00:   SPONTANEOUS POTENTIAL
 TENR.LBS    06 635 01 00:   TENSION FROM RESISTIVITY
 GRR .GAPI   07 310 01 00:   GAMMA RAY FROM RESISTIVITY
 ILD .OHMM   07 120 46 00:   DEEP INDUCTION RESISTIVITY
 ILM .OHMM   07 120 44 00:   INDUCTION LOG MEDIUM RESISTIVITY
 SFL .OHMM   07 220 01 00:   SHALLOW FOCUSED LOG RESISITIVITY
~PARAMETER INFORMATION
#MNEM.UNIT          VALUE    DESCRIPTION
#----------   ------------   ------------------------------
 EKB .F         5229.5000:   Kelly bushing
 EGL .F         5217.7000:   Ground level
 TD  .F         3200.0000:   Total depth
 CLNT.            A2DTECH:   Client Code
 SL  . 1338' FWL & 132' FSL:   Surface Location
 PD  .                 GL:   Permanent Datum
 EPD .F            5217.7:   Elevation Permanent Datum
 LMF .                 KB:   Log Measured From
 DMF .                 KB:   Drilling Measured From
 DAPD.F              11.8:   Feet Above Permanent Datum
 DATE.        12-OCT-1986:   Date Logged [DD-MMM-YYYY]
 DD  .F              3200:   Depth driller
 DL  .F              3200:   Depth logger
 BLI .F              3194:   Bottom log interval
 TLI .F                 0:   Top log interval
 CS1 .IN            8.625:   Casing size
 CBD1.      8.625" @ 668':   Casing driller 1
 CBL1.F               668:   Casing logger 1
 BS1 .IN            7.875:   Bit size
 BSD1.F              3200:   Depth drilled with bit1
 DFT .        KCL POLYMER:   Type fluid in hole
 DFD .                  9:   Density
 DFV .                 36:   Viscosity
 DFPH.                9.5:   pH
 MSS .           FLOWLINE:   Source of sample
 RMS .OHMM           0.25:   Rm
 MST .F                70:   Rm Meas. temp.
 RMF .OHMM          0.191:   Rmf
 MFST.F                70:   Rmf Meas. temp.
 MFSS.               MEAS:   Source Rmf.
 RMB .OHMM          0.132:   Rm. at BHT
 BHT .F               132:   BHT.
 TCS .HRS               3:   Time Circ. stopped
 MRT .F               132:   Maximum recorded temp.
 LUN .               6274:   Logging unit number
 ENGI.             RAUTIO:   Recorded By
 ORIG.   1" 2.5" 5" PRINT:   Origin of data
 UWI .     49025111120000:   Unique Well ID
 DICO. A2D TECHNOLOGIES, INC.:   Digitizing Company
 LUL .               CLIT:   Logging unit location
 RMC .OHMM           0.31:   Rmc
 MCST.F                70:   Rmc Meas. temp.
 MCSS.               CALC:   Source Rmc.
~OTHER INFORMATION
~A    DEPT    CALD       RHOB       CORR        CNC        SPR       TENR        GRR        ILD        ILM        SFL   
# ...
 2483.5000    10.5269     2.6124    -0.0407     0.2302   -92.9439   -64.7500   110.0733     4.2835     4.3468     4.6094
 2484.0000    10.5414     2.5936    -0.0301     0.2302   -92.9442   -64.7500   114.3868     4.4076     4.4727     5.3113
 2484.5000    10.5407     2.5644     0.0060     0.2336   -92.9427   -64.7500   117.3165     4.5353     4.6929     5.5918
 2485.0000    10.5401     2.5461     0.0181     0.2400   -92.9458   -64.7500   118.3731     4.6023     4.9373     5.5691
 2485.5000    10.5549     2.5385     0.0301     0.2484   -92.9433   -64.7500   118.7626     4.8289     5.0100     5.2601
 2486.0000    10.5541     2.5362     0.0331     0.2610   -92.9404   -64.7500   116.4473     4.9655     5.0448     5.1551
 2486.5000    10.5536     2.5400     0.0166     0.2683   -92.9607   -64.7500   112.0945     5.1059     5.1155     5.4840
 2487.0000    10.5378     2.5431     0.0045     0.2726   -92.7837   -64.7500   109.3737     5.1778     5.1871     5.7177
 2487.5000    10.5371     2.5483     0.0015     0.2741   -92.4886   -64.7500   108.8855     5.1782     5.2598     5.7177
 2488.0000    10.5365     2.5491     0.0000     0.2720   -92.1599   -64.7500   110.3128     5.1785     5.3335     5.6387
 2488.5000    10.5207     2.5445     0.0000     0.2672   -92.0289   -64.7500   110.9123     5.1870     5.4840     5.4082
 2489.0000    10.5201     2.5407     0.0000     0.2635   -91.8735   -64.7500   110.9093     5.1792     5.5608     5.3980
 2489.5000    10.5347     2.5407    -0.0075     0.2563   -91.7324   -64.7500   110.3040     5.1080     5.6387     5.7978
 2490.0000    10.5341     2.5408    -0.0211     0.2427   -91.5944   -64.7500   109.0962     5.0355     5.5608     5.9614
 2490.5000    10.5334     2.5437    -0.0346     0.2406   -91.4418   -64.7500   106.0813     4.9629     5.3321     6.0449
 2491.0000    10.5328     2.5437    -0.0363     0.2458   -91.2938   -64.7500   105.4759     4.8325     5.2548     6.0449
 2491.5000    10.5323     2.5467    -0.0223     0.2564   -90.9302   -64.7500   106.7563     4.7660     5.1069     5.9614
 2492.0000    10.5317     2.5512     0.0060     0.2656   -90.5634   -64.7627   109.9043     4.6356     4.9751     5.8511
 2492.5000    10.5159     2.5497     0.0241     0.2613   -90.7014   -64.7551   113.6154     4.5545     4.9063     5.6038
 2493.0000    10.5153     2.5421     0.0120     0.2605   -90.9215   -64.6904   115.8438     4.4888     4.8386     5.3876
 2493.5000    10.5146     2.5443     0.0030     0.2663   -91.1573   -64.5154   116.9070     4.3631     4.7717     5.2125
 2494.0000    10.5140     2.5527     0.0120     0.2748   -91.3231   -64.1772   114.0839     4.3253     4.7971     5.0183
 2494.5000    10.5134     2.5595     0.0241     0.2736   -91.2958   -63.6947   112.2071     4.2658     4.9360     5.0052
 2495.0000    10.5282     2.5603     0.0147     0.2679   -91.2753   -63.1721   111.1442     4.1771     4.9751     5.4435
 2495.5000    10.5274     2.5587     0.0045     0.2572   -91.2462   -62.7648   111.7768     4.1493     4.9020     5.8041
 2496.0000    10.5269     2.5542    -0.0181     0.2529   -91.2208   -52.8592   113.9514     4.1497     4.3895     5.7845
 2496.5000    10.5261     2.5511    -0.0256     0.2543   -91.1948   -62.7884   118.6952     4.2671     4.4510     5.2598
 2497.0000    10.5255     2.5465    -0.0151     0.2677   -91.1680   -63.2553   125.3188     4.3878     4.5766     5.0448
 2497.5000    10.5250     2.5404     0.0090     0.2707   -91.1418   -63.8935   128.3279     4.5119     4.7058     4.9751
 2498.0000    10.5397     2.5396     0.0166     0.2726   -91.1154   -64.5429   129.5301     4.5754     4.7717     4.9063
 2498.5000    10.5542     2.5434     0.0000     0.2723   -91.0892   -65.0243   129.5269     4.7707     4.9063     4.9751
 2499.0000    10.5536     2.5465     0.0015     0.2702   -91.0629   -64.7500   127.1143     4.9057     5.0448     5.1155
 2499.5000    10.4921     2.5464     0.0000     0.2672   -91.0367   -45.2500   118.0752     5.1151     5.2598     5.7978
 2500.0000    10.4311     2.5403    -0.0241     0.2630   -91.0104   -51.1327   108.4323     5.2598     5.4840     6.3026
 2500.5000    10.4608     2.5464    -0.0151     0.2599   -90.9842   -60.9371   107.2186     5.4086     5.7173     6.6526
 2501.0000    10.4601     2.5593     0.0180     0.2581   -90.9579   -64.7500   106.6074     5.4848     5.8782     6.8523
 2501.5000    10.4899     2.5661     0.0255     0.2563   -90.9317   -64.7500   109.6107     5.6399     5.8778     6.8527
 2502.0000    10.5044     2.5653     0.0224     0.2612   -90.9054   -45.2500   110.2048     5.7193     5.8774     6.6148
 2502.5000    10.5037     2.5592     0.0118     0.2672   -90.8792   -45.2500   109.5930     5.7998     5.8770     6.3932
 2503.0000    10.5031     2.5569     0.0042     0.2678   -90.8530   -25.7500   108.9818     5.8003     5.9589     6.3052
 2503.5000    10.5025     2.5592    -0.0154     0.2663   -90.8267   -25.7500   108.9730     5.7205     5.9585     6.3057
 2504.0000    10.5020     2.5622    -0.0214     0.2636   -90.8005   -25.7500   109.6146     5.7210     5.9637     6.3062
 2504.5000    10.5014     2.5644    -0.0049     0.2592   -90.7742   -25.7500   110.1602     5.7213     6.1358     6.4313
 2505.0000    10.4855     2.5628     0.0011     0.2490   -90.7480   -25.7500   110.8639     5.8019     6.2112     6.5758
 2505.5000    10.4849     2.5628    -0.0005     0.2423   -90.7217   -45.2500   112.2313     5.8836     6.2108     6.6684
 2506.0000    10.4843     2.5658     0.0040     0.2460   -90.6954   -25.7500   114.0923     5.8840     6.1245     6.7623
 2506.5000    10.4837     2.5704     0.0205     0.2539   -90.6691   -25.7500   115.7486     5.9668     6.0973     6.7628
 2507.0000    10.4831     2.5749     0.0385     0.2593   -90.6430   -25.7500   117.3451     5.9644     6.0391     6.7557
 2507.5000    10.4825     2.5749     0.0475     0.2599   -90.6163    -6.2500   116.8025     5.7972     6.0386     6.6702
 2508.0000    10.4971     2.5741     0.0595     0.2602   -90.5904   -25.7500   115.2211     5.7241     5.9548     6.6707
 2508.5000    10.4964     2.5680     0.0662     0.2633   -90.5646    -6.2500   113.9759     5.6454     5.9544     6.5789
 2509.0000    10.4958     2.5687     0.0715     0.2727   -90.5347    -6.2500   113.6910     5.6458     5.9074     6.5528
 2509.5000    10.4952     2.5702     0.0624     0.2730   -90.5439    -6.2500   113.6822     5.6241     5.8712     6.3687
 2510.0000    10.4946     2.5709     0.0352     0.2730   -90.5958    -6.2500   114.2758     5.6466     5.8708     6.2241
 2510.5000    10.4941     2.5671     0.0277     0.2775   -90.6433    -6.2500   115.4718     5.6470     5.9527     6.2246
 2511.0000    10.4935     2.5593     0.0111     0.2842   -90.6915    -6.2500   117.2702     5.7613     6.0357     6.1390
 2511.5000    10.4928     2.5518     0.0050     0.2775   -90.7404    -6.2500   116.0566     5.9284     6.0352     6.1876
 2512.0000    10.4922     2.5457     0.0019     0.2672   -90.7873   -25.7500   114.8430     5.9714     6.1194     6.4017
 2512.5000    10.4916     2.5411     0.0049     0.2566   -90.8383   -25.7500   113.0269     5.9718     6.2047     6.6750
 2513.0000    10.5063     2.5380     0.0124     0.2572   -90.8838   -45.2500   111.2048     5.9723     6.2912     7.0574
 2513.5000    10.5056     2.5410     0.0138     0.2624   -90.9193   -45.2500   110.5997     5.8902     6.3789     7.3587
 2514.0000    10.5050     2.5425     0.0153     0.2681   -90.8184   -25.7500   113.6712     5.8906     6.2846     7.4623
 2514.5000    10.5044     2.5410     0.0153     0.2636   -90.7266   -45.2500   114.1965     5.8733     6.1173     7.1578
 2515.0000    10.5037     2.5455     0.0107     0.2505   -90.6273   -25.7500   112.3795     5.8914     6.1169     6.7708
 2515.5000    10.5031     2.5531     0.0076     0.2527   -90.5317   -25.7500   111.6069     5.9743     6.1350     6.4944
 2516.0000    10.5025     2.5561     0.0211     0.2697   -90.4353   -25.7500   111.1580     5.9747     6.2248     6.4016
 2516.5000    10.5019     2.5553     0.0226     0.2794   -90.3378   -25.7500   113.4023     6.0588     6.2882     6.3171
