~VERSION INFORMATION
 VERS.                2.0:   CWLS LOG ASCII STANDARD - VERSION 2.0
 WRAP.                 NO:   ONE LINE PER DEPTH STEP
~WELL INFORMATION
#MNEM.UNIT      DATA TYPE    INFORMATION
#----------   ------------   ------------------------------
 STRT.F           10.0000:   START DEPTH
 STOP.F         2950.0000:   STOP DEPTH
 STEP.F            0.5000:   STEP LENGTH
 NULL.          -999.2500:   NO VALUE
 COMP.    FENIX & SCISSON:   COMPANY
 WELL.   PENIX SHX #11-23:   WELL
 FLD .  TEAPOT DOME NPR-3:   FIELD
 LOC .      S23 T38N R78W:   LOCATION
 CNTY.            NATRONA:   COUNTY
 STAT.            WYOMING:   STATE
 CTRY. UNITED STATES OF AMERICA:   COUNTRY
 SRVC.           BIRDWELL:   SERVICE COMPANY
 DATE.        19-MAY-1979:   LOGDATE
 API .     49025107790000:   API NUMBER
~CURVE INFORMATION
#MNEM.UNIT       API CODE    CURVE DESCRIPTION
#----------   ------------   ------------------------------
 DEPT.F                  :   
 ILD .OHMM   05 120 46 00:   INDUCTION LOG DEEP
 SN  .OHMM   05 040 16 00:   SHORT NORMAL 16"
 CALD.IN     45 280 60 00:   CALIPER FROM DENSITY LOG
 GRD .GAPI   45 310 01 00:   GAMMA RAY FROM DENSITY LOG
 RHOB.G/C3   45 350 01 00:   BULK DENSITY
 CORR.G/C3   45 356 01 00:   DENSITY CORRECTION
~PARAMETER INFORMATION
#MNEM.UNIT          VALUE    DESCRIPTION
#----------   ------------   ------------------------------
 EKB .F         5275.0000:   Kelly bushing
 EGL .F         5265.0000:   Ground level
 EDF .F            0.0000:   Drilling floor
 TD  .F         2995.0000:   Total depth
 DATE.        19-MAY-1979:   Date logged
 CLNT.            A2DTECH:   Client Code
 SL  . 337' FNL & 237' FWL:   Surface Location
 PD  .                 GL:   Permanent Datum
 EPD .F              5265:   Elevation Permanent Datum
 LMF .                 KB:   Log Measured From
 DMF .                 KB:   Drilling Measured From
 DAPD.F                10:   Feet Above Permanent Datum
 DD  .F              2995:   Depth driller
 DL  .F              2950:   Depth logger
 BLI .F              2944:   Bottom log interval
 TLI .F              1050:   Top log interval
 CS1 .IN            9.625:   Casing size
 CBD1.     9.625" @ 2050':   Casing driller 1
 CBL1.F              1050:   Casing logger 1
 BS1 .IN             8.75:   Bit size
 BSD1.F              2995:   Depth drilled with bit1
 DFT . AIR/FORRATION FLUIDS:   Type fluid in hole
 TCS .HRS              12:   Time Circ. stopped
 LUN .               3029:   Logging unit number
 LUL .             CASPER:   Logging unit location
 ENGI.         B. ROLLINS:   Recorded By
 ORIG.         2.5" PRINT:   Origin of data
 UWI .     49025107790000:   Unique Well ID
 DICO. A2D TECHNOLOGIES, INC.:   Digitizing Company
~OTHER INFORMATION
~A   DEPT      ILD         SN       CALD        GRD       RHOB         CORR 
# ...
 1154.0000     8.1800  -999.2500     9.3230   186.3420     2.4750    -0.0020
 1154.5000     8.0330  -999.2500     9.3280   180.9900     2.4790    -0.0010
 1155.0000     7.8860  -999.2500     9.3310   181.8840     2.4830     0.0000
 1155.5000     7.7390  -999.2500     9.3060   182.4310     2.4850     0.0010
 1156.0000     7.5920  -999.2500     9.3450   180.1200     2.4850     0.0020
 1156.5000     7.4450  -999.2500     9.3850   176.3020     2.4850     0.0030
 1157.0000     7.2980  -999.2500     9.4200   177.4740     2.4940     0.0040
 1157.5000     7.1510  -999.2500     9.4920   180.7680     2.4870     0.0050
 1158.0000     6.9050  -999.2500     9.3870   181.9680     2.4830     0.0070
 1158.5000     6.9700  -999.2500     9.3590   183.9260     2.4780     0.0080
 1159.0000     7.1630  -999.2500     9.4340   185.4920     2.4740     0.0190
 1159.5000     7.4360  -999.2500     9.4960   187.3940     2.4700     0.0380
 1160.0000     7.3790  -999.2500     9.5070   185.0120     2.4850     0.0570
 1160.5000     7.2820  -999.2500     9.5220   178.8840     2.5000     0.0680
 1161.0000     7.1860  -999.2500     9.5280   176.2490     2.4980     0.0620
 1161.5000     7.0890  -999.2500     9.5320   178.8200     2.4970     0.0540
 1162.0000     6.9920  -999.2500     9.4520   177.1500     2.4980     0.0450
 1162.5000     6.9050  -999.2500     9.3770   173.4060     2.4990     0.0380
 1163.0000     7.0890  -999.2500     9.3240   169.6170     2.5010     0.0230
 1163.5000     7.2570  -999.2500     9.3060   168.0490     2.5160     0.0270
 1164.0000     6.7890  -999.2500     9.2960   174.0650     2.5250     0.0300
 1164.5000     6.0860  -999.2500     9.2990   171.6320     2.5230     0.0330
 1165.0000     6.3150  -999.2500     9.3010   166.0340     2.5210     0.0220
 1165.5000     7.0340  -999.2500     9.3030   160.9590     2.5130     0.0110
 1166.0000     6.9410  -999.2500     9.3050   156.9160     2.5050     0.0090
 1166.5000     6.7790  -999.2500     9.3070   155.9760     2.4980     0.0060
 1167.0000     6.9050  -999.2500     9.3090   155.9310     2.4970     0.0070
 1167.5000     6.2950  -999.2500     9.3120   156.9880     2.4980     0.0100
 1168.0000     6.2950  -999.2500     9.3140   159.7390     2.4880     0.0060
 1168.5000     6.4970  -999.2500     9.3160   166.8220     2.4680    -0.0060
 1169.0000     6.7740  -999.2500     9.3180   163.3560     2.4700    -0.0070
 1169.5000     7.0510  -999.2500     9.3200   160.1630     2.4840     0.0040
 1170.0000     7.1970  -999.2500     9.3220   156.3360     2.4860     0.0010
 1170.5000     7.2500  -999.2500     9.3250   153.2220     2.4780    -0.0100
 1171.0000     7.3030  -999.2500     9.3270   149.2270     2.4640    -0.0210
 1171.5000     7.3560  -999.2500     9.3290   154.2110     2.4620    -0.0250
 1172.0000     7.4090  -999.2500     9.3310   153.0710     2.4790    -0.0210
 1172.5000     7.6920  -999.2500     9.3330   156.5460     2.4920    -0.0160
 1173.0000     8.2160  -999.2500     9.3360   162.7030     2.4960    -0.0040
 1173.5000     8.7390  -999.2500     9.3220   168.4960     2.4920    -0.0010
 1174.0000     9.4560  -999.2500     9.2990   166.1260     2.5070     0.0000
 1174.5000     7.5740  -999.2500     9.2830   165.3490     2.5060    -0.0060
 1175.0000     7.7160  -999.2500     9.2580   168.5600     2.5000    -0.0120
 1175.5000     6.8230  -999.2500     9.3290   167.4780     2.5040    -0.0120
 1176.0000     7.7160  -999.2500     9.3220   165.6830     2.5130    -0.0070
 1176.5000     7.0340  -999.2500     9.3150   163.6160     2.5160    -0.0030
 1177.0000     7.6690  -999.2500     9.2990   163.6820     2.5020    -0.0090
 1177.5000     8.7820  -999.2500     9.3070   167.7150     2.4880    -0.0140
 1178.0000     6.6550  -999.2500     9.3360   171.5550     2.4770    -0.0100
 1178.5000     6.7790  -999.2500     9.3280   177.9330     2.4790     0.0000
 1179.0000     8.3080  -999.2500     9.3130   176.7350     2.4870     0.0090
 1179.5000     8.0350  -999.2500     9.2980   169.4610     2.4960     0.0170
 1180.0000     7.3020  -999.2500     9.2830   167.7220     2.4840     0.0170
 1180.5000     6.2950  -999.2500     9.2690   170.2120     2.4720     0.0000
 1181.0000     6.9590  -999.2500     9.2580   168.3390     2.4610     0.0080
 1181.5000     8.0150  -999.2500     9.2810   166.6980     2.4650     0.0280
 1182.0000     9.1130  -999.2500     9.3220   163.9890     2.4950     0.0880
 1182.5000     8.4840  -999.2500     9.3770   165.3660     2.5320     0.1000
 1183.0000     7.7160  -999.2500     9.4170   171.1340     2.5010     0.0700
 1183.5000     7.7050  -999.2500     9.5000   176.6190     2.4900     0.0450
 1184.0000     7.6860  -999.2500     9.3370   179.3360     2.5110     0.0560
 1184.5000     7.6670  -999.2500     9.3430   173.8790     2.5250     0.0780
 1185.0000     7.6480  -999.2500     9.3950   170.3660     2.5260     0.0560
 1185.5000     7.6280  -999.2500     9.4680   170.8800     2.4740     0.0250
 1186.0000     7.6090  -999.2500     9.4840   172.2440     2.4800     0.0100
 1186.5000     7.5900  -999.2500     9.4290   173.6220     2.4830     0.0370
 1187.0000     7.5700  -999.2500     9.4430   172.6080     2.4970     0.0650
 1187.5000     7.5510  -999.2500     9.4760   172.2620     2.5150     0.0930
 1188.0000     7.5320  -999.2500     9.5350   178.0170     2.4820     0.0780
 1188.5000     7.5120  -999.2500     9.6200   180.6750     2.4410     0.0560
 1189.0000     7.4930  -999.2500     9.6930   179.5900     2.4450     0.0630
 1189.5000     7.4740  -999.2500     9.6370   178.2690     2.4620     0.0640
 1190.0000     7.4540  -999.2500     9.5840   177.0120     2.4720     0.0820
 1190.5000     7.4320  -999.2500     9.5210   172.0460     2.5360     0.1210
 1191.0000     7.4380  -999.2500     9.4950   169.3210     2.5670     0.0860
 1191.5000     7.4360  -999.2500     9.5000   172.5570     2.5070     0.0120
 1192.0000     7.4360  -999.2500     9.4970   173.1480     2.4870     0.0000
 1192.5000     7.4360  -999.2500     9.4950   171.8640     2.4950     0.0010
 1193.0000     7.3590  -999.2500     9.5110   170.6020     2.4850     0.0000
 1193.5000     6.5730  -999.2500     9.3550   168.5290     2.4670    -0.0080
 1194.0000     6.6550  -999.2500     9.4410   170.9000     2.4610     0.0020
 1194.5000     6.8200  -999.2500     9.6510   175.5710     2.4730     0.0180
 1195.0000     6.9840  -999.2500     9.5570   179.9920     2.4810     0.0100
 1195.5000     7.1490  -999.2500     9.3400   176.5200     2.4730    -0.0020
 1196.0000     7.3130  -999.2500     9.2910   169.3670     2.4690    -0.0100
 1196.5000     7.4060  -999.2500     9.2880   172.0430     2.4900     0.0010
 1197.0000     7.2990  -999.2500     9.2820   176.0910     2.4980     0.0070
 1197.5000     7.3680  -999.2500     9.2750   189.1750     2.4940     0.0110
 1198.0000     7.4680  -999.2500     9.2710   188.0800     2.4910     0.0140
 1198.5000     7.5740  -999.2500     9.2640   186.6470     2.4880     0.0180
 1199.0000     7.2980  -999.2500     9.2570   183.5030     2.4840     0.0140
 1199.5000     7.0050  -999.2500     9.2760   184.9260     2.4840     0.0090
 1200.0000     6.6550  -999.2500     9.3350   189.0550     2.4810     0.0050
 1200.5000     8.2750  -999.2500     9.4000   188.0120     2.4760    -0.0010
 1201.0000     8.1100  -999.2500     9.3740   177.7300     2.4820     0.0050
 1201.5000     8.0060  -999.2500     9.2760   176.4050     2.4950     0.0130
 1202.0000     7.9380  -999.2500     9.2860   175.2710     2.5020     0.0150
 1202.5000     7.8730  -999.2500     9.2960   178.4380     2.5050     0.0000
 1203.0000     7.8080  -999.2500     9.2960   179.8100     2.5000     0.0030
 1203.5000     7.7430  -999.2500     9.2950   169.7810     2.5010     0.0020
 1204.0000     7.6790  -999.2500     9.2950   171.4860     2.5050     0.0030
 1204.5000     7.6140  -999.2500     9.3050   180.6350     2.5120     0.0130
 1205.0000     7.0670  -999.2500     9.3240   185.2710     2.5230     0.0230
 1205.5000     8.0640  -999.2500     9.3330   183.9080     2.5280     0.0230
