~VERSION INFORMATION
 VERS.                2.0:   CWLS LOG ASCII STANDARD - VERSION 2.0
 WRAP.                 NO:   ONE LINE PER DEPTH STEP
~WELL INFORMATION
#MNEM.UNIT      DATA TYPE    INFORMATION
#----------   ------------   ------------------------------
 STRT.F            8.0000:   START DEPTH
 STOP.F         3021.0000:   STOP DEPTH
 STEP.F            0.5000:   STEP LENGTH
 NULL.          -999.2500:   NO VALUE
 COMP. LAWRENCE ALLISON & ASSOCIATES W:   COMPANY
 WELL. LAWRENCE ALLISON #68-28:   WELL
 FLD .              NPR 3:   FIELD
 LOC .      S28 T39N R78W:   LOCATION
 CNTY.            NATRONA:   COUNTY
 STAT.            WYOMING:   STATE
 CTRY. UNITED STATES OF AMERICA:   COUNTRY
 SRVC.      DRESSER ATLAS:   SERVICE COMPANY
 DATE.        19-DEC-1986:   LOGDATE
 API .     49025111580000:   API NUMBER
~CURVE INFORMATION
#MNEM.UNIT       API CODE    CURVE DESCRIPTION
#----------   ------------   ------------------------------
 DEPT.F                  :   
 SPR .MV     07 010 01 00:   SPONTANEOUS POTENTIAL
 TENR.LBS    07 635 01 00:   TENSION FROM RESISTIVITY
 RILD.OHMM   07 120 46 00:   DEEP INDUCTION RESISTIVITY
 RILM.OHMM   07 120 44 00:   INDUCTION LOG MEDIUM RESISTIVITY
 RFOC.OHMM   07 220 04 00:   RESISTIVITY FOCUSED LOG RES.
 CALD.IN     45 280 60 00:   CALIPER FROM DENSITY LOG
 CORR.G/C3   45 356 01 00:   DENSITY CORRECTION
 RHOB.G/C3   45 350 01 00:   BULK DENSITY
 CNC .DEC    42 890 03 00:   NEUTRON POROSITY SANDSTONE
 GRR .GAPI   07 310 01 00:   GAMMA RAY FROM RESISTIVITY
~PARAMETER INFORMATION
#MNEM.UNIT          VALUE    DESCRIPTION
#----------   ------------   ------------------------------
 EKB .F         5106.0000:   Kelly bushing
 EGL .F         5094.0000:   Ground level
 EDF .F            0.0000:   Drilling floor
 EPD .F         5094.0000:   Permanent datum
 TD  .F         3010.0000:   Total depth
 CLNT.            A2DTECH:   Client Code
 SL  . 1559'EL & 533' FSL:   Surface Location
 DATE.        19-DEC-1986:   Date Logged [DD-MMM-YYYY]
 DD  .F              3003:   Depth driller
 DL  .F              3010:   Depth logger
 BLI .F              3007:   Bottom log interval
 TLI .F                 0:   Top log interval
 CS1 .              8.625:   Casing size
 CBD1.      8.625" @ 389':   Casing driller 1
 CBL1.IN              405:   Casing logger 1
 BS1 .IN            7.875:   Bit size
 BSD1.F              3003:   Depth drilled with bit1
 DFT .        KCL POLYMER:   Type fluid in hole
 DFD .                9.0:   Density
 DFV .                 42:   Viscosity
 DFPH.                9.3:   pH
 DFL .                8.8:   Fluid loss
 MSS .           FLOWLINE:   Source of sample
 RMS .OHMM          0.484:   Rm
 MST .F                68:   Rm Meas. temp.
 RMF .OHMM          0.392:   Rmf
 MFST.F                68:   Rmf Meas. temp.
 MFSS.               MEAS:   Source Rmf.
 RMC .OHMM          0.605:   Rmc
 MCST.F                68:   Rmc Meas. temp.
 MCSS.               CALC:   Source Rmc.
 RMB .OHMM          0.269:   Rm. at BHT
 BHT .F               122:   BHT.
 TCS .HRS             3.5:   Time Circ. stopped
 MRT .F               122:   Maximum recorded temp.
 LUN .            HL-6274:   Logging unit number
 LUL .           GILLETTE:   Logging unit location
 ENGI.             RAUTIO:   Recorded By
 WITN.             STRONG:   Witnessed by
 ORIG.        2" 5" PRINT:   Origin of data
 UWI .     49025111580000:   Unique Well ID
 DICO. A2D TECHNOLOGIES, INC.:   Digitizing Company
~OTHER INFORMATION
~A    DEPT     SPR       TENR       RILD       RILM       RFOC       CALD       CORR       RHOB        CNC        GRR   
# ...
 1415.0000   -39.0177   -87.4692     7.3130     7.2610     7.5217  -999.2500  -999.2500  -999.2500  -999.2500   114.1176
 1415.5000   -39.3240   -87.2412     7.3648     7.3115     7.6305  -999.2500  -999.2500  -999.2500  -999.2500   105.5537
 1416.0000   -39.3194   -87.0132     7.4171     7.3090     7.7405  -999.2500  -999.2500  -999.2500  -999.2500   101.6214
 1416.5000   -39.3148   -86.7807     7.4160     7.2545     7.7399  -999.2500  -999.2500  -999.2500  -999.2500   106.1796
 1417.0000   -39.3103   -86.5474     7.4149     7.2524     7.7394  -999.2500  -999.2500  -999.2500  -999.2500   110.1278
 1417.5000   -39.1497   -94.1054     7.2551     7.0445     7.6282  -999.2500  -999.2500  -999.2500  -999.2500   108.3444
 1418.0000   -38.9891   -93.8204     6.9973     6.8920     7.4111  -999.2500  -999.2500  -999.2500  -999.2500   104.1478
 1418.5000   -38.8284  -101.4255     6.7975     6.8406     7.2001  -999.2500  -999.2500  -999.2500  -999.2500   101.1578
 1419.0000   -38.6668  -101.1406     6.7480     6.8387     6.9952  -999.2500  -999.2500  -999.2500  -999.2500   102.3911
 1419.5000   -38.6622  -100.9126     6.8450     6.8368     6.9445  -999.2500  -999.2500  -999.2500  -999.2500   104.8310
 1420.0000   -38.5017  -100.6847     6.9432     6.8842     6.9439  -999.2500  -999.2500  -999.2500  -999.2500   108.7792
 1420.5000   -38.4971  -100.4567     7.0432     6.9821     6.9937  -999.2500  -999.2500  -999.2500  -999.2500   107.5991
 1421.0000   -38.3365  -100.2287     6.8914     6.9217     6.9931  -999.2500  -999.2500  -999.2500  -999.2500   106.7208
 1421.5000   -38.3319  -100.0001     6.8409     6.8286     6.9926  -999.2500  -999.2500  -999.2500  -999.2500   107.7174
 1422.0000   -38.3274   -91.9907     6.8894     6.8266     6.9921  -999.2500  -999.2500  -999.2500  -999.2500   112.2105
 1422.5000   -38.4789   -91.7118     6.9383     6.8247     7.0423  -999.2500  -999.2500  -999.2500  -999.2500   114.0405
 1423.0000   -38.6302   -91.4838     7.0380     6.8228     7.0927  -999.2500  -999.2500  -999.2500  -999.2500   108.0406
 1423.5000   -38.6256   -83.4798     7.1389     6.9203     7.2993  -999.2500  -999.2500  -999.2500  -999.2500   104.1389
 1424.0000   -38.9331   -83.2518     7.2415     7.0187     7.5121  -999.2500  -999.2500  -999.2500  -999.2500   104.7755
 1424.5000   -39.0845   -83.0239     7.1885     7.0674     7.5658  -999.2500  -999.2500  -999.2500  -999.2500   106.6121
 1425.0000   -39.2360   -82.7959     7.1359     7.0650     7.5020  -999.2500  -999.2500  -999.2500  -999.2500   105.7337
 1425.5000   -39.2302   -82.5680     7.0836     7.0123     7.1928  -999.2500  -999.2500  -999.2500  -999.2500   104.5537
 1426.0000   -38.9136   -82.3400     7.0318     6.9600     7.0894  -999.2500  -999.2500  -999.2500  -999.2500   103.0720
 1426.5000   -38.5971   -74.3360     7.0308     6.9580     7.0889  -999.2500  -999.2500  -999.2500  -999.2500   101.2887
 1427.0000   -38.5925   -74.1057     7.0806     6.9644     7.0884  -999.2500  -999.2500  -999.2500  -999.2500    99.8070
 1427.5000   -38.4319   -73.8725     7.1824     7.0545     7.1391  -999.2500  -999.2500  -999.2500  -999.2500    98.9287
 1428.0000   -38.4273   -81.4281     7.3384     7.2586     7.2945  -999.2500  -999.2500  -999.2500  -999.2500   100.5971
 1428.5000   -38.5788   -81.1432     7.4439     7.3623     7.4535  -999.2500  -999.2500  -999.2500  -999.2500   106.5300
 1429.0000   -39.0422   -80.9153     7.3805     7.3069     7.3993  -999.2500  -999.2500  -999.2500  -999.2500   110.1766
 1429.5000   -39.1936   -80.6873     7.2823     7.2004     7.2930  -999.2500  -999.2500  -999.2500  -999.2500   108.0916
 1430.0000   -39.3451   -80.4593     7.2813     7.1467     7.0854  -999.2500  -999.2500  -999.2500  -999.2500   105.1016
 1430.5000   -39.6525   -80.2313     7.1761     7.0935     7.0849  -999.2500  -999.2500  -999.2500  -999.2500   104.5182
 1431.0000   -39.8040   -80.0034     7.1236     7.0406     7.2391  -999.2500  -999.2500  -999.2500  -999.2500   108.1714
 1431.5000   -39.7982   -79.7754     7.1226     7.0386     7.3966  -999.2500  -999.2500  -999.2500  -999.2500   111.5163
 1432.0000   -39.3256   -79.5475     7.1215     7.0366     7.4495  -999.2500  -999.2500  -999.2500  -999.2500   113.3529
 1432.5000   -39.0091   -79.3157     7.1205     7.0346     7.5030  -999.2500  -999.2500  -999.2500  -999.2500   113.3795
 1433.0000   -38.5365   -79.0824     7.1195     7.0325     7.6111  -999.2500  -999.2500  -999.2500  -999.2500   112.5011
 1433.5000   -38.3759   -78.8066     7.1185     6.9797     7.7210  -999.2500  -999.2500  -999.2500  -999.2500   109.7886
 1434.0000   -38.2133   -78.5786     7.1690     6.9777     7.6651  -999.2500  -999.2500  -999.2500  -999.2500   106.0916
 1434.5000   -38.0546   -78.3507     7.2198     6.9257     7.6645  -999.2500  -999.2500  -999.2500  -999.2500   101.4262
 1435.0000   -37.8930   -78.1227     7.2710     6.9238     7.6090  -999.2500  -999.2500  -999.2500  -999.2500   100.2395
 1435.5000   -37.8884   -77.8947     7.2697     6.9723     7.5508  -999.2500  -999.2500  -999.2500  -999.2500   101.1778
 1436.0000   -37.8839   -77.6668     7.3216     6.9699     7.4991  -999.2500  -999.2500  -999.2500  -999.2500   101.5061
 1436.5000   -38.1913   -77.4388     7.3203     6.9679     7.4985  -999.2500  -999.2500  -999.2500  -999.2500   102.1360
 1437.0000   -38.8107   -77.2109     7.3192     7.0164     7.5523  -999.2500  -999.2500  -999.2500  -999.2500   105.4809
 1437.5000   -39.2753   -76.9829     7.2656     7.0650     7.7723  -999.2500  -999.2500  -999.2500  -999.2500   114.2556
 1438.0000   -39.5828   -76.7359     7.1092     7.0123     7.8280  -999.2500  -999.2500  -999.2500  -999.2500   117.2988
 1438.5000   -39.5771   -76.4700     6.9562     6.9600     7.8274  -999.2500  -999.2500  -999.2500  -999.2500   115.2138
 1439.0000   -39.5725   -76.2420     6.8065     6.9081     7.7149  -999.2500  -999.2500  -999.2500  -999.2500   111.3189
 1439.5000   -39.5679   -76.0141     6.8055     6.8070     7.4415  -999.2500  -999.2500  -999.2500  -999.2500   110.7421
 1440.0000   -39.7193   -75.7861     6.8538     6.8050     7.1778  -999.2500  -999.2500  -999.2500  -999.2500   111.9960
 1440.5000   -39.7136   -75.5581     6.9523     6.8031     7.0239  -999.2500  -999.2500  -999.2500  -999.2500   114.4605
 1441.0000   -39.7091   -75.3302     7.0522     6.8999     6.9731  -999.2500  -999.2500  -999.2500  -999.2500   115.0452
 1441.5000   -39.7045   -82.9352     7.1536     6.9980     7.0807  -999.2500  -999.2500  -999.2500  -999.2500   109.9503
 1442.0000   -39.3879   -82.6503     7.2564     7.1488     7.2799  -999.2500  -999.2500  -999.2500  -999.2500   105.1504
 1442.5000   -39.0713   -82.4223     7.3607     7.1989     7.4920  -999.2500  -999.2500  -999.2500  -999.2500   105.4787
 1443.0000   -38.9107   -82.1928     7.4129     7.2485     7.6002  -999.2500  -999.2500  -999.2500  -999.2500   103.0920
 1443.5000   -38.7501   -81.9596     7.3584     7.1944     7.6547  -999.2500  -999.2500  -999.2500  -999.2500   100.1020
 1444.0000   -38.5896   -81.6815     7.2521     7.1407     7.6540  -999.2500  -999.2500  -999.2500  -999.2500   100.4303
 1444.5000   -38.5850   -81.4535     7.1473     7.0366     7.7089  -999.2500  -999.2500  -999.2500  -999.2500   104.0768
 1445.0000   -38.7364   -81.2255     7.0949     6.9340     7.7082  -999.2500  -999.2500  -999.2500  -999.2500   107.4217
 1445.5000   -38.8879   -80.9975     7.1453     7.0323     7.5975  -999.2500  -999.2500  -999.2500  -999.2500   108.3533
 1446.0000   -39.1942   -80.7696     7.3532     7.3408     7.4346  -999.2500  -999.2500  -999.2500  -999.2500   104.1407
 1446.5000   -39.3467   -80.5416     7.4589     7.3923     7.2733  -999.2500  -999.2500  -999.2500  -999.2500   103.8816
 1447.0000   -39.6542   -80.3137     7.3423     7.2317     7.2225  -999.2500  -999.2500  -999.2500  -999.2500   109.3448
 1447.5000   -39.6485   -80.0857     7.1410     7.1263     7.2218  -999.2500  -999.2500  -999.2500  -999.2500   113.2930
 1448.0000   -39.4879   -79.8577     7.0887     7.0732     7.1695  -999.2500  -999.2500  -999.2500  -999.2500   112.4146
