~VERSION INFORMATION
 VERS.                2.0:   CWLS LOG ASCII STANDARD - VERSION 2.0
 WRAP.                 NO:   ONE LINE PER DEPTH STEP
~WELL INFORMATION
#MNEM.UNIT      DATA TYPE    INFORMATION
#----------   ------------   ------------------------------
 STRT.F          150.0000:   START DEPTH
 STOP.F         2980.0000:   STOP DEPTH
 STEP.F            0.5000:   STEP LENGTH
 NULL.          -999.2500:   NO VALUE
 COMP. FENIX & SCISSION U.S. NAVY:   COMPANY
 WELL.   FENIX "A" #84-20:   WELL
 FLD .             NPR #3:   FIELD
 LOC .      S20 T39N R78W:   LOCATION
 CNTY.            NATRONA:   COUNTY
 STAT.            WYOMING:   STATE
 CTRY. UNITED STATES OF AMERICA:   COUNTRY
 SRVC.       SCHLUMBERGER:   SERVICE COMPANY
 DATE.        21-FEB-1977:   LOGDATE
 API .     49025103020000:   API NUMBER
~CURVE INFORMATION
#MNEM.UNIT       API CODE    CURVE DESCRIPTION
#----------   ------------   ------------------------------
 DEPT.F                  :   
 NPHI.DEC    42 890 03 00:   NEUTRON POROSITY SANDSTONE
 GRD .GAPI   45 310 01 00:   GAMMA RAY FROM DENSITY LOG
 CALD.IN     45 280 60 00:   CALIPER FROM DENSITY LOG
 RHOB.G/C3   45 350 01 00:   BULK DENSITY
 DCOR.G/C3   45 356 01 00:   DENSITY CORRECTION
 SPR .MV     07 010 01 00:   SPONTANEOUS POTENTIAL
 LLD .OHMM   11 220 10 00:   LATEROLOG DEEP
 LLS .OHMM   11 220 09 00:   LATEROLOG SHALLOW
 MSFL.OHMM   07 270 04 00:   MICRO SPHERICALLY FOCUSED RES.
~PARAMETER INFORMATION
#MNEM.UNIT          VALUE    DESCRIPTION
#----------   ------------   ------------------------------
 EKB .F         5006.0000:   Kelly bushing
 EGL .F         4996.0000:   Ground level
 EDF .F            0.0000:   Drilling floor
 TD  .F         2973.0000:   Total depth
 DATE.        21-FEB-1977:   Date logged
 CLNT.            A2DTECH:   Client Code
 SL  . 330' FEL & 2310' FNL:   Surface Location
 PD  .                 GL:   Permanent Datum
 EPD .F              4996:   Elevation Permanent Datum
 LMF .                 KB:   Log Measured From
 DMF .                 KB:   Drilling Measured From
 DAPD.F                10:   Feet Above Permanent Datum
 DD  .F              2973:   Depth driller
 DL  .F              2971:   Depth logger
 BLI .F              2970:   Bottom log interval
 TLI .F               164:   Top log interval
 CS1 .IN            8.625:   Casing size
 CBD1.      8.625" @ 167':   Casing driller 1
 CBL1.F               164:   Casing logger 1
 BS1 .IN            7.875:   Bit size
 BSD1.F              2973:   Depth drilled with bit1
 DFT .            KCL MUD:   Type fluid in hole
 DFD .                9.5:   Density
 DFV .                 35:   Viscosity
 DFPH.                6.5:   pH
 DFL .                 11:   Fluid loss
 MSS .              CIRC.:   Source of sample
 RMS .OHMM           0.27:   Rm
 MST .F                72:   Rm Meas. temp.
 RMF .OHMM           0.19:   Rmf
 MFST.F                72:   Rmf Meas. temp.
 RMC .OHMM           0.35:   Rmc
 MCST.F                72:   Rmc Meas. temp.
 MFSS.               MEAS:   Source Rmf.
 MCSS.               CALC:   Source Rmc.
 RMB .OHMM           0.18:   Rm. at BHT
 BHT .F               110:   BHT.
 TCS .HRS            0300:   Time Circ. stopped
 TLAB.HRS            1000:   Time logger at bottom
 MRT .F               110:   Maximum recorded temp.
 LUN .               7711:   Logging unit number
 LUL .               CSPR:   Logging unit location
 ENGI.             SAYLER:   Recorded By
 WITN.               JAPP:   Witnessed by
 ORIG.           5" PRINT:   Origin of data
 UWI .     49025103020000:   Unique Well ID
 DICO. A2D TECHNOLOGIES, INC.:   Digitizing Company
~OTHER INFORMATION
~A   DEPT       NPHI       GRD      CALD       RHOB       DCOR        SPR        LLD        LLS       MSFL   
# ...
 2960.5000     0.2630  -999.2500     8.3160     2.5170     0.0480   -67.1310     6.2680     7.2760     7.4720
 2961.0000     0.2840  -999.2500     8.3100     2.5010     0.0430   -67.1310     6.2620     7.2760     7.2810
 2961.5000     0.3060  -999.2500     8.2990     2.4930     0.0400   -67.1310     6.2550     7.2760     7.0140
 2962.0000     0.3280  -999.2500     8.2880     2.4860     0.0380   -67.1310     6.2490     7.2760     7.1820
 2962.5000     0.3370  -999.2500     8.2760     2.4770     0.0310   -67.1310     6.2420     7.2760     7.4640
 2963.0000     0.3410  -999.2500     8.2650     2.4690     0.0270   -67.1310     6.2360     7.2760     7.6890
 2963.5000     0.3350  -999.2500     8.2540     2.4640     0.0290   -67.1310     6.2290     7.2760     6.8440
 2964.0000     0.3310  -999.2500     8.2430     2.4630     0.0350   -67.1310     6.2230     7.2760     6.2810
 2964.5000     0.3270  -999.2500     8.2390     2.4430     0.0310   -67.1310     6.2160     7.2760     6.7790
 2965.0000     0.3210  -999.2500     8.2390     2.4260     0.0240   -67.1310     6.2100     7.2760     7.2760
 2965.5000     0.3230  -999.2500     8.2390     2.4130     0.0190   -67.1320     6.2030     7.2760     6.6920
 2966.0000     0.3280  -999.2500     8.2390     2.3820     0.0140   -67.1300     6.1970     7.2760     5.9610
 2966.5000     0.3260  -999.2500     8.2390     2.3510     0.0130   -67.1320     6.1900     7.2760     5.4630
 2967.0000     0.3200  -999.2500     8.2390     2.3190     0.0180   -67.1340     6.1840     7.2760     5.2260
 2967.5000     0.3140  -999.2500     8.2390     2.2880     0.0440   -67.1190     6.1770     7.2760     5.3280
 2968.0000     0.3090  -999.2500     8.2330     2.2570     0.0890   -67.2870     6.1670     7.2760     5.5820
 2968.5000     0.3000  -999.2500     8.1320     2.2340     0.1510   -67.7500     6.2050     7.2760     5.8360
 2969.0000     0.3020  -999.2500     7.5230     2.2300     0.2220   -68.1900     6.2810     7.2760     5.6630
 2969.5000     0.3080  -999.2500     6.9870     2.2390     0.2570   -68.6450     6.8790     7.9500     5.4220
 2970.0000     0.3140  -999.2500  -999.2500     2.2350     0.2550   -69.1350     7.3780     8.5110     6.9670
 2970.5000     0.3150  -999.2500  -999.2500     2.2260     0.2490   -70.0480     7.8770     9.0720     9.5410
 2971.0000     0.3130  -999.2500  -999.2500     2.2250     0.2500   -71.0180     8.2760  -999.2500    12.6310
 2971.5000     0.3110  -999.2500  -999.2500     2.2300     0.2520   -72.1240  -999.2500  -999.2500    13.1080
 2972.0000     0.3130  -999.2500  -999.2500     2.2310     0.2550   -73.3550  -999.2500  -999.2500    13.5950
 2972.5000     0.3190  -999.2500  -999.2500     2.2360     0.2550   -74.5480  -999.2500  -999.2500    13.6630
 2973.0000     0.3250  -999.2500  -999.2500     2.2410     0.2540   -75.8660  -999.2500  -999.2500    13.7210
 2973.5000     0.3260  -999.2500  -999.2500     2.2460     0.2540   -77.4210  -999.2500  -999.2500    13.7780
 2974.0000     0.3270  -999.2500  -999.2500     2.2450     0.2530   -79.7060  -999.2500  -999.2500    13.8470
 2974.5000     0.3240  -999.2500  -999.2500     2.2430     0.2530   -84.9510  -999.2500  -999.2500    14.3850
 2975.0000     0.3200  -999.2500  -999.2500     2.2460     0.2540   -91.3560  -999.2500  -999.2500    15.0580
 2975.5000     0.3150  -999.2500  -999.2500     2.2520     0.2560   -97.1270  -999.2500  -999.2500    19.4200
 2976.0000     0.3080  -999.2500  -999.2500     2.2590     0.2530   -97.3420  -999.2500  -999.2500    27.3370
 2976.5000     0.3010  -999.2500  -999.2500     2.2710     0.2450   -97.4760  -999.2500  -999.2500    27.3370
 2977.0000     0.2990  -999.2500  -999.2500     2.2770     0.2360   -97.3770  -999.2500  -999.2500    27.3370
 2977.5000     0.2990  -999.2500  -999.2500     2.2810     0.1800   -97.4190  -999.2500  -999.2500    27.3370
 2978.0000     0.2990  -999.2500  -999.2500     2.3040     0.0900   -97.4130  -999.2500  -999.2500    27.3370
 2978.5000     0.2990  -999.2500  -999.2500     2.3020     0.0070   -97.4080  -999.2500  -999.2500    27.3370
 2979.0000     0.2990  -999.2500  -999.2500     2.4540    -0.0370   -97.4130  -999.2500  -999.2500    27.3370
 2979.5000     0.2990  -999.2500  -999.2500     2.6180    -0.0370   -97.4100  -999.2500  -999.2500    27.3370
 2980.0000     0.2990  -999.2500  -999.2500     2.6230    -0.0370   -97.4100  -999.2500  -999.2500    27.3370
