~VERSION INFORMATION
 VERS.                2.0:   CWLS LOG ASCII STANDARD - VERSION 2.0
 WRAP.                 NO:   ONE LINE PER DEPTH STEP
~WELL INFORMATION
#MNEM.UNIT      DATA TYPE    INFORMATION
#----------   ------------   ------------------------------
 STRT.F          211.0000:   START DEPTH
 STOP.F         3244.0000:   STOP DEPTH
 STEP.F            0.5000:   STEP LENGTH
 NULL.          -999.2500:   NO VALUE
 COMP.    FENIX & SCISSON:   COMPANY
 WELL.  FENIX "AX" #84-15:   WELL
 FLD .  TEAPOT DOME NPR-3:   FIELD
 LOC .      S15 T38N R78W:   LOCATION
 CNTY.            NATRONA:   COUNTY
 STAT.            WYOMING:   STATE
 CTRY. UNITED STATES OF AMERICA:   COUNTRY
 SRVC.           BIRDWELL:   SERVICE COMPANY
 DATE.        17-MAR-1978:   LOGDATE
 API .     49025106050000:   API NUMBER
~CURVE INFORMATION
#MNEM.UNIT       API CODE    CURVE DESCRIPTION
#----------   ------------   ------------------------------
 DEPT.F                  :   
 SPR .MV     05 010 01 00:   SPONTANEOUS POTENTIAL
 SN  .OHMM   05 040 16 00:   SHORT NORMAL
 ILD .OHMM   05 120 46 00:   INDUCTION LOG DEEP
 CALD.IN     45 280 60 00:   CALIPER FROM DENSITY LOG
 GRD .GAPI   45 310 01 00:   GAMMA RAY FROM DENSITY LOG
 RHOB.G/C3   45 350 01 00:   BULK DENSITY
 CORR.G/C3   45 356 01 00:   DENSITY CORRECTION
~PARAMETER INFORMATION
#MNEM.UNIT          VALUE    DESCRIPTION
#----------   ------------   ------------------------------
 EKB .F         5251.0000:   Kelly bushing
 EGL .F         5241.0000:   Ground level
 TD  .F         3250.0000:   Total depth
 CLNT.            A2DTECH:   Client Code
 SL  . 359' FEL & 2310' FNL:   Surface Location
 PD  .                 GL:   Permanent Datum
 LMF .                 KB:   Log Measured From
 DMF .                 KB:   Drilling Measured From
 DATE.        17-MAR-1978:   Date Logged [DD-MMM-YYYY]
 DD  .F              3250:   Depth driller
 DL  .F              3250:   Depth logger
 BLI .F              3244:   Bottom log interval
 TLI .F               224:   Top log interval
 CS1 .IN            8.625:   Casing size
 CBD1.             8.625":   Casing driller 1
 CBL1.F               224:   Casing logger 1
 BS1 .IN            7.875:   Bit size
 BSD1.F              3250:   Depth drilled with bit1
 MSS .           FLOWLINE:   Source of sample
 RMS .OHMM            1.3:   Rm
 MST .F                70:   Rm Meas. temp.
 RMF .OHMM            1.1:   Rmf
 MFST.F                70:   Rmf Meas. temp.
 MFSS.               MEAS:   Source Rmf.
 RMC .OHMM            1.4:   Rmc
 MCST.F                70:   Rmc Meas. temp.
 RMB .OHMM           0.77:   Rm. at BHT
 BHT .F               118:   BHT.
 TCS .HRS               6:   Time Circ. stopped
 MRT .F               118:   Maximum recorded temp.
 LUN .               2958:   Logging unit number
 LUL .               CASP:   Logging unit location
 ENGI.             MILLER:   Recorded By
 WITN.           MCGINLEY:   Witnessed by
 ORIG.           5" PRINT:   Origin of data
 UWI .     49025106050000:   Unique Well ID
 DICO. A2D TECHNOLOGIES, INC.:   Digitizing Company
~OTHER INFORMATION
~A   DEPT      SPR         SN        ILD       CALD         GRD      RHOB       CORR   
# ...
  393.0000   -29.0196     6.0394     7.8129    12.8046    78.3213     2.4511    -0.0028
  393.5000   -29.0030     6.0416     7.8177    12.8037    79.4835     2.4436    -0.0012
  394.0000   -29.1427     6.0439     7.8220    12.8028    79.1974     2.4406    -0.0011
  394.5000   -29.1241     6.0043     7.7710    12.8019    78.1582     2.4467    -0.0010
  395.0000   -29.1092     6.0064     7.7224    12.8010    76.9688     2.4490    -0.0009
  395.5000   -29.0950     6.0087     7.7264    12.8000    74.9158     2.4498     0.0007
  396.0000   -28.9287     6.0113     7.7307    12.7991    72.1857     2.4483     0.0084
  396.5000   -28.9138     6.0133     7.7350    12.7982    72.5008     2.4461     0.0206
  397.0000   -28.7481     5.9739     7.6857    12.7973    74.1643     2.4560     0.0237
  397.5000   -28.5822     5.9762     7.6366    12.7964    76.7287     2.4620     0.0238
  398.0000   -28.5671     5.9785     7.5878    12.8115    77.0408     2.4682     0.0224
  398.5000   -28.5520     5.9332     7.5394    12.7971    76.5992     2.4713     0.0193
  399.0000   -28.5341     5.9005     7.4393    12.7681    76.7641     2.4709     0.0132
  399.5000   -28.5192     5.8617     7.4444    12.7536    77.6768     2.4622     0.0075
  400.0000   -28.5933     5.8233     7.3958    12.7394    78.1391     2.4577     0.0061
  400.5000   -28.5963     5.8257     7.4009    12.7252    78.1509     2.4570     0.0077
  401.0000   -28.5992     5.7873     7.4049    12.7111    78.7634     2.4555     0.0093
  401.5000   -28.6022     5.7494     7.4090    12.6819    79.8262     2.4548     0.0113
  402.0000   -28.6052     5.7117     7.4131    12.6826    79.0873     2.4594     0.0125
  402.5000   -28.6082     5.6743     7.4171    12.6834    77.1472     2.4617     0.0126
  403.0000   -28.6112     5.6376     7.3698    12.6927    75.0306     2.4602     0.0081
  403.5000   -28.6142     5.6001     7.3738    12.7150    73.2362     2.4549     0.0022
  404.0000   -28.7691     5.5253     7.2757    12.7456    73.9943     2.4444    -0.0023
  404.5000   -28.7721     5.4511     7.1793    12.7763    75.6534     2.4407    -0.0037
  405.0000   -28.7751     5.3407     6.9861    12.7920    75.6608     2.4376    -0.0021
  405.5000   -28.9293     5.2320     6.7042    12.7778    75.5180     2.4347    -0.0005
  406.0000   -29.0836     5.0909     6.3402    12.7785    75.3674     2.4491     0.0041
  406.5000   -29.0865     5.0575     6.1693    12.7642    75.2325     2.4529     0.0088
  407.0000   -29.2408     5.0244     6.0921    12.7650    75.2402     2.4537     0.0119
  407.5000   -29.2438     5.0267     6.0963    12.7657    75.2492     2.4598     0.0135
  408.0000   -29.0955     5.0990     6.0565    12.7515    75.1046     2.4674     0.0120
  408.5000   -28.9471     5.2084     6.0606    12.7526    75.2640     2.4719     0.0106
  409.0000   -28.6475     5.2833     6.1063    12.7680    74.3705     2.4659     0.0107
  409.5000   -28.6505     5.3967     6.1523    12.7838    72.4259     2.4629     0.0093
  410.0000   -28.5022     5.4743     6.2855    12.7846    73.0339     2.4570     0.0094
  410.5000   -28.4846     5.5531     6.4664    12.8003    74.3926     2.4525     0.0110
  411.0000   -28.5089     5.5551     6.6525    12.8160    75.6012     2.4495     0.0141
  411.5000   -28.5119     5.5572     6.7965    12.8167    75.6086     2.4467     0.0173
  412.0000   -28.5149     5.5593     6.8477    12.8174    74.7151     2.4513     0.0173
  412.5000   -28.5178     5.5614     6.8993    12.8331    74.2017     2.4588     0.0174
  413.0000   -28.5208     5.5635     6.9513    12.8187    73.6789     2.4573     0.0175
  413.5000   -28.5238     5.4907     6.9551    12.8196    72.9355     2.4438     0.0206
  414.0000   -28.5268     5.4916     6.9589    12.8204    72.6426     2.4446     0.0192
  414.5000   -28.5297     5.4924     6.9110    12.8211    73.8624     2.4540     0.0193
  415.0000   -28.6840     5.4551     6.8703    12.7597    74.3093     2.4657     0.0179
  415.5000   -28.6870     5.4559     6.8273    12.7684    74.4685     2.4672     0.0165
  416.0000   -28.6899     5.4566     6.7828    12.7840    74.3239     2.4537     0.0120
  416.5000   -28.6929     5.4520     6.7404    12.7918    72.8316     2.4507     0.0091
  417.0000   -28.6959     5.3456     6.6964    12.7925    72.0864     2.4499     0.0076
  417.5000   -28.8502     5.2359     6.7010    12.8105    74.7983     2.4484     0.0062
  418.0000   -29.1564     5.0930     6.7047    12.8237    77.2081     2.4386     0.0063
  418.5000   -29.4620     4.9198     6.6148    12.8394    77.6641     2.4190     0.0064
  419.0000   -29.6155     4.8188     6.3487    12.8550    75.1208     2.4069     0.0050
  419.5000   -29.0141     4.6875     5.8842    12.8405    74.3756     2.4032     0.0051
  420.0000   -28.5632     4.5595     5.3411    12.8414    75.5861     2.3941     0.0052
  420.5000   -28.5662     4.4044     5.1256    12.8269    77.8457     2.3661     0.0068
  421.0000   -28.5691     4.2842     4.9531    12.8427    79.3546     2.3346     0.0069
  421.5000   -28.7234     4.1673     4.8534    12.8883    80.1128     2.2931     0.0080
  422.0000   -28.8776     4.0818     4.9134    12.8899    77.4175     2.2175     0.0172
  422.5000   -28.8806     4.0824     4.9494    13.8597    70.2183     2.1276     0.0793
  423.0000   -28.8836     4.1401     4.9511    14.5669    65.2707     2.1238     0.1627
  423.5000   -28.7352     4.3172     4.9180    12.7113    64.6775     2.2968     0.0794
  424.0000   -28.7383     4.5647     4.9891    12.6521    66.3366     2.3874     0.0113
  424.5000   -28.7413     4.8939     5.0607    12.6678    69.1968     2.4622     0.0265
  425.0000   -28.7443     5.2106     5.2416    12.6684    74.1165     2.4811     0.0295
  425.5000   -28.5959     5.4333     5.9016    12.6691    78.2212     2.4842     0.0281
  426.0000   -28.5996     5.5485     6.6448    12.6698    79.4298     2.4714     0.0236
  426.5000   -28.6026     5.6269     6.8346    12.6704    79.2868     2.4615     0.0176
  427.0000   -28.6056     5.7065     6.9370    12.6711    79.1441     2.4593     0.0115
  427.5000   -28.6085     5.7073     6.9909    12.6718    79.1517     2.4578     0.0086
  428.0000   -28.6115     5.7728     7.0844    12.6725    79.1592     2.4570     0.0071
  428.5000   -28.6145     5.7887     7.0868    12.6731    79.1667     2.4572     0.0071
  429.0000   -28.6175     5.8302     7.0889    12.6738    78.8518     2.4586     0.0072
  429.5000   -28.9230     5.8727     7.0917    12.6745    77.9819     2.4601     0.0072
  430.0000   -29.2285     5.9373     7.0938    12.6751    78.7401     2.4631     0.0088
  430.5000   -29.3828     5.9898     7.1094    12.6758    79.7985     2.4662     0.0088
  431.0000   -29.3858     6.0395     7.1984    12.6765    80.8564     2.4700     0.0089
  431.5000   -29.3772     6.1250     7.3018    12.6772    81.3142     2.4730     0.0089
  432.0000   -29.2404     6.1686     7.4066    12.6778    80.7210     2.4760     0.0090
  432.5000   -28.9416     6.2124     7.4609    12.6785    78.9264     2.4761     0.0090
  433.0000   -28.7925     6.2132     7.5155    12.6792    79.3845     2.4744     0.0106
  433.5000   -28.6442     6.2141     7.5706    12.6799    78.9294     2.4693     0.0112
  434.0000   -28.7992     6.2583     7.6261    12.6805    77.4473     2.4708     0.0122
  434.5000   -28.8022     6.2592     7.6306    12.6812    78.8484     2.4754     0.0137
  435.0000   -28.8052     6.2601     7.6846    12.6819    79.4159     2.4814     0.0138
  435.5000   -28.9594     6.3046     7.6873    12.6826    78.9728     2.4950     0.0123
  436.0000   -29.1137     6.2822     7.6372    12.6832    76.5778     2.5056     0.0091
  436.5000   -29.2679     6.2461     7.6393    12.6839    75.3822     2.4905    -0.0027
  437.0000   -29.2709     6.2201     7.6420    12.6846    76.2923     2.4875    -0.0057
  437.5000   -29.2739     6.2212     7.5914    12.6854    77.2006     2.4868    -0.0072
  438.0000   -29.4282     6.1361     7.5413    12.6709    77.3563     2.4876    -0.0056
