~VERSION INFORMATION
 VERS.                2.0:   CWLS LOG ASCII STANDARD - VERSION 2.0
 WRAP.                 NO:   ONE LINE PER DEPTH STEP
~WELL INFORMATION
#MNEM.UNIT      DATA TYPE    INFORMATION
#----------   ------------   ------------------------------
 STRT.F          484.0000:   START DEPTH
 STOP.F         4334.0000:   STOP DEPTH
 STEP.F            0.5000:   STEP LENGTH
 NULL.          -999.2500:   NO VALUE
 COMP.    FENIX & SCISSON:   COMPANY
 WELL. FENIX NPR 3 "JX" #46-27:   WELL
 FLD .              N P R:   FIELD
 LOC .      S27 T39N R78W:   LOCATION
 CNTY.            NATRONA:   COUNTY
 STAT.            WYOMING:   STATE
 CTRY. UNITED STATES OF AMERICA:   COUNTRY
 SRVC.       SCHLUMBERGER:   SERVICE COMPANY
 DATE.        01-MAR-1979:   LOGDATE
 API .     49025107660000:   API NUMBER
~CURVE INFORMATION
#MNEM.UNIT       API CODE    CURVE DESCRIPTION
#----------   ------------   ------------------------------
 DEPT.F                  :   
 TENR.LBS    07 635 01 00:   TENSION FROM RESISTIVITY
 SPR .MV     07 010 01 00:   SPONTANEOUS POTENTIAL
 SFL .OHMM   07 220 01 00:   SHALLOW FOCUSED LOG RESISTIVITY
 ILD .OHMM   07 120 46 00:   DEEP INDUCTION RESISTIVITY
 ILM .OHMM   07 120 44 00:   INDUCTION LOG MEDIUM RESISTIVITY
 TEND.LBS    42 635 01 00:   TENSION FROM COMPENSATE NEUTRON
 GRD .GAPI   45 310 01 00:   GAMMA RAY FROM DENSITY LOG
 CALD.IN     45 280 60 00:   CALIPER FROM DENSITY LOG
 RHOB.G/C3   45 350 01 00:   BULK DENSITY
 CORR.G/C3   45 356 01 00:   DENSITY CORRECTION
 NPHI.DEC    42 890 03 00:   NEUTRON POROSITY SANDSTONE
~PARAMETER INFORMATION
#MNEM.UNIT          VALUE    DESCRIPTION
#----------   ------------   ------------------------------
 EKB .F         5059.0000:   Kelly bushing
 EGL .F         5049.0000:   Ground level
 EDF .F            0.0000:   Drilling floor
 TD  .F         4320.0000:   Total depth
 DATE.        01-MAR-1979:   Date logged
 CLNT.            A2DTECH:   Client Code
 SL  . 1625' FSL & 2281' FWL:   Surface Location
 PD  .                 GL:   Permanent Datum
 DD  .F              4320:   Depth driller
 DL  .F              4319:   Depth logger
 BLI .F              4316:   Bottom log interval
 CS1 .IN            8.625:   Casing size
 CBD1.      8.625" @ 505':   Casing driller 1
 CBL1.F               500:   Casing logger 1
 BS1 .IN            7.875:   Bit size
 DFT .                FGM:   Type fluid in hole
 DFD .                9.1:   Density
 DFV .                 40:   Viscosity
 DFPH.               11.7:   pH
 DFL .                6.5:   Fluid loss
 MSS .               TANK:   Source of sample
 RMS .OHMM           .901:   Rm
 MST .F                65:   Rm Meas. temp.
 RMF .OHMM           .852:   Rmf
 MFST.F                65:   Rmf Meas. temp.
 MFSS.               MEAS:   Source Rmf.
 RMB .OHMM            .39:   Rm. at BHT
 BHT .F               151:   BHT.
 TCS .HRS            1200:   Time Circ. stopped
 MRT .F               151:   Maximum recorded temp.
 LUN .               8043:   Logging unit number
 LUL .               CSPR:   Logging unit location
 ENGI.              PFARR:   Recorded By
 WITN.              AMENO:   Witnessed by
 ORIG.         2.5" PRINT:   Origin of data
 UWI .     49025107660000:   Unique Well ID
 DICO. A2D TECHNOLOGIES, INC.:   Digitizing Company
 DAPD.                 10:   Feet Above Permanent Datum
 BSD1.F              4320:   Depth drilled with bit1
 EPD .F              5049:   Elevation Permanent Datum
 LMF .                 KB:   Log Measured From
 DMF .                 KB:   Drilling Measured From
 TLI .F               500:   Top log interval
 TLAB.HRS            1900:   Time logger at bottom
~OTHER INFORMATION
~A   DEPT     TENR        SPR        SFL        ILD        ILM       TEND         GRD      CALD       RHOB       CORR         NPHI 
# ...
 3778.0000  1194.7330   -37.6440     6.5000     4.0200     4.2460  1556.5830   167.7460     8.0850     2.4400     0.0120     0.3040
 3778.5000  1194.8940   -37.7130     6.3560     4.1510     4.3850  1557.1810   171.2600     8.0870     2.4320     0.0100     0.3040
 3779.0000  1195.0560   -37.7880     6.2150     4.2830     4.5240  1557.7791   176.1780     8.0880     2.4240     0.0080     0.3060
 3779.5000  1195.2170   -37.8600     6.0730     4.4150     4.6630  1558.3760   180.9510     8.0890     2.4350     0.0150     0.3080
 3780.0000  1195.3781   -37.8830     5.8620     4.5930     4.8520  1558.9740   186.0400     8.0910     2.4430     0.0180     0.3210
 3780.5000  1195.5400   -37.6340     5.8860     4.5710     4.8290  1559.5720   191.4260     8.0920     2.4490     0.0160     0.3350
 3781.0000  1195.7010   -37.3970     6.1350     4.4800     4.7320  1560.1689   190.8750     8.0940     2.4540     0.0150     0.3290
 3781.5000  1195.8621   -37.1210     6.3850     4.3880     4.6350  1560.7670   189.5860     8.0940     2.4600     0.0140     0.3220
 3782.0000  1196.0240   -36.9280     6.6200     4.2970     4.5390  1561.3650   193.7670     8.0970     2.4640     0.0180     0.3290
 3782.5000  1196.1851   -36.3830     6.3730     4.1920     4.4290  1561.9620   200.3470     8.0970     2.4550     0.0220     0.3420
 3783.0000  1196.3459   -36.3570     5.9960     4.3070     4.5500  1562.5601   206.6690     8.0990     2.4460     0.0240     0.3570
 3783.5000  1196.5081   -36.4560     5.6300     4.3890     4.6360  1563.1570   213.0810     8.1080     2.4350     0.0140     0.3560
 3784.0000  1196.6689   -36.5800     5.3170     4.4700     4.7220  1563.7550   216.0950     8.1450     2.4310     0.0080     0.3410
 3784.5000  1196.8300   -36.6750     5.9010     4.5510     4.8080  1564.3530   204.4050     8.1540     2.4350     0.0070     0.3190
 3785.0000  1196.9919   -36.7860     6.4460     4.7640     5.0330  1564.9500   192.7120     8.1750     2.4380     0.0080     0.3080
 3785.5000  1197.1530   -36.8930     6.7420     4.6770     4.9400  1565.5480   190.8900     8.1870     2.4380     0.0090     0.3030
 3786.0000  1197.3140   -36.9980     6.7420     4.3660     4.6120  1566.1460   190.1670     8.2080     2.4370     0.0110     0.2960
 3786.5000  1197.4760   -37.1070     6.5950     4.0560     4.2840  1566.7430   194.7570     8.2280     2.4360     0.0260     0.2900
 3787.0000  1197.6370   -37.2120     6.0870     3.7450     3.9560  1567.4600   199.3570     8.2780     2.4350     0.0430     0.2840
 3787.5000  1197.7980   -37.3180     5.3320     3.4350     3.6280  1567.2120   201.3140     8.4690     2.4070     0.0590     0.2940
 3788.0000  1197.9600   -37.4340     4.4710     2.9090     3.0730  1566.9020   208.9640     8.7740     2.3640     0.0710     0.3110
 3788.5000  1198.1210   -37.5060     3.1870     2.9590     3.1260  1566.5920   203.7360     9.0440     2.3310     0.0440     0.4580
 3789.0000  1198.2820   -37.4980     3.8170     3.1210     3.2970  1566.2820   197.7890     8.8300     2.3500     0.0210     0.4460
 3789.5000  1198.4440   -37.5000     5.0510     3.2840     3.4690  1565.9720   193.1500     8.4690     2.4060     0.0220     0.4070
 3790.0000  1198.6050   -37.5000     6.2860     3.4470     3.6410  1565.6620   187.7120     8.1050     2.4570     0.0390     0.3210
 3790.5000  1198.7660   -37.5010     7.1220     3.7230     3.9320  1565.3521   190.1940     8.0690     2.4810     0.0420     0.2970
 3791.0000  1198.9280   -37.4990     6.8890     4.0420     4.2700  1565.0420   193.4110     8.0800     2.4600     0.0240     0.2970
 3791.5000  1199.0890   -37.5720     6.6200     4.3610     4.6070  1564.7321   188.5940     8.0970     2.4450     0.0120     0.2980
 3792.0000  1199.2500   -37.6740     6.3830     4.6780     4.9420  1564.4220   183.7400     8.1080     2.4390     0.0100     0.2980
 3792.5000  1199.4120   -37.7640     6.7310     4.8520     5.1260  1564.1121   178.5450     8.1220     2.4420     0.0060     0.2980
 3793.0000  1199.5730   -37.8900     6.9930     4.7690     5.0380  1563.8020   173.5010     8.1360     2.4430     0.0030     0.3050
 3793.5000  1199.7340   -37.7020     6.7570     4.6800     4.9440  1563.4919   170.1330     8.1490     2.4410     0.0020     0.3180
 3794.0000  1199.8960   -37.0430     6.5510     4.5910     4.8500  1563.1820   172.9120     8.1630     2.4410     0.0020     0.3210
 3794.5000  1200.0570   -36.7060     6.2120     4.5030     4.7570  1562.8719   177.4120     8.1760     2.4490     0.0030     0.3240
 3795.0000  1200.2180   -37.0860     6.0420     4.4140     4.6630  1562.5620   181.0180     8.1900     2.4680     0.0080     0.3290
 3795.5000  1200.3800   -37.4690     6.0420     4.3250     4.5690  1562.2520   181.0350     8.2030     2.4860     0.0120     0.3340
 3796.0000  1200.5410   -37.5730     6.0420     4.2370     4.4750  1561.9420   178.8100     8.2160     2.5020     0.0170     0.3380
 3796.5000  1200.7020   -37.9430     6.1540     4.1480     4.3820  1561.6320   175.8040     8.2200     2.5070     0.0170     0.3310
 3797.0000  1200.8640   -37.8750     5.9010     4.0590     4.2880  1561.3220   175.6200     8.2200     2.5050     0.0150     0.3240
 3797.5000  1201.0250   -37.9060     5.6400     3.9690     4.1920  1561.0110   177.4130     8.2200     2.5030     0.0140     0.3180
 3798.0000  1201.1860   -37.8620     5.3800     3.9690     4.1920  1560.7010   178.2940     8.2200     2.5010     0.0130     0.3190
 3798.5000  1201.3480   -37.7850     5.1260     3.9690     4.1920  1560.3910   172.2780     8.2200     2.5000     0.0110     0.3200
 3799.0000  1201.5090   -37.7210     5.2720     3.9690     4.1920  1560.0811   167.1830     8.2200     2.4940     0.0100     0.3210
 3799.5000  1201.6700   -37.6510     5.5210     3.9690     4.1920  1559.7710   161.5140     8.2200     2.4830     0.0080     0.3210
 3800.0000  1201.8320   -37.5820     5.7480     3.9690     4.1920  1559.4611   156.1990     8.2200     2.4790     0.0130     0.3200
 3800.5000  1201.9930   -37.5140     5.6200     3.9690     4.1920  1559.1510   150.8300     8.2200     2.4800     0.0180     0.3190
 3801.0000  1202.1541   -37.4450     5.4150     3.9690     4.1920  1558.8409   144.8820     8.2200     2.4820     0.0220     0.3190
 3801.5000  1202.3160   -37.3750     5.4150     3.9690     4.1920  1558.5310   142.0260     8.2200     2.4890     0.0180     0.3180
 3802.0000  1202.4771   -37.3090     5.4150     3.9690     4.1920  1558.2209   142.7620     8.2200     2.4930     0.0150     0.3140
 3802.5000  1202.6379   -37.2380     5.3420     3.9210     4.1420  1557.9110   147.2300     8.2200     2.4970     0.0110     0.3080
 3803.0000  1202.8000   -37.1670     5.1260     3.8820     4.1000  1557.6010   148.1490     8.2200     2.5000     0.0130     0.3040
 3803.5000  1202.9611   -37.1160     5.0330     3.8420     4.0590  1557.2910   148.9120     8.2200     2.5010     0.0200     0.3100
 3804.0000  1203.1219   -36.9940     4.9420     3.7060     3.9150  1556.9810   150.9210     8.2200     2.4940     0.0230     0.3130
 3804.5000  1203.2841   -36.7730     4.9420     3.5050     3.7020  1556.6710   157.0660     8.2200     2.4870     0.0240     0.3120
 3805.0000  1203.4449   -36.5770     4.8520     3.3040     3.4900  1556.3610   161.9830     8.2200     2.4800     0.0220     0.3080
 3805.5000  1203.6060   -36.3950     4.4200     3.1030     3.2780  1556.0510   167.4380     8.2200     2.4730     0.0190     0.3040
 3806.0000  1203.7679   -36.2630     3.9870     2.9020     3.0650  1555.7410   172.4320     8.2200     2.4610     0.0170     0.3040
 3806.5000  1203.9290   -36.6360     3.5530     2.7010     2.8530  1555.4310   176.1340     8.2080     2.4470     0.0140     0.3160
 3807.0000  1204.0900   -36.7830     3.1200     2.5000     2.6410  1555.1210   172.8420     8.1910     2.4350     0.0190     0.3370
 3807.5000  1204.2520   -36.8600     2.6870     2.3790     2.5130  1554.8110   163.6390     8.1740     2.4100     0.0310     0.3570
 3808.0000  1204.4130   -36.9170     2.4680     2.4130     2.5490  1554.5010   152.1660     8.1580     2.3940     0.0230     0.3890
