~VERSION INFORMATION
 VERS.                2.0:   CWLS LOG ASCII STANDARD - VERSION 2.0
 WRAP.                 NO:   ONE LINE PER DEPTH STEP
~WELL INFORMATION
#MNEM.UNIT      DATA TYPE    INFORMATION
#----------   ------------   ------------------------------
 STRT.F            9.0000:   START DEPTH
 STOP.F         2876.0000:   STOP DEPTH
 STEP.F            0.5000:   STEP LENGTH
 NULL.          -999.2500:   NO VALUE
 COMP.    FENIX & SCISSON:   COMPANY
 WELL. FENIX & SCISSON "AX" #82-29:   WELL
 FLD .        TEAPOT DOME:   FIELD
 LOC .      S29 T39N R78W:   LOCATION
 CNTY.            NATRONA:   COUNTY
 STAT.            WYOMING:   STATE
 CTRY. UNITED STATES OF AMERICA:   COUNTRY
 SRVC.           BIRDWELL:   SERVICE COMPANY
 DATE.        12-JAN-1980:   LOGDATE
 API .     49025107980000:   API NUMBER
~CURVE INFORMATION
#MNEM.UNIT       API CODE    CURVE DESCRIPTION
#----------   ------------   ------------------------------
 DEPT.F                  :   
 GRD .GAPI   45 310 01 00:   GAMMA RAY FROM DENSITY LOG
 CALD.IN     45 280 60 00:   CALIPER FROM DENSITY LOG
 CORR.G/C3   45 356 01 00:   DENSITY CORRECTION
 RHOB.G/C3   45 350 01 00:   BULK DENSITY
 SPR .MV     07 010 01 00:   SPONTANEOUS POTENTIAL
 ILD .OHMM   07 120 46 00:   DEEP INDUCTION RESISTIVITY
 SN  .OHMM   07 220 01 00:   SHALLOW FOCUSED LOG RESISTIVITY
~PARAMETER INFORMATION
#MNEM.UNIT          VALUE    DESCRIPTION
#----------   ------------   ------------------------------
 EKB .F         4985.0000:   Kelly bushing
 EGL .F         4973.0000:   Ground level
 EDF .F         4982.0000:   Drilling floor
 TD  .F         2876.0000:   Total depth
 CLNT.            A2DTECH:   Client Code
 SL  . 1821' FEL & 414' FEL:   Surface Location
 DATE.        12-JAN-1980:   Date Logged [DD-MMM-YYYY]
 DD  .F              2870:   Depth driller
 DL  .F              2876:   Depth logger
 BLI .F              2876:   Bottom log interval
 TLI .F               320:   Top log interval
 CS1 .IN            8.625:   Casing size
 CBD1.      8.625" @ 280':   Casing driller 1
 CBL1.IN              320:   Casing logger 1
 BS1 .IN            7.875:   Bit size
 BSD1.F              2870:   Depth drilled with bit1
 DFT .            GEL MUD:   Type fluid in hole
 DFD .                8.7:   Density
 DFV .                 53:   Viscosity
 DFPH.               10.5:   pH
 DFL .               15.4:   Fluid loss
 MSS .            MUD PIT:   Source of sample
 RMS .OHMM            1.8:   Rm
 MST .F                50:   Rm Meas. temp.
 RMF .OHMM            1.4:   Rmf
 MFST.F                60:   Rmf Meas. temp.
 MFSS.               MEAS:   Source Rmf.
 RMC .OHMM            1.9:   Rmc
 MCST.F                60:   Rmc Meas. temp.
 MCSS.               MEAS:   Source Rmc.
 RMB .OHMM           0.65:   Rm. at BHT
 BHT .F               138:   BHT.
 TCS .HRS              11:   Time Circ. stopped
 MRT .F               138:   Maximum recorded temp.
 LUN .               3029:   Logging unit number
 LUL .             CASPEL:   Logging unit location
 ENGI.           T. VOLFF:   Recorded By
 WITN.          MR. AMEND:   Witnessed by
 ORIG.         2.5" PRINT:   Origin of data
 UWI .     49025107980000:   Unique Well ID
 DICO. A2D TECHNOLOGIES,INC.:   Digitizing Company
 PD  .                 GL:   Permanent Datum
 EPD .F              4973:   Elevation Permanent Datum
 LMF .                 DF:   Log Measured From
 DMF .                 KB:   Drilling Measured From
 DAPD.F                 9:   Feet Above Permanent Datum
~OTHER INFORMATION
~A    DEPT      GRD      CALD       CORR       RHOB        SPR        ILD         SN   
# ...
 2830.0000   120.0988     8.5942     0.0133     2.4721   -17.0125     4.8746     4.8985
 2830.5000   119.2232     8.5634     0.0133     2.4919   -16.6342     4.9457     4.7909
 2831.0000   118.0484     8.5631     0.0133     2.4964   -17.2397     5.0884     5.1238
 2831.5000   117.4285     8.5323     0.0132     2.4963   -17.8721     5.3092     5.8946
 2832.0000   117.5987     8.5015     0.0132     2.4978   -16.9002     5.4624     6.2613
 2832.5000   118.3805     8.4707     0.0132     2.4993   -15.0591     5.6200     6.6248
 2833.0000   118.0671     8.4691     0.0131     2.5038   -15.0472     5.7077     6.7203
 2833.5000   119.5463     8.4396     0.0101     2.5069   -16.2549     5.8664     6.4448
 2834.0000   121.0877     8.4341     0.0161     2.4727   -16.5488     5.9516     5.9258
 2834.5000   118.0471     8.3173     0.0403     2.4640   -15.0117     5.8318     5.6829
 2835.0000   115.2166     8.2827     0.0645     2.4744   -14.6949     5.5073     5.5271
 2835.5000   114.3724     8.2253     0.0706     2.4934   -14.9879     5.3005     5.3755
 2836.0000   121.0689     8.1946     0.0554     2.5036   -15.3295     5.2120     5.3020
 2836.5000   122.2562     8.1942     0.0281     2.4915   -16.2662     5.5159     5.8036
 2837.0000   117.9084     8.1634     0.0099     2.4791   -17.8724     5.9274     6.3309
 2837.5000   113.6749     8.1560     0.0159     2.4990   -19.2835     6.2407     6.7850
 2838.0000   111.8935     8.1018     0.0285     2.5145   -19.8067     6.6809     7.3952
 2838.5000   114.6885     8.0710     0.0434     2.5240   -17.3558     6.9707     8.1023
 2839.0000   116.4339     8.0706     0.0461     2.5262   -19.9084     7.1719     8.4912
 2839.5000   113.8999     8.0399     0.0364     2.5216   -20.3640     7.3788     8.7424
 2840.0000   114.9949     8.0294     0.0271     2.4910   -20.6708     7.4861     8.6152
 2840.5000   118.3396     7.9980     0.0208     2.4787   -19.7415     7.4891     7.8759
 2841.0000   119.9506     7.9779     0.0157     2.4787   -18.8150     7.4922     7.3439
 2841.5000   117.7884     7.9472     0.0170     2.4832   -18.4982     7.4954     7.0430
 2842.0000   110.4890     7.9468     0.0276     2.4984   -17.8766     7.3844     6.6601
 2842.5000   112.1863     7.9464     0.0368     2.5091   -17.5599     7.0777     6.5691
 2843.0000   114.8384     7.9157     0.0368     2.5151   -17.5480     6.7837     6.3889
 2843.5000   110.5315     7.9153     0.0277     2.5135   -18.1459     6.5698     6.3907
 2844.0000   105.3658     7.8845     0.0125     2.4995   -17.5243     6.3199     6.5745
 2844.5000    99.1419     7.8537     0.0034     2.4904   -17.2076     6.0573     6.5763
 2845.0000   101.6764     7.8369     0.0033     2.4870   -17.8661     6.0070     6.5691
 2845.5000   102.4857     7.8226     0.0154     2.4844   -18.4502     6.0095     6.3839
 2846.0000   101.1179     7.7867     0.0396     2.4916   -19.0013     6.0121     6.2038
 2846.5000   106.7226     7.7002     0.0487     2.4996   -18.1317     6.0150     6.0290
 2847.0000   110.0905     7.6694     0.0517     2.4954   -18.0629     5.9333     5.8591
 2847.5000   113.1343     7.6386     0.0646     2.4903   -19.0803     5.8535     5.7744
 2848.0000   113.8211     7.6078     0.0852     2.4992   -18.6830     5.7741     5.7261
 2848.5000   112.5147     7.5771     0.1157     2.5163   -17.4146     5.6961     5.8495
 2849.0000   113.4245     7.5767     0.1182     2.5246   -18.3495     5.6987     5.8924
 2849.5000   113.1147     7.5459     0.1143     2.5176   -19.8270     5.6215     5.9267
 2850.0000   110.9756     7.5455     0.1101     2.5145   -20.4249     5.4684     5.8139
 2850.5000   109.4463     7.5148     0.1030     2.5160   -20.7195     5.3945     5.5756
 2851.0000   111.8188     7.4840     0.1043     2.5205   -21.0109     5.3216     5.4227
 2851.5000   114.7412     7.4836     0.1014     2.5220   -20.6942     5.2497     5.3484
 2852.0000   115.2242     7.4833     0.0952     2.5082   -20.0725     5.2520     5.5802
 2852.5000   115.1169     7.4829     0.0786     2.4960   -19.4509     5.3497     5.5817
 2853.0000   114.9085     7.4825     0.0756     2.4929   -18.5222     5.5352     5.5049
 2853.5000   116.3872     7.4821     0.0755     2.4928   -18.2073     5.6405     5.3451
 2854.0000   117.7846     7.5121     0.0849     2.4944   -18.1951     5.4946     5.1264
 2854.5000   117.0265     7.5422     0.0971     2.5024   -18.5417     5.2622     4.9941
 2855.0000   117.0215     7.5418     0.1094     2.5115   -19.0867     5.1198     4.9957
 2855.5000   118.2361     7.5718     0.1126     2.5189   -17.5505     5.0506     5.0677
 2856.0000   120.6702     7.5714     0.1178     2.5181   -17.8435     4.9827     5.0691
 2856.5000   123.1046     7.6014     0.1137     2.5170   -17.9523     4.8469     5.0420
 2857.0000   124.0141     7.6024     0.1031     2.5206   -18.1219     4.8489     4.8628
 2857.5000   124.0091     7.6615     0.0937     2.5217   -17.8049     5.0593     4.9690
 2858.0000   118.6790     7.6915     0.0812     2.5170   -17.7927     5.1328     4.9641
 2858.5000   115.7266     7.6943     0.0670     2.5098   -17.7783     5.1349     4.7993
 2859.0000   115.4573     7.7249     0.0510     2.4973   -18.0732     4.9240     4.5384
 2859.5000   115.9196     7.7556     0.0509     2.4923   -18.0595     4.7146     4.4763
 2860.0000   117.2761     7.7812     0.0509     2.4968   -18.6574     4.5874     4.4649
 2860.5000   118.1870     7.7751     0.0448     2.5013   -19.2552     4.3968     4.5421
 2861.0000   117.1443     7.7436     0.0387     2.4998   -19.2434     4.3340     4.6076
 2861.5000   114.8018     7.6889     0.0266     2.4875   -19.5364     4.2899     4.6740
 2862.0000   114.6951     7.6884     0.0235     2.4813   -19.1948     4.3139     4.7414
 2862.5000   119.3843     7.6963     0.0295     2.4843   -17.6575     4.5682     4.7428
 2863.0000   122.1233     7.7181     0.0388     2.4889   -17.0182     4.3886     4.6597
 2863.5000   120.8989     7.7576     0.0446     2.4888   -16.7439     4.1754     4.2663
 2864.0000   116.9306     7.7782     0.0385     2.4953   -16.4283     3.9754     3.9966
 2864.5000   113.2671     7.8082     0.0355     2.5010   -16.9082     3.8993     3.9389
 2865.0000   112.0427     7.8077     0.0371     2.4887   -17.6241     3.9009     3.9017
 2865.5000   112.4034     7.8074     0.0556     2.4958  -999.2500  -999.2500  -999.2500
 2866.0000   115.0606     7.8374     0.0596     2.5008  -999.2500  -999.2500  -999.2500
 2866.5000   117.9424     7.8503     0.0479     2.5008  -999.2500  -999.2500  -999.2500
 2867.0000   119.8880     7.8670     0.0400     2.5002  -999.2500  -999.2500  -999.2500
 2867.5000   120.8596     7.8666     0.0414     2.4973  -999.2500  -999.2500  -999.2500
 2868.0000   121.4644     7.8663     0.0431     2.4887  -999.2500  -999.2500  -999.2500
 2868.5000   120.1173     7.8501     0.0504     2.4653  -999.2500  -999.2500  -999.2500
 2869.0000   119.3191     7.8351     0.0625     2.4619  -999.2500  -999.2500  -999.2500
 2869.5000   123.8862     7.8347     0.0715     2.4700  -999.2500  -999.2500  -999.2500
 2870.0000   121.7471     7.8040     0.0745     2.4745  -999.2500  -999.2500  -999.2500
 2870.5000   118.9983     7.8035     0.0624     2.4699  -999.2500  -999.2500  -999.2500
 2871.0000   117.7739     7.8335     0.0593     2.4695  -999.2500  -999.2500  -999.2500
 2871.5000   116.8543     7.8331     0.0532     2.4728  -999.2500  -999.2500  -999.2500
 2872.0000   117.4592     7.8632     0.0472     2.4697  -999.2500  -999.2500  -999.2500
 2872.5000   117.4543     7.8628     0.0411     2.4636  -999.2500  -999.2500  -999.2500
 2873.0000   112.8760     7.8624     0.0448     2.4452  -999.2500  -999.2500  -999.2500
 2873.5000   115.0660     7.8316     0.0547     2.4267  -999.2500  -999.2500  -999.2500
 2874.0000   122.9265     7.8009     0.0771     2.3982  -999.2500  -999.2500  -999.2500
 2874.5000   124.1419     7.6485     0.0985     2.3627  -999.2500  -999.2500  -999.2500
 2875.0000   121.1885     7.5570     0.0813     2.2936  -999.2500  -999.2500  -999.2500
