~VERSION INFORMATION
 VERS.                2.0:   CWLS LOG ASCII STANDARD - VERSION 2.0
 WRAP.                 NO:   ONE LINE PER DEPTH STEP
~WELL INFORMATION
#MNEM.UNIT      DATA TYPE    INFORMATION
#----------   ------------   ------------------------------
 STRT.F           40.0000:   START DEPTH
 STOP.F         1336.0000:   STOP DEPTH
 STEP.F            0.5000:   STEP LENGTH
 NULL.          -999.2500:   NO VALUE
 COMP. LAWRENCE - ALLISON WEST:   COMPANY
 WELL. LAWRENCE NPR 3 "AX" #54-23:   WELL
 FLD .              N P R:   FIELD
 LOC .      S23 T38N R78W:   LOCATION
 CNTY.            NATRONA:   COUNTY
 STAT.            WYOMING:   STATE
 CTRY. UNITED STATES OF AMERICA:   COUNTRY
 SRVC.       SCHLUMBERGER:   SERVICE COMPANY
 DATE.        13-MAY-1982:   LOGDATE
 API .     49025108880000:   API NUMBER
~CURVE INFORMATION
#MNEM.UNIT       API CODE    CURVE DESCRIPTION
#----------   ------------   ------------------------------
 DEPT.F                  :   
 NPOR.DEC    42 890 03 00:   ALPHA PROCESSED NEUTRON POROSITY
 TEND.LBS    45 635 01 00:   TENSION FROM DENSITY LOG
 CORR.G/C3   45 356 01 00:   DENSITY CORRECTION
 RHOB.G/C3   45 350 01 00:   BULK DENSITY
 GRD .GAPI   45 310 01 00:   GAMMA RAY FROM DENSITY LOG
 CALD.IN     45 280 60 00:   CALIPER FROM DENSITY LOG
 SPR .MV     07 010 01 00:   SPONTANEOUS POTENTIAL
 TENR.LBS    07 635 01 00:   TENSION
 ILD .OHMM   07 120 46 00:   DEEP INDUCTION RESISTIVITY
 ILM .OHMM   07 120 44 00:   INDUCTION LOG MEDIUM RESISTIVITY
 SFL .OHMM   07 220 01 00:   SHALLOW FOCUSED LOG RESISTIVITY
~PARAMETER INFORMATION
#MNEM.UNIT          VALUE    DESCRIPTION
#----------   ------------   ------------------------------
 EKB .F         5342.0000:   Kelly bushing
 EGL .F         5332.0000:   Ground level
 EDF .F            0.0000:   Drilling floor
 TD  .F         1325.0000:   Total depth
 DATE.        13-MAY-1982:   Date logged
 CLNT.            A2DTECH:   Client Code
 SL  . 2278' FSL & 2665' FWL:   Surface Location
 PD  .                 GL:   Permanent Datum
 DD  .F              1325:   Depth driller
 DL  .F              1314:   Depth logger
 BLI .F              1308:   Bottom log interval
 CS1 .IN             15.5:   Casing size
 CBD1.        15.5" @ 40':   Casing driller 1
 CBL1.F                54:   Casing logger 1
 BS1 .IN            12.25:   Bit size
 DFT .             LT/GEL:   Type fluid in hole
 DFD .                8.9:   Density
 DFV .                 33:   Viscosity
 DFPH.                8.8:   pH
 DFL .                 16:   Fluid loss
 MSS .                PIT:   Source of sample
 RMS .OHMM           2.47:   Rm
 MST .F                61:   Rm Meas. temp.
 RMF .OHMM           2.12:   Rmf
 MFST.F                62:   Rmf Meas. temp.
 MFSS.               MEAS:   Source Rmf.
 RMB .OHMM           1.73:   Rm. at BHT
 BHT .F                87:   BHT.
 TCS .HRS            2300:   Time Circ. stopped
 MRT .F                87:   Maximum recorded temp.
 LUN .               8043:   Logging unit number
 LUL .               CSPR:   Logging unit location
 ENGI.        WAGNER/CSPR:   Recorded By
 WITN.           JENNINGS:   Witnessed by
 ORIG.           5" PRINT:   Origin of data
 UWI .     49025108880000:   Unique Well ID
 DICO. A2D TECHNOLOGIES, INC.:   Digitizing Company
 BSD1.F              1325:   Depth drilled with bit1
 EPD .F              5332:   Elevation Permanent Datum
 LMF .                 KB:   Log Measured From
 DMF .                 KB:   Drilling Measured From
 TLI .F                54:   Top log interval
 DAPD.F                10:   Feet Above Permanent Datum
~OTHER INFORMATION
~A   DEPT     NPOR       TEND       CORR       RHOB        GRD       CALD        SPR       TENR        ILD        ILM        SFL   
# ...
 1138.0000     0.2550   263.8690     0.0130     2.2740   124.3890    12.8660   -26.5040    93.1660     3.8120     4.3500     2.5190
 1138.5000     0.2450   264.2450    -0.0290     2.3120   121.6790    12.7590   -26.4850    92.8640     4.3020     4.5200     4.0140
 1139.0000     0.2180   264.6220    -0.0260     2.3740   120.5110    12.5890   -26.2910    92.5620     4.8930     4.6740     5.3680
 1139.5000     0.1850   264.9990    -0.0140     2.4600   119.4040    12.5100   -25.7720    92.2600     5.4850     4.9570     6.8360
 1140.0000     0.1920   265.3760    -0.0050     2.5040   118.9970    12.4760   -24.9120    91.9580     6.1740     5.5230     8.0980
 1140.5000     0.2150   265.7520     0.0030     2.5160   119.2360    12.4780   -24.0590    91.6560     6.9550     6.0890     8.5690
 1141.0000     0.2180   266.1290     0.0000     2.5120   120.4240    12.4800   -22.5430    91.3550     7.7360     6.5830     8.4730
 1141.5000     0.2150   266.5060    -0.0040     2.5070   121.6020    12.4820   -22.6110    91.0530     8.1160     7.2290     8.3690
 1142.0000     0.2030   266.8830    -0.0020     2.5050   122.7280    12.4840   -22.7120    90.7510     8.3480     7.8020     8.2650
 1142.5000     0.1920   267.2590    -0.0010     2.5070   121.6200    12.4860   -24.8860    90.4490     8.4460     8.4090     8.1610
 1143.0000     0.1890   267.6360    -0.0030     2.5080   120.2960    12.4880   -25.2390    90.1470     8.4960     8.4090     8.0570
 1143.5000     0.2020   268.0130    -0.0050     2.5110   120.6820    12.4910   -25.2590    89.8450     8.5460     8.4090     7.9470
 1144.0000     0.2170   268.3900    -0.0030     2.5160   118.3000    12.4930   -25.0570    89.5430     8.5850     8.4090     7.9680
 1144.5000     0.2130   268.7660     0.0020     2.5220   113.4030    12.4950   -24.9030    89.2410     8.6140     8.4090     7.9910
 1145.0000     0.2010   269.1430     0.0060     2.5280   110.9660    12.4890   -25.0130    88.9390     8.6440     8.4090     8.0130
 1145.5000     0.1860   269.5200     0.0100     2.5260   110.5930    12.4840   -25.2170    88.6370     8.6730     8.4090     8.0350
 1146.0000     0.1860   269.8970     0.0050     2.5230   113.1840    12.4780   -25.4230    88.3350     8.7020     8.4090     8.0580
 1146.5000     0.1900   270.2730     0.0000     2.5230   116.6800    12.4730   -25.6070    88.0330     8.7320     8.4090     8.0800
 1147.0000     0.1890   270.6500     0.0040     2.5260   120.2180    12.4670   -25.6030    87.7310     8.8140     8.4380     8.0980
 1147.5000     0.1920   271.0270     0.0080     2.5260   123.3010    12.4620   -25.3890    87.4230     8.8980     8.4880     8.2820
 1148.0000     0.1970   271.4040     0.0070     2.5230   123.1550    12.4560   -25.5890    87.4230     8.9820     8.5380     8.4090
 1148.5000     0.2010   271.7800     0.0010     2.5130   116.8220    12.4510   -29.1980    87.4230     9.0670     8.7230     8.6010
 1149.0000     0.1970   272.1570     0.0020     2.5040   111.5190    12.4450   -33.6460    87.4230     9.5860     9.1210     8.7320
 1149.5000     0.1850   272.5340     0.0050     2.4970   107.6420    12.4400   -35.2840    87.4230    10.1120     9.5180     9.4680
 1150.0000     0.1780   272.9110     0.0100     2.4880   103.4890    12.4340   -33.8000    87.4230    10.7420     9.9160     9.9630
 1150.5000     0.1760   273.2870     0.0150     2.4860    97.4140    12.4290   -31.3810    87.4230    10.9550    10.3140    10.1540
 1151.0000     0.1790   273.6640     0.0190     2.4860    93.1860    12.4230   -30.1380    87.4230    11.2220    10.7120    10.3450
 1151.5000     0.1810   274.0410     0.0240     2.4810    89.4750    12.4180   -30.0340    87.4230    11.4880    11.0140    10.6190
 1152.0000     0.1780   274.4400     0.0290     2.4730    86.3800    12.4120   -29.7350    87.4230    11.8030    11.1800    10.9580
 1152.5000     0.1720   274.7270     0.0190     2.4600    83.1490    12.4070   -29.6340    87.4230    11.9060    11.3450    11.5670
 1153.0000     0.1620   275.1140     0.0200     2.4630    81.4830    12.4020   -29.7800    87.4230    12.0330    11.5100    12.7270
 1153.5000     0.1490   275.5000     0.0250     2.4640    82.2560    12.3960   -29.8960    87.4230    12.1590    11.6760    13.9640
 1154.0000     0.1550   275.8870     0.0280     2.4460    83.9790    12.3920   -29.9230    87.4230    12.2400    11.7700    14.5200
 1154.5000     0.1670   276.2740     0.0250     2.4210    85.2580    12.3920   -30.8000    87.4230    12.1690    11.6270    12.2560
 1155.0000     0.1770   276.6600     0.0210     2.3960    85.4550    12.3920   -33.0140    87.4230    12.0970    11.4830    12.0810
 1155.5000     0.1780   277.0470     0.0160     2.3820    85.5590    12.3920   -35.6940    87.4230    12.0260    11.3400    11.9120
 1156.0000     0.1780   277.4340     0.0080     2.3770    87.4090    12.3920   -37.1290    87.4230    11.9550    11.1970    11.7430
 1156.5000     0.1800   277.8200     0.0030     2.3780    86.8760    12.3930   -37.4860    87.4230    11.8840    11.0530    11.5830
 1157.0000     0.1850   278.2070     0.0040     2.3820    82.8730    12.4060   -37.4120    87.4230    11.8030    10.9200    11.2470
 1157.5000     0.1920   278.5940     0.0090     2.3870    79.1480    12.4120   -37.3990    87.4230    11.6040    10.8150    10.9460
 1158.0000     0.2040   278.9800     0.0190     2.3920    75.3510    12.3530   -36.3690    87.4230    11.3710    10.7100    10.6890
 1158.5000     0.1990   279.3670     0.0260     2.3990    73.2560    12.2880   -35.4120    87.4230    11.1550    10.6050    10.4470
 1159.0000     0.1910   279.7540     0.0260     2.4050    73.8270    12.2270   -33.3570    87.4230    11.0450    10.5000    10.2050
 1159.5000     0.1850   280.1400     0.0350     2.4130    76.3690    12.2000   -31.4180    87.4230    10.9420    10.3950     9.9620
 1160.0000     0.1810   280.5270     0.0440     2.4240    78.9250    12.1740   -30.0400    87.4230    10.8400    10.2900     9.5940
 1160.5000     0.1760   280.9140     0.0450     2.4300    81.9430    12.1480   -31.1170    87.4230    10.7370    10.1850     9.6190
 1161.0000     0.1750   281.3000     0.0360     2.4300    84.9010    12.1260   -32.2890    87.4230    10.6350    10.1520     9.6700
 1161.5000     0.1800   281.6870     0.0300     2.4320    88.0640    12.1250   -33.5440    87.4230    10.5420    10.1520     9.7210
 1162.0000     0.1920   282.0740     0.0350     2.4350    89.7540    12.1250   -34.1060    87.4230    10.4750    10.1520     9.7770
 1162.5000     0.2080   282.4600     0.0390     2.4310    88.5780    12.1250   -34.3820    87.4230    10.4140    10.1520     9.6420
 1163.0000     0.2170   282.8470     0.0450     2.4250    86.2440    12.1250   -34.4670    87.4230    10.3530    10.1520     9.4930
 1163.5000     0.2120   283.2340     0.0520     2.4240    83.9020    12.1250   -34.5800    87.4230    10.2920    10.0460     9.3430
 1164.0000     0.2050   283.6200     0.0650     2.4230    82.6990    12.1250   -34.7060    87.4230    10.2300     9.8360     9.1900
 1164.5000     0.1970   284.0070     0.0780     2.4120    84.7330    12.1250   -34.6770    87.4230    10.1690     9.6260     9.0290
 1165.0000     0.1980   284.3940     0.0730     2.4010    88.1300    12.1390   -34.6170    87.4230     9.9700     9.4160     8.8690
 1165.5000     0.2010   284.7800     0.0670     2.3900    91.4650    12.1660   -31.5240    87.4230     9.7150     9.2060     8.7090
 1166.0000     0.2040   285.1670     0.0610     2.3850    90.2750    12.1930   -29.4360    87.4230     9.4610     8.8980     8.5480
 1166.5000     0.2160   285.5530     0.0520     2.3880    89.1150    12.2200   -29.6780    87.4230     9.2400     8.9350     8.4090
 1167.0000     0.2270   285.9400     0.0430     2.3930    90.6900    12.2600   -29.6630    87.4230     9.2400     9.0060     8.5690
 1167.5000     0.2320   286.3270     0.0320     2.3990    92.8960    12.3060   -31.3160    87.4230     9.2400     9.0670     8.6390
 1168.0000     0.2290   286.7130     0.0200     2.3990    91.7170    12.3510   -32.9180    87.4230     9.2400     9.0670     8.7140
