~VERSION INFORMATION
 VERS.                2.0:   CWLS LOG ASCII STANDARD - VERSION 2.0
 WRAP.                 NO:   ONE LINE PER DEPTH STEP
~WELL INFORMATION
#MNEM.UNIT      DATA TYPE    INFORMATION
#----------   ------------   ------------------------------
 STRT.F          602.0000:   START DEPTH
 STOP.F         5553.0000:   STOP DEPTH
 STEP.F            0.5000:   STEP LENGTH
 NULL.          -999.2500:   NO VALUE
 COMP.         U. S. NAVY:   COMPANY
 WELL. U. S. 1-TP-33 NPR #3-33:   WELL
 FLD . TEAPOT NAVAL RESERVE:   FIELD
 LOC .      S33 T39N R78W:   LOCATION
 CNTY.            NATRONA:   COUNTY
 STAT.            WYOMING:   STATE
 CTRY. UNITED STATES OF AMERICA:   COUNTRY
 SRVC.       SCHLUMBERGER:   SERVICE COMPANY
 DATE.        24-JUN-1952:   LOGDATE
 API .     49025065260000:   API NUMBER
~CURVE INFORMATION
#MNEM.UNIT       API CODE    CURVE DESCRIPTION
#----------   ------------   ------------------------------
 DEPT.F                  :   
 SPR .MV     01 010 01 00:   SPONTANEOUS POTENTIAL FROM RES.
 ASN .OHMM   01 041 16 00:   AMPLIFIED SHORT NORMAL 16"
 LAT .OHMM   01 070 08 00:   LATERAL 8'
 LN  .OHMM   01 060 64 00:   LONG NORMAL 64"
~PARAMETER INFORMATION
#MNEM.UNIT          VALUE    DESCRIPTION
#----------   ------------   ------------------------------
 EKB .F         5160.0000:   Kelly bushing
 EGL .F         5147.0000:   Ground level
 TD  .F         5553.0000:   Total depth
 CLNT.            A2DTECH:   Client Code
 DATE.        24-JUN-1952:   Date Logged [DD-MMM-YYYY]
 DD  .F              5549:   Depth driller
 DL  .F              5553:   Depth logger
 BLI .F              5553:   Bottom log interval
 TLI .F               602:   Top log interval
 CBL1.F               602:   Casing logger 1
 BSD1.F              5549:   Depth drilled with bit1
 DFT .           GYP BASE:   Type fluid in hole
 DFD .                9.8:   Density
 DFV .                 44:   Viscosity
 MSS .           FLOWLINE:   Source of sample
 RMS .OHMM            1.4:   Rm
 MST .F                60:   Rm Meas. temp.
 RMB .OHMM           0.48:   Rm. at BHT
 BHT .F               175:   BHT.
 TCS .HRS             1.5:   Time Circ. stopped
 MRT .F               175:   Maximum recorded temp.
 LUN .                563:   Logging unit number
 ENGI.             SANDER:   Recorded By
 WITN.            GRIBBIN:   Witnessed by
 ORIG.      1" 2.5" PRINT:   Origin of data
 UWI .     49025065260000:   Unique Well ID
 DICO. A2D TECHNOLOGIES, INC.:   Digitizing Company
~OTHER INFORMATION
~A  DEPTH      SPR        ASN        LAT         LN
# ...
 3230.0000   -50.7692     4.0750     3.6566     3.4267
 3230.5000   -50.7692     4.1679     3.6577     3.4264
 3231.0000   -50.7692     4.2399     3.6588     3.4260
 3231.5000   -50.7692     4.2690     3.6598     3.4256
 3232.0000   -50.7692     4.2689     3.6609     3.4253
 3232.5000   -50.7692     4.2687     3.6620     3.4560
 3233.0000   -50.7692     4.2686     3.6631     3.5683
 3233.5000   -50.7692     4.3093     3.6642     3.5679
 3234.0000   -50.7692     4.3843     3.6652     3.5675
 3234.5000   -50.7692     4.4653     3.6607     3.5672
 3235.0000   -50.7692     4.4903     3.5239     3.5668
 3235.5000   -50.7692     4.4901     3.5248     3.5665
 3236.0000   -50.7692     4.5041     3.4617     3.5660
 3236.5000   -50.7692     4.5176     3.3833     3.5657
 3237.0000   -50.7692     4.5175     3.3769     3.5654
 3237.5000   -50.7692     4.5173     3.2419     3.5291
 3238.0000   -50.7692     4.4972     3.2428     3.4210
 3238.5000   -50.7692     4.4602     3.2439     3.4206
 3239.0000   -50.7692     4.3882     3.2450     3.4203
 3239.5000   -50.7692     4.2765     3.2368     3.4199
 3240.0000   -50.7692     4.1555     3.1036     3.4195
 3240.5000   -50.7692     4.1554     3.1045     3.4192
 3241.0000   -50.7466     4.1553     3.1056     3.4188
 3241.5000   -50.4808     4.1456     3.1067     3.4185
 3242.0000   -50.4808     4.1272     3.1078     3.4181
 3242.5000   -50.3377     4.1271     3.1090     3.3770
 3243.0000   -50.1923     4.0642     3.1099     3.2737
 3243.5000   -50.1923     3.9507     3.1110     3.2733
 3244.0000   -50.1923     3.6467     3.1121     3.1734
 3244.5000   -49.9849     3.1152     3.1131     3.1290
 3245.0000   -49.9038     2.4875     3.1144     3.1286
 3245.5000   -49.8085     2.4660     3.1153     3.1282
 3246.0000   -49.6154     2.4435     3.1164     3.1278
 3246.5000   -49.6154     2.4420     3.1175     3.0255
 3247.0000   -49.6154     2.4642     3.1185     2.9097
 3247.5000   -49.6154     2.4868     3.1197     2.8394
 3248.0000   -49.6154     2.5741     3.1207     2.8219
 3248.5000   -49.6154     2.8271     3.1218     2.6950
 3249.0000   -49.6154     3.1393     3.1228     2.5903
 3249.5000   -49.6154     3.4352     3.1239     2.5506
 3250.0000   -49.4471     3.6806     3.1251     2.5024
 3250.5000   -49.3269     3.8143     3.1261     2.4062
 3251.0000   -49.3269     3.8975     3.1272     2.4059
 3251.5000   -49.3272     3.9757     3.1282     2.5123
 3252.0000   -49.5596     4.0589     3.1293     2.7059
 3252.5000   -49.6154     4.1248     3.1305     2.9365
 3253.0000   -49.7361     4.1470     3.1315     3.1229
 3253.5000   -49.9685     4.1345     3.1325     3.1225
 3254.0000   -50.2009     4.1002     3.1336     3.2313
 3254.5000   -50.4333     4.0554     3.1347     3.3464
 3255.0000   -50.4808     4.0106     3.1359     3.4088
 3255.5000   -50.6098     3.9659     3.1369     3.4084
 3256.0000   -50.7692     3.9389     3.1379     3.4080
 3256.5000   -50.7692     3.9288     3.1390     3.4077
 3257.0000   -50.7692     3.9286     3.1401     3.4073
 3257.5000   -50.7692     3.9285     3.1412     3.4070
 3258.0000   -50.7692     3.9283     3.1422     3.4066
 3258.5000   -50.7692     3.9282     3.1433     3.4062
 3259.0000   -50.7692     3.9664     3.0924     3.4059
 3259.5000   -50.7692     4.0332     2.9782     3.4055
 3260.0000   -50.7692     4.1000     2.8592     3.4052
 3260.5000   -50.7692     4.1776     2.7498     3.4048
 3261.0000   -50.7692     4.1962     2.7177     3.4045
 3261.5000   -50.7692     4.2184     2.7188     3.4041
 3262.0000   -50.7692     4.2328     2.6944     3.4037
 3262.5000   -50.7692     4.2326     2.5773     3.4034
 3263.0000   -50.7692     4.2325     2.5783     3.4030
 3263.5000   -50.7692     4.2324     2.6633     3.4027
 3264.0000   -50.7692     4.2322     2.7241     3.4023
 3264.5000   -50.7692     4.2238     2.7252     3.4924
 3265.0000   -50.7692     4.2042     2.7263     3.5453
 3265.5000   -50.7692     4.2040     2.7274     3.5789
 3266.0000   -50.7692     4.2039     2.7284     3.6882
 3266.5000   -50.7692     4.2038     2.7869     3.6878
 3267.0000   -50.7692     4.2036     2.8743     3.6875
 3267.5000   -50.7692     4.2035     2.8754     3.6871
 3268.0000   -50.7692     4.2033     2.8764     3.6504
 3268.5000   -50.7692     4.2032     2.9651     3.5427
 3269.0000   -50.7692     4.2031     3.0223     3.5423
 3269.5000   -50.7662     4.2029     3.0233     3.4467
 3270.0000   -50.5337     4.2028     3.0244     3.3980
 3270.5000   -50.4808     4.2026     3.0255     3.3976
 3271.0000   -50.4808     4.2436     3.0266     3.3973
 3271.5000   -50.4808     4.3787     3.0277     3.3969
 3272.0000   -50.4808     4.5763     3.0287     3.3966
 3272.5000   -50.4808     4.7785     3.0298     3.3962
 3273.0000   -50.4808     4.8964     3.0309     3.3546
 3273.5000   -50.4808     4.9593     3.1231     3.2518
 3274.0000   -50.5567     4.9017     3.1767     3.2514
 3274.5000   -50.7692     4.7496     3.1778     3.1510
 3275.0000   -50.7692     4.4930     3.1789     3.1070
 3275.5000   -50.7692     4.0068     3.1802     3.1067
 3276.0000   -50.7692     3.9852     3.1810     3.1063
 3276.5000   -50.7692     3.9787     3.1821     3.1059
 3277.0000   -50.7976     3.9786     3.1832     3.1056
 3277.5000   -51.0577     3.9785     3.1843     3.1052
 3278.0000   -51.0577     3.9783     3.1855     3.1049
 3278.5000   -50.9089     4.0001     3.1864     3.1045
 3279.0000   -50.7692     4.0223     3.1875     3.1041
 3279.5000   -50.7692     4.0555     3.1886     3.1038
 3280.0000   -50.7692     4.1000     3.1897     3.1801
 3280.5000   -50.5560     4.1445     3.1909     3.2468
 3281.0000   -50.3235     4.1890     3.1918     3.2665
 3281.5000   -50.0910     4.2165     3.1929     3.3897
 3282.0000   -49.9038     4.2272     3.1940     3.3894
 3282.5000   -49.9038     4.2211     3.1950     3.3890
 3283.0000   -50.1254     4.1986     3.1963     3.3886
 3283.5000   -50.3579     4.1762     3.1972     3.3883
 3284.0000   -50.4808     4.1537     3.1983     3.3879
 3284.5000   -50.5344     4.1432     3.1578     3.3876
 3285.0000   -50.7692     4.1431     3.0566     3.3872
 3285.5000   -50.7692     4.1429     3.0580     3.3869
 3286.0000   -50.7692     4.1427     3.1590     3.3865
 3286.5000   -50.7692     4.1426     3.2037     3.3861
 3287.0000   -50.7692     4.1425     3.2047     3.3858
 3287.5000   -50.7692     4.1424     3.2058     3.3854
 3288.0000   -50.7692     4.1407     3.2070     3.3851
 3288.5000   -50.7692     4.1143     3.2080     3.3847
 3289.0000   -50.7692     4.0775     3.2091     3.3843
 3289.5000   -50.7692     4.0456     3.2101     3.3840
 3290.0000   -50.7692     4.0231     3.2112     3.3836
 3290.5000   -50.7692     4.0007     3.2124     3.3833
 3291.0000   -50.7692     3.9747     3.3171     3.3829
 3291.5000   -50.7692     3.9746     3.3581     3.3825
 3292.0000   -50.6904     3.9611     3.3592     3.3822
 3292.5000   -50.4808     3.9465     3.3789     3.3818
 3293.0000   -50.4808     3.9488     3.5051     3.3815
 3293.5000   -50.4808     3.9740     3.5061     3.3811
 3294.0000   -50.3375     3.9739     3.5072     3.3807
 3294.5000   -50.1923     3.9737     3.5083     3.3804
 3295.0000   -50.1923     3.9736     3.5297     3.3800
 3295.5000   -50.1923     3.9735     3.6542     3.3797
 3296.0000   -50.1923     3.9733     3.6552     3.3793
 3296.5000   -50.1923     3.9732     3.6562     3.3790
 3297.0000   -50.1923     3.9873     3.6573     3.3785
 3297.5000   -50.1923     4.0095     3.6805     3.3782
 3298.0000   -50.1923     4.0317     3.8032     3.3779
 3298.5000   -50.1923     4.0560     3.8042     3.3775
 3299.0000   -50.1923     4.0962     3.8053     3.3685
 3299.5000   -50.1923     4.1260     3.8064     3.2331
 3300.0000   -50.1923     4.0926     3.8075     3.1370
 3300.5000   -50.1923     3.9961     3.8086     3.0887
 3301.0000   -50.1923     3.9719     3.8096     3.0491
 3301.5000   -50.1923     3.9725     3.8107     2.9443
 3302.0000   -50.1923     3.9500     3.7577     2.9439
 3302.5000   -50.1923     3.9167     3.6692     2.8454
