~VERSION INFORMATION
 VERS.                2.0:   CWLS LOG ASCII STANDARD - VERSION 2.0
 WRAP.                 NO:   ONE LINE PER DEPTH STEP
~WELL INFORMATION
#MNEM.UNIT      DATA TYPE    INFORMATION
#----------   ------------   ------------------------------
 STRT.F          190.0000:   START DEPTH
 STOP.F         2998.5000:   STOP DEPTH
 STEP.F            0.5000:   STEP LENGTH
 NULL.          -999.2500:   NO VALUE
 COMP.    FENIX & SCISSON:   COMPANY
 WELL.   FENIX "A" #52-28:   WELL
 FLD .        TEAPOT DOME:   FIELD
 LOC .      S28 T39N R78W:   LOCATION
 CNTY.            NATRONA:   COUNTY
 STAT.            WYOMING:   STATE
 CTRY. UNITED STATES OF AMERICA:   COUNTRY
 SRVC.           BIRDWELL:   SERVICE COMPANY
 DATE.        14-AUG-1977:   LOGDATE
 API .     49025104130000:   API NUMBER
~CURVE INFORMATION
#MNEM.UNIT       API CODE    CURVE DESCRIPTION
#----------   ------------   ------------------------------
 DEPT.F                  :   
 SPR .MV     05 010 01 00:   SPONTANEOUS POTENTIAL FROM RES.
 SN  .OHMM   05 040 16 00:   SHORT NORMAL 16"
 ILD .OHMM   05 120 46 00:   INDUCTION LOG DEEP
 GRD .GAPI   45 310 01 00:   GAMMA RAY FROM DENSITY LOG
 CALD.IN     45 280 60 00:   CALIPER FROM DENSITY LOG
 RHOB.G/C3   45 350 01 00:   BULK DENSITY
 CORR.G/C3   45 356 01 00:   DENSITY CORRECTION
~PARAMETER INFORMATION
#MNEM.UNIT          VALUE    DESCRIPTION
#----------   ------------   ------------------------------
 EKB .F         5026.0000:   Kelly bushing
 EGL .F         5016.0000:   Ground level
 EDF .F            0.0000:   Drilling floor
 TD  .F         3000.0000:   Total depth
 DATE.        14-AUG-1977:   Date logged
 CLNT.            A2DTECH:   Client Code
 SL  . 990' FNL & 2310' FEL:   Surface Location
 PD  .                 GL:   Permanent Datum
 EPD .F              5016:   Elevation Permanent Datum
 LMF .                 KB:   Log Measured From
 DMF .                 KB:   Drilling Measured From
 DAPD.F                10:   Feet Above Permanent Datum
 DD  .F              3000:   Depth driller
 DL  .F              3000:   Depth logger
 BLI .F              2994:   Bottom log interval
 TLI .F               214:   Top log interval
 CS1 .IN            8.625:   Casing size
 CBD1.      8.625" @ 214':   Casing driller 1
 CBL1.F               212:   Casing logger 1
 BS1 .IN            7.875:   Bit size
 BSD1.F              3000:   Depth drilled with bit1
 DFT .                KCL:   Type fluid in hole
 DFD .                8.8:   Density
 DFV .                 30:   Viscosity
 DFPH.               10.5:   pH
 DFL .               10.4:   Fluid loss
 MSS .           FLOWLINE:   Source of sample
 RMS .OHMM           0.13:   Rm
 MST .F                82:   Rm Meas. temp.
 RMF .OHMM           0.12:   Rmf
 MFST.F                72:   Rmf Meas. temp.
 RMC .OHMM           0.16:   Rmc
 MCST.F                72:   Rmc Meas. temp.
 MFSS.               MEAS:   Source Rmf.
 MCSS.               MEAS:   Source Rmc.
 TCS .HRS               4:   Time Circ. stopped
 LUN .               2958:   Logging unit number
 LUL .             CASPER:   Logging unit location
 ENGI.                LAW:   Recorded By
 WITN.         PETTINGILL:   Witnessed by
 ORIG.           5" PRINT:   Origin of data
 UWI .     49025104130000:   Unique Well ID
 DICO. A2D TECHNOLOGIES, INC.:   Digitizing Company
~OTHER INFORMATION
~A   DEPT      SPR         SN        ILD         GRD      CALD       RHOB       CORR   
# ...
 1873.5000   -32.7740     6.6550     7.9380   141.9170     8.8250     2.4900     0.0170
 1874.0000   -32.7750     6.6490     7.9250   138.7920     8.8250     2.4900     0.0190
 1874.5000   -32.7710     6.6440     7.9130   139.9690     8.8250     2.4970     0.0250
 1875.0000   -32.7910     6.6380     7.9000   144.8160     8.8250     2.5030     0.0320
 1875.5000   -33.3820     6.6320     7.8870   147.1410     8.8250     2.5110     0.0340
 1876.0000   -34.3130     6.6260     7.8200   144.7960     8.8250     2.5140     0.0320
 1876.5000   -33.7680     6.6200     7.7300   141.5770     8.8250     2.5060     0.0300
 1877.0000   -32.7700     6.6150     7.6410   141.0890     8.8250     2.5070     0.0310
 1877.5000   -31.7800     6.6090     7.5510   143.2830     8.8250     2.5100     0.0320
 1878.0000   -30.7870     6.6030     7.4620   143.8090     8.8250     2.5110     0.0330
 1878.5000   -30.5800     6.5970     7.3300   140.3140     8.8250     2.5110     0.0320
 1879.0000   -30.5370     6.5910     7.3500   136.5970     8.8250     2.5110     0.0310
 1879.5000   -30.4990     6.5850     7.3880   135.7280     8.8250     2.5140     0.0340
 1880.0000   -30.4590     6.5800     7.4270   141.6500     8.8250     2.5170     0.0370
 1880.5000   -30.4220     6.5740     7.4670   146.5390     8.8250     2.5200     0.0370
 1881.0000   -30.2380     6.6030     7.5070   148.0910     8.8250     2.5150     0.0310
 1881.5000   -30.0170     6.6340     7.5490   144.6050     8.8250     2.5110     0.0310
 1882.0000   -30.0450     6.6660     7.6530   145.6300     8.8250     2.5150     0.0280
 1882.5000   -30.0660     6.6970     7.7570   141.5110     8.8250     2.5080     0.0190
 1883.0000   -30.0860     6.7280     7.8600   139.4150     8.8250     2.4910     0.0240
 1883.5000   -30.1070     6.7590     7.9640   141.8250     8.8250     2.4970     0.0300
 1884.0000   -30.1270     6.7910     8.0680   142.4250     8.8250     2.5040     0.0300
 1884.5000   -30.1480     6.8220     8.1750   142.8400     8.8250     2.5070     0.0300
 1885.0000   -30.1680     6.8530     8.2010   146.9660     8.8250     2.5080     0.0300
 1885.5000   -30.1890     6.8790     8.2280   149.0040     8.8250     2.5060     0.0310
 1886.0000   -30.2060     6.8660     8.2550   149.5320     8.8250     2.5040     0.0310
 1886.5000   -30.4140     6.8560     8.2820   151.5300     8.8250     2.5150     0.0390
 1887.0000   -30.7180     6.8450     8.3090   150.3960     8.8250     2.5220     0.0410
 1887.5000   -30.9950     6.8340     8.3360   152.0250     8.8250     2.5220     0.0360
 1888.0000   -30.8970     6.8230     8.3630   152.5010     8.8250     2.5130     0.0310
 1888.5000   -30.7910     6.8130     8.3970   148.1120     8.8250     2.5050     0.0260
 1889.0000   -30.6870     6.8020     8.3580   145.8740     8.8260     2.5040     0.0260
 1889.5000   -30.6110     6.7910     8.2890   149.0130     8.8260     2.5000     0.0250
 1890.0000   -30.6900     6.7800     8.2200   151.0000     8.8260     2.4980     0.0250
 1890.5000   -30.7670     6.7700     8.1500   149.6370     8.8270     2.5010     0.0250
 1891.0000   -30.8420     6.7560     8.0810   148.6310     8.8270     2.5040     0.0250
 1891.5000   -30.9180     6.7590     8.0270   150.6030     8.8280     2.5040     0.0260
 1892.0000   -31.0040     6.7640     8.0970   148.7240     8.8280     2.5030     0.0250
 1892.5000   -30.4190     6.7700     8.1650   150.2400     8.8290     2.5020     0.0240
 1893.0000   -29.6330     6.7760     8.2330   152.7660     8.8290     2.5030     0.0300
 1893.5000   -29.5300     6.7810     8.3010   157.4690     8.8300     2.5040     0.0280
 1894.0000   -29.9160     6.7870     8.3300   162.2150     8.8300     2.5000     0.0240
 1894.5000   -31.4100     6.7930     8.3420   159.7170     8.8310     2.4960     0.0200
 1895.0000   -32.1380     6.7990     8.3550   155.9020     8.8310     2.4920     0.0170
 1895.5000   -32.8150     6.8040     8.3670   154.2000     8.8320     2.4870     0.0170
 1896.0000   -33.7730     6.8100     8.3790   153.7700     8.8320     2.4810     0.0190
 1896.5000   -33.7600     6.8160     8.3920   152.9790     8.8330     2.4800     0.0220
 1897.0000   -33.7590     6.8210     8.4000   150.8780     8.8330     2.4830     0.0250
 1897.5000   -33.7420     6.8270     8.3670   146.7950     8.8340     2.5010     0.0250
 1898.0000   -34.6170     6.8330     8.3410   143.8990     8.8340     2.5040     0.0240
 1898.5000   -34.8000     6.8380     8.3140   146.0580     8.8350     2.5010     0.0250
 1899.0000   -34.3070     6.8440     8.2880   142.7550     8.8350     2.5010     0.0270
 1899.5000   -33.9490     6.8500     8.2620   142.1810     8.8350     2.5010     0.0260
 1900.0000   -33.9310     6.8560     8.2350   145.8770     8.8360     2.4990     0.0250
 1900.5000   -33.9020     6.8610     8.2090   148.8690     8.8360     2.4980     0.0250
 1901.0000   -33.8730     6.8670     8.1830   148.1410     8.8370     2.4990     0.0270
 1901.5000   -33.8440     6.8730     8.1750   150.2540     8.8370     2.5030     0.0280
 1902.0000   -33.8150     6.8790     8.2000   151.1240     8.8380     2.5070     0.0300
 1902.5000   -33.7710     6.8680     8.2220   149.0800     8.8380     2.5090     0.0300
 1903.0000   -33.6100     6.8550     8.2450   148.8280     8.8390     2.5020     0.0290
 1903.5000   -34.4840     6.8430     8.2680   145.1240     8.8390     2.4960     0.0250
 1904.0000   -35.1860     6.8300     8.2900   145.6600     8.8400     2.4930     0.0280
 1904.5000   -36.5070     6.8180     8.3250   146.6250     8.8400     2.4960     0.0310
 1905.0000   -38.0250     6.8050     8.2970   148.3440     8.8410     2.5010     0.0320
 1905.5000   -38.3080     6.7930     8.2420   150.5190     8.8410     2.5050     0.0360
 1906.0000   -38.7690     6.7800     8.1870   151.8020     8.8420     2.5100     0.0380
 1906.5000   -39.5110     6.7680     8.1320   151.5540     8.8420     2.5120     0.0350
 1907.0000   -39.5940     6.7550     8.0770   148.9400     8.8430     2.5050     0.0320
 1907.5000   -39.6860     6.7430     8.0270   145.8520     8.8430     2.4970     0.0320
 1908.0000   -39.7810     6.7300     8.0270   144.5090     8.8440     2.4990     0.0270
 1908.5000   -39.8700     6.7180     8.0270   144.2680     8.8440     2.4950     0.0210
 1909.0000   -39.4970     6.7050     8.0270   144.8910     8.8440     2.4890     0.0200
 1909.5000   -38.8440     6.6940     8.0270   145.6380     8.8440     2.4900     0.0230
 1910.0000   -38.4480     6.6940     8.0270   145.3470     8.8440     2.4940     0.0280
 1910.5000   -38.3110     6.6940     8.0270   144.2240     8.8440     2.5010     0.0310
 1911.0000   -38.1690     6.6940     8.0270   143.9130     8.8440     2.5090     0.0330
 1911.5000   -37.8230     6.6940     8.0270   145.9900     8.8440     2.5110     0.0340
 1912.0000   -36.9090     6.6940     8.0270   148.3720     8.8440     2.5150     0.0360
 1912.5000   -36.7050     6.6940     8.0280   152.5330     8.8440     2.5230     0.0370
 1913.0000   -37.1230     6.6940     8.0270   156.5610     8.8440     2.5310     0.0390
 1913.5000   -37.9270     6.6940     8.0270   160.6720     8.8440     2.5320     0.0410
 1914.0000   -40.9060     6.6940     8.0270   161.4890     8.8440     2.5280     0.0410
 1914.5000   -42.0400     6.6940     8.0530   157.2420     8.8440     2.5240     0.0360
 1915.0000   -41.7720     6.6940     8.0760   156.5880     8.8440     2.5150     0.0280
 1915.5000   -38.4680     6.6940     8.0990   154.6920     8.8440     2.5050     0.0200
 1916.0000   -37.8210     6.6940     8.1220   152.4710     8.8440     2.4960     0.0200
 1916.5000   -38.4940     6.6940     8.1450   153.8940     8.8440     2.4990     0.0200
 1917.0000   -39.3640     6.6940     8.1680   154.3120     8.8440     2.5030     0.0200
 1917.5000   -40.8700     6.6940     8.1920   151.6290     8.8440     2.5020     0.0190
 1918.0000   -45.9120     6.6940     8.2150   145.8180     8.8440     2.5080     0.0180
 1918.5000   -44.9970     6.6940     8.2490   143.5420     8.8440     2.5050     0.0160
