~VERSION INFORMATION
 VERS.                2.0:   CWLS LOG ASCII STANDARD - VERSION 2.0
 WRAP.                 NO:   ONE LINE PER DEPTH STEP
~WELL INFORMATION
#MNEM.UNIT      DATA TYPE    INFORMATION
#----------   ------------   ------------------------------
 STRT.F          212.5000:   START DEPTH
 STOP.F         3098.0000:   STOP DEPTH
 STEP.F            0.5000:   STEP LENGTH
 NULL.          -999.2500:   NO VALUE
 COMP.    FENIX & SCISSON:   COMPANY
 WELL. FENIX NPR 77 "A" #3-33:   WELL
 FLD .                NPR:   FIELD
 LOC .      S33 T39N R78W:   LOCATION
 CNTY.            NATRONA:   COUNTY
 STAT.            WYOMING:   STATE
 CTRY. UNITED STATES OF AMERICA:   COUNTRY
 SRVC.       SCHLUMBERGER:   SERVICE COMPANY
 DATE.        07-MAY-1977:   LOGDATE
 API .     49025103700000:   API NUMBER
~CURVE INFORMATION
#MNEM.UNIT       API CODE    CURVE DESCRIPTION
#----------   ------------   ------------------------------
 DEPT.F                  :   
 SPR .MV     07 010 01 00:   SPONTANEOUS POTENTIAL
 LL8 .OHMM   11 220 08 00:   LATERALOG-8 RESISTIVITY
 ILD .OHMM   07 120 46 00:   DEEP INDUCTION RESISTIVITY
 CALD.IN     45 280 60 00:   CALIPER FROM DENSITY LOG
 GRD .GAPI   45 310 01 00:   GAMMA RAY FROM DENSITY LOG
 RHOB.G/C3   45 350 01 00:   BULK DENSITY
 CORR.G/C3   45 356 01 00:   DENSITY CORRECTION
 ILM .OHMM   07 120 44 00:   INDUCTION LOG MEDIUM RESISTIVITY
~PARAMETER INFORMATION
#MNEM.UNIT          VALUE    DESCRIPTION
#----------   ------------   ------------------------------
 EKB .F         5152.0000:   Kelly bushing
 EGL .F         5141.0000:   Ground level
 TD  .F         3097.0000:   Total depth
 DATE.        07-MAY-1977:   Date logged
 CLNT.            A2DTECH:   Client Code
 SL  . 990' FEL & 990' FSL:   Surface Location
 PD  .                 GL:   Permanent Datum
 EPD .F              5141:   Elevation Permanent Datum
 LMF .                 KB:   Log Measured From
 DMF .                 KB:   Drilling Measured From
 DAPD.F                11:   Feet Above Permanent Datum
 DD  .F              3096:   Depth driller
 DL  .F              3097:   Depth logger
 BLI .F              3091:   Bottom log interval
 TLI .F               222:   Top log interval
 CS1 .IN            8.625:   Casing size
 CBD1.      8.625" @ 200':   Casing driller 1
 CBL1.F               222:   Casing logger 1
 BS1 .IN            7.875:   Bit size
 BSD1.F              3096:   Depth drilled with bit1
 DFT .                KCL:   Type fluid in hole
 DFD .                9.2:   Density
 DFV .                 38:   Viscosity
 DFPH.                  8:   pH
 DFL .                7.6:   Fluid loss
 MSS .           FLOWLINE:   Source of sample
 RMS .OHMM           .191:   Rm
 MST .F                76:   Rm Meas. temp.
 RMF .OHMM           .185:   Rmf
 MFST.F                76:   Rmf Meas. temp.
 MFSS.               MEAS:   Source Rmf.
 RMB .OHMM           .126:   Rm. at BHT
 BHT .F               115:   BHT.
 TCS .HRS            1200:   Time Circ. stopped
 TLAB.HRS            1530:   Time logger at bottom
 MRT .F                15:   Maximum recorded temp.
 LUN .               6442:   Logging unit number
 LUL .               CSPR:   Logging unit location
 ENGI.             MARTIN:   Recorded By
 WITN.          PETTMGILL:   Witnessed by
 ORIG.      2.5" 5" PRINT:   Origin of data
 UWI .     49025103700000:   Unique Well ID
 DICO. A2D TECHNOLOGIES, INC.:   Digitizing Company
~OTHER INFORMATION
~A   DEPT      SPR        LL8        ILD       CALD         GRD      RHOB       CORR        ILM   
# ...
 2116.0000   -70.6520    12.2670     9.3360     8.8030   134.0150     2.5320     0.0990     9.6870
 2116.5000   -70.6520    11.8680     9.2990     8.6800   132.6050     2.5260     0.1090     9.6870
 2117.0000   -70.6520    11.8680     9.2470     8.6800   129.9540     2.5210     0.1120     9.6870
 2117.5000   -70.6540    11.8680     9.1940     8.6770   124.0060     2.5150     0.1020     9.6870
 2118.0000   -70.6560    11.2400     9.1420     8.6790   119.2260     2.5120     0.0880     9.6870
 2118.5000   -70.6110    10.2390     9.0890     8.6790   120.6310     2.5150     0.0790     9.6870
 2119.0000   -70.5660    10.6230     9.0360     8.6780   122.3800     2.5220     0.0830     9.6860
 2119.5000   -70.6780    11.3910     8.9840     8.6790   124.6900     2.5220     0.0860     9.6880
 2120.0000   -70.8030    12.1590     8.9310     8.6790   124.8130     2.5210     0.0850     9.5610
 2120.5000   -70.8500    12.5430     8.9150     8.6790   125.7350     2.4970     0.0620     9.4640
 2121.0000   -70.8950    12.1890     8.8770     8.6790   126.4940     2.4700     0.0540     9.3670
 2121.5000   -71.0050    11.6830     8.8230     8.6790   127.4670     2.4760     0.0580     9.2700
 2122.0000   -71.1140    11.1250     8.7690     8.6770   127.6210     2.4960     0.0660     9.1730
 2122.5000   -71.2260    11.0330     8.7520     8.6720   127.0580     2.5140     0.0740     9.0760
 2123.0000   -71.3390    10.8480     8.5530     8.6670   125.4350     2.5340     0.0820     8.9790
 2123.5000   -71.4050    10.6630     8.3760     8.6630   121.6740     2.5450     0.0890     8.8820
 2124.0000   -71.1470    10.4780     8.2230     8.6580   118.4120     2.5370     0.0830     8.7520
 2124.5000   -71.0050    10.2930     8.0700     8.6540   114.4510     2.5200     0.0750     8.5800
 2125.0000   -70.8720    10.1080     7.9170     8.6490   113.5570     2.5080     0.0650     8.4240
 2125.5000   -70.7400     9.9230     7.7640     8.6440   114.2940     2.5190     0.0610     8.2670
 2126.0000   -70.6070     9.8680     7.6120     8.6400   116.5260     2.5390     0.0610     8.1110
 2126.5000   -70.4740     9.8680     7.4590     8.6350   117.9180     2.5340     0.0650     7.9540
 2127.0000   -70.3420     9.8680     7.4130     8.6310   116.8210     2.5230     0.0720     7.9080
 2127.5000   -70.2090     9.7640     7.4380     8.6260   116.4830     2.5440     0.0780     7.9080
 2128.0000   -70.0760     9.6150     7.4880     8.6210   118.1340     2.5540     0.0810     7.9080
 2128.5000   -69.9460     9.5100     7.5370     8.6170   120.1640     2.5370     0.0730     7.9510
 2129.0000   -70.0070     9.5100     7.5870     8.6120   122.1310     2.5290     0.0710     8.0390
 2129.5000   -70.3990     9.7610     7.6370     8.6080   117.6580     2.5380     0.0800     8.1260
 2130.0000   -70.7860    10.0390     7.6870     8.6030   116.3610     2.5560     0.0900     8.2130
 2130.5000   -71.1720    10.3180     7.7370     8.5990   118.9250     2.5120     0.0820     8.3010
 2131.0000   -71.5610    10.6240     7.7870     8.6070   121.2160     2.5250     0.0780     8.3880
 2131.5000   -71.9590    10.6240     7.8360     8.6170   123.1320     2.5400     0.0880     8.4750
 2132.0000   -71.8640    10.5650     7.8860     8.6260   122.3680     2.5260     0.0790     8.5630
 2132.5000   -71.6320    10.3700     7.9360     8.6360   121.1460     2.5310     0.0770     8.6500
 2133.0000   -70.7860    10.1740     8.0180     8.6460   120.3220     2.5380     0.0800     8.7370
 2133.5000   -70.5760     9.9590     8.0550     8.6560   120.8090     2.5460     0.0850     8.8330
 2134.0000   -70.3420    10.3760     8.0500     8.6660   122.2520     2.5420     0.0890     8.8330
 2134.5000   -70.1040    11.1770     8.0410     8.6760   123.9040     2.5380     0.0930     8.8030
 2135.0000   -69.8700    11.2290     8.0310     8.6860   124.1410     2.5330     0.0960     8.7760
 2135.5000   -69.8600    11.0830     8.0220     8.6960   122.4350     2.5280     0.0960     8.7480
 2136.0000   -69.8620    10.8740     8.0120     8.7050   118.8070     2.5260     0.0900     8.7210
 2136.5000   -69.8610    10.6660     8.0030     8.7150   116.7910     2.5300     0.0850     8.6940
 2137.0000   -69.8270    10.4570     7.9930     8.7180   118.2670     2.5330     0.0910     8.6660
 2137.5000   -69.6010    10.2490     7.9840     8.7180   120.3430     2.5370     0.0940     8.6390
 2138.0000   -69.3720    10.0520     7.9810     8.7180   122.0650     2.5400     0.0950     8.6110
 2138.5000   -69.2660    10.1420     7.9810     8.7180   121.8430     2.5440     0.0960     8.5920
 2139.0000   -69.4240    10.2430     8.1530     8.7180   121.7230     2.5320     0.0850     8.8160
 2139.5000   -69.6290    10.3340     8.3440     8.7180   121.5900     2.5140     0.0740     8.9890
 2140.0000   -69.8350    11.1910     8.5350     8.7180   121.7130     2.4910     0.0620     9.1610
 2140.5000   -70.0420    12.4280     8.7260     8.7190   120.6840     2.5000     0.0560     9.3330
 2141.0000   -70.2480    12.0600     8.9170     8.7280   118.3130     2.5240     0.0660     9.5060
 2141.5000   -70.4550    11.5440     9.1080     8.7370   117.2260     2.5380     0.0700     9.6780
 2142.0000   -70.6610    11.8400     9.3360     8.7450   117.5900     2.5350     0.0630     9.8680
 2142.5000   -70.8680    12.2010     9.4230     8.7560   114.8590     2.5220     0.0560     9.7270
 2143.0000   -71.0460    12.1090     9.2610     8.7600   112.9290     2.5120     0.0490     9.5250
 2143.5000   -71.0470    11.9250     9.0100     8.8270   111.7820     2.4980     0.0470     9.3240
 2144.0000   -70.8800    11.7590     8.7600     8.9150   110.8970     2.5190     0.0590     9.1220
 2144.5000   -70.5680    11.2530     8.5090     8.9600   110.7690     2.5600     0.0700     8.9210
 2145.0000   -70.2550    10.7930     8.2590     8.9520   108.0300     2.5760     0.0840     8.7200
 2145.5000   -69.9410    10.3320     8.0080     8.8740   105.4980     2.5700     0.0860     8.5180
 2146.0000   -69.6280     9.8720     7.7570     8.7760   103.4500     2.5590     0.0790     8.3170
 2146.5000   -69.3140     9.4120     7.4820     8.6750   107.6840     2.5490     0.0730     8.1150
 2147.0000   -69.0000     8.9150     7.3450     8.6380   112.5630     2.5410     0.0720     7.9080
 2147.5000   -68.6870     9.1760     7.4270     8.6360   117.2170     2.5500     0.0740     7.8640
 2148.0000   -68.3630     9.5490     7.5180     8.6710   113.5860     2.5620     0.0790     7.8010
 2148.5000   -68.2780     9.9590     7.6090     8.6790   110.1140     2.5740     0.0840     7.7380
 2149.0000   -68.4960     9.9750     7.6920     8.6810   105.6710     2.5870     0.0890     7.6760
 2149.5000   -68.8000     9.9970     7.9580     8.6800   105.1120     2.5850     0.0940     7.6130
 2150.0000   -69.1050    10.0190     8.2000     8.6820   106.2040     2.5750     0.0890     7.5500
 2150.5000   -69.4090    10.0410     8.4420     8.6830   107.5340     2.5660     0.0850     7.4820
 2151.0000   -69.7140    10.0520     8.5130     8.6840   108.6860     2.5560     0.0770     7.3450
 2151.5000   -70.0190     9.3740     8.4510     8.6850   108.8450     2.5810     0.0770     7.3860
 2152.0000   -70.3260     8.9150     8.3300     8.6850   106.5380     2.6140     0.0890     7.4320
 2152.5000   -70.6400     8.9130     8.2080     8.6860   105.2230     2.6470     0.1010     7.4820
 2153.0000   -70.6110     8.8980     8.0870     8.6870   106.2790     2.6500     0.1130     7.4820
 2153.5000   -70.5510     8.8820     7.9810     8.6880   107.5510     2.6510     0.1250     7.3450
 2154.0000   -70.4910     8.8660     7.9080     8.6890   103.3270     2.6470     0.1370     7.3130
 2154.5000   -70.4320     8.8500     7.7650     8.6890    99.2580     2.6190     0.1490     7.2770
 2155.0000   -70.3730     8.8330     7.5700     8.6900    96.0680     2.5320     0.1190     7.0630
 2155.5000   -70.3130     8.3660     7.3760     8.6910    95.4340     2.5080     0.0700     6.8340
 2156.0000   -70.2540     7.7360     7.1810     8.6920    97.9870     2.4820     0.0590     6.6040
