~VERSION INFORMATION
 VERS.                2.0:   CWLS LOG ASCII STANDARD - VERSION 2.0
 WRAP.                 NO:   ONE LINE PER DEPTH STEP
~WELL INFORMATION
#MNEM.UNIT      DATA TYPE    INFORMATION
#----------   ------------   ------------------------------
 STRT.F            2.0000:   START DEPTH
 STOP.F         3008.0000:   STOP DEPTH
 STEP.F            0.5000:   STEP LENGTH
 NULL.          -999.2500:   NO VALUE
 COMP.       FLUOR DANIEL:   COMPANY
 WELL.   FLUOR "X" #25-23:   WELL
 FLD .          N.P.R. #3:   FIELD
 LOC .      S23 T38N R78W:   LOCATION
 CNTY.            NATRONA:   COUNTY
 STAT.            WYOMING:   STATE
 CTRY. UNITED STATES OF AMERICA:   COUNTRY
 SRVC.      WESTERN ATLAS:   SERVICE COMPANY
 DATE.        21-APR-1995:   LOGDATE
 API .     49025227090000:   API NUMBER
~CURVE INFORMATION
#MNEM.UNIT       API CODE    CURVE DESCRIPTION
#----------   ------------   ------------------------------
 DEPT.F                  :   
 GRR .GAPI   07 310 01 00:   GAMMA RAY FROM RESISTIVITY
 TENR.LBS    07 635 01 00:   TENSION FROM RESISTIVITY
 RILD.OHMM   07 120 46 00:   RESISTIVITY INDUCTION LOG DEEP
 RILM.OHMM   07 120 44 00:   RESISTIVITY INDUCTION LOG MEDIUM
~PARAMETER INFORMATION
#MNEM.UNIT          VALUE    DESCRIPTION
#----------   ------------   ------------------------------
 EKB .F         5285.0000:   Kelly bushing
 EGL .F         5275.0000:   Ground level
 EDF .F         5284.0000:   Drilling floor
 TD  .F         3000.0000:   Total depth
 CLNT.            A2DTECH:   Client Code
 SL  . 2343' FSL & 1264' FWL:   Surface Location
 PD  .                 GL:   Permanent Datum
 EPD .F              5275:   Elevation Permanent Datum
 DMF .                 KB:   Drilling Measured From
 DAPD.                 10:   Feet Above Permanent Datum
 DATE.        21-APR-1995:   Date Logged [DD-MMM-YYYY]
 DD  .F              3000:   Depth driller
 DL  .F              3000:   Depth logger
 BLI .F              2999:   Bottom log interval
 TLI .F                 0:   Top log interval
 CS1 .IN            9.625:   Casing size
 CBD1.       9.625" @ 53':   Casing driller 1
 CBL1.F                53:   Casing logger 1
 BS1 .IN             6.25:   Bit size
 BSD1.F              3000:   Depth drilled with bit1
 DFT .                OIL:   Type fluid in hole
 MRT .F               114:   Maximum recorded temp.
 LUN .            HL 6530:   Logging unit number
 LUL .             CASPER:   Logging unit location
 ENGI.        VERN RAUTIO:   Recorded By
 WITN.        GARY STRONG:   Witnessed by
 ORIG.         2.5" PRINT:   Origin of data
 UWI .     49025227090000:   Unique Well ID
 DICO. A2D TECHNOLOGIES,INC.:   Digitizing Company
 LMF .                 KB:   Log Measured From
~OTHER INFORMATION
~A    DEPT      GRR      TENR       RILD       RILM   
# ...
 1754.0000   115.0300   -19.1176     8.8999     8.5547
 1754.5000   117.1557   -18.7500     8.8956     8.7319
 1755.0000   117.5771   -18.3823     8.8907     8.7837
 1755.5000   112.9282   -17.9610     9.0084     8.7803
 1756.0000   109.5070   -17.6147     9.0038     8.7775
 1756.5000   109.0453   -17.2685     8.9997     8.7747
 1757.0000   109.2189   -16.9118     8.8746     8.7718
 1757.5000   108.0168   -16.5441     8.8704     8.7688
 1758.0000   106.2247   -16.1765     8.8662     8.7659
 1758.5000   104.3788   -15.8088     8.8620     8.7629
 1759.0000   103.8241   -15.4412     8.8578     8.7599
 1759.5000   108.0573   -15.0175     8.8536     8.7570
 1760.0000   110.2992   -14.6712     8.8486     8.7534
 1760.5000   110.2781   -14.3249     8.8446     8.7506
 1761.0000   109.6653   -13.9706     8.8406     8.7478
 1761.5000   109.6484   -13.6029     8.8366     8.9852
 1762.0000   110.2233   -13.2353     9.0751     9.2288
 1762.5000   109.0230   -12.8676     9.3201     9.3621
 1763.0000   107.8227   -12.5000     9.5948     9.5227
 1763.5000   110.7644   -12.0741     9.8301     9.7332
 1764.0000   109.6177   -11.7278     9.8749     9.7295
 1764.5000   105.2128   -11.3814    10.0898     9.7262
 1765.0000   102.1695   -11.0294    10.0850     9.6488
 1765.5000   102.1342   -10.6618    10.0795     9.4593
 1766.0000   104.7544   -10.2941     9.8057     9.3290
 1766.5000   108.2878    -9.9265     9.2843     9.2006
 1767.0000   110.0460    -9.5588     8.7907     8.9518
 1767.5000   111.2126    -9.1306     8.5518     8.9428
 1768.0000   112.4735    -8.7843     8.5478     8.8080
 1768.5000   115.4122    -8.4380     8.5437     8.7038
 1769.0000   116.4874    -8.0882     8.5397     8.7008
 1769.5000   111.8428    -7.7206     8.5356     8.6979
 1770.0000   109.3491    -7.3530     8.5316     8.6949
 1770.5000   109.3314    -6.9853     8.6438     8.6915
 1771.0000   114.0446    -6.6177     8.7570     8.6886
 1771.5000   115.8028    -6.1871     8.7531     8.6858
 1772.0000   114.6025    -5.8408     8.7491     8.6830
 1772.5000   112.2188    -5.4945     8.7451     8.6802
 1773.0000   109.2426    -5.1471     8.7410     8.9157
 1773.5000   109.2249    -4.7794     8.9772     8.9125
 1774.0000   111.2578    -4.4118     8.9725     8.9095
 1774.5000   114.7496    -4.0441     8.9682     8.9555
 1775.0000   115.0888    -3.6765     8.9640     9.0864
 1775.5000   111.5174    -3.2436     8.9589     9.1449
 1776.0000   110.9088    -2.8973     8.9549     9.1413
 1776.5000   111.4836    -2.5510     8.9508     9.0154
 1777.0000   112.6502    -2.2047     8.9468     9.0125
 1777.5000   113.8466   -16.5643     8.9427     8.8884
 1778.0000   116.8282   -16.1765     8.6996     8.8663
 1778.5000   117.9250   -10.4696     8.6955     8.6450
 1779.0000   115.5497    -0.7353     8.4591     8.4111
 1779.5000   110.3612    -0.3002     8.4551     8.2538
 1780.0000   107.2189     0.0462     8.4511     8.1808
 1780.5000   110.1567     0.3925     8.4471     8.0680
 1781.0000   111.3254     0.7388     8.4424     7.9563
 1781.5000   109.5312     1.1029     8.4386     7.9537
 1782.0000   106.5558     1.4706     8.4348     7.9512
 1782.5000   104.1421     1.8383     8.2057     8.0571
 1783.0000   104.6080     2.2059     8.2019     8.0543
 1783.5000   111.5567     2.6433     8.1980     8.0516
 1784.0000   116.1656     2.9896     8.1941     7.9406
 1784.5000   116.2525     3.3360     8.1902     7.9379
 1785.0000   114.6550     3.6823     8.1863     7.7828
 1785.5000   112.3463     4.0441     8.1824     7.7763
 1786.0000   111.1460     4.4118     8.1779     7.8232
 1786.5000   111.7209     4.7794     8.1742     7.9268
 1787.0000   112.8874     5.1471     8.1705     7.9243
 1787.5000   114.1517     5.5868     8.1668     8.0297
 1788.0000   115.2205    -8.7728     8.1631     8.1366
 1788.5000   114.6095    -8.4265     8.1592     8.1460
 1789.0000   114.8245    -8.0802     8.1553     8.2422
 1789.5000   114.5740   -22.4397     8.1515     8.1283
 1790.0000   110.4108    -7.3529     8.1476     8.0819
 1790.5000   110.9857    -6.9853     8.1437     8.0135
 1791.0000   115.1108    -6.6176     8.1391     8.0103
 1791.5000   119.8276    -6.2500     8.1355     8.0077
 1792.0000   117.4280     8.8766     8.1318     8.0051
 1792.5000   116.2436     9.2229     8.1281     8.0025
 1793.0000   121.8104     9.5692     8.0151     8.0000
 1793.5000   124.6825     9.9265     7.9036     7.9973
 1794.0000   124.3074    10.2941     7.8998     7.9760
 1794.5000   120.8342    -4.0978     7.9251     7.8843
 1795.0000   114.9673    -3.6765     8.1097     7.8817
 1795.5000   113.7670    -3.3088     8.1052     7.8790
 1796.0000   115.5253    -2.8857     8.3238     8.0447
 1796.5000   120.2421    -2.5395     8.3193     8.1997
 1797.0000   120.8170    -2.1932     8.4289     8.3092
 1797.5000   119.4975    -1.8382     8.5400     8.3062
 1798.0000   114.5638    -1.4706     8.4213     8.3035
 1798.5000   113.6627    -1.1029     8.3041     8.0789
 1799.0000   114.2367    -0.7353     8.0784     8.0762
 1799.5000   115.4774    -0.3677     8.0235     7.9395
 1800.0000   116.1738    -0.7336     7.8550     7.8550
 1800.5000   115.9566    -2.7027     7.8513     7.8503
 1801.0000   113.5729    -4.6717     7.8476     7.8462
 1801.5000   112.9643    -6.6408     7.8741     7.8421
 1802.0000   111.7753    -8.6098     7.9477     7.8380
 1802.5000   113.3433   -10.5789     7.9433     7.8338
 1803.0000   114.1139   -12.5075     7.9395     7.8295
 1803.5000   114.0976   -12.1324     7.9352     7.8253
 1804.0000   114.0828   -11.7647     7.8249     7.8211
 1804.5000   114.0681   -26.1721     7.7161     7.7683
 1805.0000   113.1263   -25.7353     7.7126     7.6038
 1805.5000   111.6692   -25.3043     7.7053     7.5990
 1806.0000   111.0633   -24.9572     7.6017     7.5950
 1806.5000   114.0077   -24.6101     7.4959     7.5911
 1807.0000   119.9107   -24.2630     7.4924     7.5871
 1807.5000   121.0800   -23.8970     7.4888     7.5832
 1808.0000   120.3472   -38.2747     7.4853     7.5791
 1808.5000   118.6834   -37.8676     7.4810     7.5750
 1809.0000   117.1463   -37.5000     7.4776     7.5709
 1809.5000   116.2870   -37.0598     7.4743     7.5668
 1810.0000   116.2722   -36.7126     7.4709     7.5627
 1810.5000   116.2574   -36.3655     7.4675     7.5586
 1811.0000   115.6484   -36.0184     7.4640     7.5537
 1811.5000   115.6342   -35.6618     7.4605     7.5498
 1812.0000   115.6201   -35.2941     7.4569     7.5459
 1812.5000   115.6059   -34.9265     7.4894     7.5420
 1813.0000   116.7869   -34.5588     7.5514     7.5382
 1813.5000   119.1279   -34.1912     7.6037     7.5341
 1814.0000   119.0019   -19.0564     7.6472     7.5300
 1814.5000   117.4231   -18.7093     7.6431     7.5259
 1815.0000   113.9156   -18.3621     7.6396     7.4898
 1815.5000   110.2950    -3.3088     7.5334     7.3762
 1816.0000   108.7259    -2.9412     7.4287     7.3129
 1816.5000   113.7104    -2.5735     7.4252     7.3089
 1817.0000   116.0632   -16.9737     7.4217     7.3043
 1817.5000   117.2324    -1.8382     7.4181     7.3006
 1818.0000   118.4017    -1.4000     7.4146     7.2968
 1818.5000   119.5710    -1.0529     7.4111     7.2930
 1819.0000   120.7403   -15.4117     7.4076     7.2892
 1819.5000   119.9242   -15.0645     7.4035     7.0905
 1820.0000   118.9349   -14.7058     7.4002     7.0867
 1820.5000   119.7230   -14.3382     7.3968     7.0554
 1821.0000   120.0888   -13.9705     7.2940     6.9838
 1821.5000   119.7564     1.1029     7.1926     7.0752
 1822.0000   119.4648   -13.2353     7.1891     7.0713
 1822.5000   121.8175   -12.8084     7.1857     7.0668
 1823.0000   122.9868   -12.4613     7.1823     7.1595
 1823.5000   122.9726   -12.1142     7.1789     7.2537
 1824.0000   119.4082   -26.4729     7.3250     7.2496
 1824.5000   107.5597   -26.1030     7.4689     7.2458
 1825.0000   108.9247   -25.7353     7.5678     7.3490
 1825.5000   112.8864   -25.3677     7.7716     7.4371
 1826.0000   119.1676   -25.0000     7.7681     7.4327
 1826.5000   120.7762   -24.5638     7.6601     7.4287
