~VERSION INFORMATION
 VERS.                2.0:   CWLS LOG ASCII STANDARD - VERSION 2.0
 WRAP.                 NO:   ONE LINE PER DEPTH STEP
~WELL INFORMATION
#MNEM.UNIT      DATA TYPE    INFORMATION
#----------   ------------   ------------------------------
 STRT.F          212.0000:   START DEPTH
 STOP.F         3042.0000:   STOP DEPTH
 STEP.F            0.5000:   STEP LENGTH
 NULL.          -999.2500:   NO VALUE
 COMP.    FENIX & SCISSON:   COMPANY
 WELL.   FENIX "A" #74-28:   WELL
 FLD .             NPR #3:   FIELD
 LOC .      S28 T39N R78W:   LOCATION
 CNTY.            NATRONA:   COUNTY
 STAT.            WYOMING:   STATE
 CTRY. UNITED STATES OF AMERICA:   COUNTRY
 SRVC.              WELEX:   SERVICE COMPANY
 DATE.        03-AUG-1977:   LOGDATE
 API .     49025104080000:   API NUMBER
~CURVE INFORMATION
#MNEM.UNIT       API CODE    CURVE DESCRIPTION
#----------   ------------   ------------------------------
 DEPT.F                  :   
 SPR .MV     07 010 01 00:   SPONTANEOUS POTENTIAL
 ILD .OHMM   07 120 46 00:   INDUCTION LOG DEEP RESISTIVITY
 ILM .OHMM   07 120 44 00:   INDUCTION LOG MEDIUM RESISTIVITY
 SFLU.OHMM   07 220 01 00:   SPHERICALLY FOCUSED LOG UNAVERAGED RESISTIVITY
 CALD.IN     45 280 60 00:   CALIPER FROM DENSITY LOG
 GRD .GAPI   45 310 01 00:   GAMMA RAY FROM DENSITY LOG
 CORR.G/C3   45 356 01 00:   DENSITY CORRECTION
 RHOB.G/C3   45 350 01 00:   BULK DENSITY
~PARAMETER INFORMATION
#MNEM.UNIT          VALUE    DESCRIPTION
#----------   ------------   ------------------------------
 EKB .F         5050.0000:   Kelly bushing
 EGL .F         5040.0000:   Ground level
 EDF .F            0.0000:   Drilling floor
 TD  .F         3044.0000:   Total depth
 DATE.        03-AUG-1977:   Date logged
 CLNT.            A2DTECH:   Client Code
 SL  . 2310' FNL & 930' FEL:   Surface Location
 PD  .                 GL:   Permanent Datum
 EPD .F              5040:   Elevation Permanent Datum
 LMF .                 KB:   Log Measured From
 DMF .                 KB:   Drilling Measured From
 DAPD.F                10:   Feet Above Permanent Datum
 DD  .F              3044:   Depth driller
 DL  .F              3044:   Depth logger
 BLI .F              3042:   Bottom log interval
 TLI .F               238:   Top log interval
 CS1 .IN            8.625:   Casing size
 CBD1.      8.625" @ 220':   Casing driller 1
 CBL1.F               238:   Casing logger 1
 BS1 .IN            7.875:   Bit size
 BSD1.F              3044:   Depth drilled with bit1
 DFT .            KCL MUD:   Type fluid in hole
 DFV .                 35:   Viscosity
 DFPH.               10.5:   pH
 DFL .                7.2:   Fluid loss
 MSS .           FLOWLINE:   Source of sample
 RMS .OHMM           1.13:   Rm
 MST .F                84:   Rm Meas. temp.
 RMF .OHMM           0.77:   Rmf
 MFST.F                70:   Rmf Meas. temp.
 MFSS.           FANN KIT:   Source Rmf.
 MCSS.           FANN KIT:   Source Rmc.
 RMB .OHMM            .82:   Rm. at BHT
 BHT .F               118:   BHT.
 TCS .HRS               7:   Time Circ. stopped
 MRT .F               116:   Maximum recorded temp.
 LUN .               8611:   Logging unit number
 LUL .             CASPER:   Logging unit location
 ENGI.            C. DOAK:   Recorded By
 WITN.      W. PETTINGILL:   Witnessed by
 ORIG.         2.5" PRINT:   Origin of data
 UWI .     49025104080000:   Unique Well ID
 DICO. A2D TECHNOLOGIES, INC.:   Digitizing Company
~OTHER INFORMATION
~A   DEPT      SPR        ILD        ILM       SFLU         CALD       GRD       CORR        RHOB 
# ...
  414.5000   -22.1220     6.9620     7.2700     8.4590     9.5690    97.6510     0.0610     2.4030
  415.0000   -22.2680     6.8540     7.1650     8.4980     9.5550    96.9450     0.0600     2.4020
  415.5000   -22.4150     6.7470     7.0670     8.5370     9.5400    97.6340     0.0600     2.4140
  416.0000   -22.5450     6.7200     6.9700     8.7050     9.5260    98.3330     0.0590     2.4270
  416.5000   -22.5820     6.7210     6.8460     9.1300     9.5140    98.1570     0.0580     2.4380
  417.0000   -21.9720     6.7210     6.8570     8.9240     9.5120    97.1020     0.0580     2.4330
  417.5000   -21.2510     6.7200     6.8890     8.5630     9.5090    99.0020     0.0570     2.4320
  418.0000   -20.5250     6.7200     6.9210     8.7440     9.5060   100.3020     0.0570     2.4450
  418.5000   -19.7770     6.7200     6.9540     8.8880     9.5030   100.2470     0.0560     2.4570
  419.0000   -19.1990     6.8460     6.9860     8.7770     9.5000   100.3660     0.0560     2.4690
  419.5000   -18.8290     6.8680     7.0180     8.6760     9.4970   100.4410     0.0550     2.4840
  420.0000   -18.4230     6.8930     7.0500     8.5630     9.4940   100.5270     0.0550     2.4800
  420.5000   -18.0250     6.9170     7.0990     9.7560     9.4910   100.6580     0.0540     2.4710
  421.0000   -17.6320     6.9420     7.0950     9.3600     9.4880   101.4570     0.0530     2.4620
  421.5000   -17.2090     6.9750     7.0520     8.5630     9.4860   102.2240     0.0520     2.4590
  422.0000   -16.9530     6.9550     7.0090     9.0550     9.4830   103.0190     0.0500     2.4540
  422.5000   -16.9000     6.8730     6.9660     8.9470     9.4800   103.8080     0.0480     2.4490
  423.0000   -16.8380     6.7920     6.9230     8.5630     9.4770   104.5880     0.0460     2.4470
  423.5000   -16.7400     6.7100     6.8800     8.6780     9.4740   105.3620     0.0440     2.4470
  424.0000   -16.6960     6.6290     6.8310     8.8880     9.4710   106.2320     0.0430     2.4470
  424.5000   -16.7010     6.5480     6.7620     8.5630     9.4680   106.3370     0.0410     2.4400
  425.0000   -17.7330     6.4660     6.6940     8.6240     9.4650   105.3960     0.0390     2.4330
  425.5000   -18.5490     6.3850     6.6250     8.7250     9.4620   104.5610     0.0380     2.4290
  426.0000   -19.4550     6.3030     6.5560     8.8880     9.4590   104.2270     0.0380     2.4340
  426.5000   -20.3130     6.2220     6.4880     8.5020     9.4560   104.7250     0.0370     2.4450
  427.0000   -21.1790     6.1290     6.4190     7.6560     9.4530   105.2170     0.0350     2.4550
  427.5000   -22.0920     6.1430     6.3500     7.8010     9.4500   104.8470     0.0330     2.4550
  428.0000   -22.9410     6.1720     6.2370     8.2540     9.4470   103.0890     0.0320     2.4490
  428.5000   -23.7110     6.2010     6.2940     8.5630     9.4450   101.3470     0.0300     2.4430
  429.0000   -24.5460     6.2290     6.4600     8.6260     9.4420   100.4660     0.0290     2.4410
  429.5000   -25.3430     6.3070     6.6260     8.7240     9.4390   100.4120     0.0270     2.4470
  430.0000   -26.1520     6.5210     6.7920     8.6980     9.4360   100.2560     0.0280     2.4510
  430.5000   -26.2770     6.7350     6.9580     8.6480     9.4340   101.5880     0.0310     2.4530
  431.0000   -26.3880     6.9480     7.1060     8.5630     9.4340   103.5940     0.0350     2.4550
  431.5000   -26.4680     7.1620     7.3470     9.0120     9.4340   105.7510     0.0390     2.4570
  432.0000   -26.5310     7.3760     7.5650    10.5160     9.4340   106.1960     0.0420     2.4590
  432.5000   -26.9970     7.5890     7.7830    12.2030     9.4340   104.9220     0.0460     2.4600
  433.0000   -27.9870     7.8030     8.0010    10.3180     9.4340   103.8360     0.0460     2.4630
  433.5000   -28.8070     8.0170     8.2490    10.7430     9.4340   102.9530     0.0450     2.4610
  434.0000   -29.6580     8.2300     8.5780    11.1390     9.4340   103.9150     0.0450     2.4540
  434.5000   -30.5090     8.4440     8.9590    11.5350     9.4340   106.1220     0.0450     2.4450
  435.0000   -31.3470     8.5630     9.3410    11.7560     9.4340   108.2500     0.0440     2.4480
  435.5000   -32.2020     8.5630     9.7220    12.3910     9.4340   109.8200     0.0440     2.4530
  436.0000   -33.0500     8.5630     9.9400    13.3860     9.4340   110.1120     0.0440     2.4590
  436.5000   -33.7700     8.5630     9.5760    14.0270     9.4340   110.5020     0.0430     2.4520
  437.0000   -34.0770     8.5630     9.6370    13.3950     9.4340   110.8360     0.0430     2.4580
  437.5000   -34.5150     8.5160     9.7130    13.3950     9.4340   111.2050     0.0430     2.4670
  438.0000   -34.9230     8.4700     9.7880    13.3950     9.4340   111.5640     0.0430     2.4720
  438.5000   -35.3340     8.4240     9.8630    13.3950     9.4340   111.7850     0.0420     2.4710
  439.0000   -35.7860     8.3770     9.9400    13.3950     9.4340   111.2410     0.0420     2.4650
  439.5000   -36.2360     8.3310     9.8470    13.3950     9.4340   110.8010     0.0420     2.4690
  440.0000   -36.7440     8.2850     9.7510    13.4750     9.4340   110.1210     0.0410     2.4740
  440.5000   -37.2350     8.2390     9.6550    13.6470     9.4340   110.5610     0.0400     2.4710
  441.0000   -37.7350     8.1930     9.5590    13.5750     9.4340   112.1840     0.0400     2.4630
  441.5000   -38.2440     8.1460     9.3990    13.3690     9.4340   113.7080     0.0390     2.4550
  442.0000   -38.5770     8.0970     9.4030    13.1480     9.4340   115.6060     0.0380     2.4540
  442.5000   -38.5050     8.0970     9.4120    13.1770     9.4340   117.8380     0.0380     2.4570
  443.0000   -38.4410     8.0690     9.4220    13.2330     9.4340   117.2210     0.0400     2.4600
  443.5000   -38.3660     8.0300     9.4320    13.2880     9.4340   115.5960     0.0420     2.4620
  444.0000   -38.3030     7.9910     9.4420    13.3440     9.4330   113.7390     0.0440     2.4550
  444.5000   -38.2080     7.9520     9.4510    13.3950     9.4390   115.9050     0.0450     2.4410
  445.0000   -38.3770     7.9130     9.4610    13.3950     9.4510   122.0950     0.0360     2.4110
  445.5000   -38.7150     7.8740     9.4710    13.3950     9.4610   124.9400     0.0280     2.3850
  446.0000   -39.0240     7.8350     9.4800    13.2350     9.4740   124.3930     0.0190     2.3690
  446.5000   -39.3310     7.7960     9.4900    13.0860     9.4660   121.0610     0.0230     2.3780
  447.0000   -39.6470     7.7570     9.5000    12.9360     9.4480   116.2630     0.0290     2.4040
  447.5000   -39.9600     7.7170     9.5100    12.7870     9.4300   113.8880     0.0350     2.4290
  448.0000   -40.1860     7.6780     9.5190    12.6380     9.4120   109.3050     0.0410     2.4560
  448.5000   -40.1460     7.6560     9.5290    12.4320     9.3950   109.3620     0.0420     2.4700
  449.0000   -40.1100     7.6560     9.5390    12.7000     9.3770   109.8600     0.0400     2.4640
  449.5000   -40.0660     7.6560     9.5490    13.1300     9.3590   110.6070     0.0390     2.4550
  450.0000   -40.0250     7.6570     9.5580    13.6470     9.3410   111.0540     0.0370     2.4470
  450.5000   -39.9850     7.6570     9.5670    13.6470     9.3240   112.2450     0.0350     2.4410
  451.0000   -39.9420     7.6570     9.5750    13.3980     9.3060   113.8370     0.0340     2.4340
  451.5000   -39.9010     7.6560     9.5200    13.1470     9.2880   115.3490     0.0320     2.4270
  452.0000   -39.8650     7.6560     9.4470    12.8960     9.2740   116.6190     0.0300     2.4280
  452.5000   -39.8040     7.6560     9.3750    12.6450     9.2730   115.3800     0.0290     2.4300
  453.0000   -39.9460     7.6550     9.3030    12.4320     9.2760   113.7250     0.0280     2.4310
  453.5000   -40.2580     7.6320     9.2260    12.4320     9.2840   111.9850     0.0260     2.4320
  454.0000   -40.5460     7.6110     9.1530    12.3610     9.2910   112.0940     0.0250     2.4200
  454.5000   -40.8360     7.5900     9.0750    12.2860     9.2980   112.1880     0.0240     2.4200
