~VERSION INFORMATION
 VERS.                2.0:   CWLS LOG ASCII STANDARD - VERSION 2.0
 WRAP.                 NO:   ONE LINE PER DEPTH STEP
~WELL INFORMATION
#MNEM.UNIT      DATA TYPE    INFORMATION
#----------   ------------   ------------------------------
 STRT.F          200.0000:   START DEPTH
 STOP.F         3078.0000:   STOP DEPTH
 STEP.F            0.5000:   STEP LENGTH
 NULL.          -999.2500:   NO VALUE
 COMP.   FENIX & SCISSION:   COMPANY
 WELL. FENIX NPR 72 "A" #3-28:   WELL
 FLD .              NPR-3:   FIELD
 LOC .      S28 T39N R78W:   LOCATION
 CNTY.            NATRONA:   COUNTY
 STAT.            WYOMING:   STATE
 CTRY. UNITED STATES OF AMERICA:   COUNTRY
 SRVC.              WELEX:   SERVICE COMPANY
 DATE.        06-JUN-1977:   LOGDATE
 API .     49025103770000:   API NUMBER
~CURVE INFORMATION
#MNEM.UNIT       API CODE    CURVE DESCRIPTION
#----------   ------------   ------------------------------
 DEPT.F                  :   
 CORR.G/C3   45 356 01 00:   DENSITY CORRECTION
 RHOB.G/C3   45 350 01 00:   BULK DENSITY
 CALD.IN     45 280 60 00:   CALIPER FROM DENSITY LOG
 SPR .MV     07 010 01 00:   SPONTANEOUS POTENTIAL
 GURD.OHMM   07 220 05 00:   GUARD LOG RESISTIVITY
 ILM .OHMM   07 120 44 00:   INDUCTION LOG MEDIUM RESISTIVITY
 ILD .OHMM   07 120 46 00:   DEEP INDUCTION RESISTIVITY
 GRD .GAPI   45 310 01 00:   GAMMA RAY FROM DENSITY LOG
~PARAMETER INFORMATION
#MNEM.UNIT          VALUE    DESCRIPTION
#----------   ------------   ------------------------------
 EKB .F         5022.0000:   Kelly bushing
 EGL .F         5011.0000:   Ground level
 EDF .F            0.0000:   Drilling floor
 EPD .F         5011.0000:   Permanent datum
 TD  .F         3081.0000:   Total depth
 DATE.        06-JUN-1977:   Date logged
 CLNT.            A2DTECH:   Client Code
 SL  . 990' FNL & 990' FEL:   Surface Location
 PD  .                 GL:   Permanent Datum
 DAPD.F                11:   Feet Above Permanent Datum
 DD  .F              3041:   Depth driller
 DL  .F              3081:   Depth logger
 BLI .F              3079:   Bottom log interval
 TLI .F               200:   Top log interval
 CS1 .IN            8.625:   Casing size
 CBD1.      8.625" @ 200':   Casing driller 1
 CBL1.F               218:   Casing logger 1
 BS1 .IN            7.875:   Bit size
 BSD1.F              3041:   Depth drilled with bit1
 DFT .            KCL MUD:   Type fluid in hole
 DFD .                8.8:   Density
 DFV .                 38:   Viscosity
 DFPH.                7.5:   pH
 DFL .                5.8:   Fluid loss
 MSS .           FLOWLINE:   Source of sample
 RMS .OHMM           1.19:   Rm
 MST .F                89:   Rm Meas. temp.
 RMF .OHMM           1.05:   Rmf
 MFST.F                89:   Rmf Meas. temp.
 RMC .OHMM           2.17:   Rmc
 MCST.F                89:   Rmc Meas. temp.
 MFSS.               FANN:   Source Rmf.
 MCSS.                KIT:   Source Rmc.
 RMB .OHMM           0.98:   Rm. at BHT
 BHT .F               108:   BHT.
 TCS .HRS             2.5:   Time Circ. stopped
 MRT .F               108:   Maximum recorded temp.
 LUN .               8611:   Logging unit number
 LUL .             CASPER:   Logging unit location
 ENGI.          T. JOYNER:   Recorded By
 WITN.      W. PETTINGILL:   Witnessed by
 ORIG.           5" PRINT:   Origin of data
 UWI .     49025103770000:   Unique Well ID
 DICO. A2D TECHNOLOGIES, INC.:   Digitizing Company
~OTHER INFORMATION
~A   DEPT     CORR       RHOB         CALD      SPR       GURD        ILM        ILD         GRD  
# ...
 3035.0000     0.0080     2.4350     7.7850   -41.9770     5.1840     4.7030     4.9210   110.8790
 3035.5000     0.0070     2.4290     7.7920   -41.9400     5.2500     4.6060     4.8570   110.7460
 3036.0000     0.0060     2.4240     7.7990   -41.9020     5.0010     4.3710     4.6820   111.2900
 3036.5000     0.0080     2.4200     7.8020   -41.8650     4.7470     4.4210     4.5760   112.9890
 3037.0000     0.0100     2.4250     7.8000   -41.8270     4.8800     4.5070     4.7310   114.6600
 3037.5000     0.0130     2.4300     7.7980   -41.7890     5.0150     4.5760     4.8350   116.3170
 3038.0000     0.0120     2.4360     7.7960   -41.7520     4.8610     4.2330     4.6670   116.6310
 3038.5000     0.0110     2.4370     7.7930   -41.7140     4.7470     4.3240     4.5340   114.8140
 3039.0000     0.0090     2.4320     7.7910   -41.6770     4.8830     4.5060     4.7470   113.0440
 3039.5000     0.0070     2.4260     7.7890   -41.6390     5.0610     4.5760     4.6910   112.8580
 3040.0000     0.0050     2.4220     7.7870   -41.6020     4.9360     4.3710     4.5560   112.7200
 3040.5000     0.0040     2.4240     7.7840   -41.5640     4.6600     4.2130     4.4520   113.2880
 3041.0000     0.0040     2.4260     7.7890   -41.5260     4.6170     4.2130     4.4520   114.8810
 3041.5000     0.0050     2.4270     7.7960   -41.4890     4.5760     4.2130     4.4520   116.4620
 3042.0000     0.0060     2.4270     7.8040   -41.4510     4.5760     4.2130     4.3970   118.0380
 3042.5000     0.0070     2.4280     7.8120   -41.4140     4.5760     4.1640     4.2710   119.6100
 3043.0000     0.0100     2.4290     7.8190   -41.3760     4.4040     4.0510     4.1450   120.2960
 3043.5000     0.0120     2.4290     7.8270   -41.3390     4.2390     3.9390     4.0250   119.8200
 3044.0000     0.0150     2.4290     7.8350   -41.3010     4.2130     3.8260     4.0250   119.3520
 3044.5000     0.0170     2.4290     7.8410   -41.2630     4.2060     3.7980     3.9900   118.8820
 3045.0000     0.0140     2.4260     7.8200   -41.2260     4.1340     3.7810     3.9370   118.4080
 3045.5000     0.0110     2.4200     7.7990   -41.1880     4.0250     3.7180     3.8830   118.6530
 3046.0000     0.0060     2.4150     7.7830   -41.1510     4.0360     3.6390     3.8440   119.8180
 3046.5000     0.0050     2.4100     7.7800   -41.1130     4.0590     3.7280     3.9210   118.7720
 3047.0000     0.0050     2.4050     7.7770   -41.0810     4.0820     3.8440     3.9880   117.3880
 3047.5000     0.0050     2.4000     7.7750   -41.1410     4.0990     3.7710     3.9110   118.9790
 3048.0000     0.0040     2.3940     7.7720   -41.2000     3.9880     3.6620     3.7980   120.5100
 3048.5000     0.0030     2.3890     7.7690   -41.2590     3.8560     3.5820     3.6850   121.2940
 3049.0000     0.0020     2.3890     7.7660   -41.3170     3.7340     3.5330     3.6180   121.2950
 3049.5000     0.0030     2.3940     7.7650   -41.3760     3.6630     3.4760     3.5560   121.3090
 3050.0000     0.0060     2.3990     7.7810   -41.4350     3.6430     3.4570     3.4760   121.5650
 3050.5000     0.0080     2.4040     7.7970   -41.4930     3.6240     3.4390     3.4830   122.5760
 3051.0000     0.0100     2.4060     7.8130   -41.5520     3.6060     3.4220     3.4930   123.5580
 3051.5000     0.0120     2.4090     7.8280   -41.6110     3.7060     3.4000     3.5070   124.5330
 3052.0000     0.0140     2.4120     7.8440   -41.6640     3.6670     3.3720     3.4780   125.2410
 3052.5000     0.0160     2.4150     7.8600   -41.6170     3.5500     3.3510     3.4160   124.6500
 3053.0000     0.0200     2.4170     7.8470   -41.5680     3.5990     3.3810     3.4310   124.0900
 3053.5000     0.0190     2.4180     7.8260   -41.5190     4.0480     3.3530     3.4760   123.7220
 3054.0000     0.0190     2.4160     7.8230   -41.4720     3.8880     3.2780     3.4390   124.0340
 3054.5000     0.0160     2.4110     7.8230   -41.4700     3.4900     3.2020     3.3390   123.6520
 3055.0000     0.0130     2.4060     7.8250   -41.4710     3.4380     3.1270     3.2300   123.1740
 3055.5000     0.0100     2.4020     7.8350   -41.4700     3.3950     3.0290     3.2100   123.2670
 3056.0000     0.0090     2.4040     7.8460   -41.4560     3.3200     3.0360     3.1870   124.1700
 3056.5000     0.0090     2.4090     7.8560   -41.4030     3.3390     3.0510     3.1710   125.0070
 3057.0000     0.0090     2.4130     7.8660   -41.3520     3.3660     3.0650     3.2180   127.5750
 3057.5000     0.0100     2.4100     7.8760   -41.3010     3.3810     3.0840     3.2540   130.3900
 3058.0000     0.0100     2.4060     7.8870   -41.2500     3.3580     3.0790     3.2900   132.6060
 3058.5000     0.0100     2.4090     7.8970   -41.1990     3.3510     3.0680     3.2360   131.3010
 3059.0000     0.0100     2.4140     7.9070   -41.1480     3.3510     3.0570     3.1830   131.5350
 3059.5000     0.0110     2.4180     7.9170   -41.0980     3.5200     3.0210     3.1300   132.5830
 3060.0000     0.0110     2.4160     7.9360   -41.0470     3.6830     2.9590     3.0780   126.9940
 3060.5000     0.0110     2.4140     7.9560   -40.9960     3.1050     2.8960     3.0290  -999.2500
 3061.0000     0.0110     2.4150     7.9770   -40.9450     3.0290     2.8340     2.9790  -999.2500
 3061.5000     0.0110     2.4170     7.9970   -40.8940     3.0590     2.7210     2.9290  -999.2500
 3062.0000     0.0110     2.4200     8.0050   -40.8620     3.0910     2.5860     2.8940  -999.2500
 3062.5000     0.0110     2.4230     8.0130   -40.8350     3.1240     2.7110     2.9670  -999.2500
 3063.0000     0.0110     2.4300     8.0220   -40.8080     3.2390     2.8740     3.0360  -999.2500
 3063.5000     0.0110     2.4380     8.0310   -40.7810     3.4550     3.0060     3.1040  -999.2500
 3064.0000     0.0120     2.4450     8.0360   -40.7540     3.6720     3.0250     3.1730  -999.2500
 3064.5000     0.0160     2.4520     8.0330   -40.7270     3.5080     3.1290     3.2770  -999.2500
 3065.0000     0.0200     2.4600     8.0290   -40.6990     3.6390     3.2550     3.4050  -999.2500
 3065.5000     0.0250     2.4680     8.0260   -40.5370     3.5880     3.3800     3.5340  -999.2500
 3066.0000     0.0270     2.4760     8.0220   -40.2150     3.5080     3.4130     3.6720  -999.2500
 3066.5000     0.0290     2.4830     8.0190   -39.8930     3.6680     3.6340     3.7730  -999.2500
 3067.0000     0.0310     2.4910     8.0160   -39.5630     3.9770     3.9410     3.8810  -999.2500
 3067.5000     0.0330     2.4960     8.0120   -39.2380     4.3860     4.2470     3.9890  -999.2500
 3068.0000     0.0360     2.4960     8.0090   -37.9900     4.9790     4.5530     4.0250  -999.2500
 3068.5000     0.0370     2.4900     8.0050   -36.1560     5.4960     4.6880     4.0250  -999.2500
 3069.0000     0.0360     2.4850     8.0020   -34.2010     5.2270     4.7470     4.1440  -999.2500
 3069.5000     0.0340     2.4790     7.9990   -29.9540     5.7580     4.6770     4.3710  -999.2500
 3070.0000     0.0320     2.4730     7.9960   -23.1090     6.3070     4.4930     4.2100  -999.2500
 3070.5000     0.0310     2.4710     7.9940   -15.8710     5.8610     3.5780     3.9040  -999.2500
 3071.0000     0.0310     2.4780     7.9920    -8.6290     6.9540     2.7640     3.6390  -999.2500
 3071.5000     0.0320     2.4840     7.9900    -2.0660     9.5640     2.9970     4.0540  -999.2500
 3072.0000     0.0330     2.4900     7.9880    -1.7720    13.2400     4.9670     4.6600  -999.2500
 3072.5000     0.0340     2.4930     7.9860  -999.2500    16.6630     7.5150     6.5340  -999.2500
 3073.0000     0.0360     2.4880     7.9840  -999.2500     6.7430     8.3790     8.0770  -999.2500
 3073.5000     0.0370     2.4830     7.9820  -999.2500     5.8070     5.8070     6.1920  -999.2500
 3074.0000     0.0380     2.4870     7.9800  -999.2500     6.4820     6.1360     6.5420  -999.2500
 3074.5000     0.0400     2.4910     7.9780  -999.2500     6.3070     6.0800     6.3650  -999.2500
 3075.0000     0.0420     2.4950     7.9630  -999.2500     7.4200     6.2490     7.0530  -999.2500
