~VERSION INFORMATION
 VERS.                2.0:   CWLS LOG ASCII STANDARD - VERSION 2.0
 WRAP.                 NO:   ONE LINE PER DEPTH STEP
~WELL INFORMATION
#MNEM.UNIT      DATA TYPE    INFORMATION
#----------   ------------   ------------------------------
 STRT.F          484.0000:   START DEPTH
 STOP.F         4334.0000:   STOP DEPTH
 STEP.F            0.5000:   STEP LENGTH
 NULL.          -999.2500:   NO VALUE
 COMP.    FENIX & SCISSON:   COMPANY
 WELL. FENIX NPR 3 "JX" #46-27:   WELL
 FLD .              N P R:   FIELD
 LOC .      S27 T39N R78W:   LOCATION
 CNTY.            NATRONA:   COUNTY
 STAT.            WYOMING:   STATE
 CTRY. UNITED STATES OF AMERICA:   COUNTRY
 SRVC.       SCHLUMBERGER:   SERVICE COMPANY
 DATE.        01-MAR-1979:   LOGDATE
 API .     49025107660000:   API NUMBER
~CURVE INFORMATION
#MNEM.UNIT       API CODE    CURVE DESCRIPTION
#----------   ------------   ------------------------------
 DEPT.F                  :   
 TENR.LBS    07 635 01 00:   TENSION FROM RESISTIVITY
 SPR .MV     07 010 01 00:   SPONTANEOUS POTENTIAL
 SFL .OHMM   07 220 01 00:   SHALLOW FOCUSED LOG RESISTIVITY
 ILD .OHMM   07 120 46 00:   DEEP INDUCTION RESISTIVITY
 ILM .OHMM   07 120 44 00:   INDUCTION LOG MEDIUM RESISTIVITY
 TEND.LBS    42 635 01 00:   TENSION FROM COMPENSATE NEUTRON
 GRD .GAPI   45 310 01 00:   GAMMA RAY FROM DENSITY LOG
 CALD.IN     45 280 60 00:   CALIPER FROM DENSITY LOG
 RHOB.G/C3   45 350 01 00:   BULK DENSITY
 CORR.G/C3   45 356 01 00:   DENSITY CORRECTION
 NPHI.DEC    42 890 03 00:   NEUTRON POROSITY SANDSTONE
~PARAMETER INFORMATION
#MNEM.UNIT          VALUE    DESCRIPTION
#----------   ------------   ------------------------------
 EKB .F         5059.0000:   Kelly bushing
 EGL .F         5049.0000:   Ground level
 EDF .F            0.0000:   Drilling floor
 TD  .F         4320.0000:   Total depth
 DATE.        01-MAR-1979:   Date logged
 CLNT.            A2DTECH:   Client Code
 SL  . 1625' FSL & 2281' FWL:   Surface Location
 PD  .                 GL:   Permanent Datum
 DD  .F              4320:   Depth driller
 DL  .F              4319:   Depth logger
 BLI .F              4316:   Bottom log interval
 CS1 .IN            8.625:   Casing size
 CBD1.      8.625" @ 505':   Casing driller 1
 CBL1.F               500:   Casing logger 1
 BS1 .IN            7.875:   Bit size
 DFT .                FGM:   Type fluid in hole
 DFD .                9.1:   Density
 DFV .                 40:   Viscosity
 DFPH.               11.7:   pH
 DFL .                6.5:   Fluid loss
 MSS .               TANK:   Source of sample
 RMS .OHMM           .901:   Rm
 MST .F                65:   Rm Meas. temp.
 RMF .OHMM           .852:   Rmf
 MFST.F                65:   Rmf Meas. temp.
 MFSS.               MEAS:   Source Rmf.
 RMB .OHMM            .39:   Rm. at BHT
 BHT .F               151:   BHT.
 TCS .HRS            1200:   Time Circ. stopped
 MRT .F               151:   Maximum recorded temp.
 LUN .               8043:   Logging unit number
 LUL .               CSPR:   Logging unit location
 ENGI.              PFARR:   Recorded By
 WITN.              AMENO:   Witnessed by
 ORIG.         2.5" PRINT:   Origin of data
 UWI .     49025107660000:   Unique Well ID
 DICO. A2D TECHNOLOGIES, INC.:   Digitizing Company
 DAPD.                 10:   Feet Above Permanent Datum
 BSD1.F              4320:   Depth drilled with bit1
 EPD .F              5049:   Elevation Permanent Datum
 LMF .                 KB:   Log Measured From
 DMF .                 KB:   Drilling Measured From
 TLI .F               500:   Top log interval
 TLAB.HRS            1900:   Time logger at bottom
~OTHER INFORMATION
~A   DEPT     TENR        SPR        SFL        ILD        ILM       TEND         GRD      CALD       RHOB       CORR         NPHI 
# ...
 1246.5000   466.5710   -37.9080     7.2540     6.8150     6.0910   779.8380   109.2200     8.9750     2.5170     0.0210     0.3210
 1247.0000   466.9790   -37.9130     7.2540     6.8700     6.2240   780.0630   109.7980     8.9820     2.5260     0.0150     0.3110
 1247.5000   467.3860   -38.2630     7.2540     6.9250     6.3570   780.2880   110.6100     8.9860     2.5280     0.0200     0.3120
 1248.0000   467.7940   -38.4880     7.3010     6.9790     6.4890   780.5130   110.2010     8.9910     2.5300     0.0230     0.3160
 1248.5000   468.2020   -39.0400     7.3820     7.0340     6.6220   780.7380   108.9900     8.9970     2.5390     0.0270     0.3190
 1249.0000   468.6090   -38.9500     7.4630     7.0890     6.7540   780.9630   107.8800     9.0010     2.5480     0.0280     0.3230
 1249.5000   469.0170   -38.7000     7.5440     7.1300     6.8870   781.1880   108.6230     9.0070     2.5370     0.0240     0.3270
 1250.0000   469.4250   -38.4290     7.6250     7.1490     6.9930   781.4130   109.9960     9.0120     2.5230     0.0190     0.3090
 1250.5000   469.8330   -38.2120     7.7060     7.1680     6.9850   781.6380   111.3430     9.0170     2.5100     0.0140     0.2990
 1251.0000   470.2400   -37.9570     7.7870     7.1880     6.9630   781.8630   112.2840     9.0220     2.5160     0.0110     0.2920
 1251.5000   470.6480   -38.2480     7.8040     7.2070     6.9410   782.0880   111.3030     9.0270     2.5240     0.0180     0.2900
 1252.0000   471.0560   -38.3870     7.8040     7.2270     6.9190   782.3130   110.5090     9.0320     2.5310     0.0210     0.2920
 1252.5000   471.4630   -38.6330     7.8040     7.2460     6.8970   782.5380   109.4940     9.0370     2.5350     0.0240     0.2950
 1253.0000   471.8710   -38.5290     7.8040     7.2530     6.8750   782.7630   109.6300     9.0420     2.5350     0.0260     0.2970
 1253.5000   472.2790   -38.1600     7.8040     7.2340     6.8530   782.9880   110.6340     9.0480     2.5340     0.0260     0.3020
 1254.0000   472.6860   -37.8290     7.8040     7.2180     6.8310   783.2130   111.4500     9.0520     2.5210     0.0190     0.3110
 1254.5000   473.0940   -36.9530     7.8040     7.2020     6.8090   783.4380   112.3880     9.0580     2.5050     0.0110     0.3200
 1255.0000   473.5020   -36.3530     7.8040     7.1860     6.7870   783.6630   111.8280     9.0620     2.5010     0.0100     0.3230
 1255.5000   473.9100   -36.4930     7.8040     7.1700     6.7650   783.8880   110.4200     9.0860     2.5030     0.0150     0.3210
 1256.0000   474.3170   -36.6290     7.8040     7.1540     6.7430   784.1130   110.7230     9.1070     2.5000     0.0190     0.3190
 1256.5000   474.7250   -36.7960     7.8040     7.1370     6.7220   784.3380   112.6020     9.1310     2.4930     0.0230     0.3170
 1257.0000   475.1330   -36.9360     7.8040     7.1210     6.7000   784.5630   112.8590     9.1410     2.4870     0.0140     0.3150
 1257.5000   475.5400   -37.0980     7.8040     7.1050     6.6780   784.7870   111.9350     9.1400     2.4820     0.0050     0.3140
 1258.0000   475.9480   -37.0520     7.8040     7.0890     6.6560   785.0120   111.1900     9.1400     2.4850    -0.0040     0.3140
 1258.5000   476.3560   -36.9520     7.8030     7.0720     6.6340   785.2370   110.3350     9.1360     2.4890    -0.0030     0.3170
 1259.0000   476.7630   -36.8560     7.8040     7.0560     6.6120   785.4620   110.1360     9.1290     2.4970    -0.0030     0.3190
 1259.5000   477.1710   -36.7380     7.7720     7.0400     6.5900   785.6870   110.5760     9.1240     2.4980     0.0000     0.3200
 1260.0000   477.5790   -36.8410     7.7280     7.0240     6.5680   785.9120   110.9050     9.1170     2.5000     0.0060     0.2960
 1260.5000   477.9870   -37.1530     7.6840     7.0070     6.5460   786.1370   111.2820     9.1110     2.5010     0.0110     0.2940
 1261.0000   478.3940   -37.4390     7.6420     6.9920     6.5250   786.3620   111.6940     9.1050     2.5060     0.0160     0.2960
 1261.5000   478.8020   -37.7290     7.5970     6.9620     6.5010   786.5870   112.9420     9.0990     2.5180     0.0180     0.3120
 1262.0000   479.2100   -38.0230     7.5520     6.9340     6.4740   786.8120   113.9590     9.0930     2.5240     0.0200     0.3250
 1262.5000   479.6170   -38.3060     7.5140     6.9060     6.4450   787.0370   113.9820     9.0870     2.5310     0.0200     0.3450
 1263.0000   480.0250   -38.6080     7.4910     6.8780     6.4170   787.2620   113.9190     9.0810     2.5370     0.0270     0.3430
 1263.5000   480.4330   -38.6500     7.4650     6.8510     6.3880   787.4870   112.6680     9.0750     2.5370     0.0350     0.3400
 1264.0000   480.8400   -38.5620     7.4400     6.8230     6.3590   787.7120   111.4950     9.0690     2.5240     0.0350     0.3360
 1264.5000   481.2480   -38.4850     7.4140     6.7950     6.3300   787.9370   110.3110     9.0630     2.4990     0.0140     0.3340
 1265.0000   481.6560   -38.4090     7.3890     6.7670     6.3020   788.1620   109.2500     9.0600     2.4980     0.0100     0.3330
 1265.5000   482.0640   -38.3430     7.3640     6.7390     6.2730   788.3870   109.6720     9.0590     2.5110     0.0240     0.3310
 1266.0000   482.4710   -38.1330     7.3380     6.7110     6.2440   788.6120   110.1210     9.0570     2.5330     0.0360     0.3300
 1266.5000   482.8790   -37.7630     7.3130     6.6830     6.2150   788.8370   112.3780     9.0540     2.5290     0.0420     0.3280
 1267.0000   483.2870   -37.4020     7.2870     6.6550     6.1870   789.0620   114.5350     9.0520     2.5150     0.0250     0.3270
 1267.5000   483.6940   -37.0480     7.2620     6.6270     6.1550   789.2870   116.7350     9.0490     2.5020     0.0170     0.3270
 1268.0000   484.1020   -36.7200     7.2370     6.6000     6.1480   789.5120   118.6950     9.0470     2.4990     0.0160     0.3270
 1268.5000   484.5100   -36.7420     7.2110     6.5720     6.1410   789.7370   118.8170     9.0440     2.4970     0.0120     0.3310
 1269.0000   484.9170   -36.8590     7.1860     6.5430     6.1330   789.9610   118.3310     9.0420     2.4880     0.0050     0.3390
 1269.5000   485.3250   -36.9840     7.1600     6.5150     6.1270   790.1860   117.0430     9.0390     2.4700    -0.0010     0.3460
 1270.0000   485.7330   -37.0980     7.1350     6.4990     6.1200   790.4110   115.8610     9.0370     2.4540    -0.0070     0.3150
 1270.5000   486.1410   -37.0990     7.1090     6.5000     6.1130   790.6360   114.7440     9.0340     2.4640     0.0050     0.3140
 1271.0000   486.5480   -37.1070     7.0840     6.5000     6.1060   790.8610   112.3430     9.0320     2.4820     0.0220     0.3140
 1271.5000   486.9560   -37.1110     7.0580     6.5010     6.0990   791.0860   108.2400     9.0300     2.4890     0.0250     0.3330
 1272.0000   487.3640   -37.3720     7.0330     6.5010     6.0920   791.3110   104.2810     9.0270     2.4820     0.0190     0.3490
 1272.5000   487.7710   -37.7050     6.9940     6.5010     6.0850   791.5360   101.3170     9.0240     2.4820     0.0130     0.3620
 1273.0000   488.1790   -38.0410     7.0200     6.5010     6.0780   791.7610   103.6850     9.0230     2.5000     0.0100     0.3510
 1273.5000   488.5870   -38.2520     7.0870     6.5160     6.0710   791.9860   106.1300     9.0120     2.5210     0.0120     0.3410
 1274.0000   488.9940   -38.0880     7.1540     6.5850     6.0640   792.2110   107.0880     8.9800     2.5240     0.0150     0.3300
 1274.5000   489.4020   -37.9330     7.2210     6.6550     6.0570   792.4360   108.0270     8.9450     2.5250     0.0240     0.3200
 1275.0000   489.8100   -37.7660     7.2880     6.7240     6.0500   792.6610   108.8770     8.9360     2.5290     0.0340     0.3080
 1275.5000   490.2180   -37.5860     7.3540     6.7930     6.0440   792.8860   109.7740     8.9790     2.5310     0.0420     0.3110
 1276.0000   490.6250   -37.5430     7.4210     6.8620     6.1570   793.1110   108.6200     9.0640     2.5270     0.0490     0.3200
 1276.5000   491.0330   -37.7030     7.4880     6.9320     6.3010   793.3360   106.8370     9.1000     2.5240     0.0400     0.3290
