~VERSION INFORMATION
 VERS.                2.0:   CWLS LOG ASCII STANDARD - VERSION 2.0
 WRAP.                 NO:   ONE LINE PER DEPTH STEP
~WELL INFORMATION
#MNEM.UNIT      DATA TYPE    INFORMATION
#----------   ------------   ------------------------------
 STRT.F          230.0000:   START DEPTH
 STOP.F         3480.0000:   STOP DEPTH
 STEP.F            0.5000:   STEP LENGTH
 NULL.          -999.2500:   NO VALUE
 COMP.    FENIX & SCISSON:   COMPANY
 WELL. FENIX NPR 3 "AX" #33-15:   WELL
 FLD .                NPR:   FIELD
 LOC .      S15 T38N R78W:   LOCATION
 CNTY.            NATRONA:   COUNTY
 STAT.            WYOMING:   STATE
 CTRY. UNITED STATES OF AMERICA:   COUNTRY
 SRVC.       SCHLUMBERGER:   SERVICE COMPANY
 DATE.        19-MAR-1981:   LOGDATE
 API .     49025108760000:   API NUMBER
~CURVE INFORMATION
#MNEM.UNIT       API CODE    CURVE DESCRIPTION
#----------   ------------   ------------------------------
 DEPT.F                  :   
 TENR.LBS    07 635 01 00:   TENSION
 SFL .OHMM   07 220 01 00:   SHALLOW FOCUSED LOG RESISTIVITY
 ILM .OHMM   07 120 44 00:   INDUCTION LOG MEDIUM RESISTIVITY
 ILD .OHMM   07 120 46 00:   INDUCTION LOG DEEP RESISTIVITY
 SPR .MV     07 010 01 00:   SPONTANEOUS POTENTIAL
 CALD.IN     45 280 60 00:   CALIPER FROM DENSITY LOG
 GRD .GAPI   45 310 01 00:   GAMMA RAY FROM DENSITY LOG
 CORR.G/C3   45 356 01 00:   DENSITY CORRECTION
 RHOB.G/C3   45 350 01 00:   BULK DENSITY
~PARAMETER INFORMATION
#MNEM.UNIT          VALUE    DESCRIPTION
#----------   ------------   ------------------------------
 EKB .F         5286.0000:   Kelly bushing
 EGL .F         5276.0000:   Ground level
 EDF .F            0.0000:   Drilling floor
 TD  .F         3500.0000:   Total depth
 DATE.        19-MAR-1981:   Date logged
 CLNT.            A2DTECH:   Client Code
 SL  . 1545' FNL & 1467' FWL:   Surface Location
 PD  .                 GL:   Permanent Datum
 EPD .F              5276:   Elevation Permanent Datum
 LMF .                 KB:   Log Measured From
 DMF .                 KB:   Drilling Measured From
 DAPD.F                10:   Feet Above Permanent Datum
 DD  .F              3500:   Depth driller
 DL  .F              3476:   Depth logger
 BLI .F              3470:   Bottom log interval
 TLI .F               234:   Top log interval
 CS1 .IN            8.625:   Casing size
 CBD1.      8.625" @ 250':   Casing driller 1
 CBL1.F               234:   Casing logger 1
 BS1 .IN            7.875:   Bit size
 BSD1.F              3500:   Depth drilled with bit1
 DFT .                FGM:   Type fluid in hole
 DFD .                8.9:   Density
 DFV .                 39:   Viscosity
 DFPH.                9.5:   pH
 DFL .                 10:   Fluid loss
 MSS .               TANK:   Source of sample
 RMS .OHMM           2.26:   Rm
 MST .F                54:   Rm Meas. temp.
 RMF .OHMM           1.60:   Rmf
 MFST.F                54:   Rmf Meas. temp.
 MFSS.               MEAS:   Source Rmf.
 RMB .OHMM            .87:   Rm. at BHT
 BHT .F               140:   BHT.
 TCS .HRS            1030:   Time Circ. stopped
 TLAB.HRS            1300:   Time logger at bottom
 MRT .F               140:   Maximum recorded temp.
 LUN .               8039:   Logging unit number
 LUL .               CSPR:   Logging unit location
 ENGI.           C. PFARR:   Recorded By
 WITN.           R. SCOTT:   Witnessed by
 ORIG.     2.5", 5" PRINT:   Origin of data
 UWI .     49025108760000:   Unique Well ID
 DICO. A2D TECHNOLOGIES, INC.:   Digitizing Company
~OTHER INFORMATION
~A   DEPT     TENR          SFL      ILM        ILD        SPR         CALD       GRD      CORR         RHOB 
# ...
 1726.5000  1118.3510     9.9610     7.3520     8.1780   -41.3340     9.1200   105.8640     0.0190     2.5580
 1727.0000  1114.2531     9.8350     7.3520     8.2170   -41.3860     9.1110   108.3550     0.0230     2.5600
 1727.5000  1110.1550     9.7080     7.3520     8.2170   -41.4290     9.1010   110.0190     0.0270     2.5560
 1728.0000  1106.0570     9.5060     7.3520     8.2170   -41.4510     9.0920   111.3480     0.0280     2.5500
 1728.5000  1101.9590     9.4660     7.3520     8.2170   -41.2520     9.0830   110.3080     0.0290     2.5420
 1729.0000  1097.8610     9.4270     7.3520     8.2170   -41.0880     9.0740   109.0860     0.0290     2.5390
 1729.5000  1093.7629     9.3870     7.3520     8.2170   -40.9050     9.0650   107.2620     0.0230     2.5350
 1730.0000  1089.6650     9.3550     7.3520     8.2170   -40.7340     9.0560   105.3080     0.0180     2.5330
 1730.5000  1085.5670     9.7870     7.3520     8.2170   -40.5610     9.0460   104.0400     0.0130     2.5370
 1731.0000  1081.4690    10.0750     7.3520     8.2170   -40.3690     9.0370   102.7540     0.0140     2.5410
 1731.5000  1077.3710    10.0380     7.3520     8.2170   -40.3030     9.0280   102.6890     0.0210     2.5460
 1732.0000  1073.2729     9.9470     7.3530     8.2170   -40.4070     9.0260   104.6780     0.0250     2.5430
 1732.5000  1069.1750     9.8550     7.3460     8.2170   -40.4940     9.0260   106.4290     0.0200     2.5350
 1733.0000  1064.2570     9.7630     7.3280     8.2170   -40.5830     9.0260   106.1730     0.0150     2.5280
 1733.5000  1070.4360     9.6550     7.3120     8.2020   -40.6750     9.0260   105.9340     0.0110     2.5230
 1734.0000  1078.1591     9.5220     7.2950     8.1830   -40.7640     9.0260   106.3350     0.0090     2.5200
 1734.5000  1085.8820     9.3880     7.2780     8.1630   -40.8550     9.0260   107.3090     0.0120     2.5240
 1735.0000  1093.6050     9.2550     7.2610     8.1470   -40.9460     9.0260   108.2870     0.0130     2.5270
 1735.5000  1101.3280     9.1210     7.2440     8.1230   -41.0360     9.0260   109.2720     0.0100     2.5290
 1736.0000  1104.4180     9.0150     7.2260     8.1090   -41.1230     9.0260   110.2410     0.0070     2.5300
 1736.5000  1104.4180     9.1180     7.2160     8.0770   -41.2220     9.0260   110.0650     0.0220     2.5500
 1737.0000  1104.4180     9.2470     7.2180     8.1010   -41.2980     9.0260   108.7040     0.0290     2.5700
 1737.5000  1104.4180     9.3760     7.2170     7.9510   -41.3970     9.0260   108.2580     0.0360     2.5850
 1738.0000  1104.4180     9.5300     7.2170     8.0890   -41.5400     9.0260   108.0450     0.0400     2.5740
 1738.5000  1104.4180     9.5300     7.2170     8.0690   -41.9150     9.0260   106.7790     0.0350     2.5610
 1739.0000  1104.4180     9.5300     7.2170     8.0610   -41.7410     9.0260   105.7580     0.0280     2.5500
 1739.5000  1104.4180     9.5300     7.2170     8.0660   -41.5500     9.0260   106.7440     0.0260     2.5530
 1740.0000  1104.4180     9.5300     7.2170     8.0660   -41.3500     9.0260   111.1270     0.0240     2.5590
 1740.5000  1104.4180     9.6350     7.2170     8.0660   -41.1500     9.0260   113.6050     0.0170     2.5530
 1741.0000  1104.4180     9.8970     7.2170     8.0660   -40.9520     9.0260   112.5040     0.0090     2.5410
 1741.5000  1104.4180    10.2630     7.2170     8.0290   -40.7530     9.0260   109.7610     0.0010     2.5260
 1742.0000  1104.4180    10.0930     7.2170     7.9830   -40.5590     9.0260   108.9860     0.0030     2.5220
 1742.5000  1104.4180     9.8090     7.2120     7.9360   -40.3460     9.0260   109.6940     0.0090     2.5300
 1743.0000  1104.4180     9.5260     7.2080     7.9150   -40.3380     9.0260   110.0550     0.0120     2.5410
 1743.5000  1104.4180     9.2420     7.2040     7.9100   -40.4780     9.0260   109.2350     0.0170     2.5470
 1744.0000  1104.4180     8.9320     7.2000     7.9060   -40.6010     9.0260   106.3590     0.0210     2.5550
 1744.5000  1104.4180     8.8490     7.1960     7.9010   -40.7220     9.0260   104.4270     0.0240     2.5650
 1745.0000  1104.4180     9.0330     7.1920     7.8970   -40.8490     9.0260   100.3720     0.0220     2.5690
 1745.5000  1104.4180     9.3400     7.1870     7.8920   -40.9730     9.0260   100.3450     0.0180     2.5640
 1746.0000  1104.4180     9.6460     7.1830     7.8880   -41.0760     9.0260   103.0720     0.0150     2.5600
 1746.5000  1104.4180     9.9520     7.1790     7.8830   -41.2730     9.0260   104.4730     0.0110     2.5480
 1747.0000  1104.4180    10.0750     7.1750     7.8790   -41.4470     9.0260   103.9810     0.0140     2.5370
 1747.5000  1104.4180     9.9390     7.1710     7.8740   -41.5060     9.0260   103.4960     0.0190     2.5340
 1748.0000  1104.4180     9.7680     7.1670     7.8700   -41.1480     9.0260   103.3240     0.0240     2.5390
 1748.5000  1104.4180     9.5980     7.1630     7.8650   -41.0250     9.0260   104.1600     0.0290     2.5470
 1749.0000  1104.4180     9.5300     7.1580     7.8610   -40.9570     9.0260   104.9020     0.0310     2.5530
 1749.5000  1104.4180     9.5300     7.1540     7.8560   -40.9150     9.0260   105.1530     0.0320     2.5580
 1750.0000  1104.4180     9.4430     7.1500     7.8520   -40.8470     9.0260   104.8300     0.0330     2.5810
 1750.5000  1104.4180     9.2980     7.1460     7.8470   -40.7920     9.0260   104.2920     0.0330     2.5890
 1751.0000  1104.4180     9.1830     7.1420     7.8420   -40.7330     9.0260   103.6640     0.0340     2.5820
 1751.5000  1104.4180     9.2030     7.1380     7.8380   -40.6740     9.0260   104.0620     0.0340     2.5730
 1752.0000  1104.4180     9.2510     7.1330     7.8330   -40.6160     9.0260   105.7260     0.0340     2.5570
 1752.5000  1104.4180     9.2990     7.1290     7.8290   -40.5580     9.0260   104.5560     0.0260     2.5420
 1753.0000  1105.3879     9.3550     7.1250     7.8240   -40.5000     9.0260   103.2160     0.0200     2.5290
 1753.5000  1106.3390     9.3550     7.1210     7.8200   -40.4400     9.0260   102.2970     0.0140     2.5250
 1754.0000  1107.2900     9.3110     7.1170     7.8150   -40.3850     9.0260   103.6180     0.0080     2.5200
 1754.5000  1108.2410     9.2680     7.1130     7.8110   -40.3220     9.0260   107.5540     0.0060     2.5180
 1755.0000  1109.1910     9.2250     7.1090     7.8060   -40.2640     9.0260   107.4330     0.0060     2.5290
 1755.5000  1110.1420     9.1850     7.1040     7.8010   -40.0910     9.0260   106.8970     0.0080     2.5440
 1756.0000  1111.0930     9.1840     7.1000     7.7970   -39.9450     9.0260   106.4290     0.0120     2.5570
 1756.5000  1112.0439     9.1830     7.0960     7.7920   -39.7860     9.0260   106.5770     0.0170     2.5520
 1757.0000  1112.9950     9.1840     7.0920     7.7880   -39.6410     9.0260   106.6820     0.0150     2.5400
 1757.5000  1113.9460     9.1840     7.0880     7.7830   -39.4820     9.0260   106.5260     0.0130     2.5310
 1758.0000  1114.8970     9.1840     7.0840     7.7790   -39.5920     9.0260   106.6490     0.0130     2.5280
 1758.5000  1115.8480     9.1840     7.0790     7.7740   -39.8020     9.0260   108.1990     0.0140     2.5240
 1759.0000  1116.7990     9.1830     7.0740     7.7690   -40.0010     9.0260   109.5860     0.0140     2.5200
 1759.5000  1117.7500     9.1830     7.0690     7.7620   -40.1980     9.0260   109.5000     0.0130     2.5190
 1760.0000  1118.7010     9.2450     7.0640     7.7560   -40.3960     9.0260   109.1310     0.0110     2.5170
 1760.5000  1119.6520     9.4640     7.0600     7.7500   -40.5960     9.0260   109.6050     0.0070     2.5100
 1761.0000  1120.6030     9.7080     7.0550     7.7440   -40.7970     9.0260   110.6900     0.0070     2.5090
 1761.5000  1121.5540     9.6370     7.0500     7.7380   -40.9760     9.0260   110.8740     0.0110     2.5150
 1762.0000  1122.5050     9.4920     7.0450     7.7320   -41.3410     9.0260   108.5160     0.0200     2.5330
 1762.5000  1123.4561     9.3470     7.0400     7.7260   -41.8420     9.0260   106.3580     0.0220     2.5390
