~VERSION INFORMATION
 VERS.                2.0:   CWLS LOG ASCII STANDARD - VERSION 2.0
 WRAP.                 NO:   ONE LINE PER DEPTH STEP
~WELL INFORMATION
#MNEM.UNIT      DATA TYPE    INFORMATION
#----------   ------------   ------------------------------
 STRT.F            7.0000:   START DEPTH
 STOP.F         3304.0000:   STOP DEPTH
 STEP.F            0.5000:   STEP LENGTH
 NULL.          -999.2500:   NO VALUE
 COMP. LAWRENCE ALLISON ASSOC. WEST:   COMPANY
 WELL. LAWRENCE NPR  "X" #18-2:   WELL
 FLD .              N P R:   FIELD
 LOC .       S2 T38N R78W:   LOCATION
 CNTY.            NATRONA:   COUNTY
 STAT.            WYOMING:   STATE
 CTRY. UNITED STATES OF AMERICA:   COUNTRY
 SRVC.      DRESSER ATLAS:   SERVICE COMPANY
 DATE.        28-APR-1986:   LOGDATE
 API .     49025110710000:   API NUMBER
~CURVE INFORMATION
#MNEM.UNIT       API CODE    CURVE DESCRIPTION
#----------   ------------   ------------------------------
 DEPT.F                  :   
 TEND.LBS    45 635 01 00:   TENSION FROM DENSITY LOG
 DEN .G/C3   45 635 01 00:   DENSITY
 CORR.G/C3   45 356 01 00:   DENSITY CORRECTION
 CNC .DEC    42 890 03 00:   NEUTRON PORISITY SANDSTONE
 TENR.LBS    07 635 01 00:   TENSION FROM RESISTIVITY
 CALR.IN     07 280 01 00:   CALIPER FROM RESISTIVITY
 SPR .MV     07 010 01 00:   SPONTANEOUS POTENTIAL
 GRR .GAPI   07 310 01 00:   GAMMA RAY FROM RESISTIVITY
 RFOC.OHMM   07 220 04 00:   RESISTIVITY FOCUSED LOG RES.
 RILD.OHMM   07 120 46 00:   DEEP INDUCTION RESISTIVITY
 RILM.OHMM   07 120 44 00:   INDUCTION LOG MEDIUM RESISTIVITY
 TENS.LBS    60 635 01 00:   TENSION
 AC  .US/F   60 250 00 00:   ACCOUSTIC
~PARAMETER INFORMATION
#MNEM.UNIT          VALUE    DESCRIPTION
#----------   ------------   ------------------------------
 EKB .F         5142.0000:   Kelly bushing
 EGL .F         5130.0000:   Ground level
 EDF .F            0.0000:   Drilling floor
 EPD .F         5130.0000:   Permanent datum
 TD  .F         3296.0000:   Total depth
 DATE.        28-APR-1986:   Date logged
 CLNT.            A2DTECH:   Client Code
 SL  . 210' FSL & 204' FWL:   Surface Location
 PD  .                 GL:   Permanent Datum
 DD  .F              3295:   Depth driller
 DL  .F              3290:   Depth logger
 BLI .F              3296:   Bottom log interval
 CS1 .IN            8.625:   Casing size
 CBD1.      8.625" @ 563':   Casing driller 1
 CBL1.F               560:   Casing logger 1
 BS1 .IN            7.875:   Bit size
 BSD1.F              3295:   Depth drilled with bit1
 DFT .        POLYMER KCL:   Type fluid in hole
 DFD .                8.9:   Density
 DFV .                 38:   Viscosity
 DFPH.                8.5:   pH
 DFL .                9.2:   Fluid loss
 MSS .           FLOWLINE:   Source of sample
 RMS .OHMM           .435:   Rm
 MST .F                74:   Rm Meas. temp.
 RMF .OHMM            .33:   Rmf
 MFST.F                74:   Rmf Meas. temp.
 RMC .OHMM            .54:   Rmc
 MCST.F                74:   Rmc Meas. temp.
 MFSS.               CALC:   Source Rmf.
 MCSS.               CALC:   Source Rmc.
 RMB .OHMM            .77:   Rm. at BHT
 BHT .F               119:   BHT.
 TCS .HRS               4:   Time Circ. stopped
 MRT .F               119:   Maximum recorded temp.
 LUN .            HL 6264:   Logging unit number
 LUL .           GILLETTE:   Logging unit location
 ENGI.      P.M. FAHLSING:   Recorded By
 WITN.             STRONG:   Witnessed by
 ORIG.         2.5" PRINT:   Origin of data
 UWI .     49025110710000:   Unique Well ID
 DICO. A2D TECHNOLOGIES, INC.:   Digitizing Company
 DAPD.                 12:   Feet Above Permanent Datum
~OTHER INFORMATION
~A    DEPT    TEND        DEN       CORR        CNC       TENR       CALR        SPR         GRR      RFOC       RILD       RILM       TENS         AC   
# ...
 2373.0000   -65.4990     2.4680     0.0680     0.2580   -83.3330    11.3040   -35.9360   111.4840     3.6300     2.5250     2.7730   -83.0060    91.9650
 2373.5000   -68.2380     2.4570     0.0650     0.2600   -83.3330    11.2690   -36.2850   114.8140     3.4360     2.4960     2.7190   -83.0060    92.3340
 2374.0000   -70.9780     2.4520     0.0480     0.2630   -83.3330    11.2520   -36.6240   116.9530     3.0300     2.4840     2.7690   -83.0060    92.9970
 2374.5000   -73.7180     2.4560     0.0250     0.2700   -83.3330    11.2490   -36.8020   116.3790     3.0860     2.5290     2.8560   -83.0060    93.5360
 2375.0000   -76.4570     2.4640     0.0000     0.2740   -83.3330    11.2440   -36.3160   115.0270     3.2320     2.5990     2.9430   -83.0060    93.7330
 2375.5000   -79.1970     2.4710    -0.0110     0.2750   -83.3330    11.2400   -35.8130   113.5960     3.3770     2.6470     3.0300   -83.0060    92.9870
 2376.0000   -81.9360     2.4790    -0.0020     0.2750   -83.3330    11.2360   -35.6870   112.2060     3.4380     2.7080     3.1780   -83.0060    92.2420
 2376.5000   -84.6760     2.4860     0.0280     0.2720   -83.3330    11.2290   -35.8230   111.2810     3.4810     2.7680     3.3240   -83.0060    91.3750
 2377.0000   -87.4150     2.4920     0.0560     0.2680   -83.3330    11.2290   -35.9780   110.6210     3.6300     3.0090     3.4710   -83.0060    91.0280
 2377.5000   -90.1550     2.5000     0.0780     0.2640   -83.3330    11.2220   -36.0280   110.6760     3.6300     3.3120     3.6180   -83.0060    90.6140
 2378.0000   -92.8950     2.5120     0.0730     0.2650   -83.3330    11.1940   -35.9340   104.0710     4.0060     3.6150     3.7650   -83.0060    89.7900
 2378.5000   -95.6340     2.5260     0.0640     0.2550   -83.3330    11.0850   -35.6400    97.7110     4.3850     3.9010     3.9110   -83.0060    88.4980
 2379.0000   -98.3740     2.5400     0.0530     0.2490   -83.3330    11.0820   -35.1170    97.5200     4.7640     4.0450     4.0580   -83.0060    87.2060
 2379.5000  -101.1130     2.5450     0.0520     0.2420   -83.3330    11.0570   -34.1170    98.3160     5.1150     4.0280     4.2050   -83.0060    85.9130
 2380.0000  -100.9900     2.5450     0.0630     0.2360   -83.3330    11.0370   -33.2280    98.8290     5.0010     3.9920     4.3510   -83.0060    85.0880
 2380.5000   -97.1970     2.5370     0.0690     0.2510   -83.3330    11.0180   -32.3270   101.2810     4.5900     3.9560     4.4270   -83.0060    85.6320
 2381.0000   -93.4030     2.5300     0.0640     0.2630   -83.3330    10.9980   -31.6350   106.4330     4.1780     3.9200     4.4270   -83.0060    87.2890
 2381.5000   -89.6100     2.5220     0.0570     0.2590   -83.3330    10.9810   -32.3280   111.6790     3.9730     3.9010     4.4270   -83.0060    88.9460
 2382.0000   -85.8170     2.5300     0.0500     0.2520   -83.3330    10.9860   -33.7250   113.2330     4.0750     3.9010     4.4270   -83.0060    90.9820
 2382.5000   -82.2080     2.5390     0.0520     0.2430   -83.3330    10.9900   -35.2050   107.4310     4.4060     3.9010     4.4270   -83.0060    90.4850
 2383.0000   -79.1260     2.5480     0.0520     0.2350   -83.3330    10.9950   -36.1770   101.9700     4.7370     3.9010     4.4270   -83.0060    89.1590
 2383.5000   -76.0440     2.5580     0.0640     0.2420   -83.3330    11.0000   -36.4320    99.4550     5.0240     3.9010     4.4270   -83.0060    87.8390
 2384.0000   -72.9620     2.5620     0.0820     0.2510   -83.3330    11.0050   -36.3980    99.8670     4.7360     3.9320     4.4270   -83.0060    87.4460
 2384.5000   -69.8800     2.5650     0.0930     0.2630   -83.3330    11.0100   -36.1830   100.1280     4.5080     3.9730     4.4270   -83.0060    87.9880
 2385.0000   -66.7980     2.5660     0.0830     0.2530   -83.3330    11.0150   -35.9380   100.2490     4.5080     3.9680     4.4270   -83.0060    88.6510
 2385.5000   -63.3600     2.5580     0.0700     0.2380   -83.3330    11.0200   -35.7640   100.2380     4.8200     3.9540     4.3850   -83.0060    88.8270
 2386.0000   -63.3600     2.5520     0.0580     0.2320   -83.3330    11.0240   -36.0790    97.7810     5.0240     3.9400     4.3410   -83.0060    88.4010
 2386.5000   -63.3600     2.5470     0.0580     0.2390   -83.3330    11.0290   -36.1970    95.4240     5.0910     3.9260     4.2970   -83.0060    87.9750
 2387.0000   -63.3600     2.5450     0.0580     0.2530   -83.3330    11.0340   -36.3940    93.8790     5.1150     3.9120     4.2700   -83.0060    87.8390
 2387.5000   -63.3600     2.5390     0.0580     0.2610   -83.3330    11.0390   -36.1340    94.9540     4.5900     3.9010     4.2700   -83.0060    88.3300
 2388.0000   -63.3600     2.5290     0.0580     0.2610   -83.3330    11.0440   -35.8550    96.6930     4.5900     3.9010     4.3480   -83.0060    89.3240
 2388.5000   -63.3600     2.5340     0.0610     0.2520   -83.3330    11.0490   -35.5680    97.2580     4.6450     4.0450     4.4640   -83.0060    90.3180
 2389.0000   -63.3600     2.5410     0.0640     0.2340   -83.3330    11.0530   -35.2860    97.2320     4.8990     4.1670     4.6330   -83.0060    90.5890
 2389.5000   -63.3600     2.5470     0.0690     0.2320   -83.3330    11.0580   -34.9930    97.4180     5.1530     4.3170     4.8030   -83.0060    89.2960
 2390.0000   -63.3600     2.5530     0.0700     0.2300   -83.3330    11.0490   -34.8180    98.0440     5.4080     4.4670     4.9730   -83.0060    87.9150
 2390.5000   -63.8220     2.5580     0.0720     0.2420   -83.3330    11.0370   -34.8500    98.7470     5.7010     4.6170     5.1430   -83.0060    86.5350
 2391.0000   -64.4630     2.5610     0.0730     0.2540   -83.3330    11.0250   -34.9010   100.2750     5.5590     4.7590     5.3130   -83.0060    85.7340
 2391.5000   -65.1050     2.5680     0.0740     0.2520   -83.3330    11.0130   -35.4280   101.1660     5.3920     4.9340     5.4830   -83.0060    85.8830
 2392.0000   -65.7460     2.5730     0.0760     0.2490   -83.3330    11.0010   -35.6550   101.0370     5.3030     5.0240     5.6530   -83.0060    86.0330
 2392.5000   -66.3870     2.5790     0.0780     0.2640   -83.3330    10.9890   -35.9350    99.2260     5.4970     5.0240     5.8230   -83.0060    86.1820
 2393.0000   -67.0290     2.5850     0.0750     0.2610   -83.3330    10.9770   -36.1920    97.4640     5.6770     5.1260     5.9100   -83.0060    86.1610
 2393.5000   -67.6700     2.5840     0.0710     0.2540   -83.3330    10.9650   -36.4500    95.6500     5.7740     5.3030     6.0280   -83.0060    85.9130
 2394.0000   -68.3110     2.5780     0.0670     0.2450   -82.9720    10.9530   -36.7170    93.7990     5.6700     5.4000     6.0630   -83.0060    85.6780
 2394.5000   -68.9530     2.5720     0.0660     0.2350   -82.5690    10.9410   -36.9760    93.8620     5.5990     5.4990     6.0970   -83.0060    85.6780
 2395.0000   -69.5940     2.5670     0.0650     0.2360   -82.1660    10.9290   -37.1970    95.9470     5.5990     5.5990     6.1280   -83.0060    85.6780
 2395.5000   -70.2350     2.5650     0.0650     0.2380   -81.7630    10.9170   -37.2030    97.8850     5.9720     5.7010     6.1280   -83.0060    85.3850
 2396.0000   -70.8770     2.5640     0.0640     0.2390   -81.3600    10.9050   -37.2090    99.4830     6.1280     5.7010     6.1280   -83.0060    85.1140
 2396.5000   -71.5180     2.5630     0.0630     0.2360   -80.9580    10.9010   -37.2020    98.7740     6.1120     5.6670     6.0490   -83.0060    84.8430
 2397.0000   -72.1590     2.5630     0.0630     0.2260   -80.5550    10.8980   -37.2110    98.1100     6.0910     5.5690     5.9430   -83.0060    84.5720
 2397.5000   -72.8010     2.5680     0.0620     0.2200   -80.1520    10.8960   -37.2020    97.3710     6.0700     5.4700     5.8360   -83.0060    84.6810
 2398.0000   -73.4420     2.5740     0.0630     0.2260   -79.7490    10.8930   -37.1780    96.7210     6.0480     5.3720     5.7300   -83.0060    84.9290
 2398.5000   -74.0830     2.5800     0.0650     0.2380   -79.3460    10.8910   -36.8080    95.8420     6.0270     5.2740     5.6240   -83.0060    85.1780
