~VERSION INFORMATION
 VERS.                2.0:   CWLS LOG ASCII STANDARD - VERSION 2.0
 WRAP.                 NO:   ONE LINE PER DEPTH STEP
~WELL INFORMATION
#MNEM.UNIT      DATA TYPE    INFORMATION
#----------   ------------   ------------------------------
 STRT.F          220.0000:   START DEPTH
 STOP.F         3284.5000:   STOP DEPTH
 STEP.F            0.5000:   STEP LENGTH
 NULL.          -999.2500:   NO VALUE
 COMP.    FENIX & SCISSON:   COMPANY
 WELL. FENIX HARPEL "A" #85-28:   WELL
 FLD .              NPR-3:   FIELD
 LOC .      S28 T39N R78W:   LOCATION
 CNTY.            NATRONA:   COUNTY
 STAT.            WYOMING:   STATE
 CTRY. UNITED STATES OF AMERICA:   COUNTRY
 SRVC.      DRESSER ATLAS:   SERVICE COMPANY
 DATE.        07-AUG-1977:   LOGDATE
 API .     49025104040000:   API NUMBER
~CURVE INFORMATION
#MNEM.UNIT       API CODE    CURVE DESCRIPTION
#----------   ------------   ------------------------------
 DEPT.F                  :   
 GRD .GAPI   45 310 01 00:   GAMMA RAY FROM DENSITY LOG
 CALD.IN     45 280 60 00:   CALIPER FROM DENSITY LOG
 CORR.G/C3   45 356 01 00:   DENSITY CORRECTION
 RHOB.G/C3   45 350 01 00:   BULK DENSITY
 TEND.LBS    45 635 01 00:   TENSION FORM DENSITY LOG
 NPHI.DEC    42 890 03 00:   NEUTRON POROSITY SANDSTONE
 SPR .MV     11 010 01 00:   SPONTANEOUS POTENTIAL FROM RES.
 TENR.LBS    11 635 01 00:   TENSION FROM RES.
 LLD .OHMM   11 220 10 00:   LATEROLOG LOG DEEP
 LLS .OHMM   11 220 09 00:   LATEROLOG SHALLOW
 RXO .OHMM   11 270 04 00:   FLUSHED ZONE RESISTIVITY
~PARAMETER INFORMATION
#MNEM.UNIT          VALUE    DESCRIPTION
#----------   ------------   ------------------------------
 EKB .F         5059.0000:   Kelly bushing
 EGL .F         5049.0000:   Ground level
 EDF .F            0.0000:   Drilling floor
 EPD .F            0.0000:   Permanent datum
 TD  .F         3240.0000:   Total depth
 CLNT.            A2DTECH:   Client Code
 SL  . 2310' FSL & 330' FEL:   Surface Location
 PD  .                 GL:   Permanent Datum
 DAPD.F                10:   Feet Above Permanent Datum
 DATE.        07-AUG-1977:   Date Logged [DD-MMM-YYYY]
 DD  .F              3240:   Depth driller
 DL  .F              3267:   Depth logger
 BLI .F              3265:   Bottom log interval
 TLI .F               224:   Top log interval
 CS1 .IN            8.625:   Casing size
 CBD1.      8.625" @ 254':   Casing driller 1
 CBL1.F               224:   Casing logger 1
 BS1 .IN            7.875:   Bit size
 BSD1.F              3240:   Depth drilled with bit1
 DFT .                KCL:   Type fluid in hole
 DFD .                8.8:   Density
 DFV .                 36:   Viscosity
 DFPH.               10.5:   pH
 DFL .                9.6:   Fluid loss
 MSS .         CIRCULATED:   Source of sample
 RMS .OHMM           0.22:   Rm
 MST .F                78:   Rm Meas. temp.
 RMF .OHMM           0.16:   Rmf
 MFST.F                78:   Rmf Meas. temp.
 MFSS.               MEAS:   Source Rmf.
 RMC .OHMM           0.28:   Rmc
 MCST.F                78:   Rmc Meas. temp.
 MCSS.               MEAS:   Source Rmc.
 RMB .OHMM           0.14:   Rm. at BHT
 BHT .F               125:   BHT.
 TCS .HRS               7:   Time Circ. stopped
 MRT .F               125:   Maximum recorded temp.
 LUN .               6134:   Logging unit number
 LUL .              GLTTE:   Logging unit location
 ENGI.              GOULD:   Recorded By
 WITN.         HARRINGTON:   Witnessed by
 ORIG.      2.5" 5" PRINT:   Origin of data
 UWI .     49025104040000:   Unique Well ID
 DICO. A2D TECHNOLOGIES, INC.:   Digitizing Company
~OTHER INFORMATION
~A   DEPT      GRD       CALD       CORR       RHOB       TEND         NPHI      SPR       TENR        LLD        LLS        RXO   
# ...
 2629.5000    49.4422     8.8927     0.0143     2.4784  1040.8767     0.1854   -70.9777   750.6299    20.1445    14.7046     7.3327
 2630.0000    48.8636     8.8942     0.0206     2.4964  1039.2747     0.1887   -71.2874   751.6116    18.0106    13.7182     7.0621
 2630.5000    47.8165     8.8960     0.0269     2.4830  1022.3568     0.1865   -71.2979   749.5820    17.8570    14.0969     7.0592
 2631.0000    48.0059     8.8829     0.0226     2.4756  1035.7810     0.1850   -71.3084   753.5930    18.3504    14.2873     7.0570
 2631.5000    47.3822     8.8768     0.0168     2.4787  1049.1389     0.1889   -71.3189   754.6408    18.8591    14.2811     6.8628
 2632.0000    46.5545     8.8566     0.0170     2.4908  1046.9554     0.1948   -71.3311   755.6885    18.5955    14.2752     6.8606
 2632.5000    45.6715     8.8435     0.0158     2.4729  1075.4199     0.1990   -71.3409   756.7366    18.0808    14.2693     6.8582
 2633.0000    46.8893     8.8456     0.0160     2.4640  1073.7159     0.1917   -71.3507   757.9923    17.8324    14.4617     6.9037
 2633.5000    45.4176     8.8320     0.0162     2.4499  1075.9635     0.1815   -71.3608   758.9741    17.9588    14.6559     7.2562
 2634.0000    47.0846     8.8340     0.0180     2.4702  1085.2839     0.1722   -71.3713   759.9553    19.0368    15.2698     7.6501
 2634.5000    45.7575     8.8359     0.0228     2.4643  1083.3838     0.1729   -71.3817   760.9370    20.1717    15.9095     7.4390
 2635.0000    45.1790     8.8227     0.0231     2.4614  1081.5713     0.1814   -71.3922   732.0359    20.1652    15.6671     7.4366
 2635.5000    44.7552     8.8096     0.0203     2.4735  1079.6056     0.1942   -71.4047   733.0837    19.8839    15.2520     7.8557
 2636.0000    46.7215     8.8113     0.0174     2.4705  1077.8586     0.1957   -71.4146   734.1317    19.8463    15.9636     8.2984
 2636.5000    48.9873     8.7982     0.0147     2.4646  1076.1329     0.1912   -71.7238   735.1797    19.8736    16.0029     6.8160
 2637.0000    50.3548     8.8000     0.0134     2.4556  1074.3206     0.1956   -71.7336   743.0461    19.2942    15.0223     6.4701
 2637.5000    50.3751     8.8019     0.0121     2.4483  1072.1804     0.1956   -72.0434   766.2957    18.6690    13.8225     6.7184
 2638.0000    49.3474     8.8036     0.0124     2.4679  1070.6947     0.2049   -72.0900   775.3336    17.9380    13.0746     7.0720
 2638.5000    49.5180     8.8054     0.0141     2.4770  1068.8821     0.2075   -72.3971   746.2574    17.2980    12.8903     6.9243
 2639.0000    49.8421     8.8073     0.0144     2.4801  1066.9386     0.2083   -72.7404   763.8667    16.5886    13.2461     6.7338
 2639.5000    49.2636     8.7940     0.0146     2.4846  1065.1917     0.2098   -72.4480   777.8073    16.3572    13.2025     6.7316
 2640.0000    46.5892     8.7959     0.0151     2.4937  1063.4441     0.2119   -72.7545   778.5136    16.3530    12.9938     6.8228
 2640.5000    46.3050     8.7976     0.0197     2.4803  1061.5516     0.2016   -72.7620   779.2204    16.8059    12.8690     6.9272
 2641.0000    46.4749     8.7845     0.0230     2.4610  1059.8188     0.1953   -72.7695   779.9401    16.5455    13.2228     7.0090
 2641.5000    46.0511     8.7866     0.0277     2.4768  1058.0063     0.1914   -72.7769   780.6887    16.1160    13.9683     7.0063
 2642.0000    43.5915     8.7881     0.0325     2.5001  1053.9280     0.1967   -72.6347   781.4371    16.8138    14.7558     7.0039
 2642.5000    42.9479     8.7901     0.0358     2.4924  1039.2750     0.2000   -72.4925   782.1855    18.7350    14.9552     7.0011
 2643.0000    45.2187     8.7919     0.0391     2.4860  1035.0646     0.1952   -72.5009   767.6541    19.1038    14.5418     6.9030
 2643.5000    49.4306     8.7936     0.0407     2.5018  1020.2740     0.1903   -72.5079   753.7426    18.9246    14.5358     6.8062
 2644.0000    48.5527     8.7954     0.0380     2.4914  1003.6250     0.1963   -72.5150   741.4174    19.5201    14.5298     6.7109
 2644.5000    46.4720     8.7970     0.0367     2.4841  1001.6743     0.1936   -72.5225   725.3471    18.9843    14.6331     6.7201
 2645.0000    47.8543     8.7988     0.0339     2.4752   999.7812     0.1881   -72.5299   696.1077    18.1852    14.3175     6.8469
 2645.5000    47.1164     8.8006     0.0296     2.4693   997.8891     0.1887   -72.5374   696.8563    17.9558    13.9221     7.0845
 2646.0000    48.3342     8.8025     0.0284     2.4768   996.3744     0.1844   -72.5449   679.3372    17.7058    13.8854     7.0816
 2646.5000    48.0551     8.8045     0.0381     2.4753   994.5404     0.1805   -72.5537   668.2935    18.0629    14.3008     6.6989
 2647.0000    48.9786     8.8062     0.0350     2.4695  1003.3231     0.1826   -72.5608   669.1618    19.2204    14.7122     6.4254
 2647.5000    47.9510     8.8112     0.0231     2.4561  1021.1483     0.1801   -72.5678   669.9102    19.7533    14.8940     6.7875
 2648.0000    46.6188     8.8244     0.0173     2.4463  1019.0737     0.1843   -72.5748   700.7073    19.2104    14.6831     7.1700
 2648.5000    46.9561     8.8264     0.0114     2.4443  1017.5227     0.1959   -72.5823   701.4140    19.2054    14.9759     7.3681
 2649.0000    45.1432     8.8280     0.0101     2.4519  1000.4730     0.1983   -72.5898   702.1204    19.7372    15.0817     6.5550
 2649.5000    41.5999     8.8299     0.0225     2.4565   983.6204     0.2015   -72.5973   702.8443    18.7713    13.8760     5.6289
 2650.0000    40.3239     8.7872     0.0303     2.4551   981.8734     0.1970   -72.6048   703.5927    17.5060    12.7677     5.0049
 2650.5000    38.7930     8.7893     0.0335     2.4597   980.0602     0.1868   -72.3142   704.3412    16.5057    12.0769     4.8403
 2651.0000    43.1533     8.7913     0.0321     2.4643   978.2479     0.1811   -72.3212   705.0899    16.0309    12.0720     5.0688
 2651.5000    46.7651     8.7934     0.0264     2.4741   976.1951     0.1780   -72.0284   705.8383    15.8073    12.1020     5.6581
 2652.0000    49.3293     8.7952     0.0206     2.4899   965.5542     0.1822   -72.0359   706.7139    15.8032    12.5157     6.5826
 2652.5000    49.8477     8.7975     0.0192     2.5095   957.5946     0.1815   -72.0434   707.4206    16.6949    13.8159     7.3735
 2653.0000    48.9226     8.7932     0.0225     2.5342   955.8912     0.1704   -72.0509   708.1274    18.1855    15.4515     7.4474
 2653.5000    47.4430     8.7862     0.0348     2.5503   954.0785     0.1596   -72.0584   708.8341    19.2580    16.5496     7.3431
 2654.0000    43.2704     8.7888     0.0441     2.5636   952.2661     0.1479   -72.2156   739.5209    19.7702    16.7737     7.7044
 2654.5000    38.9481     8.7760     0.0383     2.5472   950.4531     0.1344   -72.3741   747.2051    20.1978    16.9997     8.6573
 2655.0000    36.1227     8.7724     0.0218     2.5279   948.7137     0.1163   -72.0808   770.9581    25.7941    18.0656     9.4009
 2655.5000    38.1931     8.7606     0.0160     2.5257   961.9334     0.1130   -72.0888   771.7065    32.7540    22.3795     9.6608
 2656.0000    35.7116     8.7523     0.0116     2.5176  1005.3505     0.1232   -72.3952   772.6011    35.0826    25.3423     8.7689
 2656.5000    38.2803     8.7395     0.0164     2.4989  1033.8149     0.1453   -72.1029   773.3079    32.7370    24.3329     7.8236
 2657.0000    37.0969     8.7267     0.0272     2.4878  1067.7740     0.1598   -72.4102   774.0146    27.2271    20.8673     7.5300
 2657.5000    43.4081     8.7129     0.0320     2.4984  1075.6383     0.1609   -72.3054   774.7214    23.2141    15.8255     8.1488
 2658.0000    45.5229     8.7001     0.0352     2.5044  1103.6654     0.1533   -72.1257   775.4490    19.3501    14.1648     8.1743
 2658.5000    45.2377     8.6882     0.0323     2.5157  1117.0243     0.1557   -72.1346   746.1943    16.4816    13.0335     6.9243
 2659.0000    47.2028     8.6903     0.0248     2.4956  1115.4078     0.1704   -72.1416   747.0060    14.5639    11.7875     6.1991
 2659.5000    43.1846     8.6927     0.0162     2.4853  1113.5952     0.1775   -72.1486   747.7544    13.5230    10.7911     5.8646
