~VERSION INFORMATION
 VERS.                2.0:   CWLS LOG ASCII STANDARD - VERSION 2.0
 WRAP.                 NO:   ONE LINE PER DEPTH STEP
~WELL INFORMATION
#MNEM.UNIT      DATA TYPE    INFORMATION
#----------   ------------   ------------------------------
 STRT.F            0.5000:   START DEPTH
 STOP.F         5663.0000:   STOP DEPTH
 STEP.F            0.5000:   STEP LENGTH
 NULL.          -999.2500:   NO VALUE
 COMP.         U. S. NAVY:   COMPANY
 WELL.         US TP #1-3:   WELL
 FLD . TEAPOT NAVAL RESERVE:   FIELD
 LOC .       S3 T38N R78W:   LOCATION
 CNTY.            NATRONA:   COUNTY
 STAT.            WYOMING:   STATE
 CTRY. UNITED STATES OF AMERICA:   COUNTRY
 SRVC.       SCHLUMBERGER:   SERVICE COMPANY
 DATE.        27-FEB-1953:   LOGDATE
 API .     49025064250000:   API NUMBER
~CURVE INFORMATION
#MNEM.UNIT       API CODE    CURVE DESCRIPTION
#----------   ------------   ------------------------------
 DEPT.F                  :   
 SPR .MV     01 010 01 00:   SPONTANEOUS POTENTIAL FROM RES.
 ASN .OHMM   01 041 16 00:   AMPLIFIED SHORT NORMAL 16"
 LAT .OHMM   01 070 00 00:   LATERAL
 LN  .OHMM   01 060 64 00:   LONG NORMAL 64"
 GRN .CPS    35 310 01 00:   GAMMA RAY
 NEUT.NAPI   35 330 01 00:   NEUTRON
~PARAMETER INFORMATION
#MNEM.UNIT          VALUE    DESCRIPTION
#----------   ------------   ------------------------------
 EKB .F            0.0000:   Kelly bushing
 EGL .F            0.0000:   Ground level
 EDF .F            0.0000:   Drilling floor
 EPD .F            0.0000:   Permanent datum
 TD  .F         5653.0000:   Total depth
 DATE.        27-FEB-1953:   Date logged
 CLNT.            A2DTECH:   Client Code
 DD  .F              5653:   Depth driller
 DL  .F              5653:   Depth logger
 BLI .F              5652:   Bottom log interval
 TLI .F               446:   Top log interval
 CBD1.F               445:   Casing driller 1
 CBL1.F               446:   Casing logger 1
 BS1 .IN                9:   Bit size
 BSD1.F              5653:   Depth drilled with bit1
 DFT .          LIMA/BASE:   Type fluid in hole
 DFD .                9.9:   Density
 DFV .                 43:   Viscosity
 RMS .OHMM            1.1:   Rm
 MST .F                55:   Rm Meas. temp.
 RMB .OHMM            .34:   Rm. at BHT
 BHT .F               166:   BHT.
 TCS .HRS               1:   Time Circ. stopped
 MRT .F               166:   Maximum recorded temp.
 LUN .                728:   Logging unit number
 LUL .               CSPR:   Logging unit location
 ENGI.            EVENSON:   Recorded By
 WITN.              MILLS:   Witnessed by
 ORIG.      1" 2.5" PRINT:   Origin of data
 UWI .     49025064250000:   Unique Well ID
 DICO. A2D TECHNOLOGIES, INC.:   Digitizing Company
~OTHER INFORMATION
~A  DEPTH      SPR        ASN        LAT         LN        GRN       NEUT
# ...
  416.5000  -999.2500  -999.2500  -999.2500  -999.2500    37.6153   166.8754
  417.0000  -999.2500  -999.2500  -999.2500  -999.2500    38.1140   160.4166
  417.5000  -999.2500  -999.2500  -999.2500  -999.2500    37.8018   149.2116
  418.0000  -999.2500  -999.2500  -999.2500  -999.2500    37.3556   132.8541
  418.5000  -999.2500  -999.2500  -999.2500  -999.2500    36.8302   116.3964
  419.0000  -999.2500  -999.2500  -999.2500  -999.2500    36.4524   116.3004
  419.5000  -999.2500  -999.2500  -999.2500  -999.2500    35.8427   119.8926
  420.0000  -999.2500  -999.2500  -999.2500  -999.2500    35.5388   123.9904
  420.5000  -999.2500  -999.2500  -999.2500  -999.2500    35.1322   124.2741
  421.0000  -999.2500  -999.2500  -999.2500  -999.2500    34.4975   124.9115
  421.5000  -999.2500  -999.2500  -999.2500  -999.2500    33.7462   121.4834
  422.0000  -999.2500  -999.2500  -999.2500  -999.2500    33.3108   114.0152
  422.5000  -999.2500  -999.2500  -999.2500  -999.2500    32.7600   103.8197
  423.0000  -999.2500  -999.2500  -999.2500  -999.2500    32.2393    98.7744
  423.5000  -999.2500  -999.2500  -999.2500  -999.2500    31.5954    96.2563
  424.0000  -999.2500  -999.2500  -999.2500  -999.2500    31.2180    99.1918
  424.5000  -999.2500  -999.2500  -999.2500  -999.2500    30.7989   106.3710
  425.0000  -999.2500  -999.2500  -999.2500  -999.2500    31.2970   116.4773
  425.5000  -999.2500  -999.2500  -999.2500  -999.2500    32.0456   129.7666
  426.0000  -999.2500  -999.2500  -999.2500  -999.2500    30.5489   151.8439
  426.5000  -999.2500  -999.2500  -999.2500  -999.2500    29.0316   162.6073
  427.0000  -999.2500  -999.2500  -999.2500  -999.2500    28.5278   163.5735
  427.5000  -999.2500  -999.2500  -999.2500  -999.2500    30.5289   151.3574
  428.0000  -999.2500  -999.2500  -999.2500  -999.2500    32.5313   136.7184
  428.5000  -999.2500  -999.2500  -999.2500  -999.2500    34.9693   124.0974
  429.0000  -999.2500  -999.2500  -999.2500  -999.2500    34.3898   111.4763
  429.5000  -999.2500  -999.2500  -999.2500  -999.2500    33.1785   103.9084
  430.0000  -999.2500  -999.2500  -999.2500  -999.2500    32.0170   103.4091
  430.5000  -999.2500  -999.2500  -999.2500  -999.2500    31.5107   103.9214
  431.0000  -999.2500  -999.2500  -999.2500  -999.2500    30.9035   111.6036
  431.5000  -999.2500  -999.2500  -999.2500  -999.2500    30.7548   117.7210
  432.0000  -999.2500  -999.2500  -999.2500  -999.2500    31.0626   126.6670
  432.5000  -999.2500  -999.2500  -999.2500  -999.2500    31.5002   132.4811
  433.0000  -999.2500  -999.2500  -999.2500  -999.2500    31.2018   139.3063
  433.5000  -999.2500  -999.2500  -999.2500  -999.2500    29.5194   141.8371
  434.0000  -999.2500  -999.2500  -999.2500  -999.2500    24.9748   131.7436
  434.5000  -999.2500  -999.2500  -999.2500  -999.2500    23.3954   121.6478
  435.0000  -999.2500  -999.2500  -999.2500  -999.2500    22.4620   105.9975
  435.5000  -999.2500  -999.2500  -999.2500  -999.2500    23.4329    93.8830
  436.0000  -999.2500  -999.2500  -999.2500  -999.2500    25.9643    88.2323
  436.5000  -999.2500  -999.2500  -999.2500  -999.2500    27.4654    83.7942
  437.0000  -999.2500  -999.2500  -999.2500  -999.2500    28.9712    89.2547
  437.5000  -999.2500  -999.2500  -999.2500  -999.2500    29.0883   101.4840
  438.0000  -999.2500  -999.2500  -999.2500  -999.2500    28.4052   111.5911
  438.5000  -999.2500  -999.2500  -999.2500  -999.2500    27.4524   121.6982
  439.0000  -999.2500  -999.2500  -999.2500  -999.2500    27.1992   126.7557
  439.5000  -999.2500  -999.2500  -999.2500  -999.2500    27.8377   129.2866
  440.0000  -999.2500  -999.2500  -999.2500  -999.2500    31.4534   121.7182
  440.5000  -999.2500  -999.2500  -999.2500  -999.2500    34.5633   119.1605
  441.0000  -999.2500  -999.2500  -999.2500  -999.2500    35.2068   114.5835
  441.5000  -999.2500  -999.2500  -999.2500  -999.2500    34.5733   109.1102
  442.0000  -999.2500  -999.2500  -999.2500  -999.2500    34.0877   105.8837
  442.5000  -999.2500  -999.2500  -999.2500  -999.2500    33.4428   111.6485
  443.0000  -999.2500  -999.2500  -999.2500  -999.2500    32.9386   140.9479
  443.5000  -999.2500  -999.2500  -999.2500  -999.2500    35.4413   153.2259
  444.0000  -999.2500  -999.2500  -999.2500  -999.2500    38.5263   136.9193
  444.5000  -999.2500  -999.2500  -999.2500  -999.2500    40.9392   127.4305
  445.0000  -999.2500  -999.2500  -999.2500  -999.2500    42.7004   121.7803
  445.5000  -999.2500  -999.2500  -999.2500  -999.2500    44.7625   119.2608
  446.0000  -999.2500  -999.2500  -999.2500  -999.2500    46.4533   124.3191
  446.5000   -31.1609  -999.2500  -999.2500  -999.2500    47.4532   136.4626
  447.0000   -29.7508  -999.2500     0.6008     0.2281    46.6974   149.4826
  447.5000   -29.4605  -999.2500     0.6015     0.2289    45.4417   162.2162
  448.0000   -28.9493  -999.2500     0.6022     0.2299    43.7544   177.2723
  448.5000   -28.6822     0.0972     0.5411     0.2310    43.1795   200.1080
  449.0000   -28.6839     0.3893     0.4691     0.2320    43.4276   213.5478
  449.5000   -28.9578     1.9574     0.4698     0.2330    43.4237   222.1150
  450.0000   -29.2895     5.2731     0.3920     0.4345    43.1704   219.0657
  450.5000   -29.4920    10.0471     0.3367     1.3046    37.8916   210.6372
  451.0000   -29.8767    10.7166     0.3374     1.9232    34.6426   192.5636
  451.5000   -30.4189    11.3381     0.3380     3.4457    32.7700   162.7215
  452.0000   -31.2011    11.6988     0.3388     4.7059    31.3780   126.9200
  452.5000   -32.4465    12.0948     0.3343     7.9932    32.4280   124.4000
  453.0000   -34.0214    12.4282     0.2726     9.9993    34.8408   131.9836
  453.5000   -36.2025    12.6865     0.3407    14.8924    38.1358   141.6348
  454.0000   -37.0671    12.9562     0.3414    17.0870    40.6692   158.2574
  454.5000   -37.8138    13.0241     0.3421    17.7089    42.3899   172.4059
  455.0000   -38.0831    13.0913     0.3427    18.2922    42.6880   183.5227
  455.5000   -38.3528    13.0915     0.3434    18.4268    43.3866   197.6714
  456.0000   -38.6220    13.0916     0.3441    18.5615    42.8821   212.8283
  456.5000   -38.6233    13.2208     0.3448    18.6382    42.2124   207.9863
  457.0000   -38.6247    13.3615     0.3454    18.8311    41.0013   195.1645
  457.5000   -38.6260    13.3617     0.3462    18.9656    40.0032   179.5139
  458.0000   -38.6273    13.3619     0.4163    19.0330    38.1072   139.6219
  458.5000   -38.6287    13.3620     0.4820    19.1013    37.1021   121.5975
  459.0000   -38.6301    13.3622     0.4825    19.3292    36.1567   116.9066
  459.5000   -38.3631    13.3624     0.5427    19.4530    38.0981   114.3876
  460.0000   -38.3646    13.3626     0.6183    19.5922    40.4511   111.8676
  460.5000   -38.3660    13.2279     0.7406    19.7738    42.1016   114.4007
  461.0000   -38.2694    13.2281     0.9980    19.9713    43.1065   120.0632
  461.5000   -38.1005    13.1331     1.1945    20.0433    43.4568   134.6158
  462.0000   -38.1019    13.0937     1.6963    20.0441    43.5965   147.8529
  462.5000   -38.1032    12.9563     2.3353    20.1790    43.3431   169.9811
  463.0000   -38.1046    12.8245     3.3106    20.1798    43.5063   197.7654
  463.5000   -38.1059    12.6888     4.0383    20.1808    43.5871   214.6403
  464.0000   -38.1075    12.5121     5.4625    20.1819    43.7043   230.6067
  464.5000   -38.1086    12.2859     6.5430    20.1828    44.3326   241.1681
  465.0000   -38.1099    12.0165     7.4664    20.0501    45.2318   253.3470
  465.5000   -38.1113    11.8957    10.8407    19.8989    46.3311   248.2010
  466.0000   -38.1126    11.5876    16.6371    19.7360    47.2506   227.6015
  466.5000   -38.1139    11.3432    20.5195    19.5730    48.3296   197.8097
  467.0000   -38.1153    11.1661    24.7871    19.2522    49.0789   192.7644
  467.5000   -38.1167    10.9392    26.1661    18.9622    48.1360   190.2462
  468.0000   -38.2842    10.9394    26.4651    18.4521    45.3130   187.7270
