~VERSION INFORMATION
 VERS.                2.0:   CWLS LOG ASCII STANDARD - VERSION 2.0
 WRAP.                 NO:   ONE LINE PER DEPTH STEP
~WELL INFORMATION
#MNEM.UNIT      DATA TYPE    INFORMATION
#----------   ------------   ------------------------------
 STRT.F          240.0000:   START DEPTH
 STOP.F         2876.0000:   STOP DEPTH
 STEP.F            0.5000:   STEP LENGTH
 NULL.          -999.2500:   NO VALUE
 COMP.    FENIX & SCISSON:   COMPANY
 WELL. FENIX & SCISSON "A" #23-21:   WELL
 FLD .               NPR3:   FIELD
 LOC .      S21 T39N R78W:   LOCATION
 CNTY.            NATRONA:   COUNTY
 STAT.            WYOMING:   STATE
 CTRY. UNITED STATES OF AMERICA:   COUNTRY
 SRVC.              WELEX:   SERVICE COMPANY
 DATE.        05-MAR-1977:   LOGDATE
 API .     49025103030000:   API NUMBER
~CURVE INFORMATION
#MNEM.UNIT       API CODE    CURVE DESCRIPTION
#----------   ------------   ------------------------------
 DEPT.F                  :   
 GRD .GAPI   45 310 01 00:   GAMMA RAY FROM DENSITY LOG
 CALD.IN     45 280 60 00:   CALIPER FROM DENSITY LOG
 CORR.G/C3   45 356 01 00:   DENSITY CORRECTION
 RHOB.G/C3   45 350 01 00:   BULK DENSITY
 SPR .MV     07 010 01 00:   SPONTANEOUS POTENTIAL
 ILD .OHMM   07 120 46 00:   DEEP INDUCTION RESISTIVITY
 ILM .OHMM   07 120 44 00:   INDUCTION LOG MEDIUM RESISTIVITY
 SGRD.OHMM   07 220 05 00:   SHALLOW SHORT GUARD RESISTIVITY
~PARAMETER INFORMATION
#MNEM.UNIT          VALUE    DESCRIPTION
#----------   ------------   ------------------------------
 EKB .F         4986.0000:   Kelly bushing
 EGL .F         4976.0000:   Ground level
 TD  .F         2885.0000:   Total depth
 CLNT.            A2DTECH:   Client Code
 SL  . 990' FWL & 1650' FNL:   Surface Location
 DATE.        05-MAR-1977:   Date Logged [DD-MMM-YYYY]
 DD  .F              2885:   Depth driller
 DL  .F              2882:   Depth logger
 BLI .F              2876:   Bottom log interval
 TLI .F               238:   Top log interval
 CS1 .IN            8.625:   Casing size
 CBD1.      8.625" @ 251':   Casing driller 1
 CBL1.IN              251:   Casing logger 1
 BS1 .IN            7.875:   Bit size
 BSD1.F              2885:   Depth drilled with bit1
 DFT .                KCL:   Type fluid in hole
 DFD .                9.5:   Density
 TCS .HRS               3:   Time Circ. stopped
 MRT .F                78:   Maximum recorded temp.
 ENGI.          D. LAWSON:   Recorded By
 WITN.            K. JAPP:   Witnessed by
 ORIG.         2.5" PRINT:   Origin of data
 UWI .     49025103030000:   Unique Well ID
 DICO. A2D TECHNOLOGIES,INC.:   Digitizing Company
 PD  .                 GL:   Permanent Datum
 EPD .               4976:   Elevation Permanent Datum
 LMF .                 KB:   Log Measured From
 DMF .                 KB:   Drilling Measured From
 DAPD.                 10:   Feet Above Permanent Datum
 DFL .                8.8:   Fluid loss
 MSS .           FLOWLINE:   Source of sample
 RMS .OHMM            .40:   Rm
 MST .F                58:   Rm Meas. temp.
 RMF .OHMM            .37:   Rmf
 MFST.F                58:   Rmf Meas. temp.
 MFSS.OHMM            .67:   Source Rmf.
 MCST.F                58:   Rmc Meas. temp.
 MCSS.               MEAS:   Source Rmc.
 RMB .OHMM            .30:   Rm. at BHT
 BHT .F                78:   BHT.
~OTHER INFORMATION
~A   DEPT       GRD        CALD      CORR        RHOB      SPR        ILD        ILM       SGRD   
# ...
 2143.5000   157.0381    10.6471     0.0043     2.4441   -53.6793     2.4449     2.9476     4.1487
 2144.0000   155.1340    10.6765     0.0043     2.4574   -53.6805     2.4447     2.9295     3.5341
 2144.5000   152.0962    10.6765     0.0043     2.4693   -53.6820     2.4608     2.9065     3.2776
 2145.0000   150.3712    10.7059     0.0073     2.4790   -53.3876     2.5295     2.9242     3.4521
 2145.5000   149.6003    10.7059     0.0073     2.4829   -53.3891     2.5828     2.9460     3.9463
 2146.0000   147.6070    10.7353     0.0074     2.4826   -53.0947     2.6909     2.9456     4.2007
 2146.5000   143.8004    10.7353     0.0074     2.4778   -52.6351     2.7660     3.0053     4.3265
 2147.0000   139.9939    10.7353     0.0109     2.4724   -52.3432     2.9030     3.1527     4.4372
 2147.5000   136.1879    10.7353     0.0164     2.4763   -52.2115     3.0045     3.4002     4.5176
 2148.0000   134.7507    10.7353     0.0194     2.4872   -52.2130     3.1098     3.6690     4.7295
 2148.5000   137.2063    10.7353     0.0194     2.4998   -52.2145     3.2410     3.9308     5.1851
 2149.0000   139.8410    10.7353     0.0194     2.4957   -52.2160     3.3777     4.1537     5.5553
 2149.5000   141.6930    10.7353     0.0194     2.4711   -52.2175     3.4720     4.3591     5.8562
 2150.0000   142.5711    10.7353     0.0190     2.4620   -52.2189     3.5689     4.3588     5.9226
 2150.5000   142.2814    10.7353     0.0165     2.4675   -52.2204     3.5932     4.2394     5.7329
 2151.0000   139.9396    10.7353     0.0135     2.4843   -52.2219     3.6181     4.1232     5.4980
 2151.5000   137.2088    10.7353     0.0105     2.5004   -52.2234     3.6682     4.0675     5.1173
 2152.0000   134.4575    10.7059     0.0105     2.5156   -52.2249     3.7190     4.1537     4.6124
 2152.5000   136.6805    10.7059     0.0135     2.5088   -52.2263     3.7440     4.3257     5.2740
 2153.0000   138.6548    10.7059     0.0171     2.4938   -52.2278     3.7437     4.4174     5.7005
 2153.5000   138.8563    10.6765     0.0196     2.4943   -52.2293     3.7434     4.4454     5.8300
 2154.0000   135.8807    10.6765     0.0196     2.5052   -52.2307     3.7432     4.5065     5.7854
 2154.5000   135.0440    10.6765     0.0201     2.5018   -51.9364     3.7429     4.5059     5.0614
 2155.0000   136.7744    10.6471     0.0226     2.4959   -51.8145     3.7427     4.5053     5.2416
 2155.5000   140.0768    10.6471     0.0226     2.4903   -51.6435     3.7424     4.5047     5.5531
 2156.0000   145.6520    10.6471     0.0256     2.5087   -51.5265     3.7422     4.5040     5.8369
 2156.5000   147.3607    10.6176     0.0256     2.5127   -51.3503     3.7419     4.5034     5.9013
 2157.0000   144.5509    10.6176     0.0253     2.5033   -51.3521     3.7416     4.5028     5.8034
 2157.5000   138.1515    10.6176     0.0223     2.5075   -51.3536     3.6902     4.5022     5.4608
 2158.0000   133.4957    10.6176     0.0167     2.5142   -51.0589     3.7169     4.5641     4.7956
 2158.5000   133.8212    10.6071     0.0133     2.5080   -51.0606     3.7409     4.6381     4.6598
 2159.0000   135.5782    10.5882     0.0078     2.5036   -51.0621     3.7925     4.7945     5.4689
 2159.5000   138.0000    10.5882     0.0048     2.5006   -51.0636     3.9271     4.8607     6.0067
 2160.0000   138.8563    10.5882     0.0048     2.4977   -51.0651     4.0070     5.0236     6.4172
 2160.5000   132.9440    10.5588     0.0048     2.4931   -51.0666     4.1494     5.0927     6.5772
 2161.0000   128.0582    10.5588     0.0048     2.4872   -51.0681     4.2652     5.0920     6.4667
 2161.5000   126.2463    10.5588     0.0018     2.4829   -51.0695     4.3843     5.1621     6.2021
 2162.0000   130.5085    10.5588     0.0019     2.4904   -51.0710     4.4450     5.2331     6.1325
 2162.5000   134.4580    10.5588     0.0019     2.4964   -51.0725     4.4728     5.3049     6.4469
 2163.0000   135.3372    10.5588    -0.0011     2.5023   -51.0740     4.5062     5.3778     6.8661
 2163.5000   132.7768    10.5588    -0.0011     2.4991   -51.0754     4.5686     5.3770     6.8244
 2164.0000   132.1114    10.5510    -0.0015     2.4887   -50.9980     4.6318     5.3763     6.4551
 2164.5000   133.6318    10.5294    -0.0041     2.4844   -50.7824     4.6959     5.3755     6.3836
 2165.0000   136.6956    10.5220    -0.0040     2.4829   -50.7840     4.7248     5.3748     6.8592
 2165.5000   141.3813    10.5000    -0.0070     2.4964   -50.7855     4.7245     5.2279     6.9321
 2166.0000   144.4281    10.5000    -0.0070     2.5097   -50.7179     4.7241     4.9467     6.7536
 2166.5000   143.2866    10.5000    -0.0070     2.5156   -50.4924     4.6880     4.8115     6.0986
 2167.0000   141.4310    10.5000    -0.0067     2.5171   -50.4941     4.6588     4.9453     5.9305
 2167.5000   143.8903    10.5000    -0.0040     2.5112   -50.4955     4.5596     5.0829     6.1271
 2168.0000   148.8712    10.5000    -0.0040     2.4873   -50.4970     4.4694     5.0822     6.7547
 2168.5000   149.2845    10.5000    -0.0039     2.4680   -50.4985     4.4079     5.0119     6.8255
 2169.0000   149.6977    10.5000    -0.0039     2.4605   -50.5000     4.3137     4.8082     6.7807
 2169.5000   150.0000    10.5000    -0.0009     2.4575   -50.5014     4.2543     4.6767     6.3937
 2170.0000   151.9742    10.5000     0.0021     2.4963   -50.2070     4.2284     4.6761     6.0665
 2170.5000   148.1199    10.5000     0.0054     2.5142   -50.2086     4.2281     4.6114     5.7566
 2171.0000   139.2811    10.5000     0.0081     2.5186   -50.2100     4.3804     4.6748     5.6161
 2171.5000   134.5278    10.5000     0.0111     2.5246   -50.2115     4.5027     4.7391     5.7117
 2172.0000   130.3720    10.5000     0.0144     2.5350   -50.2130     4.6655     5.0071     5.8493
 2172.5000   129.1789    10.5000     0.0174     2.5440   -50.2145     4.7576     5.2903     7.2214
 2173.0000   129.8712    10.5000     0.0201     2.5425   -50.1815     4.8904     5.5895     7.8446
 2173.5000   131.4386    10.5000     0.0172     2.5365   -49.9215     4.9581     5.6664     7.9251
 2174.0000   133.4371    10.5000     0.0142     2.5291   -49.9231     4.9865     5.6655     7.9226
 2174.5000   134.7507    10.5027     0.0109     2.5231   -49.9246     5.0264     5.7435     7.6781
 2175.0000   134.7021    10.5294     0.0080     2.5127   -49.9261     5.0550     5.8223     7.4664
 2175.5000   133.4821    10.5294     0.0082     2.5037   -49.6316     4.9855     5.8215     7.2606
 2176.0000   131.9707    10.5294     0.0083     2.5036   -49.6133     4.9851     5.9015     7.1587
 2176.5000   130.5533    10.5294     0.0113     2.5112   -49.3387     4.9848     5.9826     7.0833
 2177.0000   129.3375    10.5294     0.0115     2.5171   -49.3402     4.9844     5.9818     7.2314
 2177.5000   127.9179    10.5294     0.0143     2.5186   -49.3417     4.9841     5.9810     7.4820
 2178.0000   127.4194    10.5588     0.0173     2.5201   -49.3432     4.9838     5.9801     7.5841
 2178.5000   128.3831    10.5588     0.0173     2.5156   -49.3447     5.0245     5.8167     7.7154
 2179.0000   129.8881    10.5882     0.0173     2.5112   -49.3461     5.0523     5.5802     7.7925
 2179.5000   131.3919    10.5882     0.0173     2.5052   -49.3476     5.0519     5.3534     7.6551
 2180.0000   133.6952    10.5882     0.0144     2.5022   -49.3491     5.0515     5.2794     7.5754
 2180.5000   135.3752    10.6176     0.0112     2.5067   -49.6465     5.0511     5.1351     7.4418
 2181.0000   135.6305    10.6176     0.0084     2.5142   -49.6479     5.0508     5.0640     7.2366
 2181.5000   135.7394    10.6471     0.0054     2.5052   -49.6494     5.1206     5.1337     7.1351
 2182.0000   137.7888    10.6471     0.0054     2.4918   -49.6509     5.1202     5.1329     7.0615
 2182.5000   138.5630    10.6471     0.0057     2.4903   -49.6524     5.1910     5.2036     7.0596
 2183.0000   138.2034    10.6471     0.0085     2.4993   -49.6539     5.2627     5.2751     7.0848
 2183.5000   137.3254    10.6765     0.0085     2.5142   -49.6554     5.2623     5.3475     7.2098
