~VERSION INFORMATION
 VERS.                2.0:   CWLS LOG ASCII STANDARD - VERSION 2.0
 WRAP.                 NO:   ONE LINE PER DEPTH STEP
~WELL INFORMATION
#MNEM.UNIT      DATA TYPE    INFORMATION
#----------   ------------   ------------------------------
 STRT.F           15.0000:   START DEPTH
 STOP.F         3245.5000:   STOP DEPTH
 STEP.F            0.5000:   STEP LENGTH
 NULL.          -999.2500:   NO VALUE
 COMP. LAWRENCE ALLISON AND ASSOCIATES:   COMPANY
 WELL. LAWRENCE ALLISON 11 X34 #3-3:   WELL
 FLD .             NPR #3:   FIELD
 LOC .       S3 T38N R78W:   LOCATION
 CNTY.            NATRONA:   COUNTY
 STAT.            WYOMING:   STATE
 CTRY. UNITED STATES OF AMERICA:   COUNTRY
 SRVC.      DRESSER ATLAS:   SERVICE COMPANY
 DATE.        23-MAY-1985:   LOGDATE
 API .     49025110530000:   API NUMBER
~CURVE INFORMATION
#MNEM.UNIT       API CODE    CURVE DESCRIPTION
#----------   ------------   ------------------------------
 DEPT.F                  :   
 SPR .MV     07 010 01 00:   SPONTANEOUS POTENTIAL
 GRR .GAPI   07 310 01 00:   GAMMA RAY FROM RESISTIVITY
 SFL .OHMM   07 220 01 00:   SHALLOW FOCUSED LOG RES.
 ILD .OHMM   07 120 46 00:   INDUCTION LOG DEEP RESISTIVITY
 ILM .OHMM   07 120 44 00:   INDUCTION LOG MEDIUM RESISTIVITY
 TENR.LBS    07 635 01 00:   TENSION
 CALR.IN     07 280 01 00:   CALIPER FROM RESISTIVITY
 RHOB.G/C3   45 350 01 00:   BULK DENSITY
 CORR.G/C3   45 356 01 00:   DENSITY CORRECTION
 CNC .DEC    42 890 03 00:   NEUTRON POROSITY SANDSTONE
~PARAMETER INFORMATION
#MNEM.UNIT          VALUE    DESCRIPTION
#----------   ------------   ------------------------------
 EKB .F         5099.0000:   Kelly bushing
 EGL .F         5087.0000:   Ground level
 EDF .F            0.0000:   Drilling floor
 EPD .F         5087.0000:   Permanent datum
 TD  .F         3240.0000:   Total depth
 DATE.         2-MAY-1985:   Date logged
 CLNT.            A2DTECH:   Client Code
 PD  .                 GL:   Permanent Datum
 DD  .F              3239:   Depth driller
 DL  .F              3242:   Depth logger
 BLI .F              3240:   Bottom log interval
 TLI .F                15:   Top log interval
 CS1 .IN            8.625:   Casing size
 CBD1.      8.625" @ 487':   Casing driller 1
 CBL1.F               487:   Casing logger 1
 BSD1.F              3239:   Depth drilled with bit1
 DFT .            KCL GEL:   Type fluid in hole
 ENGI.      MACK. EDWARDS:   Recorded By
 WITN.         MR. STRONG:   Witnessed by
 ORIG.           5" PRINT:   Origin of data
 UWI .     49025110530000:   Unique Well ID
 DICO. A2D TECHNOLOGIES, INC.:   Digitizing Company
 DAPD.IN               12:   Feet Above Permanent Datum
 BS1 .              7.875:   Bit size
 DFD .                9.1:   Density
 DFV .                 35:   Viscosity
 DFPH.                  8:   pH
 DFL .                9.8:   Fluid loss
 MSS .           FLOWLINE:   Source of sample
 RMS .OHMM            .27:   Rm
 MST .F                68:   Rm Meas. temp.
 RMF .OHMM             .2:   Rmf
 MFST.F                68:   Rmf Meas. temp.
 MFSS.               MEAS:   Source Rmf.
 RMC .OHMM            .34:   Rmc
 MCST.F                68:   Rmc Meas. temp.
 MCSS.               CALC:   Source Rmc.
 RMB .OHMM            .15:   Rm. at BHT
 BHT .F               126:   BHT.
 TCS .HRS               3:   Time Circ. stopped
 MRT .F               126:   Maximum recorded temp.
 LUN .               6274:   Logging unit number
 LUL .               GLTE:   Logging unit location
~OTHER INFORMATION
~A   DEPT      SPR        GRR        SFL        ILD        ILM       TENR       CALR       RHOB       CORR        CNC   
# ...
 2829.0000   -54.6619    85.5367     5.4896     5.8007     5.1952   -40.4391     9.0855     2.5134     0.0093     0.2282
 2829.5000   -55.0587    83.1557     5.4896     5.8007     5.4896   -30.4591     9.0860     2.5144     0.0154     0.2254
 2830.0000   -54.8603    81.0724     6.0179     5.8007     5.5914   -30.4591     9.0864     2.5184     0.0194     0.2254
 2830.5000   -54.4635    78.9890     6.0179     5.8007     5.5914   -40.4391     9.0671     2.5235     0.0235     0.2270
 2831.0000   -54.4635    78.9890     6.0179     5.8007     5.6951   -30.4591     9.0675     2.5255     0.0235     0.2198
 2831.5000   -54.4635    79.8819     6.0179     5.8007     5.6951   -30.4591     9.0681     2.5285     0.0096     0.2146
 2832.0000   -54.4635    80.7748     6.0179     5.5914     5.4896   -30.4591     9.0685     2.5335     0.0352     0.2090
 2832.5000   -54.4635    82.5605     5.8007     5.4896     5.2916   -30.4591     9.0690     2.5345     0.0556     0.2170
 2833.0000   -54.4635    83.1557     5.5914     5.3897     4.9166   -20.4790     9.0694     2.5296     0.0537     0.2246
 2833.5000   -54.4635    84.6438     5.3897     5.0078     4.6529   -20.4790     9.0699     2.5216     0.0218     0.2270
 2834.0000   -54.2651    85.2390     4.8271     4.7392     4.3232   -10.4990     9.0507     2.5137    -0.0040     0.2274
 2834.5000   -54.4635    85.2390     4.7392     4.4034     4.0169   -10.4990     9.0511     2.4958    -0.0119     0.2318
 2835.0000   -54.4635    85.2390     4.7392     3.8015     3.6643    -0.5190     9.0516     2.4898    -0.0159     0.2469
 2835.5000   -54.2651    87.9176     4.8271     3.1634     3.1058    -0.5190     9.0520     2.4849    -0.0258     0.2645
 2836.0000   -54.0667    90.0010     4.7392     2.8332     2.6324    -0.5190     9.0327     2.4819    -0.0417     0.2753
 2836.5000   -54.0667   113.8105     4.1672     2.4459     2.1115    -0.5190     9.0332     2.4570    -0.0320     0.3103
 2837.0000   -54.0667   131.3700     2.7816     2.2312     1.9619    -0.5190     9.0336     2.4032    -0.0256     0.3322
 2837.5000   -53.3232   147.7390     2.0731     2.0354     1.8911    -0.5190     9.0145     2.3639    -0.0016     0.3522
 2838.0000   -52.4794   149.2271     1.9983     1.9619     1.9262    -0.5190     9.0148     2.3245     0.0383     0.3442
 2838.5000   -52.4794   145.6557     1.9262     1.9983     2.1906   -20.4790     9.0152     2.3016     0.0922     0.3262
 2839.0000   -52.4794   133.7510     2.4912     2.2312     2.6324   -10.4990     9.0157     2.3076     0.1043     0.2693
 2839.5000   -52.8762   105.4771     3.6214     2.5374     3.0492   -20.4790     9.0161     2.3934     0.0525     0.2418
 2840.0000   -53.2730    81.6676     5.2641     2.9392     3.4678   -10.4990     9.0166     2.5041     0.0206     0.2338
 2840.5000   -53.6698    73.6319     6.9708     3.5321     3.9437     9.4611     8.9973     2.5211    -0.0032     0.2186
 2841.0000   -54.0667    70.0605     6.7192     4.4034     5.1006    19.4411     8.9977     2.5251    -0.0370     0.2087
 2841.5000   -54.0667    70.9533     6.4768     5.0078     5.5914    29.4212     8.9982     2.5211    -0.0370     0.2023
 2842.0000   -54.0667    70.9533     6.0179     5.5914     5.9083    -0.5190     8.9987     2.5182    -0.0290     0.2019
 2842.5000   -54.0667    71.8462     5.6951     6.3589     5.5914    -0.5190     8.9991     2.5152    -0.0130     0.2095
 2843.0000   -54.4635    73.3343     5.4896     6.2431     5.4896   -10.4990     9.0193     2.5083     0.0250     0.2162
 2843.5000   -54.6619    74.2271     5.1952     6.0179     5.0078   -10.4990     8.9803     2.4993     0.0370     0.2206
 2844.0000   -54.8603    75.1200     5.1006     5.6951     4.9166   -10.4990     8.9809     2.4824     0.0111     0.2250
 2844.5000   -54.6619    76.6081     5.0078     5.3897     4.8271    -0.5190     8.9812     2.4754    -0.0187     0.2274
 2845.0000   -54.4635    77.5010     4.9166     4.8271     4.7392    -0.5190     8.9816     2.4775    -0.0306     0.2290
 2845.5000   -54.6619    77.5010     4.8271     4.7392     4.4850    -0.5190     8.9821     2.4805    -0.0226     0.2282
 2846.0000   -54.3156    77.7986     4.7392     4.4850     4.2445    -0.5190     8.9825     2.4815    -0.0125     0.2226
 2846.5000   -54.2651    80.4771     4.5682     3.8015     3.9437    -0.5190     8.9830     2.4756    -0.0308     0.2226
 2847.0000   -54.4635    86.1319     4.4850     3.5976     3.7322    -0.5190     8.9834     2.4676    -0.0227     0.2318
 2847.5000   -54.4635    91.7867     4.2445     2.9937     2.9418   -10.4990     8.9839     2.4547    -0.0108     0.2430
 2848.0000   -54.4635    95.3581     4.0914     2.5845     2.5387   -10.4990     8.9843     2.4487    -0.0243     0.2497
 2848.5000   -54.4635   108.7510     3.8015     2.3576     2.1906   -10.4990     8.9848     2.4288    -0.0242     0.2765
 2849.0000   -54.4635   117.9771     3.1058     2.1115     1.9262    -0.5190     8.9852     2.4079    -0.0281     0.3100
 2849.5000   -54.4635   132.8581     2.1906     1.9983     1.8911     9.4611     8.9857     2.3800    -0.0221     0.3259
 2850.0000   -54.4635   145.9533     1.9619     1.9619     1.9983     9.4611     8.9861     2.3402    -0.0081     0.3211
 2850.5000   -53.5937   142.7509     1.9327     1.9619     2.2358    -8.8723     8.9866     2.3302    -0.0014     0.2964
 2851.0000   -53.2690   124.5265     2.0736     2.1512     2.5851   -20.4880     8.9868     2.3612    -0.0040     0.2705
 2851.5000   -53.6637    98.3400     3.4058     2.4022     3.0504   -20.4927     8.9871     2.4158    -0.0279     0.2422
 2852.0000   -53.8600    82.8699     5.0099     2.9953     3.3443   -10.5181     8.9875     2.4878    -0.0279     0.2322
 2852.5000   -54.2546    80.7885     5.4928     3.3447     3.7344   -20.5021     8.9878     2.4978    -0.0039     0.2394
 2853.0000   -54.4508    81.3863     5.4933     3.8747     4.3264   -30.4860     8.9882     2.4968    -0.0198     0.2442
 2853.5000   -54.8454    83.1743     5.3940     4.4888     4.7431   -20.5118     8.9885     2.4899    -0.0317     0.2422
 2854.0000   -54.8433    84.6640     5.3948     4.9212     5.1055   -20.5165     8.9888     2.4949    -0.0297     0.2350
 2854.5000   -55.0391    87.6418     5.3953     5.1061     5.2006   -10.5429     8.9693     2.4959    -0.0057     0.2302
 2855.0000   -55.0369    89.1318     5.2978     5.1066     5.2978   -10.5488     8.9502     2.4909     0.0043     0.2362
 2855.5000   -55.0348    89.4322     5.2983     5.2020     5.2983   -10.5537     8.9504     2.4850     0.0083     0.2390
 2856.0000   -55.2309    89.7320     5.2990     5.2025     5.1199   -10.5586     8.9507     2.4770    -0.0016     0.2419
 2856.5000   -55.0305    90.3293     5.2995     5.2997     5.2158   -10.5635     8.9708     2.4760    -0.0116     0.2462
 2857.0000   -54.8300    90.6291     5.3003     5.3002     5.2163    -0.5911     8.9711     2.4761    -0.0155     0.2490
 2857.5000   -54.6296    90.9289     5.3990     5.2047     5.1221    -0.5962     8.9715     2.4761    -0.0115     0.2518
 2858.0000   -54.4291    90.9312     5.4999     5.1102     5.0288   -40.5091     8.9718     2.4811    -0.0054     0.2529
 2858.5000   -54.4267    92.1233     5.5004     5.1431     5.0613   -10.5833     8.9721     2.4821    -0.0074     0.2494
 2859.0000   -54.6231    94.2074     5.4011     5.1761     5.0939   -20.5647     8.9725     2.4811    -0.0273     0.2442
 2859.5000   -54.6210    95.6966     5.4016     5.2094     5.1268   -10.5931     8.9728     2.4801    -0.0392     0.2458
 2860.0000   -54.4206    97.7805     5.4023     5.2430     5.1599   -20.5741     8.9534     2.4802    -0.0452     0.2533
 2860.5000   -54.4185    96.2956     5.4028     5.2767     5.1931   -30.5547     8.9537     2.4792    -0.0431     0.2645
 2861.0000   -54.4159    95.7030     5.4036     5.3107     5.2267   -30.5592     8.9540     2.4772    -0.0371     0.2629
 2861.5000   -54.4138    94.5157     5.5045     5.3448     5.2604   -20.5882     8.9741     2.4782    -0.0271     0.2482
 2862.0000   -54.4121    93.0311     5.7110     5.3792     5.2943   -10.6176     8.9745     2.4802    -0.0091     0.2446
