~VERSION INFORMATION
 VERS.                2.0:   CWLS LOG ASCII STANDARD - VERSION 2.0
 WRAP.                 NO:   ONE LINE PER DEPTH STEP
~WELL INFORMATION
#MNEM.UNIT      DATA TYPE    INFORMATION
#----------   ------------   ------------------------------
 STRT.F           15.0000:   START DEPTH
 STOP.F         2952.5000:   STOP DEPTH
 STEP.F            0.5000:   STEP LENGTH
 NULL.          -999.2500:   NO VALUE
 COMP.    FENIX & SCISSON:   COMPANY
 WELL.  FENIX "AX" #64-29:   WELL
 FLD .  TEAPOT DOME NPR-3:   FIELD
 LOC .      S29 T39N R78W:   LOCATION
 CNTY.            NATRONA:   COUNTY
 STAT.            WYOMING:   STATE
 CTRY. UNITED STATES OF AMERICA:   COUNTRY
 SRVC.           BIRDWELL:   SERVICE COMPANY
 DATE.        02-MAY-1978:   LOGDATE
 API .     49025106460000:   API NUMBER
~CURVE INFORMATION
#MNEM.UNIT       API CODE    CURVE DESCRIPTION
#----------   ------------   ------------------------------
 DEPT.F                  :   
 SPR .MV     05 010 01 00:   SPONTANEOUS POTENTIAL
 IL  .OHMM   05 120 00 00:   INDUCTION RESISTIVITY
 SN  .OHMM   05 040 16 00:   SHORT NORMAL 16"
 CALD.IN     45 280 60 00:   CALIPER FROM DENSITY LOG
 GRD .GAPI   45 310 01 00:   GAMMA RAY FROM DENSITY LOG
 CORR.G/C3   45 356 01 00:   DENSITY CORRECTION
 RHOB.G/C3   45 350 01 00:   BULK DENSITY
~PARAMETER INFORMATION
#MNEM.UNIT          VALUE    DESCRIPTION
#----------   ------------   ------------------------------
 EKB .F         4993.0000:   Kelly bushing
 EGL .F         4983.0000:   Ground level
 EDF .F            0.0000:   Drilling floor
 TD  .F         2952.0000:   Total depth
 DATE.        02-MAY-1978:   Date logged
 CLNT.            A2DTECH:   Client Code
 SL  . 2150' FNL & 1560' FEL:   Surface Location
 PD  .                 GL:   Permanent Datum
 DD  .F              2950:   Depth driller
 DL  .F              2952:   Depth logger
 BLI .F              2947:   Bottom log interval
 CBL1.F               150:   Casing logger 1
 BS1 .IN            7.875:   Bit size
 DFT .                GEL:   Type fluid in hole
 DFD .                8.7:   Density
 DFV .                 30:   Viscosity
 DFPH.                 10:   pH
 DFL .                7.6:   Fluid loss
 MSS .            MUD PIT:   Source of sample
 RMS .OHMM            1.3:   Rm
 MST .F                62:   Rm Meas. temp.
 RMF .OHMM            .95:   Rmf
 MFST.F                64:   Rmf Meas. temp.
 RMC .OHMM              1:   Rmc
 MCST.F                64:   Rmc Meas. temp.
 MFSS.               MEAS:   Source Rmf.
 RMB .OHMM            .73:   Rm. at BHT
 BHT .F               110:   BHT.
 TCS .HRS               3:   Time Circ. stopped
 MRT .F               110:   Maximum recorded temp.
 LUN .               2958:   Logging unit number
 LUL .               CASP:   Logging unit location
 ENGI.             MILLER:   Recorded By
 WITN.           MCGINLEY:   Witnessed by
 ORIG.         2.5" PRINT:   Origin of data
 UWI .     49025106460000:   Unique Well ID
 DICO. A2D TECHNOLOGIES, INC.:   Digitizing Company
 DAPD.                 10:   Feet Above Permanent Datum
 BSD1.F              2950:   Depth drilled with bit1
 EPD .F              4983:   Elevation Permanent Datum
 LMF .                 KB:   Log Measured From
 DMF .                 KB:   Drilling Measured From
 TLI .F               150:   Top log interval
~OTHER INFORMATION
~A   DEPT      SPR         IL         SN       CALD        GRD       CORR       RHOB   
# ...
 1835.0000   -58.8320     8.6610    11.5220     7.9530   122.4050     0.0700     2.5610
 1835.5000   -58.7830     8.6780    11.5220     7.9510   122.0360     0.0700     2.5620
 1836.0000   -58.8240     8.6940    11.5220     7.9490   121.6630     0.0690     2.5600
 1836.5000   -59.0040     8.7100    11.5220     7.9480   121.3660     0.0690     2.5580
 1837.0000   -59.1750     8.7250    11.5220     7.9460   121.0720     0.0690     2.5560
 1837.5000   -59.3440     8.7440    11.5230     7.9440   120.7460     0.0690     2.5540
 1838.0000   -59.5180     8.6970    11.5030     7.9420   122.1570     0.0690     2.5610
 1838.5000   -59.5650     8.6390    11.4540     7.9410   124.1860     0.0680     2.5660
 1839.0000   -59.5630     8.5810    11.4080     7.9390   126.8160     0.0680     2.5640
 1839.5000   -59.5620     8.5210    11.3610     7.9370   127.6090     0.0680     2.5610
 1840.0000   -59.5630     8.4620    11.3140     7.9350   126.4560     0.0680     2.5570
 1840.5000   -59.5620     8.4250    11.2650     7.9330   125.5130     0.0680     2.5520
 1841.0000   -59.5620     8.4160    11.2180     7.9320   123.1870     0.0670     2.5480
 1841.5000   -59.5620     8.4070    11.1710     7.9300   117.3760     0.0670     2.5440
 1842.0000   -59.5620     8.3980    11.1060     7.8970   112.0040     0.0670     2.5390
 1842.5000   -59.5620     8.3890    11.1610     7.7770   105.5560     0.0670     2.5420
 1843.0000   -59.5620     8.3800    11.2600     7.7650   102.6040     0.0680     2.5510
 1843.5000   -59.5620     8.3710    11.3590     7.7560    98.9650     0.0690     2.5600
 1844.0000   -59.5620     8.3620    11.5200     7.7520    98.1390     0.0690     2.5680
 1844.5000   -59.5620     8.3530    11.5120     7.7450   100.2750     0.0700     2.5640
 1845.0000   -59.5620     8.3440    11.4820     7.7380   102.3360     0.0710     2.5540
 1845.5000   -59.5620     8.3350    11.4510     7.7320   112.9430     0.0720     2.5560
 1846.0000   -59.5620     8.3250    11.4200     7.7260   116.8380     0.0730     2.5610
 1846.5000   -59.5620     8.3160    11.3890     7.7190   109.2120     0.0740     2.5560
 1847.0000   -59.5620     8.3070    11.3590     7.7130   101.5290     0.0740     2.5520
 1847.5000   -59.5620     8.2980    11.3290     7.7070    93.9340     0.0760     2.5510
 1848.0000   -59.5620     8.2890    11.3060     7.7000    86.9120     0.0770     2.5510
 1848.5000   -59.5620     8.2800    11.2940     7.6940    90.2510     0.0790     2.5490
 1849.0000   -59.5620     8.2750    11.2820     7.6880    93.3220     0.0810     2.5550
 1849.5000   -59.5620     8.2760    11.2690     7.6810    96.9590     0.0820     2.5690
 1850.0000   -59.5620     8.2760    11.2570     7.6750    96.2380     0.0840     2.5720
 1850.5000   -59.5620     8.2750    11.2440     7.6690    95.4360     0.0860     2.5660
 1851.0000   -59.5620     8.2760    11.2320     7.6630    94.8520     0.0870     2.5620
 1851.5000   -59.5620     8.2760    11.2190     7.6560    95.0060     0.0890     2.5570
 1852.0000   -59.5620     8.2760    11.2070     7.6490    96.2720     0.0920     2.5550
 1852.5000   -59.5620     8.2760    11.1950     7.6190    99.8710     0.1030     2.5590
 1853.0000   -59.5620     8.2760    11.1820     7.5900   101.3880     0.1100     2.5630
 1853.5000   -59.5620     8.2760    11.1700     7.5560   100.5240     0.1140     2.5670
 1854.0000   -59.5620     8.2760    11.1570     7.5250    99.7680     0.1110     2.5710
 1854.5000   -59.5620     8.2760    11.1450     7.4300   102.4720     0.1080     2.5750
 1855.0000   -59.5620     8.2760    11.1320     7.3380   106.9640     0.1050     2.5780
 1855.5000   -59.5620     8.2760    11.1200     7.2830   109.5810     0.1000     2.5750
 1856.0000   -59.5620     8.2730    11.1070     7.2360   109.7700     0.0920     2.5710
 1856.5000   -59.5620     8.2630    11.1230     7.1870   105.9580     0.0830     2.5620
 1857.0000   -59.5620     8.2520    11.1440     7.1330   103.4740     0.0750     2.5530
 1857.5000   -59.5620     8.2420    11.1660     7.1240   102.8450     0.0790     2.5510
 1858.0000   -59.5620     8.2310    11.1880     7.1140   102.1650     0.0810     2.5490
 1858.5000   -59.5620     8.2200    11.2090     7.1060   104.5710     0.0830     2.5510
 1859.0000   -59.5620     8.2100    11.2310     7.0960   106.6060     0.0860     2.5630
 1859.5000   -59.5620     8.1990    11.2520     7.0910   106.5780     0.0840     2.5620
 1860.0000   -59.5620     8.1890    11.2750     7.0840   106.3840     0.0800     2.5570
 1860.5000   -59.5620     8.1780    11.2940     7.0750   106.2240     0.0760     2.5520
 1861.0000   -59.5620     8.1680    11.3120     7.0670   104.1660     0.0710     2.5520
 1861.5000   -59.5620     8.1570    11.1650     7.0580   101.9710     0.0710     2.5530
 1862.0000   -59.5620     8.1470    10.9810     7.0500   101.2280     0.0710     2.5530
 1862.5000   -59.5610     8.1360    10.7970     7.0410   103.1380     0.0710     2.5540
 1863.0000   -59.5690     8.1250    10.6130     7.0340   104.9640     0.0680     2.5540
 1863.5000   -59.5890     8.1150    10.3180     7.0250   106.6110     0.0620     2.5550
 1864.0000   -59.6080     8.1040    10.3260     7.0140   107.3170     0.0560     2.5550
 1864.5000   -59.6270     8.0930    10.3460     7.0640   102.4970     0.0490     2.5290
 1865.0000   -59.6460     8.0830    10.3650     7.2380    97.8690     0.0460     2.5260
 1865.5000   -59.6650     8.0720    10.3850     7.4570    96.1620     0.0440     2.5210
 1866.0000   -59.6840     8.0620    10.4040     7.6140    98.6710     0.0430     2.5180
 1866.5000   -59.7030     8.0510    10.4240     7.5250    99.7830     0.0410     2.5100
 1867.0000   -59.7220     8.0400    10.4440     7.4380   100.4360     0.0400     2.5010
 1867.5000   -59.7410     8.0290    10.4630     7.6790   101.1650     0.0390     2.4920
 1868.0000   -59.7600     8.0190    10.4830     7.5930   107.0280     0.0400     2.4840
 1868.5000   -59.7790     8.0080    10.5030     7.5100   106.3010     0.0420     2.4690
 1869.0000   -59.7980     7.9970    10.5220     7.3910   105.9510     0.0430     2.4490
 1869.5000   -59.8170     7.9870    10.5420     7.3160   105.2070     0.0480     2.4290
 1870.0000   -59.8360     7.9800    10.5610     7.3050   104.7640     0.0520     2.4220
 1870.5000   -59.8550     8.0250    10.5810     7.2800   105.4260     0.0570     2.4220
 1871.0000   -59.8740     8.0700    10.6000     7.2590   106.0860     0.0610     2.4220
 1871.5000   -59.8930     8.1150    10.6200     7.2420   108.2390     0.0650     2.4220
 1872.0000   -59.9120     8.1610    10.6400     7.2090   112.5800     0.0700     2.4070
 1872.5000   -59.9310     8.2070    10.6600     7.2930   116.6990     0.0740     2.3850
 1873.0000   -59.9500     8.2520    10.6790     7.4970   120.9680     0.0740     2.3640
 1873.5000   -59.9690     8.2760    10.6990     7.5870   123.4610     0.0730     2.3490
 1874.0000   -59.9880     8.2760    10.8090     7.9570   121.5080     0.0730     2.3810
 1874.5000   -60.0070     8.2760    10.9570     8.4110   121.3960     0.0720     2.4180
 1875.0000   -60.0260     8.2760    11.1060     8.9120   123.2050     0.0710     2.4510
 1875.5000   -60.0450     8.2750    11.0860     9.5440   124.3440     0.0700     2.4760
 1876.0000   -60.0640     8.2750    11.0670    10.4850   114.5480     0.0690     2.4680
 1876.5000   -60.0830     8.2750    11.0490    10.0460   106.4560     0.0680     2.4580
 1877.0000   -60.1020     8.2750    11.0290     8.2860   105.8320     0.0670     2.4480
 1877.5000   -60.1210     8.2750    11.0100     8.5270   107.4860     0.0670     2.4360
 1878.0000   -60.1400     8.2750    10.9900     7.3620   111.7820     0.0690     2.4160
 1878.5000   -60.1590     8.2760    10.9710     7.4780   109.7190     0.0710     2.3970
 1879.0000   -60.1780     8.3040    10.9520     7.4900   104.5830     0.1010     2.3680
 1879.5000   -60.1970     8.4050    10.9330     7.4670   100.0220     0.1800     2.3850
 1880.0000   -60.2160     8.5060    10.9130     7.5670    96.5280     0.1590     2.4590
