~VERSION INFORMATION
 VERS.                2.0:   CWLS LOG ASCII STANDARD - VERSION 2.0
 WRAP.                 NO:   ONE LINE PER DEPTH STEP
~WELL INFORMATION
#MNEM.UNIT      DATA TYPE    INFORMATION
#----------   ------------   ------------------------------
 STRT.F            0.0000:   START DEPTH
 STOP.F         3040.0000:   STOP DEPTH
 STEP.F            0.5000:   STEP LENGTH
 NULL.          -999.2500:   NO VALUE
 COMP. LAWRENCE ALLISON & ASSOCIATES:   COMPANY
 WELL. LAWRENCE NPR 3 "AX" #77-28:   WELL
 FLD .      NPR - WILDCAT:   FIELD
 LOC .      S28 T39N R78W:   LOCATION
 CNTY.            NATRONA:   COUNTY
 STAT.            WYOMING:   STATE
 CTRY. UNITED STATES OF AMERICA:   COUNTRY
 SRVC.      DRESSER ATLAS:   SERVICE COMPANY
 DATE.        19-OCT-1986:   LOGDATE
 API .     49025111150000:   API NUMBER
~CURVE INFORMATION
#MNEM.UNIT       API CODE    CURVE DESCRIPTION
#----------   ------------   ------------------------------
 DEPT.F                  :   
 TENR.LBS    07 635 01 00:   TENSION FROM RESISTIVITY
 RILD.OHMM   07 120 46 00:   DEEP INDUCTION RESISTIVITY
 RILM.OHMM   07 120 44 00:   INDUCTION LOG MEDIUM RESISTIVITY
 RFOC.OHMM   07 220 04 00:   RESISTIVITY FOCUSED LOG RES.
 SPR .MV     07 010 01 00:   SPONTANEOUS POTENTIAL
 GRR .GAPI   07 310 01 00:   GAMMA RAY FROM RESISTIVITY
 CNC .DEC    42 890 03 00:   NEUTRON POROSITY SANDSTONE
 RHOB.G/C3   45 350 01 00:   BULK DENSITY
 TEND.LBS    45 635 01 00:   TENSION FROM DENSITY LOG
 CORR.G/C3   45 356 01 00:   DENSITY CORRECTION
 CALD.IN     45 280 60 00:   CALIPER FROM DENSITY LOG
~PARAMETER INFORMATION
#MNEM.UNIT          VALUE    DESCRIPTION
#----------   ------------   ------------------------------
 EKB .F         5086.0000:   Kelly bushing
 EGL .F         5074.0000:   Ground level
 EDF .F            0.0000:   Drilling floor
 TD  .F         3025.0000:   Total depth
 DATE.        19-OCT-1986:   Date logged
 CLNT.            A2DTECH:   Client Code
 SL  . 967' FSL @ 763' FEL:   Surface Location
 PD  .                 GL:   Permanent Datum
 EPD .F              5074:   Elevation Permanent Datum
 LMF .                 KB:   Log Measured From
 DMF .                 KB:   Drilling Measured From
 DAPD.F                12:   Feet Above Permanent Datum
 DD  .F              3021:   Depth driller
 DL  .F              3025:   Depth logger
 BLI .F              3023:   Bottom log interval
 CS1 .IN            8.625:   Casing size
 CBD1.      8.625" @ 620':   Casing driller 1
 CBL1.F               615:   Casing logger 1
 BS1 .IN            7.875:   Bit size
 BSD1.F              3021:   Depth drilled with bit1
 DFT .        KCL/POLTMER:   Type fluid in hole
 DFD .                8.9:   Density
 DFV .                 38:   Viscosity
 DFPH.                9.5:   pH
 DFL .                 11:   Fluid loss
 MSS .           FLOWLINE:   Source of sample
 RMS .OHMM            .25:   Rm
 MST .F                65:   Rm Meas. temp.
 RMF .OHMM           .203:   Rmf
 MFST.F                65:   Rmf Meas. temp.
 RMC .OHMM            .31:   Rmc
 MCST.F                65:   Rmc Meas. temp.
 MFSS.               MEAS:   Source Rmf.
 MCSS.               CALC:   Source Rmc.
 RMB .OHMM           .136:   Rm. at BHT
 BHT .F               119:   BHT.
 TCS .HRS               5:   Time Circ. stopped
 MRT .F               119:   Maximum recorded temp.
 LUN .               6274:   Logging unit number
 LUL .               GLTE:   Logging unit location
 ENGI.             RAUTIO:   Recorded By
 WITN.             STRONG:   Witnessed by
 ORIG.         2.5" PRINT:   Origin of data
 UWI .     49025111150000:   Unique Well ID
 DICO. A2D TECHNOLOGIES, INC.:   Digitizing Company
~OTHER INFORMATION
~A    DEPT    TENR       RILD       RILM       RFOC        SPR         GRR       CNC       RHOB       TEND       CORR       CALD   
# ...
 2348.5000   -44.1180     3.6970     3.9880     4.7420   -83.4630   124.9240     0.2890     2.5050   -88.1200    -0.0120    10.3690
 2349.0000   -44.1180     3.7790     4.0880     4.9360   -83.4630   123.5010     0.2880     2.5140   -80.0000    -0.0280    10.3750
 2349.5000   -44.1180     3.8600     4.1880     5.2090   -83.4630   120.0030     0.2850     2.5220   -80.0000    -0.0210    10.3810
 2350.0000   -44.1180     3.9420     4.2890     5.1970   -83.4630   119.6140     0.2840     2.5230   -80.0000    -0.0040    10.3870
 2350.5000   -44.1180     4.0240     4.3480     5.1770   -83.4630   119.6270     0.2710     2.5230   -80.0000     0.0130    10.3930
 2351.0000   -44.1180     4.1190     4.3680     5.1570   -83.4630   119.9150     0.2620     2.5260   -80.0000     0.0300    10.3990
 2351.5000   -44.1180     4.1350     4.3890     5.1380   -83.4630   119.9400     0.2670     2.5310   -80.0000     0.0440    10.4040
 2352.0000   -39.4680     4.1740     4.4090     5.1150   -83.4630   120.1240     0.2740     2.5320   -80.0000     0.0460    10.4100
 2352.5000   -32.3530     4.1940     4.4270     5.0240   -83.4630   120.3020     0.2800     2.5310   -76.2500     0.0310    10.4160
 2353.0000   -25.2380     4.2700     4.5480     5.1150   -83.4630   121.4370     0.2760     2.5290   -66.8750     0.0130    10.4220
 2353.5000   -18.1230     4.3870     4.6870     5.2920   -83.4630   122.5520     0.2740     2.5270   -57.5000    -0.0040    10.4280
 2354.0000   -11.0080     4.5170     4.8250     5.4890   -83.4620   123.2870     0.2740     2.5300   -48.1250     0.0120    10.4350
 2354.5000    -3.8940     4.6470     4.9640     5.6850   -83.4630   122.8720     0.2710     2.5350   -38.7500     0.0310    10.4340
 2355.0000     3.2210     4.7770     5.1020     5.8820   -83.4160   122.6150     0.2610     2.5370   -29.3750     0.0370    10.4220
 2355.5000    10.3360     4.9070     5.2410     6.0790   -83.3470   123.6030     0.2530     2.5290   -20.0000     0.0160    10.4120
 2356.0000     8.9410     5.0370     5.3790     6.2750   -83.2790   126.3430     0.2540     2.5260   -28.3330    -0.0030    10.4010
 2356.5000    -6.0000     5.1670     5.5180     6.5870   -83.2110   127.3480     0.2560     2.5280   -36.6670    -0.0060    10.4000
 2357.0000   -20.9410     5.2970     5.6170     6.5560   -83.1430   128.8580     0.2560     2.5330   -45.0000     0.0060    10.4030
 2357.5000   -35.8820     5.4270     5.6620     6.4820   -83.0750   129.2990     0.2520     2.5410   -53.3330     0.0250    10.4070
 2358.0000   -41.9890     5.4990     5.7060     6.4080   -83.0070   127.9100     0.2490     2.5470   -60.0000     0.0290    10.4100
 2358.5000   -37.2460     5.5420     5.7500     6.3530   -82.9390   122.2420     0.2480     2.5470   -56.8420     0.0260    10.4130
 2359.0000   -32.5020     5.5830     5.7950     6.3530   -82.8720   121.2670     0.2490     2.5480   -54.2110     0.0330    10.4160
 2359.5000   -27.7590     5.6240     5.8390     6.4130   -82.8040   120.2210     0.2520     2.5590   -51.5790     0.0540    10.4200
 2360.0000   -23.0160     5.6640     5.8840     6.6150   -82.7360   121.1330     0.2550     2.5680   -48.9470     0.0560    10.4230
 2360.5000   -18.2730     5.7050     5.9280     6.8290   -82.6680   121.9180     0.2580     2.5620   -46.3160     0.0390    10.4260
 2361.0000   -13.5290     5.7460     5.9720     6.7580   -82.6000   123.9770     0.2610     2.5560   -43.6840     0.0240    10.4290
 2361.5000    -8.7860     5.7870     6.0180     6.6270   -82.5320   127.2100     0.2640     2.5540   -41.0530     0.0250    10.4330
 2362.0000    -4.9020     5.9100     6.2350     6.4970   -82.4640   130.2330     0.2650     2.5590   -40.0000     0.0370    10.4360
 2362.5000   -26.6880     6.1540     6.4590     6.4690   -82.3960   133.7430     0.2620     2.5630   -47.2730     0.0420    10.4390
 2363.0000   -29.4550     6.3600     6.6830     6.4690   -82.3280   133.7860     0.2610     2.5610   -56.3640     0.0420    10.4420
 2363.5000   -32.2220     6.5660     6.9070     6.8990   -82.2600   131.7960     0.2640     2.5520   -65.4550     0.0350    10.4460
 2364.0000   -34.9890     6.7730     7.1310     7.4240   -82.1930   129.5650     0.2640     2.5400   -74.5450     0.0260    10.4490
 2364.5000   -37.7560     6.9790     7.3410     7.9490   -82.1250   128.5100     0.2600     2.5380   -77.7780     0.0170    10.4520
 2365.0000   -40.5230     7.2090     7.6110     8.3300   -82.0560   127.4490     0.2520     2.5340   -72.2220     0.0140    10.4550
 2365.5000   -43.2900     7.0150     7.4790     8.3300   -81.9900   127.2380     0.2490     2.5200   -66.6670     0.0310    10.4590
 2366.0000   -32.4840     6.7950     7.2100     7.9840   -81.9220   127.2320     0.2500     2.4960   -61.1110     0.0710    10.4620
 2366.5000   -15.8820     6.5750     6.9410     7.4910   -81.9060   127.2420     0.2540     2.4750   -55.5560     0.0740    10.4650
 2367.0000     0.7190     6.3550     6.6720     6.9970   -81.9060   127.2530     0.2580     2.4760   -50.0000     0.0430    10.4690
 2367.5000    17.3200     6.1360     6.4030     6.5040   -81.9070   127.7570     0.2600     2.4910   -44.4440     0.0070    10.4720
 2368.0000    34.3140     5.9100     6.1280     5.8050   -81.9060   128.4210     0.2660     2.5080   -40.0000    -0.0080    10.4750
 2368.5000    26.8330     5.9210     6.1280     6.0100   -81.9070   129.1260     0.2700     2.5260   -41.6670     0.0100    10.4780
 2369.0000    19.1700     5.9390     6.1280     6.3630   -81.9070   128.8420     0.2740     2.5320   -45.8330     0.0270    10.4820
 2369.5000    11.5080     5.9580     6.1280     6.7160   -81.9070   125.7710     0.2720     2.5250   -50.0000     0.0130    10.4850
 2370.0000     3.8460     5.9760     6.1280     7.0690   -81.9070   125.1970     0.2720     2.5190   -54.1670    -0.0100    10.4880
 2370.5000    -3.8160     5.9940     6.1280     7.4220   -81.9070   125.9240     0.2720     2.5120   -58.3330    -0.0270    10.4910
 2371.0000   -11.4780     6.0180     6.1280     7.7490   -81.9070   126.4450     0.2680     2.5060   -62.5000    -0.0320    10.4950
 2371.5000   -19.1400     5.8240     6.0620     7.7490   -81.9070   127.1010     0.2550     2.4990   -66.6670    -0.0330    10.4980
 2372.0000   -26.8020     5.5370     5.8290     7.2950   -81.9070   128.2550     0.2480     2.4920   -70.8330    -0.0280    10.5010
 2372.5000   -34.4650     5.2510     5.5970     6.7840   -81.9070   133.8460     0.2500     2.4990   -75.0000    -0.0150    10.5040
 2373.0000   -42.1270     5.1150     5.3030     6.2730   -81.9060   140.2750     0.2580     2.5020   -80.0000    -0.0010    10.5080
 2373.5000   -44.1180     5.1150     5.4000     5.7620   -81.9080   146.8500     0.2700     2.4950   -76.4710     0.0070    10.5110
 2374.0000   -36.6250     5.2990     5.6160     4.9340   -81.9050   151.8270     0.2800     2.4970   -67.6470     0.0080    10.5140
 2374.5000   -28.7620     5.4910     5.8430     5.3290   -81.9040   146.2530     0.2700     2.5190   -58.8240     0.0220    10.5180
 2375.0000   -20.8980     5.6840     6.0700     6.3740   -81.7530   138.1450     0.2540     2.5400   -50.0000     0.0450    10.5180
 2375.5000   -13.0340     5.8760     6.2970     7.4190   -81.5550   125.1390     0.2380     2.5510   -41.1760     0.0500    10.5180
 2376.0000    -5.1700     6.0690     6.5240     8.6360   -81.3570   116.2660     0.2240     2.5460   -32.3530     0.0500    10.5180
 2376.5000     2.6930     6.2610     6.7510     8.2840   -81.1610   113.3040     0.2280     2.5480   -23.5290     0.0420    10.5180
 2377.0000    10.5570     6.4540     6.9540     7.8630   -80.9630   114.3620     0.2350     2.5490   -20.0000     0.0310    10.5180
 2377.5000     9.7520     6.7070     6.9540     7.4740   -80.7660   117.3560     0.2420     2.5510   -26.3160     0.0150    10.5180
 2378.0000    -0.7330     6.6860     6.8720     7.5880   -80.5710   118.2530     0.2440     2.5490   -34.2110    -0.0150    10.5180
 2378.5000   -11.2180     6.6130     6.7960     7.6940   -80.3700   116.6910     0.2400     2.5440   -42.1050    -0.0320    10.5180
