~VERSION INFORMATION
 VERS.                2.0:   CWLS LOG ASCII STANDARD - VERSION 2.0
 WRAP.                 NO:   ONE LINE PER DEPTH STEP
~WELL INFORMATION
#MNEM.UNIT      DATA TYPE    INFORMATION
#----------   ------------   ------------------------------
 STRT.F            9.0000:   START DEPTH
 STOP.F         2876.0000:   STOP DEPTH
 STEP.F            0.5000:   STEP LENGTH
 NULL.          -999.2500:   NO VALUE
 COMP.    FENIX & SCISSON:   COMPANY
 WELL. FENIX & SCISSON "AX" #82-29:   WELL
 FLD .        TEAPOT DOME:   FIELD
 LOC .      S29 T39N R78W:   LOCATION
 CNTY.            NATRONA:   COUNTY
 STAT.            WYOMING:   STATE
 CTRY. UNITED STATES OF AMERICA:   COUNTRY
 SRVC.           BIRDWELL:   SERVICE COMPANY
 DATE.        12-JAN-1980:   LOGDATE
 API .     49025107980000:   API NUMBER
~CURVE INFORMATION
#MNEM.UNIT       API CODE    CURVE DESCRIPTION
#----------   ------------   ------------------------------
 DEPT.F                  :   
 GRD .GAPI   45 310 01 00:   GAMMA RAY FROM DENSITY LOG
 CALD.IN     45 280 60 00:   CALIPER FROM DENSITY LOG
 CORR.G/C3   45 356 01 00:   DENSITY CORRECTION
 RHOB.G/C3   45 350 01 00:   BULK DENSITY
 SPR .MV     07 010 01 00:   SPONTANEOUS POTENTIAL
 ILD .OHMM   07 120 46 00:   DEEP INDUCTION RESISTIVITY
 SN  .OHMM   07 220 01 00:   SHALLOW FOCUSED LOG RESISTIVITY
~PARAMETER INFORMATION
#MNEM.UNIT          VALUE    DESCRIPTION
#----------   ------------   ------------------------------
 EKB .F         4985.0000:   Kelly bushing
 EGL .F         4973.0000:   Ground level
 EDF .F         4982.0000:   Drilling floor
 TD  .F         2876.0000:   Total depth
 CLNT.            A2DTECH:   Client Code
 SL  . 1821' FEL & 414' FEL:   Surface Location
 DATE.        12-JAN-1980:   Date Logged [DD-MMM-YYYY]
 DD  .F              2870:   Depth driller
 DL  .F              2876:   Depth logger
 BLI .F              2876:   Bottom log interval
 TLI .F               320:   Top log interval
 CS1 .IN            8.625:   Casing size
 CBD1.      8.625" @ 280':   Casing driller 1
 CBL1.IN              320:   Casing logger 1
 BS1 .IN            7.875:   Bit size
 BSD1.F              2870:   Depth drilled with bit1
 DFT .            GEL MUD:   Type fluid in hole
 DFD .                8.7:   Density
 DFV .                 53:   Viscosity
 DFPH.               10.5:   pH
 DFL .               15.4:   Fluid loss
 MSS .            MUD PIT:   Source of sample
 RMS .OHMM            1.8:   Rm
 MST .F                50:   Rm Meas. temp.
 RMF .OHMM            1.4:   Rmf
 MFST.F                60:   Rmf Meas. temp.
 MFSS.               MEAS:   Source Rmf.
 RMC .OHMM            1.9:   Rmc
 MCST.F                60:   Rmc Meas. temp.
 MCSS.               MEAS:   Source Rmc.
 RMB .OHMM           0.65:   Rm. at BHT
 BHT .F               138:   BHT.
 TCS .HRS              11:   Time Circ. stopped
 MRT .F               138:   Maximum recorded temp.
 LUN .               3029:   Logging unit number
 LUL .             CASPEL:   Logging unit location
 ENGI.           T. VOLFF:   Recorded By
 WITN.          MR. AMEND:   Witnessed by
 ORIG.         2.5" PRINT:   Origin of data
 UWI .     49025107980000:   Unique Well ID
 DICO. A2D TECHNOLOGIES,INC.:   Digitizing Company
 PD  .                 GL:   Permanent Datum
 EPD .F              4973:   Elevation Permanent Datum
 LMF .                 DF:   Log Measured From
 DMF .                 KB:   Drilling Measured From
 DAPD.F                 9:   Feet Above Permanent Datum
~OTHER INFORMATION
~A    DEPT      GRD      CALD       CORR       RHOB        SPR        ILD         SN   
# ...
 2147.5000   129.6503     9.5514     0.2684     2.4966   -15.2288     3.7670     3.9673
 2148.0000   131.7750     9.6108     0.2618     2.4782   -16.1464     3.7664     3.9526
 2148.5000   132.9878     9.6703     0.2321     2.4537   -15.8433     3.7659     3.8972
 2149.0000   131.6494     9.6379     0.1634     2.4719   -14.2883     3.7654     4.1803
 2149.5000   126.4633     9.5710     0.0839     2.4902   -13.4114     3.7649     4.1217
 2150.0000   125.3802     9.4444     0.1052     2.5145   -14.1776     3.7643     4.0073
 2150.5000   128.1454     9.3625     0.1081     2.5190   -15.5518     3.7638     3.9512
 2151.0000   130.7937     9.3612     0.1537     2.4915   -15.4707     3.7632     4.0068
 2151.5000   132.2592     9.3600     0.1963     2.5192   -14.4413     3.7627     4.1206
 2152.0000   132.6632     9.3891     0.1810     2.5343   -13.7311     3.7622     4.1817
 2152.5000   131.1755     9.4182     0.1260     2.5386   -14.2730     3.7617     4.1720
 2153.0000   129.9228     9.4473     0.0863     2.4740   -16.3282     3.7089     3.9409
 2153.5000   132.1398     9.4764     0.1413     2.4966   -16.0117     3.6062     4.0746
 2154.0000   133.8657     9.5356     0.1806     2.5490   -14.9640     3.5557     4.1192
 2154.5000   132.3430     9.5950     0.1611     2.5108   -14.3572     3.5552     4.0049
 2155.0000   128.6926     9.5939     0.1546     2.5137   -13.7500     3.6098     4.3427
 2155.5000   124.7383     9.5927     0.1599     2.5305   -14.0583     3.7586     4.5436
 2156.0000   123.2155     9.5915     0.1923     2.5258   -14.6710     3.8195     4.5750
 2156.5000   124.7323     9.5903     0.1714     2.5290   -13.4544     3.9303     4.6723
 2157.0000   123.5136     9.5891     0.1677     2.5409   -12.8476     3.9731     4.7381
 2157.5000   119.5593     9.5879     0.1613     2.4969   -13.1555     3.9724     4.7607
 2158.0000   119.7138     9.5866     0.1114     2.4767   -13.1586     3.9719     4.3546
 2158.5000   127.8831     9.5755     0.1826     2.5132   -13.1616     3.9713     4.0026
 2159.0000   128.3650     9.5419     0.2039     2.5372   -13.4695     3.8890     3.9465
 2159.5000   126.3917     9.4640     0.1916     2.5514   -13.5371     3.7784     3.8912
 2160.0000   122.6233     9.3232     0.1610     2.5603   -13.7805     3.6503     3.8367
 2160.5000   119.4434     9.2470     0.1609     2.5862   -14.2843     3.5492     3.7302
 2161.0000   119.2340     9.2459     0.1608     2.6197   -15.6550     3.4030     3.5739
 2161.5000   119.6248     9.2447     0.1119     2.6181   -17.2748     3.3553     3.5260
 2162.0000   124.3869     9.3041     0.0685     2.5966   -17.3029     3.3082     3.7457
 2162.5000   124.2275     9.3334     0.0354     2.5630   -15.9045     3.2619     3.8354
 2163.0000   123.4766     9.3927     0.0610     2.5219   -15.0189     3.3073     3.7289
 2163.5000   126.5132     9.4525     0.0840     2.4970   -15.0219     3.3534     3.6603
 2164.0000   128.9418     9.5140     0.1312     2.4864   -15.6346     3.4519     3.6764
 2164.5000   129.8507     9.5710     0.1699     2.5233   -15.9424     3.6048     3.7968
 2165.0000   130.4557     9.5697     0.1949     2.5464   -14.4210     3.7726     4.0540
 2165.5000   131.6685     9.5295     0.1298     2.5542   -13.5093     4.0427     4.2346
 2166.0000   136.8327     9.4033     0.0713     2.4968   -12.9025     4.2375     4.6010
 2166.5000   142.6048     9.2933     0.0868     2.4577   -12.6006     4.4708     5.2204
 2167.0000   145.0335     9.3069     0.1686     2.5165   -13.5409     4.7098     5.4447
 2167.5000   140.9664     9.3212     0.1868     2.5338   -14.7408     4.8463     5.7587
 2168.0000   135.3011     9.3804     0.1288     2.4873   -15.0488     4.9534     6.0060
 2168.5000   137.2466     9.4097     0.0921     2.5025   -14.6239     5.0224     6.0905
 2169.0000   141.4601     9.4388     0.1316     2.5469   -14.1399     5.0215     6.0967
 2169.5000   139.7200     9.4678     0.1502     2.5460   -15.1531     4.9512     5.7571
 2170.0000   132.7458     9.4666     0.1405     2.5499   -15.3658     4.9505     5.5193
 2170.5000   129.6532     9.4654     0.1252     2.5678   -15.0640     5.3081     5.6112
 2171.0000   127.2495     9.4643     0.1094     2.5826   -14.7766     5.5346     6.2874
 2171.5000   125.3719     9.4630     0.0631     2.5845   -13.8506     5.0887     6.4761
 2172.0000   122.1749     9.4618     0.0228     2.5633   -14.8209     4.8791     6.7403
 2172.5000   113.9964     9.4679     0.0403     2.5416   -15.3816     4.8785     6.8405
 2173.0000   115.8172     9.4991     0.0820     2.5410   -15.0797     4.9485     6.7418
 2173.5000   123.7170     9.5493     0.0910     2.5506   -14.1681     5.2554     6.3267
 2174.0000   127.9693     9.5614     0.0909     2.5093   -13.8658     6.0375     6.0859
 2174.5000   126.7505     9.6229     0.1060     2.5037   -14.7837     6.1835     6.3055
 2175.0000   121.5804     9.6843     0.1578     2.5473   -15.7013     5.4718     6.3842
 2175.5000   118.2340     9.7259     0.0662     2.5595   -16.3141     5.0901     6.2578
 2176.0000   116.3908     9.7247     0.0204     2.5363   -16.3005     4.8253     5.9156
 2176.5000   115.1638     9.7235     0.0172     2.5150   -15.3554     4.7003     5.7514
 2177.0000   114.1491     9.7223     0.0432     2.5275   -13.4960     5.1458     6.0833
 2177.5000   113.9669     9.6909     0.0916     2.5518   -13.6408     5.6069     5.9980
 2178.0000   118.8938     9.6897     0.1084     2.5697   -13.8903     5.5120     5.8316
 2178.5000   120.9518     9.6582     0.1008     2.5671   -13.5880     5.2227     5.7499
 2179.0000   119.1036     9.6569     0.0890     2.5589   -13.5914     5.5222     6.8164
 2179.5000   116.9225     9.6558     0.0744     2.5588   -13.5945     5.8389     7.5067
 2180.0000   117.6997     9.6626     0.0610     2.5206   -13.7398     6.0881     7.5203
 2180.5000   121.0844     9.6938     0.0633     2.4732   -14.6870     6.3480     7.6320
 2181.0000   121.1581     9.7433     0.1144     2.4594   -15.9135     6.5270     7.7454
 2181.5000   123.3642     9.7721     0.1846     2.4863   -14.8268     6.6180     7.8605
 2182.0000   124.5770     9.6309     0.1624     2.5415   -14.8297     6.9004     7.9377
 2182.5000   123.3583     9.4664     0.0525     2.5325   -15.7473     6.9966     7.9828
 2183.0000   123.9632     9.4350     0.0158     2.5360   -16.3601     7.0083     8.0487
 2183.5000   126.9998     9.4338     0.0188     2.5460   -15.4484     7.1114     8.0481
 2184.0000   127.9087     9.4629     0.0278     2.5429   -14.8416     7.1920     8.0475
 2184.5000   126.9939     9.4617     0.0399     2.5452   -14.2347     7.1614     8.0469
 2185.0000   126.0064     9.4909     0.0520     2.5580   -15.1524     7.0901     7.9342
 2185.5000   119.5847     9.4897     0.0242     2.5457   -15.1555     6.9907     7.8230
 2186.0000   117.5623     9.4885     0.0213     2.5624   -14.7765     6.9897     7.7134
 2186.5000   118.2775     9.4873     0.0521     2.5853   -13.9418     6.9388     7.6054
 2187.0000   116.0850     9.4928     0.0546     2.5943   -13.6399     6.8908     7.6048
 2187.5000   112.9943     9.5153     0.0484     2.5729   -13.7323     6.7940     7.2907
 2188.0000   114.2072     9.5140     0.0281     2.5514   -14.6668     6.6058     7.1872
 2188.5000   113.3516     9.5127     0.0102     2.5496   -14.8683     6.5133     7.2091
 2189.0000   111.9077     9.5115    -0.0068     2.5448   -13.9573     6.8868     7.6160
 2189.5000   113.6037     9.5103    -0.0040     2.5421   -13.9604     6.5115     7.7097
 2190.0000   114.9747     9.5394     0.0117     2.5578   -13.9634     5.8219     7.5769
 2190.5000   112.9751     9.5380     0.0386     2.5724   -14.2719     5.8211     7.2583
 2191.0000   111.4524     9.5368     0.0354     2.5731   -14.8846     5.8203     7.1511
 2191.5000   112.9692     9.5357     0.0323     2.5631   -14.8876     5.9067     6.8504
 2192.0000   113.8781     9.5345     0.0383     2.5526   -14.8906     6.0781     6.7921
 2192.5000   114.4830     9.5333     0.0565     2.5660   -13.9789     6.1674     6.9910
