~VERSION INFORMATION
 VERS.                2.0:   CWLS LOG ASCII STANDARD - VERSION 2.0
 WRAP.                 NO:   ONE LINE PER DEPTH STEP
~WELL INFORMATION
#MNEM.UNIT      DATA TYPE    INFORMATION
#----------   ------------   ------------------------------
 STRT.F          330.0000:   START DEPTH
 STOP.F         2880.0000:   STOP DEPTH
 STEP.F            0.5000:   STEP LENGTH
 NULL.          -999.2500:   NO VALUE
 COMP.   TESORO PETROLEUM:   COMPANY
 WELL. TESORO NPR "AX" #3-21:   WELL
 FLD .        TEAPOT DOME:   FIELD
 LOC .      S21 T39N R78W:   LOCATION
 CNTY.            NATRONA:   COUNTY
 STAT.            WYOMING:   STATE
 CTRY. UNITED STATES OF AMERICA:   COUNTRY
 SRVC.       SCHLUMBERGER:   SERVICE COMPANY
 DATE.        17-AUG-1972:   LOGDATE
 API .     49025102150000:   API NUMBER
~CURVE INFORMATION
#MNEM.UNIT       API CODE    CURVE DESCRIPTION
#----------   ------------   ------------------------------
 DEPT.F                  :   
 GRD .GAPI   45 310 01 00:   GAMMA RAY FROM DENSITY LOG
 CALD.IN     45 280 60 00:   CALIPER FROM DENSITY LOG
 CORR.G/C3   45 356 01 00:   DENSITY CORRECTION
 RHOB.G/C3   45 350 01 00:   BULK DENSITY
 SPR .MV     05 010 01 00:   SPONTANEOUS POTENTIAL FROM RES.
 ILD .OHMM   05 120 46 00:   INDUCTION LOG DEEP
 ASN .OHMM   05 041 16 00:   AMPLIFIED SHORT NORMAL 16"
~PARAMETER INFORMATION
#MNEM.UNIT          VALUE    DESCRIPTION
#----------   ------------   ------------------------------
 EKB .F         4985.0000:   Kelly bushing
 EGL .F         4975.0000:   Ground level
 EDF .F            0.0000:   Drilling floor
 EPD .F         4975.0000:   Permanent datum
 TD  .F         2880.0000:   Total depth
 CLNT.            A2DTECH:   Client Code
 DATE.        17-AUG-1972:   Date Logged [DD-MMM-YYYY]
 DD  .F              2875:   Depth driller
 DL  .F              2880:   Depth logger
 BLI .F              2879:   Bottom log interval
 TLI .F               330:   Top log interval
 CS1 .              10.75:   Casing size
 CBD1.       10.75" @ 327:   Casing driller 1
 CBL1.IN              330:   Casing logger 1
 BS1 .IN                9:   Bit size
 BSD1.F              2875:   Depth drilled with bit1
 DFT .           CHEM-GEL:   Type fluid in hole
 DFD .                9.3:   Density
 DFV .                 61:   Viscosity
 DFPH.                9.0:   pH
 DFL .                 66:   Fluid loss
 MSS .           FLOWLINE:   Source of sample
 RMS .OHMM           1.86:   Rm
 MST .F                76:   Rm Meas. temp.
 RMF .OHMM           1.58:   Rmf
 MFST.F                76:   Rmf Meas. temp.
 MFSS.               MEAS:   Source Rmf.
 RMB .OHMM           1.25:   Rm. at BHT
 BHT .F               113:   BHT.
 TCS .HRS               3:   Time Circ. stopped
 MRT .F               113:   Maximum recorded temp.
 LUN .               7037:   Logging unit number
 LUL .               CSPR:   Logging unit location
 ENGI.              GOLAS:   Recorded By
 WITN.                MAY:   Witnessed by
 ORIG.      1" 2.5" PRINT:   Origin of data
 UWI .     49025102150000:   Unique Well ID
 DICO. A2D TECHNOLOGIES, INC.:   Digitizing Company
~OTHER INFORMATION
~A   DEPT      GRD       CALD       CORR       RHOB        SPR          ILD        ASN 
# ...
 1649.5000   139.6074     9.3489     0.0030     2.5169   -19.8142     6.7662     8.5602
 1650.0000   138.8465     9.3796     0.0046     2.5169   -19.8142     6.4814     8.5501
 1650.5000   136.3594     9.3795     0.0109     2.5091   -19.5046     6.2997     8.4252
 1651.0000   135.0125     9.3793     0.0140     2.4968   -19.8142     6.0214     8.2878
 1651.5000   140.1944     9.3791     0.0140     2.4908   -19.8142     5.8687     8.0381
 1652.0000   142.4123     9.3790     0.0144     2.4878   -19.8142     5.7159     7.7808
 1652.5000   139.2806     9.3788     0.0141     2.4863   -19.8142     5.6752     7.5704
 1653.0000   135.9892     9.3478     0.0327     2.4848   -19.8142     5.5646     7.6101
 1653.5000   133.6668     9.3477     0.0559     2.5032   -19.8142     5.4118     7.6326
 1654.0000   134.1877     9.3475     0.0405     2.5095   -19.8142     5.3611     7.6231
 1654.5000   138.7943     9.3474     0.0328     2.5046   -19.8142     5.2605     7.5918
 1655.0000   140.6692     9.3163     0.0360     2.5035   -19.8142     5.2624     7.4768
 1655.5000   140.8038     9.3162     0.0406     2.5086   -19.8142     5.2639     7.2471
 1656.0000   139.6998     9.3160     0.0376     2.5072   -19.8142     5.2654     6.9854
 1656.5000   141.0912     9.3159     0.0190     2.4925   -19.8142     5.2670     6.6672
 1657.0000   151.7135     9.3157     0.0099     2.4639   -19.8142     5.3410     6.5942
 1657.5000   151.7203     9.3156     0.0354     2.4812   -19.8142     5.4244     7.0240
 1658.0000   152.1887     9.3154     0.0470     2.4773   -19.8142     5.6595     7.6049
 1658.5000   152.1955     9.3153     0.0100     2.4512   -20.1686     5.8904     8.1861
 1659.0000   154.0485     9.3151     0.0101     2.4643   -20.4334     6.1323     8.7174
 1659.5000   162.3631     9.3150     0.0098     2.4653   -20.4334     6.3565     8.9986
 1660.0000   170.6776     9.3148     0.0068     2.4795   -20.4334     5.8954     9.2631
 1660.5000   177.1460     9.3147     0.0037     2.4925   -20.4334     5.5883     9.3067
 1661.0000   181.7682     9.3089     0.0002     2.4695   -20.0506     5.2811     9.2715
 1661.5000   181.8346     9.2835    -0.0040     2.4578   -19.8142     5.1281     8.8280
 1662.0000   176.7050     9.2834     0.0078     2.4468   -19.5046     4.9753     7.8830
 1662.5000   172.0964     9.2755     0.0351     2.4609   -19.1950     4.8226     7.1092
 1663.0000   169.3340     9.2522     0.0450     2.4471   -19.1950     4.8243     6.7688
 1663.5000   167.4948     9.2520     0.0376     2.4317   -19.1950     4.8258     6.9547
 1664.0000   174.4247     9.2519     0.0192     2.4210   -19.3024     5.1360     7.5253
 1664.5000   178.1421     9.2517     0.0161     2.4302   -19.9272     5.6005     8.3151
 1665.0000   181.4532     9.2516     0.0137     2.4519   -20.4334     6.5279     9.2786
 1665.5000   189.5553     9.2514     0.0115     2.4642   -20.8674     7.1467     9.9416
 1666.0000   198.1385     9.2513     0.0068     2.4691   -21.4922     8.0742     9.8105
 1666.5000   201.2761     9.2511     0.0041     2.4396   -21.8075     8.5387    10.2861
 1667.0000   201.1768     9.2510     0.0157     2.4320   -22.2910     9.1575    10.9140
 1667.5000   200.2499     9.2508     0.0263     2.4413   -22.7477     9.6220    11.5418
 1668.0000   202.4923     9.2506     0.0325     2.4505   -22.7575    10.0865    12.0169
 1668.5000   223.4768     9.2504     0.0357     2.4506   -22.4422    10.3966    12.3295
 1669.0000   233.4137     9.2194     0.0265     2.4459   -22.2910    10.7068    12.6421
 1669.5000   235.8846     9.2371     0.0327     2.4306   -22.1213    11.0188    12.9547
 1670.0000   208.7231     9.2500     0.0451     2.4371   -22.2910    11.3271    13.2673
 1670.5000   187.6037     9.2498     0.0486     2.4461   -22.6006    11.3373    13.5799
 1671.0000   176.7681     9.2497     0.0297     2.4319   -22.9102    11.4846    13.9539
 1671.5000   168.5189     9.2495     0.0279     2.4167   -22.9102    11.4861    14.2637
 1672.0000   165.2674     9.2494     0.0298     2.4136   -22.9102    11.4692    14.2638
 1672.5000   163.7500     9.2492     0.0005     2.4087   -22.9102    11.3130    13.9544
 1673.0000   163.0108     9.2491     0.0052     2.4116   -22.6006    11.0026    13.6449
 1673.5000   162.9530     9.2489     0.0099     2.4194   -22.6006    10.5378    13.1807
 1674.0000   167.2576     9.2487     0.0038     2.4226   -22.2910    10.2273    12.7164
 1674.5000   169.3598     9.2486    -0.0008     2.4278   -21.9814     9.7626    12.4070
 1675.0000   160.9615     9.2484    -0.0023     2.4382   -21.9814     9.4906    11.7879
 1675.5000   150.5182     9.2483    -0.0038     2.4424   -21.6718     9.3378    11.4785
 1676.0000   137.6681     9.2481     0.0028     2.4493   -21.6718     9.3395    11.4787
 1676.5000   130.2903     9.2480     0.0195     2.4549   -21.6718     9.3896    11.3240
 1677.0000   127.5279     9.2478     0.0166     2.4529   -21.3622     9.5489    11.3242
 1677.5000   125.6886     9.2168    -0.0007     2.4468   -21.3622     9.6528    11.3243
 1678.0000   117.3878     9.1858     0.0326     2.4857   -21.0526     9.8087    11.7889
 1678.5000   105.8562     9.1856     0.0511     2.5340   -21.0526    10.0265    12.2534
 1679.0000    99.8350     9.1232     0.0536     2.5501   -21.3622    10.1203    12.7180
 1679.5000    97.1006     9.0310     0.0264     2.5465   -21.3622    10.2763    12.8729
 1680.0000   110.0310     9.0350     0.0059     2.5316   -21.3622    10.0514    12.5635
 1680.5000   132.1052     9.1289     0.0298     2.5239   -21.3622     9.7410    11.6348
 1681.0000   138.9733     9.2227     0.0414     2.5178   -21.3622     9.3519    10.8610
 1681.5000   143.9327     9.2857     0.0193     2.5163   -21.3622     8.9658    10.3968
 1682.0000   145.5964     9.3389     0.0107     2.4948   -21.3622     8.6553     9.9325
 1682.5000   140.9424     9.3387     0.0129     2.4763   -21.3622     8.4992     9.9327
 1683.0000   135.6326     9.3450     0.0176     2.4744   -21.3622     8.4352     9.7780
 1683.5000   134.0784     9.3693     0.0068     2.4718   -21.3622     8.4370     9.7782
 1684.0000   134.6647     9.3692     0.0091     2.4549   -21.3622     8.4385     9.7783
 1684.5000   135.0152     9.3690     0.0287     2.4626   -21.0526     8.4401     9.7785
 1685.0000   133.8229     9.3688     0.0262     2.4780   -21.0526     8.4416     9.6238
 1685.5000   131.8134     9.3687     0.0179     2.4796   -21.0526     8.4431     9.6240
 1686.0000   130.4204     9.3685     0.0172     2.4904   -20.7430     8.4447     9.6241
 1686.5000   132.7867     9.3684     0.0250     2.5198   -20.6898     8.4462     9.6243
 1687.0000   134.1277     9.3682     0.0358     2.5090   -20.4334     8.2934     9.5950
 1687.5000   134.5961     9.3552     0.0297     2.4967   -20.4334     8.2949     9.4698
 1688.0000   134.8062     9.3371     0.0205     2.4874   -20.4334     8.2964     9.4700
 1688.5000   134.8577     9.3369     0.0171     2.4749   -20.4334     8.2980     9.4701
 1689.0000   134.1554     9.3368     0.0268     2.4629   -20.8245     8.2995     9.4296
 1689.5000   135.1041     9.3365     0.0330     2.4842   -21.0526     8.1466     9.3156
 1690.0000   138.1077     9.3364     0.0083     2.5046   -21.0526     8.1482     9.2693
 1690.5000   137.0982     9.3362     0.0007     2.4615   -21.0526     8.1498     9.1611
 1691.0000   135.7616     9.3361    -0.0008     2.4323   -21.0526     8.1513     9.0065
 1691.5000   136.9606     9.3359    -0.0039     2.4431   -20.9426     7.9985     8.8518
 1692.0000   137.1384     9.3358     0.0023     2.4539   -20.7430     7.8457     8.6972
 1692.5000   136.0500     9.3356     0.0070     2.4632   -20.7430     7.8472     8.6367
 1693.0000   137.9042     9.3355     0.0071     2.4725   -20.7430     7.5355     8.4793
 1693.5000   138.0499     9.3353     0.0025     2.4679   -20.7430     7.3793     9.2836
 1694.0000   135.1487     9.3352    -0.0067     2.4509   -20.7430     7.2345    10.0359
 1694.5000   134.2315     9.3350    -0.0003     2.4449   -20.7430     7.0817     9.9674
