~VERSION INFORMATION
 VERS.                2.0:   CWLS LOG ASCII STANDARD - VERSION 2.0
 WRAP.                 NO:   ONE LINE PER DEPTH STEP
~WELL INFORMATION
#MNEM.UNIT      DATA TYPE    INFORMATION
#----------   ------------   ------------------------------
 STRT.F           42.0000:   START DEPTH
 STOP.F         4542.0000:   STOP DEPTH
 STEP.F            0.5000:   STEP LENGTH
 NULL.          -999.2500:   NO VALUE
 COMP. LAWRENCE ALLISON & ASSOC.:   COMPANY
 WELL. ALLISON NPR 3 #86-27:   WELL
 FLD .                NPR:   FIELD
 LOC .      S27 T39N R78W:   LOCATION
 CNTY.            NATRONA:   COUNTY
 STAT.            WYOMING:   STATE
 CTRY. UNITED STATES OF AMERICA:   COUNTRY
 SRVC.      DRESSER ATLAS:   SERVICE COMPANY
 DATE.        20-MAR-1985:   LOGDATE
 API .     49025110190000:   API NUMBER
~CURVE INFORMATION
#MNEM.UNIT       API CODE    CURVE DESCRIPTION
#----------   ------------   ------------------------------
 DEPT.F                  :   
 CALD.IN     45 280 60 00:   CALIPER FROM DENSITY LOG
 TEND.LBS    45 635 01 00:   TENSION FROM DENSITY LOG
 CORR.G/C3   45 356 01 00:   DENSITY CORRECTION
 RHOB.G/C3   45 350 01 00:   BULK DENSITY
 CNC .DEC    42 890 03 00:   NEUTRON PORISITY SANDSTONE
 TENR.LBS    07 635 01 00:   TENSION FROM RESISTIVITY
 GRR .GAPI   07 310 01 00:   GAMMA RAY FROM RESISTIVITY
 SFL .OHMM   07 220 01 00:   SHALLOW FOCUSED LOG RESISTIVITY
 ILD .OHMM   07 120 46 00:   DEEP INDUCTION RESISTIVITY
 ILM .OHMM   07 120 44 00:   INDUCTION LOG MEDIUM RESISTIVITY
 TENS.LBS    60 635 01 00:   TENSION FROM SONIC LOG
 DT  .US/F   60 520 00 00:   DELTA TIME
 CALS.IN     60 280 50 00:   CALIPER FROM SONIC LOG
 GRS .GAPI   60 310 01 00:   GAMMA RAY FROM SONIC LOG
~PARAMETER INFORMATION
#MNEM.UNIT          VALUE    DESCRIPTION
#----------   ------------   ------------------------------
 EKB .F         5095.0000:   Kelly bushing
 EGL .F         5083.0000:   Ground level
 EDF .F            0.0000:   Drilling floor
 TD  .F         4545.0000:   Total depth
 DATE.        20-MAR-1985:   Date logged
 CLNT.            A2DTECH:   Client Code
 SL  . 292' FEL & 1975' FWL:   Surface Location
 PD  .                 GL:   Permanent Datum
 EPD .F              5083:   Elevation Permanent Datum
 LMF .                 KB:   Log Measured From
 DMF .                 KB:   Drilling Measured From
 DAPD.F                12:   Feet Above Permanent Datum
 DD  .F              4545:   Depth driller
 DL  .F              4533:   Depth logger
 BLI .F              4534:   Bottom log interval
 TLI .F              1045:   Top log interval
 CS1 .IN            8.625:   Casing size
 CBD1.     8.625" @ 1033':   Casing driller 1
 CBL1.F              1045:   Casing logger 1
 BS1 .IN            7.875:   Bit size
 BSD1.F              4545:   Depth drilled with bit1
 DFT .    GEL/KCL/STA/FLO:   Type fluid in hole
 DFD .                9.1:   Density
 DFV .                 30:   Viscosity
 DFPH.                  8:   pH
 DFL .                 12:   Fluid loss
 MSS .           MUD/TANK:   Source of sample
 RMS .OHMM            .46:   Rm
 MST .F                74:   Rm Meas. temp.
 RMF .OHMM            .37:   Rmf
 MFST.F                72:   Rmf Meas. temp.
 RMC .OHMM            .58:   Rmc
 MCST.F                74:   Rmc Meas. temp.
 MFSS.               MEAS:   Source Rmf.
 MCSS.               CALC:   Source Rmc.
 RMB .OHMM            .25:   Rm. at BHT
 BHT .F               138:   BHT.
 TCS .HRS             4.5:   Time Circ. stopped
 MRT .F               138:   Maximum recorded temp.
 LUN .            HL-6274:   Logging unit number
 LUL .           GILLETTE:   Logging unit location
 ENGI.             RAUTIO:   Recorded By
 WITN.             STRONG:   Witnessed by
 ORIG.           5" PRINT:   Origin of data
 UWI .     49025110190000:   Unique Well ID
 DICO. A2D TECHNOLOGIES, INC.:   Digitizing Company
~OTHER INFORMATION
~A   DEPT     CALD       TEND       CORR       RHOB        CNC       TENR        GRR        SFL        ILD        ILM       TENS         DT        CALS        GRS  
# ...
 3741.5000     9.0550   -78.8800     0.0470     2.3100     0.2580    -1.4910   116.9030     3.3830     2.7380     3.4190  -999.2500  -999.2500  -999.2500  -999.2500
 3742.0000     9.0460   -75.7730    -0.0060     2.3820     0.2510    -1.4910   101.6130     4.6460     2.9490     3.6960  -999.2500  -999.2500  -999.2500  -999.2500
 3742.5000     9.0360   -72.6670     0.0060     2.4460     0.2430     8.6480   100.2920     5.5490     3.6500     4.0410  -999.2500  -999.2500  -999.2500  -999.2500
 3743.0000     9.0330   -69.5610     0.0080     2.4420     0.2410    18.3900   102.9820     4.9610     4.3440     4.3870  -999.2500  -999.2500  -999.2500  -999.2500
 3743.5000     9.0350   -66.4550    -0.0090     2.4570     0.2380    19.6850   100.6150     5.0490     4.7830     4.7050  -999.2500  -999.2500  -999.2500  -999.2500
 3744.0000     9.0370   -63.3480    -0.0210     2.4750     0.2370    20.9410    95.5500     5.8350     5.0740     5.0080  -999.2500  -999.2500  -999.2500  -999.2500
 3744.5000     9.0390   -60.3790    -0.0010     2.5030     0.2310    22.1970    93.1330     6.3670     5.3660     5.3100  -999.2500  -999.2500  -999.2500  -999.2500
 3745.0000     9.0420   -56.9190     0.0140     2.5120     0.2310    23.4520    95.4140     6.1040     5.6340     5.6130  -999.2500  -999.2500  -999.2500  -999.2500
 3745.5000     9.0440   -53.6060     0.0060     2.5120     0.2420    24.7080    96.5640     6.1220     5.9440     5.9150  -999.2500  -999.2500  -999.2500  -999.2500
 3746.0000     9.0460   -50.2930    -0.0150     2.5120     0.2520    25.9640    95.8620     6.2950     6.2310     6.1800  -999.2500  -999.2500  -999.2500  -999.2500
 3746.5000     9.0480   -46.9790    -0.0330     2.5180     0.2520    27.2200    92.4770     7.1870     6.5170     6.4130  -999.2500  -999.2500  -999.2500  -999.2500
 3747.0000     9.0500   -43.6660    -0.0330     2.5280     0.2450    28.4750    91.1920     7.8230     6.7610     6.5060  -999.2500  -999.2500  -999.2500  -999.2500
 3747.5000     9.0520   -40.4190    -0.0160     2.5320     0.2380    29.7310    91.2870     7.7450     6.9650     6.6550  -999.2500  -999.2500  -999.2500  -999.2500
 3748.0000     9.0540   -40.4190     0.0120     2.5320     0.2350    30.9870    90.9910     7.5870     7.2990     6.6310  -999.2500  -999.2500  -999.2500  -999.2500
 3748.5000     9.0560   -40.4190     0.0070     2.5330     0.2350    32.2430    90.2100     7.4290     7.2260     6.5860  -999.2500  -999.2500  -999.2500  -999.2500
 3749.0000     9.0580   -40.4190     0.0030     2.5350     0.2400    33.4980    90.7170     7.2990     7.0220     6.5420  -999.2500  -999.2500  -999.2500  -999.2500
 3749.5000     9.0600   -40.4190     0.0030     2.5370     0.2460    34.7540    92.0870     7.1660     6.8180     6.4240  -999.2500  -999.2500  -999.2500  -999.2500
 3750.0000     9.0620   -40.4190     0.0220     2.5400     0.2290    36.0100    92.9600     7.1900     6.6130     6.2840  -999.2500  -999.2500  -999.2500  -999.2500
 3750.5000     9.0640   -40.4190     0.0430     2.5420     0.2310    37.2660    92.1550     7.2320     6.4090     6.1450  -999.2500  -999.2500  -999.2500  -999.2500
 3751.0000     9.0660   -38.9710     0.0430     2.5420     0.2350    38.2700    91.3770     7.2990     6.2050     6.0050  -999.2500  -999.2500  -999.2500  -999.2500
 3751.5000     9.0680   -37.5340     0.0260     2.5350     0.2420    33.6830    91.6090     7.1730     6.0010     5.8660  -999.2500  -999.2500  -999.2500  -999.2500
 3752.0000     9.0700   -36.0960     0.0070     2.5250     0.2540    29.8590    92.6840     6.8560     5.7970     5.7260  -999.2500  -999.2500  -999.2500  -999.2500
 3752.5000     9.0720   -34.6590    -0.0010     2.5210     0.2650    26.0360    94.1960     6.5400     5.5930     5.5870  -999.2500  -999.2500  -999.2500  -999.2500
 3753.0000     9.0730   -33.2220     0.0050     2.5260     0.2690    22.2130    94.2890     6.3690     5.4300     5.4300  -999.2500  -999.2500  -999.2500  -999.2500
 3753.5000     9.0750   -31.7850     0.0110     2.5300     0.2660    18.3900    94.3950     6.2950     5.4300     5.4300  -999.2500  -999.2500  -999.2500  -999.2500
 3754.0000     9.0760   -30.3480     0.0120     2.5280     0.2600    21.2300    95.7140     5.8130     5.4300     5.4300  -999.2500  -999.2500  -999.2500  -999.2500
 3754.5000     9.0770   -28.9110     0.0060     2.5210     0.2540    24.0700    97.4070     5.3300     5.4880     5.5050  -999.2500  -999.2500  -999.2500  -999.2500
 3755.0000     9.0780   -27.4740    -0.0010     2.5150     0.2460    26.9100    94.9700     5.6490     5.6340     5.6000  -999.2500  -999.2500  -999.2500  -999.2500
 3755.5000     9.0790   -26.0360    -0.0010     2.5150     0.2380    29.7500    90.2150     6.1800     5.7800     5.6950  -999.2500  -999.2500  -999.2500  -999.2500
 3756.0000     9.0800   -24.5990     0.0030     2.5280     0.2300    32.5900    86.0310     8.1560     5.9560     5.8460  -999.2500  -999.2500  -999.2500  -999.2500
 3756.5000     9.0810   -23.1620     0.0070     2.5350     0.2310    35.4300    82.4470     8.1060     5.7730     5.7460  -999.2500  -999.2500  -999.2500  -999.2500
 3757.0000     9.0830   -21.7250     0.0090     2.5290     0.2420    38.2700    83.9500     8.0060     5.5440     5.4950  -999.2500  -999.2500  -999.2500  -999.2500
 3757.5000     9.0840   -20.4590    -0.0040     2.5180     0.2570    41.1100    87.3790     7.1760     5.3160     5.2440  -999.2500  -999.2500  -999.2500  -999.2500
 3758.0000     9.0850   -31.7170    -0.0340     2.5080     0.2710    43.9510    91.7990     6.4830     5.0870     4.9930  -999.2500  -999.2500  -999.2500  -999.2500
 3758.5000     9.0860   -40.4190    -0.0460     2.4950     0.2810    46.7910    95.8790     5.7910     4.8940     4.7420  -999.2500  -999.2500  -999.2500  -999.2500
 3759.0000     9.0870   -26.1480    -0.0340     2.4850     0.2800    49.6310    96.7850     5.0980     4.7560     4.4910  -999.2500  -999.2500  -999.2500  -999.2500
 3759.5000     9.0880    -0.4990    -0.0250     2.4780     0.2790    52.4710    97.6540     4.6660     4.6170     4.2400  -999.2500  -999.2500  -999.2500  -999.2500
 3760.0000     9.0890    -0.4990    -0.0140     2.4720     0.2800    55.3110    97.8900     4.5970     4.4780     4.0390  -999.2500  -999.2500  -999.2500  -999.2500
 3760.5000     9.0910    -0.4990    -0.0050     2.4720     0.2980    58.1510    97.9150     4.6510     4.3390     3.9650  -999.2500  -999.2500  -999.2500  -999.2500
 3761.0000     9.0920    -0.4990     0.0130     2.4800     0.2980    54.3280    97.5930     4.7860     4.2000     3.9650  -999.2500  -999.2500  -999.2500  -999.2500
 3761.5000     9.0930   -20.1400     0.0290     2.4890     0.2950    50.5050    97.0060     4.9210     4.0610     3.9650  -999.2500  -999.2500  -999.2500  -999.2500
 3762.0000     9.0940   -40.4190     0.0390     2.4980     0.2870    46.6810    96.3210     5.1370     3.9230     3.8850  -999.2500  -999.2500  -999.2500  -999.2500
 3762.5000     9.0950    -0.4990     0.0430     2.5040     0.2930    42.8580    96.8610     5.0420     3.7840     3.7510  -999.2500  -999.2500  -999.2500  -999.2500
 3763.0000     9.0960    -0.4990     0.0270     2.5000     0.2970    39.0350    99.2110     4.8060     3.6450     3.6180  -999.2500  -999.2500  -999.2500  -999.2500
 3763.5000     9.0980   -21.8060    -0.0180     2.4910     0.2970    35.2120   101.2250     4.5690     3.5060     3.4850  -999.2500  -999.2500  -999.2500  -999.2500
 3764.0000     9.0990   -28.0940    -0.0350     2.4810     0.2980    31.3890   103.7060     4.3330     3.3670     3.3510  -999.2500  -999.2500  -999.2500  -999.2500
 3764.5000     9.1000   -34.3810    -0.0210     2.4730     0.2980    27.5650   104.0020     4.1180     3.2290     3.2180  -999.2500  -999.2500  -999.2500  -999.2500
 3765.0000     9.1010   -40.6690    -0.0100     2.4700     0.2990    23.7420   105.1340     3.9370     3.1170     3.0840  -999.2500  -999.2500  -999.2500  -999.2500
 3765.5000     9.1020   -46.9560    -0.0020     2.4690     0.2990    19.9190   106.1330     3.6820     3.1000     3.0040  -999.2500  -999.2500  -999.2500  -999.2500
