~VERSION INFORMATION
 VERS.                2.0:   CWLS LOG ASCII STANDARD - VERSION 2.0
 WRAP.                 NO:   ONE LINE PER DEPTH STEP
~WELL INFORMATION
#MNEM.UNIT      DATA TYPE    INFORMATION
#----------   ------------   ------------------------------
 STRT.F          200.5000:   START DEPTH
 STOP.F         3012.5000:   STOP DEPTH
 STEP.F            0.5000:   STEP LENGTH
 NULL.          -999.2500:   NO VALUE
 COMP.    FENIX & SCISSON:   COMPANY
 WELL.  FENIX "AX" #75-29:   WELL
 FLD .              NPR-3:   FIELD
 LOC .      S29 T39N R78W:   LOCATION
 CNTY.            NATRONA:   COUNTY
 STAT.            WYOMING:   STATE
 CTRY. UNITED STATES OF AMERICA:   COUNTRY
 SRVC.           BIRDWELL:   SERVICE COMPANY
 DATE.        15-FEB-1978:   LOGDATE
 API .     49025105830000:   API NUMBER
~CURVE INFORMATION
#MNEM.UNIT       API CODE    CURVE DESCRIPTION
#----------   ------------   ------------------------------
 DEPT.F                  :   
 GRD .GAPI   45 310 01 00:   GAMMA RAY FROM DENSITY LOG
 CALD.IN     45 280 60 00:   CALIPER FROM DENSITY LOG
 DEN .G/C3   45 350 01 00:   BULK DENSITY
 DCOR.G/C3   45 356 01 00:   DENSITY CORRECTION
 SPR .MV     05 010 01 00:   SPONTANEOUS POTENTIAL
 SN  .OHMM   05 040 16 00:   SHORT NORMAL 16"
 RILD.OHMM   05 120 46 00:   DEEP INDUCTION RESISTIVITY
~PARAMETER INFORMATION
#MNEM.UNIT          VALUE    DESCRIPTION
#----------   ------------   ------------------------------
 EKB .F         5042.0000:   Kelly bushing
 EGL .F         5032.0000:   Ground level
 EDF .F            0.0000:   Drilling floor
 TD  .F         3010.0000:   Total depth
 DATE.        15-FEB-1978:   Date logged
 CLNT.            A2DTECH:   Client Code
 SL  . 2550' FSL & 950' FEL:   Surface Location
 PD  .                 GL:   Permanent Datum
 EPD .F              5032:   Elevation Permanent Datum
 LMF .                 KB:   Log Measured From
 DMF .                 KB:   Drilling Measured From
 DAPD.F                10:   Feet Above Permanent Datum
 DD  .F              3010:   Depth driller
 DL  .F              3010:   Depth logger
 BLI .F              3002:   Bottom log interval
 TLI .F               200:   Top log interval
 CS1 .IN            8.625:   Casing size
 CBD1.      8.625" @ 222':   Casing driller 1
 CBL1.F               222:   Casing logger 1
 BS1 .IN            7.875:   Bit size
 BSD1.F              3010:   Depth drilled with bit1
 DFT .         LIGNO/SULF:   Type fluid in hole
 DFD .                9.1:   Density
 DFV .                 33:   Viscosity
 DFPH.                 10:   pH
 DFL .                4.9:   Fluid loss
 MSS .           FLOWLINE:   Source of sample
 RMS .OHMM              2:   Rm
 MST .F                66:   Rm Meas. temp.
 RMF .OHMM            2.2:   Rmf
 MFST.F                58:   Rmf Meas. temp.
 RMC .OHMM            1.8:   Rmc
 MCST.F                60:   Rmc Meas. temp.
 MFSS.               MEAS:   Source Rmf.
 RMB .OHMM            1.7:   Rm. at BHT
 BHT .F               118:   BHT.
 TCS .HRS               5:   Time Circ. stopped
 MRT .F               118:   Maximum recorded temp.
 LUN .               2958:   Logging unit number
 LUL .               CASP:   Logging unit location
 ENGI.            POINTER:   Recorded By
 WITN.           MCGINLEY:   Witnessed by
 ORIG.           5" PRINT:   Origin of data
 UWI .     49025105830000:   Unique Well ID
 DICO. A2D TECHNOLOGIES, INC.:   Digitizing Company
~OTHER INFORMATION
~A   DEPT       GRD      CALD        DEN       DCOR        SPR         SN       RILD   
# ...
  564.5000    71.8950     9.4050     2.4830     0.1010   -62.2560     9.3660     8.9070
  565.0000    71.0860     9.3980     2.4420     0.1080   -62.2280     9.2700     8.5640
  565.5000    69.9920     9.3880     2.4910     0.1150   -62.1990     9.1740     8.5640
  566.0000    69.8050     9.4250     2.5140     0.1160   -62.1710     9.0780     8.5640
  566.5000    69.7910     9.4640     2.5370     0.1080   -62.1430     9.0410     8.5640
  567.0000    70.2050     9.4840     2.5310     0.1020   -62.1140     9.0270     8.5060
  567.5000    71.0090     9.5040     2.5170     0.0990   -62.0860     9.0130     8.3300
  568.0000    73.3130     9.5220     2.5320     0.0960   -62.0580     8.9990     8.3330
  568.5000    74.1510     9.3720     2.5030     0.0930   -62.0290     8.9860     8.3390
  569.0000    74.2330     9.0340     2.5110     0.0900   -62.0010     8.9720     8.3440
  569.5000    74.4570     9.0140     2.4950     0.0860   -61.9720     8.9580     8.3500
  570.0000    77.8550     9.0110     2.5060     0.0860   -61.9440     8.9440     8.3560
  570.5000    77.7210     9.0100     2.4900     0.0920   -61.9160     8.9300     8.3620
  571.0000    74.5440     9.0100     2.5090     0.0960   -61.8870     8.9160     8.3670
  571.5000    72.9230     9.0100     2.5170     0.1090   -61.8580     8.9020     8.3730
  572.0000    71.6390     9.0100     2.5350     0.1100   -61.8720     8.8860     8.3790
  572.5000    71.5720     9.0100     2.5440     0.1030   -61.8960     8.9160     8.3850
  573.0000    73.1400     9.0090     2.5340     0.0970   -61.9200     8.9560     8.3910
  573.5000    73.6040     9.0290     2.5100     0.0970   -61.9450     8.9950     8.3960
  574.0000    72.1320     9.0540     2.5060     0.1010   -61.9690     9.0350     8.4020
  574.5000    71.5010     9.0790     2.5070     0.1030   -61.9940     9.0750     8.4070
  575.0000    72.4060     9.1040     2.5170     0.1030   -62.0180     9.1150     8.4070
  575.5000    76.0660     9.1290     2.5350     0.1030   -62.0420     9.1670     8.4060
  576.0000    75.5140     9.1540     2.5360     0.1040   -62.0670     9.2310     8.4580
  576.5000    74.1600     9.1680     2.5320     0.1090   -62.0910     9.2960     8.5320
  577.0000    73.7620     9.1680     2.5170     0.1140   -62.1160     9.3150     8.6050
  577.5000    74.8440     9.1680     2.5230     0.1180   -62.1400     9.3300     8.6790
  578.0000    77.8500     9.1690     2.5380     0.1270   -62.1640     9.3450     8.7530
  578.5000    77.4850     9.1930     2.5360     0.1420   -62.1890     9.3600     8.8270
  579.0000    75.4000     9.2090     2.5350     0.1410   -62.2130     9.3750     8.8850
  579.5000    75.0600     9.2130     2.5390     0.1340   -62.2380     9.3910     8.7930
  580.0000    76.5640     9.2170     2.5350     0.1110   -62.2620     8.8040     8.7170
  580.5000    79.5400     9.2210     2.5310     0.0880   -62.2860     8.9630     8.6410
  581.0000    80.4720     9.2250     2.4960     0.0930   -62.3110     9.2190     8.5650
  581.5000    79.6350     9.2280     2.4920     0.1000   -62.3350     9.2050     8.4890
  582.0000    78.6110     9.2320     2.5030     0.1020   -62.3600     9.1860     8.4120
  582.5000    81.2330     9.2360     2.5120     0.1050   -62.3840     9.1670     8.3300
  583.0000    82.5140     9.2400     2.5030     0.1150   -62.4080     9.1480     8.3930
  583.5000    82.3980     9.2450     2.4970     0.1300   -62.4330     9.1350     8.4820
  584.0000    80.3810     9.2560     2.5090     0.1430   -62.4590     9.1350     8.5700
  584.5000    75.0470     9.2960     2.5270     0.1440   -62.4900     9.1350     8.6580
  585.0000    72.1220     9.3360     2.5140     0.1760   -62.5210     9.1840     8.7230
  585.5000    70.1780     9.3770     2.5180     0.2090   -62.5510     9.2400     8.6490
  586.0000    69.9100     9.3900     2.5330     0.2400   -62.5820     9.2970     8.6980
  586.5000    68.6580     9.3960     2.4580     0.1540   -62.6130     9.3530     8.7840
  587.0000    69.3680     9.4020     2.4830     0.0390   -62.6470     9.4100     8.8850
  587.5000    74.6080     9.4100     2.3790     0.0680   -62.5420     9.4660     8.8760
  588.0000    78.2220     9.4280     2.4140     0.1150   -62.4120     9.5960     8.8630
  588.5000    76.9140     9.4870     2.5150     0.1490   -62.2810     9.7440     8.8510
  589.0000    73.2360     9.5510     2.5030     0.1810   -62.1500     9.8920     8.8390
  589.5000    73.1490     9.6320     2.5020     0.2250   -62.0180    10.0170     8.8270
  590.0000    73.3500     9.7550     2.5300     0.2940   -61.8830     9.9520     8.8140
  590.5000    74.2360     9.8500     2.5270     0.3660   -61.9160     9.8950     8.8050
  591.0000    72.8770     9.9120     2.5330     0.4330   -61.9990     9.8340     8.8270
  591.5000    72.7890     9.8980     2.5480     0.3370   -62.0830     9.7830     8.8470
  592.0000    79.9490     9.8680     2.4850     0.2350   -62.1680     9.7440     8.8670
  592.5000    76.8290     9.8670     2.3860     0.1300   -62.2520     9.7440     8.8850
  593.0000    75.8680     9.8740     2.3360     0.2020   -62.3360     9.6950     8.7140
  593.5000    73.6010     9.8850     2.3860     0.2820   -62.4240     9.5140     8.5190
  594.0000    71.1380     9.9200     2.4840     0.3620   -62.4380     9.3330     8.3240
  594.5000    70.8200     9.9560     2.5530     0.4390   -62.4220     9.2410     8.2390
  595.0000    71.4420    10.0170     2.5520     0.4160   -62.4050     9.1650     8.2150
  595.5000    73.9350    10.0820     2.5170     0.3460   -62.3880     9.0900     8.1910
  596.0000    72.9810    10.1800     2.4270     0.2560   -62.3710     9.0140     8.1680
  596.5000    70.2880    10.2250     2.3390     0.1750   -62.3540     8.9590     8.1440
  597.0000    69.6380    10.2630     2.3260     0.1450   -62.3370     8.9380     8.1200
  597.5000    69.4170    10.3020     2.3420     0.2380   -62.3200     8.9170     8.0970
  598.0000    69.2680    10.4970     2.4200     0.3220   -62.3030     8.8950     8.0730
  598.5000    72.0070    10.8030     2.4820     0.4100   -62.2860     8.8340     8.0490
  599.0000    76.1920    11.1830     2.4720     0.4450   -62.2690     8.7390     8.0080
  599.5000    78.1270    12.3330     2.4370     0.4260   -62.2520     8.6450     7.8410
  600.0000    79.5160    12.3080     2.3600     0.3990   -62.2600     8.5500     7.6750
  600.5000    77.6410    11.0930     2.2830     0.3940   -62.2710     8.4560     7.5080
  601.0000    73.9510    10.7930     2.2220     0.3920   -62.2810     8.3350     7.3730
  601.5000    73.0100    10.5490     2.2050     0.2660   -62.2910     8.1870     7.3210
  602.0000    73.3140    10.3980     2.2080     0.1080   -62.3020     8.0380     7.3060
  602.5000    74.0510    10.3780     2.0100     0.0040   -62.3120     7.8900     7.2910
  603.0000    74.7100    10.3940     2.0100     0.2810   -62.3220     7.7770     7.2770
  603.5000    73.7570    10.5020     2.2450     0.4300   -62.3320     7.7070     7.2620
  604.0000    75.0170    10.9680     2.5100     0.4240   -62.3430     7.6360     7.2440
  604.5000    75.7050    11.4870     2.5020     0.2940   -62.3530     7.5960     7.2040
  605.0000    74.3100    11.7420     2.4350     0.3190   -62.3630     7.5960     7.1630
  605.5000    72.6120    11.8390     2.3470     0.3510   -62.3740     7.5960     7.1220
  606.0000    72.7660    10.9900     2.3480     0.3820   -62.3840     7.5960     7.0810
  606.5000    74.8520    10.9630     2.4480     0.3870   -62.3940     7.6180     7.0530
  607.0000    76.2830    11.0450     2.4500     0.3780   -62.4040     7.6400     7.0460
  607.5000    76.1720    11.1380     2.4150     0.3480   -62.4150     7.6620     7.0390
  608.0000    76.6220    11.2120     2.3620     0.3700   -62.4250     7.6840     7.0310
  608.5000    77.7310    11.2870     2.3360     0.4300   -62.4340     7.7060     7.0240
  609.0000    78.8400    11.3620     2.3940     0.4050   -62.4440     7.7380     7.0170
  609.5000    80.1570    11.3890     2.3860     0.3370   -62.3270     7.6890     7.0100
