~VERSION INFORMATION
 VERS.                2.0:   CWLS LOG ASCII STANDARD - VERSION 2.0
 WRAP.                 NO:   ONE LINE PER DEPTH STEP
~WELL INFORMATION
#MNEM.UNIT      DATA TYPE    INFORMATION
#----------   ------------   ------------------------------
 STRT.F            0.0000:   START DEPTH
 STOP.F         3040.0000:   STOP DEPTH
 STEP.F            0.5000:   STEP LENGTH
 NULL.          -999.2500:   NO VALUE
 COMP.    FENIX & SCISSON:   COMPANY
 WELL.  FENIX "AX" #43-28:   WELL
 FLD .             TEAPOT:   FIELD
 LOC .      S28 T39N R78W:   LOCATION
 CNTY.            NATRONA:   COUNTY
 STAT.            WYOMING:   STATE
 CTRY. UNITED STATES OF AMERICA:   COUNTRY
 SRVC.              WELEX:   SERVICE COMPANY
 DATE.        20-JUL-1980:   LOGDATE
 API .     49025108450000:   API NUMBER
~CURVE INFORMATION
#MNEM.UNIT       API CODE    CURVE DESCRIPTION
#----------   ------------   ------------------------------
 DEPT.F                  :   
 GRD .GAPI   45 310 01 00:   GAMMA RAY FROM DENSITY LOG
 CALD.IN     45 280 60 00:   CALIPER FROM DENSITY LOG
 RHOB.G/C3   45 350 01 00:   BULK DENSITY
 CORR.G/C3   45 356 01 00:   DENSITY CORRECTION
 SPR .MV     07 010 01 00:   SPONTANEOUS POTENTIAL
 ILD .OHMM   07 120 46 00:   DEEP INDUCTION RESISTIVITY
 ILM .OHMM   07 120 44 00:   INDUCTION LOG MEDIUM RESISTIVITY
 SGRD.OHMM   07 220 05 00:   SHALLOW SHORT GUARD RESISTIVITY
 NEUT.CPS    35 330 30 00:   NEUTRON
~PARAMETER INFORMATION
#MNEM.UNIT          VALUE    DESCRIPTION
#----------   ------------   ------------------------------
 EKB .F         5042.0000:   Kelly bushing
 EGL .F         5032.0000:   Ground level
 EDF .F            0.0000:   Drilling floor
 TD  .F         3038.0000:   Total depth
 DATE.        20-JUL-1980:   Date logged
 CLNT.            A2DTECH:   Client Code
 SL  . 1500' FNL & 2500' FWL:   Surface Location
 PD  .                 GL:   Permanent Datum
 EPD .F              5032:   Elevation Permanent Datum
 LMF .                 KB:   Log Measured From
 DMF .                 KB:   Drilling Measured From
 DD  .F              3000:   Depth driller
 DL  .F              3038:   Depth logger
 BLI .F              3036:   Bottom log interval
 TLI .F               432:   Top log interval
 CS1 .IN            8.625:   Casing size
 CBD1.      8.625" @ 443':   Casing driller 1
 CBL1.F               432:   Casing logger 1
 BS1 .IN            7.875:   Bit size
 BSD1.F              3000:   Depth drilled with bit1
 DFT .     WATER BASE MUD:   Type fluid in hole
 DFD .                9.3:   Density
 DFV .                 45:   Viscosity
 DFPH.                  9:   pH
 DFL .                  8:   Fluid loss
 MSS .                PIT:   Source of sample
 RMS .OHMM           0.85:   Rm
 MST .F                75:   Rm Meas. temp.
 RMF .OHMM           0.68:   Rmf
 MFST.F                75:   Rmf Meas. temp.
 RMC .OHMM           1.02:   Rmc
 MCST.F                75:   Rmc Meas. temp.
 MFSS.               MEAS:   Source Rmf.
 MCSS.               MEAS:   Source Rmc.
 RMB .OHMM           0.57:   Rm. at BHT
 BHT .F               112:   BHT.
 TCS .HRS               3:   Time Circ. stopped
 MRT .F               112:   Maximum recorded temp.
 LUN .               9865:   Logging unit number
 LUL .             CASPER:   Logging unit location
 ENGI.            TOTHILL:   Recorded By
 WITN.           DINSMORE:   Witnessed by
 ORIG.     2.5", 5" PRINT:   Origin of data
 UWI .     49025108450000:   Unique Well ID
 DICO. A2D TECHNOLOGIES, INC.:   Digitizing Company
~OTHER INFORMATION
~A    DEPT     GRD       CALD       RHOB       CORR        SPR        ILD        ILM       SGRD        NEUT  
# ...
 2810.5000    92.5650     9.4550     2.5190     0.0150   -20.6690     4.4440     5.1640     5.5330   260.8250
 2811.0000    92.3920     9.4440     2.5250     0.0180   -20.5220     4.5510     5.2530     5.6330   254.1370
 2811.5000    92.2290     9.4390     2.5310     0.0220   -20.3700     4.6580     5.3420     5.7340   272.6520
 2812.0000    92.0670     9.4550     2.5350     0.0250   -20.2180     4.7660     5.4310     5.8340   263.1130
 2812.5000    91.9050     9.4710     2.5400     0.0280   -20.0670     4.8870     5.4580     5.9850   252.5050
 2813.0000    91.7370     9.4860     2.5490     0.0310   -19.9160     4.8500     5.5590     5.9170   257.7210
 2813.5000    91.9400     9.5020     2.5550     0.0380   -19.7630     4.7770     5.3800     5.7680   266.0980
 2814.0000    92.3350     9.5130     2.5590     0.0440   -19.6170     4.7100     5.2160     5.4960   281.2240
 2814.5000    92.7320     9.5060     2.5620     0.0500   -19.5690     4.3870     4.8960     5.1900   293.6000
 2815.0000    93.1360     9.5000     2.5550     0.0520   -19.7830     4.0900     4.5060     4.8850   285.1720
 2815.5000    93.7810     9.4930     2.5470     0.0490   -20.0380     3.7940     4.1150     4.5790   276.8440
 2816.0000    95.5120     9.4630     2.5350     0.0460   -20.2390     3.4970     3.7250     4.2960   268.6060
 2816.5000    97.2430     9.4320     2.5230     0.0450   -20.7080     3.2000     3.3340     3.8400   280.3710
 2817.0000    98.9700     9.4000     2.5120     0.0500   -21.2850     2.9030     2.9440     3.4160   269.0350
 2817.5000   100.6830     9.3690     2.5060     0.0560   -21.8820     2.5650     2.7610     2.9910   257.2120
 2818.0000   102.9950     9.3380     2.5010     0.0620   -21.7180     2.4720     2.8890     2.2540   244.8720
 2818.5000   104.6690     9.3180     2.4920     0.0630   -21.4890     2.6210     3.1700     2.8090   232.3530
 2819.0000   104.9120     9.3230     2.4830     0.0620   -21.2260     2.8450     3.4510     3.6560   219.9270
 2819.5000   103.4520     9.3280     2.4730     0.0610   -20.9890     3.0680     3.7760     4.5040   207.4260
 2820.0000    97.7550     9.3330     2.4710     0.0600   -20.7400     3.2920     4.0440     5.0120   227.0240
 2820.5000    92.2900     9.3390     2.4820     0.0570   -20.4950     3.5150     4.3620     5.0890   243.9980
 2821.0000    88.1250     9.3480     2.4940     0.0450   -20.2480     3.7390     4.6800     5.1650   253.3330
 2821.5000    83.9690     9.3560     2.5180     0.0330   -20.0030     3.9620     4.9440     5.3070   265.4480
 2822.0000    82.8450     9.3520     2.5490     0.0310   -19.7600     4.1860     5.1770     5.4450   316.1690
 2822.5000    82.2710     9.3470     2.5540     0.0440   -19.4440     4.4100     5.3580     5.6630   298.0000
 2823.0000    82.9930     9.3430     2.5560     0.0470   -18.9140     4.5620     5.2750     5.5980   272.3880
 2823.5000    83.7190     9.3380     2.5580     0.0470   -18.3930     4.6240     5.0760     5.4430   309.4820
 2824.0000    84.3640     9.3350     2.5620     0.0470   -17.8560     4.6130     4.8760     5.2880   329.6020
 2824.5000    85.7400     9.3330     2.5660     0.0470   -17.3300     4.6000     4.7980     5.1330   302.7360
 2825.0000    87.1650     9.3310     2.5640     0.0470   -16.8330     4.5870     4.7980     4.9780   325.4040
 2825.5000    88.5860     9.3290     2.5520     0.0440   -16.8350     4.5740     4.8350     4.9780   337.4120
 2826.0000    90.0050     9.3270     2.5410     0.0330   -17.1980     4.5610     4.8720     5.0090   317.4230
 2826.5000    91.4260     9.3250     2.5380     0.0270   -17.5220     4.5480     4.9100     5.0870   293.7810
 2827.0000    92.8350     9.3230     2.5460     0.0330   -18.0730     4.4920     4.9470     5.1650   307.1470
 2827.5000    94.2870     9.3210     2.5570     0.0430   -18.6790     4.3670     4.9780     5.2430   334.0800
 2828.0000    95.5670     9.3190     2.5670     0.0520   -19.3250     4.2430     4.8910     5.2610   325.9500
 2828.5000    96.8890     9.3160     2.5720     0.0550   -19.5380     4.1190     4.6630     5.0650   306.1940
 2829.0000    98.2190     9.3140     2.5620     0.0500   -19.4170     3.9910     4.4340     4.8870   312.4720
 2829.5000    99.6130     9.3120     2.5520     0.0470   -19.3350     3.8910     4.2050     4.7980   302.1850
 2830.0000   101.2040     9.3100     2.5480     0.0460   -19.2430     3.7140     3.9760     4.3210   288.9290
 2830.5000   102.8930     9.3080     2.5480     0.0450   -19.1660     3.5380     3.7480     3.9120   307.9090
 2831.0000   104.5880     9.3060     2.5480     0.0470   -18.8980     3.3620     3.5080     3.5030   342.4580
 2831.5000   106.2800     9.3040     2.5440     0.0500   -18.5220     3.1850     3.5080     3.3190   337.4730
 2832.0000   107.9780     9.3020     2.5390     0.0530   -18.1460     3.1410     3.5890     3.4470   315.4200
 2832.5000   110.7370     9.3000     2.5390     0.0590   -17.9640     3.1410     3.6600     3.8190   330.9680
 2833.0000   112.6820     9.2970     2.5420     0.0660   -17.9660     3.1410     3.7740     4.1290   322.5580
 2833.5000   113.3800     9.3030     2.5440     0.0690   -17.4530     3.2460     3.9740     4.2960   303.1620
 2834.0000   111.9980     9.3090     2.5420     0.0690   -16.8980     3.4440     4.1740     4.7040   277.2940
 2834.5000   109.1090     9.3160     2.5440     0.0580   -16.4280     3.6420     4.3730     5.0650   281.1870
 2835.0000   103.1890     9.3220     2.5520     0.0470   -16.5140     3.8390     4.5730     5.2810   289.0110
 2835.5000    95.4170     9.3290     2.5480     0.0360   -16.5850     4.0370     4.7730     5.3580   297.0030
 2836.0000    87.7620     9.3350     2.5450     0.0240   -16.6930     4.2340     4.9720     5.4130   305.7000
 2836.5000    85.8710     9.3360     2.5510     0.0240   -16.7710     4.4320     5.1300     5.5860   305.7210
 2837.0000    84.9880     9.3360     2.5580     0.0270   -17.2320     4.6300     5.2680     5.7590   300.1160
 2837.5000    84.6460     9.3200     2.5580     0.0300   -17.8670     4.8270     5.4140     5.9320   280.5790
 2838.0000    84.2940     9.2920     2.5570     0.0320   -18.4920     4.9300     5.5200     6.0060   247.6970
 2838.5000    83.9450     9.2630     2.5610     0.0350   -19.1330     4.9920     5.6080     6.0370   214.8150
 2839.0000    83.6040     9.2340     2.5630     0.0360   -19.5260     5.0540     5.6960     6.0680   196.7660
 2839.5000    83.2440     9.2050     2.5580     0.0310   -19.3730     5.1160     5.7840     6.0960   202.6480
 2840.0000    82.8900     9.1790     2.5520     0.0260   -19.2470     5.1770     5.8730     6.2220   217.1640
 2840.5000    82.5380     9.1720     2.5460     0.0230   -19.1060     5.2390     5.9610     6.3380   278.1690
 2841.0000    82.1870     9.1650     2.5450     0.0200   -18.9450     5.3010     6.0490     6.4540   350.9950
 2841.5000    81.8370     9.1580     2.5450     0.0240   -18.8590     5.3630     6.0960     6.5620   342.6910
 2842.0000    81.7590     9.1520     2.5530     0.0310   -18.4550     5.4250     6.0540     6.3740   330.0920
 2842.5000    82.0020     9.1450     2.5620     0.0380   -18.3760     5.4580     5.9940     6.2090   317.4930
 2843.0000    82.2440     9.1390     2.5620     0.0380   -18.3710     5.5270     6.0140     6.2090   304.8940
 2843.5000    82.4880     9.1350     2.5580     0.0340   -18.3980     5.5920     6.1280     6.4370   286.3180
 2844.0000    82.7310     9.1310     2.5530     0.0300   -18.1340     5.6570     6.2420     6.7030   314.6770
 2844.5000    83.0200     9.1270     2.5520     0.0270   -17.1290     5.7220     6.3560     6.9690   305.7100
 2845.0000    83.3300     9.1230     2.5570     0.0270   -16.7770     5.7870     6.4420     7.0640   287.7400
 2845.5000    83.6110     9.1190     2.5540     0.0250   -16.8050     5.8750     6.4420     7.0640   270.3980
 2846.0000    84.9280     9.1150     2.5440     0.0220   -16.8100     5.8160     6.4420     6.9540   288.3080
 2846.5000    86.4530     9.1110     2.5350     0.0190   -17.0230     5.5610     6.1610     6.4820   280.3880
