~VERSION INFORMATION
 VERS.                2.0:   CWLS LOG ASCII STANDARD - VERSION 2.0
 WRAP.                 NO:   ONE LINE PER DEPTH STEP
~WELL INFORMATION
#MNEM.UNIT      DATA TYPE    INFORMATION
#----------   ------------   ------------------------------
 STRT.F         2676.0000:   START DEPTH
 STOP.F         3016.0000:   STOP DEPTH
 STEP.F            0.5000:   STEP LENGTH
 NULL.          -999.2500:   NO VALUE
 COMP.    FENIX & SCISSON:   COMPANY
 WELL.  FENIX "TX" #56-20:   WELL
 FLD .             NPR #3:   FIELD
 LOC .      S20 T39N R78W:   LOCATION
 CNTY.            NATRONA:   COUNTY
 STAT.            WYOMING:   STATE
 CTRY. UNITED STATES OF AMERICA:   COUNTRY
 SRVC.              WELEX:   SERVICE COMPANY
 DATE.        13-OCT-1980:   LOGDATE
 API .     49025108540000:   API NUMBER
~CURVE INFORMATION
#MNEM.UNIT       API CODE    CURVE DESCRIPTION
#----------   ------------   ------------------------------
 DEPT.F                  :   
 GRD .GAPI   45 310 01 00:   GAMMA RAY FROM DENSITY LOG
 CALD.IN     45 280 60 00:   CALIPER FROM DENSITY LOG
 RHOB.G/C3   45 350 01 00:   BULK DENSITY
 DRHO.G/C3   45 356 01 00:   DENSITY CORRECTION
 SPR .MV     07 010 01 00:   SPONTANEOUS POTENTIAL
 SGRD.OHMM   07 220 05 00:   SHALLOW GUARD
 ILM .OHMM   07 120 44 00:   INDUCTION LOG MEDIUM RESISTIVITY
 ILD .OHMM   07 120 46 00:   DEEP INDUCTION RESISTIVITY
~PARAMETER INFORMATION
#MNEM.UNIT          VALUE    DESCRIPTION
#----------   ------------   ------------------------------
 EKB .F         5035.0000:   Kelly bushing
 EGL .F         5030.0000:   Ground level
 EDF .F            0.0000:   Drilling floor
 TD  .F         3012.0000:   Total depth
 DATE.        13-OCT-1980:   Date logged
 CLNT.            A2DTECH:   Client Code
 PD  .                 GL:   Permanent Datum
 EPD .F              5030:   Elevation Permanent Datum
 LMF .                 KB:   Log Measured From
 DMF .                 KB:   Drilling Measured From
 DD  .F              3012:   Depth driller
 DL  .F              3010:   Depth logger
 BLI .F              3012:   Bottom log interval
 TLI .F              2688:   Top log interval
 CS1 .IN                7:   Casing size
 CBD1.         7" @ 2689':   Casing driller 1
 CBL1.F              2687:   Casing logger 1
 BS1 .IN             6.25:   Bit size
 BSD1.F              3012:   Depth drilled with bit1
 DFT .        FRESH WATER:   Type fluid in hole
 MSS .           FLOWLINE:   Source of sample
 RMS .OHMM           2.86:   Rm
 MST .F                50:   Rm Meas. temp.
 RMF .OHMM           2.29:   Rmf
 MFST.F                50:   Rmf Meas. temp.
 RMC .OHMM           3.43:   Rmc
 MCST.F                50:   Rmc Meas. temp.
 MFSS.               MEAS:   Source Rmf.
 MCSS.               MEAS:   Source Rmc.
 RMB .OHMM           1.21:   Rm. at BHT
 BHT .F               118:   BHT.
 TCS .HRS               5:   Time Circ. stopped
 MRT .F               118:   Maximum recorded temp.
 LUN .               1892:   Logging unit number
 LUL .             CASPER:   Logging unit location
 ENGI.           PERIMMER:   Recorded By
 WITN.              SCOTT:   Witnessed by
 ORIG.           5" PRINT:   Origin of data
 UWI .     49025108540000:   Unique Well ID
 DICO. A2D TECHNOLOGIES, INC.:   Digitizing Company
~OTHER INFORMATION
~A  DEPT        GRD        CALD       RHOB       DRHO      SPR       SGRD        ILM        ILD   
# ...
 2919.0000   119.8920     6.8810     2.4680     0.1370   -26.1190     4.6440     3.8420     1.9440
 2919.5000   121.4030     6.8840     2.4580     0.1490   -26.2690     4.2760     3.7710     1.8560
 2920.0000   122.7590     6.8870     2.4480     0.1650   -26.3050     4.0840     3.6990     1.7670
 2920.5000   123.0440     6.8900     2.4380     0.1800   -27.0090     4.2370     3.6280     1.7190
 2921.0000   122.6940     6.8910     2.4280     0.1960   -26.3340     4.1600     3.5910     1.7070
 2921.5000   123.1130     6.8610     2.4300     0.2110   -27.3430     4.1220     3.5590     1.7450
 2922.0000   123.2230     6.8300     2.4380     0.2220   -25.6460     3.7950     3.6350     1.8260
 2922.5000   120.1880     6.7990     2.4420     0.1950   -27.9290     3.9250     3.9150     1.9460
 2923.0000   102.8620     6.7580     2.4280     0.1650   -27.3750     4.1980     4.3310     2.0860
 2923.5000    84.1720     6.6460     2.4320     0.1300   -28.5770     4.7270     4.7470     2.4880
 2924.0000    65.3770     6.4460     2.4320     0.0970   -30.9200     5.4790     6.1620     3.0550
 2924.5000    53.3460     6.1850     2.4300     0.0830   -33.7460    53.0010     7.7850     3.8700
 2925.0000    52.5810     6.0920     2.4460     0.0900   -35.5560    53.3040     9.2530     4.7400
 2925.5000    51.3980     5.9860     2.4630     0.0970   -35.9410    60.2000    10.1090     6.9920
 2926.0000    55.2960     5.9630     2.4790     0.0980   -35.6470    54.6910    10.9920    10.1830
 2926.5000    59.8940     6.0040     2.4980     0.0880   -35.1310    46.1060    11.4220    14.2520
 2927.0000    64.5340     6.0390     2.5160     0.0860   -33.7690    49.6420    11.3180    19.7960
 2927.5000    69.3730     6.0440     2.5340     0.0920   -32.5730    22.3160    10.8530    23.8120
 2928.0000    73.6870     6.0750     2.5490     0.0840   -31.1460    13.7250    10.2510    21.5650
 2928.5000    79.8010     6.0850     2.5480     0.0720   -30.2520    41.3130     9.7280    17.5960
 2929.0000    86.7790     6.1910     2.5460     0.0670   -28.9440    23.8310     9.1630    13.6280
 2929.5000    90.0130     6.2930     2.5390     0.0660   -28.0170    10.5030     8.5480     9.6600
 2930.0000    91.3630     6.3960     2.5320     0.0600   -27.4450     9.2900     7.8070     7.2940
 2930.5000    92.0060     6.4150     2.5250     0.0570   -27.2970     8.8790     7.2170     6.4970
 2931.0000    91.9970     6.4260     2.5240     0.0610   -26.5720     8.7520     7.2170     5.7000
 2931.5000    92.1490     6.4350     2.5290     0.0660   -27.1230     8.3590     6.7880     5.0580
 2932.0000    93.3020     6.4350     2.5320     0.0700   -27.1670     8.1320     6.4050     4.5880
 2932.5000    92.3280     6.4350     2.5320     0.0740   -26.4270     8.2070     6.2370     4.1180
 2933.0000    91.0680     6.4350     2.5330     0.0780   -26.7060     7.4820     6.1170     3.8950
 2933.5000    89.4190     6.4350     2.5330     0.0830   -26.7380     6.8930     6.0760     3.7260
 2934.0000    85.2130     6.4360     2.5340     0.0980   -26.6570     7.0930     6.0060     4.0470
 2934.5000    81.0870     6.4340     2.5350     0.0960   -26.8170     7.3190     7.1510     4.0100
 2935.0000    77.7170     6.3790     2.5410     0.0940   -26.4910     7.4870     7.4190     4.0900
 2935.5000    74.5310     6.3200     2.5460     0.0920   -27.2240     9.6410     7.3510     4.2490
 2936.0000    73.7930     6.2640     2.5480     0.0970   -26.4860    53.0150     8.2070     4.7150
 2936.5000    81.3350     6.1660     2.5460     0.0880   -27.2890    45.6300     8.0860     4.9900
 2937.0000    87.3380     6.2530     2.5520     0.0870   -27.5960    23.9730     7.8550     5.2070
 2937.5000    91.1600     6.3350     2.5580     0.0950   -27.1100     8.5140     7.5200     5.4240
 2938.0000    92.0610     6.4160     2.5640     0.0950   -28.8660     9.3330     7.2210     5.6320
 2938.5000    92.5030     6.4780     2.5700     0.0940   -25.8040     8.7300     6.9570     5.4760
 2939.0000    92.9380     6.4950     2.5750     0.0960   -26.6290     7.9120     7.0860     5.2820
 2939.5000    93.7530     6.4870     2.5780     0.0970   -27.4700     7.2170     7.2840     5.1560
 2940.0000    93.4120     6.4790     2.5730     0.0840   -26.5060     9.3330     7.3510     4.9980
 2940.5000    92.9160     6.4720     2.5620     0.0700   -27.4550     9.1060     7.0210     4.8230
 2941.0000    92.9090     6.4640     2.5500     0.0670   -27.9780     8.5930     6.9570     4.6640
 2941.5000    92.7170     6.4560     2.5390     0.0660   -26.9200     9.0490     6.9570     4.5490
 2942.0000    93.5820     6.4490     2.5430     0.0750   -28.2240     9.6820     6.9380     4.5180
 2942.5000    94.1040     6.4410     2.5510     0.0840   -27.3650     9.0160     6.8990     4.5300
 2943.0000    94.4810     6.4340     2.5580     0.0930   -27.0240     8.3440     6.7060     4.5470
 2943.5000    94.8910     6.4260     2.5660     0.1020   -27.3300     7.2840     6.4640     4.5640
 2944.0000    94.1440     6.4190     2.5730     0.1050   -26.6660     8.5610     6.5240     4.5810
 2944.5000    92.9830     6.4110     2.5740     0.0970   -27.1220    10.9100     7.1510     4.6020
 2945.0000    92.5350     6.4040     2.5710     0.0870   -26.2410    10.0960     6.8300     4.5960
 2945.5000    92.5480     6.3960     2.5670     0.0810   -27.1410     9.0890     6.7680     4.5850
 2946.0000    93.5100     6.3880     2.5780     0.0950   -26.5650     8.2830     7.0210     4.5750
 2946.5000    92.9570     6.3770     2.5920     0.1060   -27.3060     8.7940     7.0210     4.5640
 2947.0000    92.6570     6.3670     2.6040     0.1030   -26.3490     9.3330     6.8930     4.5470
 2947.5000    93.1810     6.3560     2.5980     0.1010   -27.3130     8.5330     6.9570     4.5180
 2948.0000    93.6890     6.3460     2.5920     0.0920   -26.1690     7.8390     6.8930     4.5650
 2948.5000    93.9750     6.3380     2.5870     0.0850   -26.8230    10.6130     6.8300     4.6270
 2949.0000    93.4070     6.3760     2.5830     0.0800   -27.2100     8.2830     7.0210     4.7130
 2949.5000    92.8500     6.4140     2.5800     0.0750   -26.7400     8.2830     7.0860     4.8430
 2950.0000    92.2970     6.4530     2.5920     0.0750   -26.8930    11.4220     7.2240     4.9730
 2950.5000    91.7350     6.4270     2.6050     0.0900   -26.8850     7.8390     7.2840     5.0910
 2951.0000    91.7170     6.3970     2.6090     0.1000   -26.6190    11.8500     7.1510     5.1380
 2951.5000    92.1760     6.3720     2.5940     0.0970   -26.6190    10.4200     7.4190     5.2040
 2952.0000    93.7570     6.3520     2.5810     0.0960   -26.8770    11.6340     7.2840     5.4290
 2952.5000    93.1830     6.3320     2.5690     0.0990   -27.2360    10.1330     7.2170     5.4600
 2953.0000    92.5930     6.3110     2.5570     0.0920   -27.0640     9.5940     7.3510     5.4790
 2953.5000    91.1350     6.2900     2.5440     0.0880   -27.0840    10.4820     7.2840     5.4790
 2954.0000    91.1860     6.2700     2.5310     0.0750   -27.2480    11.3180     7.2840     5.2960
 2954.5000    91.7900     6.2630     2.5290     0.0710   -26.9000     7.9110     7.0480     5.0820
 2955.0000    91.6990     6.2980     2.5300     0.0800   -27.0050    13.4750     6.8300     4.8990
 2955.5000    91.8130     6.3320     2.5310     0.0890   -27.0840    11.6670     6.6450     4.6540
 2956.0000    95.0970     6.3670     2.5300     0.0890   -26.8630     7.0210     6.0620     4.4090
 2956.5000    97.0820     6.4020     2.5180     0.0830   -26.5000     7.1710     6.1170     4.1630
 2957.0000    97.0780     6.4360     2.5050     0.0770   -26.2500     7.6960     6.0620     3.9180
 2957.5000    97.5040     6.4610     2.4920     0.0710   -26.5680     7.0620     5.6640     3.6730
 2958.0000    99.4940     6.4680     2.4930     0.0670   -26.3270     6.0060     5.1850     3.4410
 2958.5000   101.2190     6.4510     2.4980     0.0760   -26.2220     7.2170     5.1850     3.2960
 2959.0000   102.1940     6.4340     2.5030     0.0770   -26.6990     5.7370     5.2820     3.1510
