~VERSION INFORMATION
 VERS.                2.0:   CWLS LOG ASCII STANDARD - VERSION 2.0
 WRAP.                 NO:   ONE LINE PER DEPTH STEP
~WELL INFORMATION
#MNEM.UNIT      DATA TYPE    INFORMATION
#----------   ------------   ------------------------------
 STRT.F            0.0000:   START DEPTH
 STOP.F         4022.0000:   STOP DEPTH
 STEP.F            0.5000:   STEP LENGTH
 NULL.          -999.2500:   NO VALUE
 COMP. LAWRENCE - ALLISON:   COMPANY
 WELL. LAWRENCE NPR 3 "MX" #58-10:   WELL
 FLD .                MPR:   FIELD
 LOC .      S10 T38N R78W:   LOCATION
 CNTY.            NATRONA:   COUNTY
 STAT.            WYOMING:   STATE
 CTRY. UNITED STATES OF AMERICA:   COUNTRY
 SRVC.      DRESSER ATLAS:   SERVICE COMPANY
 DATE.        12-FEB-1984:   LOGDATE
 API .     49025109610000:   API NUMBER
~CURVE INFORMATION
#MNEM.UNIT       API CODE    CURVE DESCRIPTION
#----------   ------------   ------------------------------
 DEPT.F                  :   
 GRR .GAPI   07 310 01 00:   GAMMA RAY FROM RESISTIVITY
 SPR .MV     07 010 01 00:   SPONTANEOUS POTENTIAL
 TENR.LBS    07 635 01 00:   TENSION FROM RESISTIVITY
 ILD .OHMM   07 120 46 00:   DEEP INDUCTION RESISTIVITY
 ILM .OHMM   07 120 44 00:   INDUCTION LOG MEDIUM RESISTIVITY
 SFL .OHMM   07 220 01 00:   SHALLOW FOCUSED LOG RESISTIVITY
 DT  .US/F   60 520 00 00:   DELTA TIME
 TENS.LBS    60 635 01 00:   TENSION FROM SONIC LOG
 CNC .DEC    42 890 03 00:   NEUTRON PORISITY SANDSTONE
 CALD.IN     45 280 60 00:   CALIPER FROM DENSITY LOG
 RHOB.G/C3   45 350 01 00:   BULK DENSITY
 CORR.G/C3   45 356 01 00:   DENSITY CORRECTION
 TEND.LBS    45 635 01 00:   TENSION FROM DENSITY LOG
~PARAMETER INFORMATION
#MNEM.UNIT          VALUE    DESCRIPTION
#----------   ------------   ------------------------------
 EKB .F         5218.0000:   Kelly bushing
 EGL .F         5208.0000:   Ground level
 EDF .F         5217.0000:   Drilling floor
 TD  .F         4014.0000:   Total depth
 DATE.        12-FEB-1984:   Date logged
 CLNT.            A2DTECH:   Client Code
 SL  . 500' FSL & 2150' FEL:   Surface Location
 PD  .                 GL:   Permanent Datum
 EPD .F              5208:   Elevation Permanent Datum
 LMF .                 KB:   Log Measured From
 DMF .                 KB:   Drilling Measured From
 DD  .F              4014:   Depth driller
 DL  .F              4011:   Depth logger
 BLI .F              4009:   Bottom log interval
 CS1 .IN            8.625:   Casing size
 CBD1.      8.625" @ 526':   Casing driller 1
 CBL1.F               525:   Casing logger 1
 BS1 .IN            7.875:   Bit size
 DFT .            GEL/KCL:   Type fluid in hole
 DFD .                8.9:   Density
 DFV .                 48:   Viscosity
 DFPH.                  8:   pH
 DFL .                1.3:   Fluid loss
 MSS .           MUD/TANK:   Source of sample
 RMS .OHMM           .556:   Rm
 MST .F                61:   Rm Meas. temp.
 RMF .OHMM           .423:   Rmf
 MFST.F                61:   Rmf Meas. temp.
 RMC .OHMM           .662:   Rmc
 MCST.F                61:   Rmc Meas. temp.
 MFSS.           MUD/TANK:   Source Rmf.
 RMB .OHMM            .80:   Rm. at BHT
 BHT .F               119:   BHT.
 TCS .HRS               5:   Time Circ. stopped
 MRT .F               119:   Maximum recorded temp.
 LUN .               6302:   Logging unit number
 ENGI.              GETTY:   Recorded By
 ORIG.           5" PRINT:   Origin of data
 UWI .     49025109610000:   Unique Well ID
 DICO. A2D TECHNOLOGIES, INC.:   Digitizing Company
 TLI .F                 0:   Top log interval
~OTHER INFORMATION
~A    DEPT      GRR       SPR       TENR        ILD        ILM        SFL         DT       TENS        CNC       CALD       RHOB       CORR       TEND   
# ...
 1898.0000   123.6220   -30.7970   -81.1290     9.9510     9.9750    11.5420  -999.2500  -999.2500     0.2730     8.3290     2.4770    -0.0100  -115.0080
 1898.5000   121.8760   -30.9020   -83.0050     9.9460    10.0680    11.4900  -999.2500  -999.2500     0.2680     8.3330     2.4910     0.0010  -114.3850
 1899.0000   120.1470   -31.0090   -84.8810     9.9350    10.1370    11.4220  -999.2500  -999.2500     0.2610     8.3370     2.4930     0.0050  -113.7620
 1899.5000   120.1470   -31.1140   -86.7560     9.9250    10.1370    11.4950  -999.2500  -999.2500     0.2550     8.3410     2.4830    -0.0020  -113.1380
 1900.0000   120.4500   -31.0560   -88.6320     9.9140    10.1370    11.6030  -999.2500  -999.2500     0.2540     8.3450     2.4750    -0.0200  -112.5150
 1900.5000   119.6250   -30.9750   -90.5080     9.9040    10.1370    11.7420  -999.2500  -999.2500     0.2550     8.3490     2.4740    -0.0290  -111.8920
 1901.0000   116.8140   -30.8950   -92.3840     9.8930    10.1370    11.5240  -999.2500  -999.2500     0.2560     8.3530     2.4830    -0.0180  -111.2690
 1901.5000   114.9610   -30.8140   -94.2600     9.8830    10.1370    11.3120  -999.2500  -999.2500     0.2540     8.3570     2.4930     0.0060  -110.6460
 1902.0000   113.4260   -30.7340   -94.1670     9.8730    10.1370    11.1010  -999.2500  -999.2500     0.2470     8.3600     2.4960     0.0150  -110.0230
 1902.5000   111.1990   -30.7310   -90.5500     9.8620    10.1370    11.0110  -999.2500  -999.2500     0.2420     8.3570     2.4900     0.0150  -109.3990
 1903.0000   107.8470   -30.7310   -86.9320     9.9300    10.1390    11.2790  -999.2500  -999.2500     0.2460     8.3540     2.4860     0.0030  -108.7760
 1903.5000   108.0280   -30.7300   -83.3140    10.0000    10.0750    11.7420  -999.2500  -999.2500     0.2520     8.3510     2.4870     0.0040  -108.1530
 1904.0000   109.7890   -30.8020   -79.6970    10.0700     9.9530    11.7250  -999.2500  -999.2500     0.2590     8.3490     2.4910     0.0130  -107.5300
 1904.5000   112.2070   -30.9290   -76.0790    10.1370     9.9890    11.6860  -999.2500  -999.2500     0.2600     8.3460     2.4950     0.0230  -106.9070
 1905.0000   113.7930   -30.4850   -72.4610    10.2460    10.0720    11.6470  -999.2500  -999.2500     0.2590     8.3430     2.4990     0.0240  -106.2830
 1905.5000   116.4480   -30.2200   -68.8430    10.3500    10.1550    11.6340  -999.2500  -999.2500     0.2550     8.3420     2.4980     0.0140  -105.6600
 1906.0000   119.6840   -30.0320   -65.5530    10.4540    10.2310    11.6340  -999.2500  -999.2500     0.2480     8.3470     2.4980     0.0040  -105.5990
 1906.5000   122.5470   -29.9680   -85.4940    10.5580    10.3010    11.7420  -999.2500  -999.2500     0.2440     8.3520     2.4970    -0.0060  -105.8590
 1907.0000   121.2400   -30.0200   -85.4940    10.7110    10.3650    11.9540  -999.2500  -999.2500     0.2530     8.3580     2.4980    -0.0110  -106.1190
 1907.5000   118.6430   -30.0730   -85.4940    10.6510    10.4130    12.2930  -999.2500  -999.2500     0.2660     8.3440     2.4990    -0.0150  -106.3790
 1908.0000   117.2010   -30.1270   -85.4940    10.5380    10.3030    12.2670  -999.2500  -999.2500     0.2690     8.3110     2.4970    -0.0040  -106.6390
 1908.5000   118.8660   -30.1380   -85.4940    10.4240    10.1990    12.2200  -999.2500  -999.2500     0.2590     8.2780     2.4950     0.0090  -106.8990
 1909.0000   120.9660   -30.1380   -85.4940    10.3110    10.0960    12.1600  -999.2500  -999.2500     0.2520     8.3020     2.4910     0.0220  -107.1590
 1909.5000   120.8890   -30.1330   -85.4940    10.1980     9.9930    12.0690  -999.2500  -999.2500     0.2500     8.3110     2.4860     0.0300  -107.4190
 1910.0000   118.2210   -30.3010   -85.4940    10.0840     9.9340    11.5920  -999.2500  -999.2500     0.2550     8.2980     2.4810     0.0250  -107.6800
 1910.5000   116.6440   -30.5010   -85.4940     9.9530     9.9030    11.1120  -999.2500  -999.2500     0.2640     8.2850     2.4790     0.0130  -107.9400
 1911.0000   117.6240   -30.7020   -85.4940    10.0230     9.8620    11.1120  -999.2500  -999.2500     0.2740     8.2720     2.4800     0.0020  -108.2000
 1911.5000   118.9770   -30.6940   -85.4940    10.1800     9.9380    11.2070  -999.2500  -999.2500     0.2790     8.2620     2.4800    -0.0090  -108.4600
 1912.0000   120.7220   -30.6510   -85.4940    10.3250    10.0550    11.5650  -999.2500  -999.2500     0.2730     8.2700     2.4850    -0.0040  -108.7200
 1912.5000   123.0480   -30.6070   -85.4940    10.3250    10.1370    11.9590  -999.2500  -999.2500     0.2620     8.2770     2.4910     0.0120  -108.9800
 1913.0000   124.6820   -30.5630   -85.4940    10.3250    10.0700    11.9300  -999.2500  -999.2500     0.2560     8.2840     2.4910     0.0260  -109.2400
 1913.5000   123.0960   -30.5330   -85.4940    10.3120    10.0180    11.8970  -999.2500  -999.2500     0.2550     8.2920     2.4840     0.0250  -109.5000
 1914.0000   123.2320   -30.5350   -85.4940    10.2130     9.9660    11.8500  -999.2500  -999.2500     0.2560     8.2990     2.4780    -0.0140  -109.7600
 1914.5000   124.7600   -30.6040   -85.4940    10.1130     9.8600    11.8810  -999.2500  -999.2500     0.2640     8.3070     2.4790    -0.0510  -110.0200
 1915.0000   123.1100   -30.8050   -85.4940    10.0130     9.7370    11.9590  -999.2500  -999.2500     0.2640     8.3140     2.4790    -0.0470  -110.2800
 1915.5000   118.5270   -30.8700   -85.4940     9.9110     9.6140    11.8530  -999.2500  -999.2500     0.2620     8.3210     2.4780    -0.0260  -110.5400
 1916.0000   116.9010   -30.5340   -85.4940     9.8060     9.4190    11.6730  -999.2500  -999.2500     0.2570     8.3230     2.4810    -0.0060  -110.8000
 1916.5000   117.9900   -30.2930   -85.4940     9.6820     9.4530    11.4930  -999.2500  -999.2500     0.2540     8.3250     2.4850     0.0140  -111.0600
 1917.0000   119.9190   -30.1870   -85.4940     9.7160     9.5340    11.3130  -999.2500  -999.2500     0.2580     8.3270     2.4930     0.0270  -111.3200
 1917.5000   120.6430   -30.0800   -85.4940     9.7720     9.5940    11.1650  -999.2500  -999.2500     0.2620     8.3290     2.4990     0.0190  -111.5800
 1918.0000   120.9340   -29.9710   -85.4940     9.5590     9.3010    10.9720  -999.2500  -999.2500     0.2620     8.3320     2.4950     0.0170  -111.8400
 1918.5000   121.7280   -29.9410   -86.4830     9.2390     9.0670    10.9100  -999.2500  -999.2500     0.2660     8.3340     2.4880     0.0180  -112.1000
 1919.0000   123.9630   -29.9400   -87.4040     9.0670     8.8520    10.9100  -999.2500  -999.2500     0.2700     8.3360     2.4850     0.0130  -112.3600
 1919.5000   125.6510   -29.9410   -88.3250     9.0420     8.7520    10.9100  -999.2500  -999.2500     0.2710     8.3380     2.4880    -0.0010  -112.6200
 1920.0000   127.2550   -29.9410   -89.2460     9.0180     8.7520    10.6190  -999.2500  -999.2500     0.2650     8.3400     2.4920     0.0130  -112.8800
 1920.5000   127.9440   -29.9410   -90.1670     8.9930     8.7520    10.5160  -999.2500  -999.2500     0.2680     8.3380     2.4930     0.0280  -113.1400
 1921.0000   129.8580   -29.9410   -91.0880     8.9680     8.7520    10.5440  -999.2500  -999.2500     0.2680     8.3350     2.4930     0.0320  -113.4010
 1921.5000   132.7720   -29.9410   -92.0090     8.9430     8.7520    10.6200  -999.2500  -999.2500     0.2630     8.3320     2.4950     0.0320  -113.6610
 1922.0000   128.7090   -29.9410   -92.9290     8.9140     8.7520    10.6970  -999.2500  -999.2500     0.2440     8.3290     2.4970     0.0330  -113.9210
 1922.5000   122.8060   -29.9410   -93.8500     8.9300     8.8100    10.7110  -999.2500  -999.2500     0.2470     8.3260     2.4910     0.0180  -114.1810
 1923.0000   118.5730   -29.9410   -94.7710     8.9490     8.8820    10.7110  -999.2500  -999.2500     0.2510     8.3230     2.4780     0.0010  -114.4410
 1923.5000   116.6200   -29.9410   -94.0680     8.9690     8.9540    10.7110  -999.2500  -999.2500     0.2490     8.3200     2.4720    -0.0150  -114.7010
