~VERSION INFORMATION
 VERS.                2.0:   CWLS LOG ASCII STANDARD - VERSION 2.0
 WRAP.                 NO:   ONE LINE PER DEPTH STEP
~WELL INFORMATION
#MNEM.UNIT      DATA TYPE    INFORMATION
#----------   ------------   ------------------------------
 STRT.F          200.0000:   START DEPTH
 STOP.F         3150.0000:   STOP DEPTH
 STEP.F            0.5000:   STEP LENGTH
 NULL.          -999.2500:   NO VALUE
 COMP.  FENIX AND SCISSON:   COMPANY
 WELL.  FENIX "AX" #88-10:   WELL
 FLD .              NPR 3:   FIELD
 LOC .      S10 T38N R78W:   LOCATION
 CNTY.            NATRONA:   COUNTY
 STAT.            WYOMING:   STATE
 CTRY. UNITED STATES OF AMERICA:   COUNTRY
 SRVC.              WELEX:   SERVICE COMPANY
 DATE.        13-JUN-1977:   LOGDATE
 API .     49025103780000:   API NUMBER
~CURVE INFORMATION
#MNEM.UNIT       API CODE    CURVE DESCRIPTION
#----------   ------------   ------------------------------
 DEPT.F                  :   
 CALD.IN     45 280 60 00:   CALIPER FROM DENSITY LOG
 GRD .GAPI   45 310 01 00:   GAMMA RAY FROM DENSITY LOG
 RHOB.G/C3   45 350 01 00:   BULK DENSITY
 CORR.G/C3   45 356 01 00:   DENSITY CORRECTION
 SPR .MV     07 010 01 00:   SPONTANEOUS POTENTIAL
 GURD.OHMM   07 220 05 00:   GUARD LOG RESISTIVITY
 ILD .OHMM   07 120 46 00:   INDUCTION LOG DEEP RESISTIVITY
 ILM .OHMM   07 120 44 00:   INDUCTION LOG MEDIUM RESISTIVITY
~PARAMETER INFORMATION
#MNEM.UNIT          VALUE    DESCRIPTION
#----------   ------------   ------------------------------
 EKB .F         5264.0000:   Kelly bushing
 EGL .F         5254.0000:   Ground level
 EDF .F            0.0000:   Drilling floor
 TD  .F         3160.0000:   Total depth
 DATE.        13-JUN-1977:   Date logged
 CLNT.            A2DTECH:   Client Code
 SL  . 430' FSL & 330' FEL:   Surface Location
 PD  .                 GL:   Permanent Datum
 EPD .F              5254:   Elevation Permanent Datum
 LMF .                 KB:   Log Measured From
 DMF .                 KB:   Drilling Measured From
 DAPD.F                10:   Feet Above Permanent Datum
 DD  .F              3160:   Depth driller
 DL  .F              3151:   Depth logger
 BLI .F              3149:   Bottom log interval
 CS1 .IN            8.625:   Casing size
 CBD1.      8.625" @ 208':   Casing driller 1
 BS1 .IN            7.875:   Bit size
 BSD1.F              3160:   Depth drilled with bit1
 DFT .            KCL MUD:   Type fluid in hole
 DFD .                9.1:   Density
 DFV .                 31:   Viscosity
 DFPH.                7.5:   pH
 DFL .                 20:   Fluid loss
 MSS .           FLOWLINE:   Source of sample
 RMS .OHMM            .90:   Rm
 MST .F                60:   Rm Meas. temp.
 RMF .OHMM            .53:   Rmf
 MFST.F                60:   Rmf Meas. temp.
 RMC .OHMM           1.47:   Rmc
 MCST.F                60:   Rmc Meas. temp.
 MFSS.               MEAS:   Source Rmf.
 MCSS.               MEAS:   Source Rmc.
 RMB .OHMM            .46:   Rm. at BHT
 BHT .F               116:   BHT.
 TCS .HRS               8:   Time Circ. stopped
 MRT .F               116:   Maximum recorded temp.
 LUN .               8611:   Logging unit number
 LUL .             CASPER:   Logging unit location
 ENGI.            C. DOAK:   Recorded By
 WITN.         D. RHOADES:   Witnessed by
 ORIG.           5" PRINT:   Origin of data
 UWI .     49025103780000:   Unique Well ID
 DICO. A2D TECHNOLOGIES, INC.:   Digitizing Company
~OTHER INFORMATION
~A   DEPT       CALD       GRD      RHOB       CORR        SPR       GURD        ILD        ILM   
# ...
 1172.0000    10.3006   110.1219     2.4933     0.0956   -51.4974     8.8214     6.6998     7.0796
 1172.5000    10.0046   108.1554     2.5151     0.1056   -51.5023     8.8194     6.6986     7.0777
 1173.0000    10.0842   106.9794     2.5151     0.1156   -51.7067     8.5782     6.5749     7.0114
 1173.5000    10.5195   104.6216     2.5091     0.1275   -51.9071     8.1916     6.5139     6.9457
 1174.0000    10.9550   103.8370     2.4952     0.1296   -51.5172     8.4185     6.3352     6.8184
 1174.5000    11.0540   102.6590     2.4608     0.1256   -51.5222     8.1879     6.1051     6.6922
 1175.0000    11.4301   102.2756     2.4265     0.1217   -51.7245     8.1860     6.0482     6.5091
 1175.5000    11.7860   101.8902     2.3758     0.1118   -51.9269     8.1095     6.0470     6.3889
 1176.0000    12.5971   104.6671     2.3510     0.0979   -51.7344     8.1072     6.0457     6.3291
 1176.5000    12.9137   106.6535     2.3391     0.0681   -51.7384     8.4085     6.0440     6.3854
 1177.0000    13.3689   107.8492     2.3381     0.0542   -51.7463     8.1785     6.0426     6.3840
 1177.5000    13.3890   108.2544     2.3471     0.0224   -52.1462     8.0281     6.0412     6.9969
 1178.0000    13.2906   109.4501     2.3670     0.0005   -52.1482     8.3261     6.0956     7.2577
 1178.5000    13.0542   109.4601     2.4308     0.0006   -52.3516     8.5566     6.1501     7.1233
 1179.0000    12.9754   109.8652     2.4507     0.0046   -52.3555     8.8742     6.2057     6.8021
 1179.5000    11.7069   108.6893     2.4686     0.0066   -52.3595     8.7912     6.3772     6.6771
 1180.0000    10.2888   108.6992     2.4756     0.0086   -52.1680     8.9518     6.2592     6.6759
 1180.5000    10.1706   106.7327     2.4826     0.0167   -52.1730     8.7868     6.2033     6.6741
 1181.0000    10.0526   105.9520     2.4866     0.0167   -52.1800     8.7848     6.1436     6.4913
 1181.5000    10.0333   105.9619     2.4876     0.0227   -52.1839     8.5445     6.0858     6.4302
 1182.0000    10.0338   107.1577     2.4857     0.0228   -52.3864     8.5426     6.0847     6.4287
 1182.5000    10.0343   107.1676     2.4748     0.0228   -51.9964     8.3089     6.0827     6.3685
 1183.0000    10.1138   107.5727     2.4718     0.0229   -52.0014     8.3070     6.0819     6.3676
 1183.5000    10.1143   107.5826     2.4698     0.0289   -52.0063     8.2294     6.0802     6.2500
 1184.0000    10.1738   107.1973     2.4688     0.0309   -52.0113     8.1524     6.0785     6.2489
 1184.5000    10.2537   106.8119     2.4709     0.0389   -52.0163     8.0025     6.0774     6.1898
 1185.0000    10.1553   106.8218     2.4739     0.0430   -52.0212     8.0743     6.0760     6.1884
 1185.5000    10.0965   106.4364     2.4749     0.0509   -52.0262     8.2975     6.0746     6.1872
 1186.0000    10.1366   106.4463     2.4719     0.0689   -52.0312     8.1449     5.9625     6.1861
 1186.5000    10.2160   106.4562     2.4560     0.0729   -52.2336     7.9951     5.8524     6.3568
 1187.0000    10.2759   105.6755     2.4232     0.0770   -52.0411     7.9933     5.8513     6.4723
 1187.5000    10.3159   105.2902     2.3964     0.0850   -51.8485     8.1394     5.8500     6.4720
 1188.0000    10.3362   103.7189     2.3765     0.0910   -52.0510     8.1375     5.8489     6.4705
 1188.5000    10.3369   106.1005     2.3546     0.1010   -51.8585     8.0614     5.8470     6.5287
 1189.0000    10.2778   107.2963     2.3228     0.1150   -52.0610     7.9131     5.8459     6.7711
 1189.5000    10.1993   108.0968     2.2970     0.1210   -51.8684     7.6960     5.8446     6.8310
 1190.0000    10.2393   108.5019     2.2840     0.1230   -51.2808     7.4179     5.8972     6.3466
 1190.5000    10.3190   110.4883     2.2721     0.1231   -51.6808     7.2150     6.0051     5.9502
 1191.0000    10.3787   110.1029     2.2811     0.1251   -51.4882     7.2134     6.0591     5.8942
 1191.5000    10.3986   109.7175     2.2911     0.1311   -51.6907     7.0804     6.1138     5.8928
 1192.0000    10.5180   108.9368     2.2941     0.1331   -51.3026     7.0794     6.1685     5.8918
 1192.5000    10.5777   107.7609     2.2812     0.1372   -51.5031     7.2084     6.2237     5.8904
 1193.0000    10.5980   108.1661     2.2683     0.1372   -51.5071     7.5448     6.2797     5.8888
 1193.5000    10.6182   108.5713     2.2524     0.1392   -51.5120     7.7534     6.2786     5.9420
 1194.0000    10.5990   108.1859     2.2385     0.1413   -51.5170     7.7516     6.2768     6.1063
 1194.5000    10.5204   106.2194     2.1987     0.1393   -51.5229     7.7498     6.0491     6.1615
 1195.0000    10.4814   105.4407     2.1649     0.1354   -51.5289     7.6073     6.0480     6.2742
 1195.5000    10.3634   105.4486     2.1510     0.1315   -51.7314     7.4674     6.0466     6.3888
 1196.0000    10.2848   105.0632     2.0771     0.1196   -51.7364     7.3979     6.0449     6.3876
 1196.5000    10.4038   101.9108     2.0048     0.1037   -51.9389     7.7428     6.0996     6.4453
 1197.0000    10.5031   101.9207     1.9929     0.0878   -51.7463     7.8126     6.1542     6.4439
 1197.5000    10.5827   101.5354     1.9631     0.0739   -51.7513     7.5990     6.2101     6.5015
 1198.0000    10.6425   100.7547     1.9651     0.0600   -51.9538     7.1907     6.2086     6.5603
 1198.5000    10.6825   101.9504     1.9850     0.0541   -51.9588     7.8069     6.2642     6.8038
 1199.0000    10.7027   102.3556     2.0049     0.0342   -52.1614     8.0970     6.3202     6.9926
 1199.5000    10.6637   102.7648     2.0627     0.0223   -51.9687     8.1697     6.4953     7.0551
 1200.0000    10.6247   105.5377     2.1932     0.0224   -51.9737     9.0340     6.6751     6.9890
 1200.5000    10.5489   102.3531     2.3237     0.0295   -51.6384     8.5208     6.6729     6.8819
 1201.0000    10.5071   102.0000     2.3593     0.0304   -51.5884     8.0885     6.6722     6.7958
 1201.5000    10.4876   101.2193     2.3772     0.0245   -51.5933     8.0125     6.6700     6.7940
 1202.0000    10.3499   100.8339     2.4011     0.0166   -51.4007     8.0841     6.6681     6.7917
 1202.5000    10.3504   100.4485     2.4071     0.0067   -51.6032     8.8577     6.6663     6.7898
 1203.0000    10.3509    99.6679     2.4051     0.0007   -51.8058     8.5365     6.6652     6.7880
 1203.5000    10.3712   100.4684     2.4061     0.0008   -51.6131     7.8583     6.3055     6.6021
 1204.0000    10.3124   100.8735     2.4081     0.0008   -51.6180     7.3010     6.3616     6.6608
 1204.5000    10.3524   100.8835     2.4121     0.0009   -51.4254     7.1669     6.5985     6.9081
 1205.0000    10.3529   100.4981     2.4181     0.0009   -51.4303     7.8535     6.7812     7.1641
 1205.5000    10.3337    99.7174     2.4201     0.0009   -51.4353     7.9237     6.9687     7.3626
 1206.0000    10.3341    98.1462     2.4221    -0.0030   -51.6378     7.4969     7.0307     7.4292
 1206.5000    10.2951    98.1561     2.4271    -0.0030   -51.6428     7.4264     7.2234     7.4965
 1207.0000    10.2561    98.1660     2.4351    -0.0009   -51.8453     7.7025     7.2226     7.6317
 1207.5000    10.2566    98.5712     2.4461    -0.0009   -51.8503     8.4404     7.2210     7.6300
 1208.0000    10.2768    98.5811     2.4573     0.0051   -51.8552     8.0595     7.2194     7.6283
 1208.5000    10.2773    98.5910     2.4685     0.0091   -51.6625     7.7667     7.2170     7.6258
 1209.0000    10.2976    98.2056     2.4800     0.0052   -51.4699     7.8357     7.2147     7.6237
 1209.5000    10.3179    97.4250     2.4859     0.0092   -51.4748     7.8340     7.3463     7.6915
 1210.0000    10.3183    97.0396     2.4860     0.0093   -51.4798     7.9774     7.3447     7.7603
 1210.5000    10.2991    95.4684     2.4820     0.0093   -51.6823     8.1975     7.4784     7.8297
 1211.0000    10.2996    97.8500     2.4820     0.0093   -51.6873     8.1952     7.5457     7.9726
 1211.5000    10.3198    98.6504     2.4781     0.0094   -51.6922     8.3453     7.6834     8.0452
 1212.0000    10.3401   100.2415     2.4671     0.0094   -51.8948     9.1453     7.8954     8.2663
