~VERSION INFORMATION
 VERS.                2.0:   CWLS LOG ASCII STANDARD - VERSION 2.0
 WRAP.                 NO:   ONE LINE PER DEPTH STEP
~WELL INFORMATION
#MNEM.UNIT      DATA TYPE    INFORMATION
#----------   ------------   ------------------------------
 STRT.F            7.5000:   START DEPTH
 STOP.F         5700.0000:   STOP DEPTH
 STEP.F            0.5000:   STEP LENGTH
 NULL.          -999.2500:   NO VALUE
 COMP. FLUOR DANIEL (NPOSR):   COMPANY
 WELL.   FLOUR "X" #52-10:   WELL
 FLD .             NPR #3:   FIELD
 LOC .      S10 T38N R78W:   LOCATION
 CNTY.            NATRONA:   COUNTY
 STAT.            WYOMING:   STATE
 CTRY. UNITED STATES OF AMERICA:   COUNTRY
 SRVC.      WESTERN ATLAS:   SERVICE COMPANY
 DATE.        12-JAN-1996:   LOGDATE
 API .     49025227600000:   API NUMBER
~CURVE INFORMATION
#MNEM.UNIT       API CODE    CURVE DESCRIPTION
#----------   ------------   ------------------------------
 DEPT.F                  :   
 TENR.LBS    11 635 01 00:   TENSION
 GRR .GAPI   11 310 01 00:   GAMMA RAY FROM RESISTIVITY
 LLD .OHMM   11 220 10 00:   LATEROLOG DEEP
 LLS .OHMM   11 220 09 00:   LATEROLOG SHALLOW
 SPR .MV     11 010 01 00:   SPONTANEOUS POTENTIAL
 CALD.IN     45 280 60 00:   CALIPER FROM DENSITY LOG
 TEND.LBS    45 635 01 00:   TENSION FROM DENSITY LOG
 ZCOR.G/C3   45 356 01 00:   DENSITY CORRECTION
 ZDEN.G/C3   45 350 01 00:   BULK DENSITY
 CNC .DEC    42 890 03 00:   NEUTRON POROSITY SANDSTONE
~PARAMETER INFORMATION
#MNEM.UNIT          VALUE    DESCRIPTION
#----------   ------------   ------------------------------
 EKB .F         5196.0000:   Kelly bushing
 EGL .F         5186.0000:   Ground level
 EDF .F         5195.0000:   Drilling floor
 TD  .F         5699.0000:   Total depth
 DATE.        12-JAN-1996:   Date logged
 CLNT.            A2DTECH:   Client Code
 SL  . 1032' FNL & 2536' FEL:   Surface Location
 PD  .                 GL:   Permanent Datum
 EPD .F              5186:   Elevation Permanent Datum
 LMF .                 KB:   Log Measured From
 DMF .                 KB:   Drilling Measured From
 DAPD.F                11:   Feet Above Permanent Datum
 DD  .F              5699:   Depth driller
 DL  .F              5699:   Depth logger
 BLI .F              5687:   Bottom log interval
 CS1 .IN            9.625:   Casing size
 CBD1.      9.625" @ 520':   Casing driller 1
 CBL1.F               522:   Casing logger 1
 BS1 .IN             8.75:   Bit size
 BSD1.F              5699:   Depth drilled with bit1
 DFT .               CHEM:   Type fluid in hole
 DFD .                9.8:   Density
 DFV .                 50:   Viscosity
 DFPH.                9.5:   pH
 DFL .                8.4:   Fluid loss
 MSS .           FLOWLINE:   Source of sample
 RMS .OHMM          0.515:   Rm
 MST .F                66:   Rm Meas. temp.
 RMF .OHMM          0.499:   Rmf
 MFST.F                66:   Rmf Meas. temp.
 RMC .OHMM          0.761:   Rmc
 MCST.F                66:   Rmc Meas. temp.
 MFSS.               MEAS:   Source Rmf.
 MCSS.               MEAS:   Source Rmc.
 RMB .OHMM          0.233:   Rm. at BHT
 BHT .F               174:   BHT.
 TCS .HRS               6:   Time Circ. stopped
 MRT .F               174:   Maximum recorded temp.
 LUN .            HL 6530:   Logging unit number
 LUL .             CASPER:   Logging unit location
 ENGI.        VERN RAUTIO:   Recorded By
 WITN. LAFRENIERE/OPSAL/HARDY:   Witnessed by
 ORIG.     2.5", 5" PRINT:   Origin of data
 UWI .     49025227600000:   Unique Well ID
 DICO. A2D TECHNOLOGIES, INC.:   Digitizing Company
~OTHER INFORMATION
~A    DEPT    TENR         GRR       LLD        LLS        SPR       CALD       TEND       ZCOR       ZDEN        CNC   
# ...
 2587.0000     9.3670    87.8870    15.4970    13.1240   -88.0030     9.8820   -24.5100     0.0280     2.4910     0.1810
 2587.5000    16.0640    85.4150    16.2430    13.8800   -88.0040     9.8810   -24.5100     0.0260     2.4800     0.1790
 2588.0000     0.4880    84.3860    16.0900    14.0090   -88.0040     9.8800   -24.5100     0.0250     2.4670     0.1770
 2588.5000    -6.2920    83.3270    15.8550    13.4270   -88.0040     9.8790   -24.5100     0.0240     2.4640     0.1760
 2589.0000    16.5550    83.0010    15.2310    12.7980   -88.0030     9.8780   -24.5100     0.0240     2.4700     0.1800
 2589.5000    39.4020    85.1430    14.6080    12.1700   -87.9300     9.8760     2.8430     0.0240     2.4790     0.1840
 2590.0000    62.2490    89.2280    13.9840    11.4300   -87.7060     9.8750    14.7060     0.0240     2.4820     0.1880
 2590.5000    66.2650    91.0340    13.7520    11.5050   -87.4830     9.8740    14.7060     0.0230     2.4850     0.1880
 2591.0000    40.1830    89.4100    14.0410    11.7180   -87.4000     9.8730    -2.3530     0.0240     2.4820     0.1850
 2591.5000     0.2010    88.7730    15.1430    11.9710   -87.3990     9.8720   -20.8090     0.0230     2.4790     0.1830
 2592.0000   -11.6800    90.0140    16.2450    13.0090   -87.3990     9.8710   -39.2650     0.0230     2.4800     0.1810
 2592.5000   -11.2120    89.0530    17.3470    13.9610   -87.3990     9.8700   -40.8200     0.0180     2.4830     0.1790
 2593.0000    -2.6440    86.9670    18.4880    14.9460   -87.4000     9.8690   -36.3460     0.0150     2.4810     0.1790
 2593.5000     5.9240    85.6880    17.4510    14.4320   -87.4880     9.8680   -31.8720     0.0160     2.4780     0.1800
 2594.0000    14.4910    87.3930    15.9410    13.5340   -87.7500     9.8670   -27.3980     0.0160     2.4830     0.1860
 2594.5000     8.9690    90.1470    14.4310    12.0820   -87.9990     9.8660   -29.7450     0.0240     2.4940     0.1930
 2595.0000    -2.4540    92.2540    13.0100    11.2300   -88.0530     9.8640   -44.5100     0.0290     2.5010     0.1930
 2595.5000   -13.8780    93.4450    12.9740    10.8130   -88.0990     9.8630   -59.2750     0.0350     2.4990     0.1930
 2596.0000   -23.6630    94.6450    12.9400    10.9650   -88.1460     9.8620   -74.0390     0.0310     2.4890     0.1930
 2596.5000   -19.5500    95.8900    12.9060    11.4500   -88.1950     9.8610   -76.4950     0.0280     2.4810     0.1920
 2597.0000   -15.4380    96.0130    12.7680    11.8870   -88.1740     9.8600   -58.0390     0.0260     2.4850     0.1910
 2597.5000   -11.3250    95.7860    12.4170    12.0580   -88.1320     9.8590   -39.5830     0.0240     2.5000     0.1900
 2598.0000    -7.2130    96.8320    12.0660    12.1950   -88.0880     9.8580   -24.5100     0.0230     2.5140     0.1880
 2598.5000    -4.0160    98.6350    11.3540    11.1200   -88.0450     9.8570   -24.5100     0.0220     2.5250     0.1880
 2599.0000    -4.0160   100.6840     9.9630     9.6680   -88.0020     9.8560   -24.5100     0.0200     2.5180     0.1910
 2599.5000    -4.0160   102.6100     8.5810     8.1630   -87.9340     9.8550   -24.5100     0.0230     2.5050     0.1980
 2600.0000     8.5980   108.6030     6.5340     6.6120   -87.8660     9.8530    -2.0230     0.0320     2.4780     0.2130
 2600.5000    34.4330   114.9660     5.3550     5.2570   -87.7980     9.8460    20.5540     0.0400     2.4520     0.2280
 2601.0000    60.2670   121.2660     5.5050     5.4650   -87.7310     9.8390    43.1310     0.0500     2.4520     0.2340
 2601.5000    86.1020   121.9120     8.0170     6.3940   -87.6630     9.8320    65.7080     0.0520     2.4630     0.2290
 2602.0000    79.9080   111.5440    12.1300     8.4490   -87.5960     9.8260    65.3920     0.0450     2.4810     0.2150
 2602.5000    52.5340    96.3360    16.2440    13.3550   -87.5280     9.8180    53.9220     0.0370     2.4970     0.1920
 2603.0000    25.1590    84.6110    21.6350    18.2620   -87.4600     9.8140    27.0590     0.0370     2.5010     0.1730
 2603.5000     6.0240    81.4900    21.3730    19.9080   -87.4020     9.8140     2.1570     0.0400     2.5000     0.1660
 2604.0000     6.0240    81.9550    20.9370    19.3280   -87.4390     9.8140    -4.9020     0.0430     2.5000     0.1690
 2604.5000     6.0240    84.3960    20.2790    18.2210   -87.4770     9.8140    -4.9020     0.0400     2.4990     0.1740
 2605.0000     6.9370    86.8310    20.0490    17.2770   -87.5140     9.8140    -4.9020     0.0370     2.5010     0.1770
 2605.5000    11.6370    87.6390    19.8120    17.0050   -87.5500     9.8140    -4.9020     0.0330     2.5050     0.1760
 2606.0000    16.0640    87.1060    19.5750    16.8110   -87.5920     9.8140    -4.9020     0.0330     2.5100     0.1740
 2606.5000    -1.0350    86.1390    19.3630    16.7110   -87.3540     9.8140   -14.8370     0.0380     2.5070     0.1760
 2607.0000   -17.1940    85.2890    19.4570    16.6120   -86.9810     9.8140   -31.4380     0.0430     2.4980     0.1820
 2607.5000   -34.1370    85.5250    19.5920    16.5460   -86.6040     9.8140   -44.1180     0.0480     2.4880     0.1860
 2608.0000   -30.4070    86.0170    19.7270    16.6090   -86.2300     9.8140   -44.1180     0.0510     2.4780     0.1880
 2608.5000   -25.4830    86.5040    19.8620    16.6550   -85.9720     9.8140   -44.1180     0.0510     2.4760     0.1880
 2609.0000   -20.5580    86.9100    19.9970    16.7000   -85.8950     9.8140   -38.6760     0.0510     2.4790     0.1880
 2609.5000   -15.6340    86.8970    20.1310    16.7920   -85.8150     9.8140   -32.4510     0.0500     2.4820     0.1880
 2610.0000   -21.5860    86.8490    20.2790    17.0040   -85.7350     9.8140   -26.2250     0.0460     2.4780     0.1830
 2610.5000   -37.0980    84.1640    21.2830    17.5170   -85.6560     9.8210   -38.9410     0.0420     2.4720     0.1780
 2611.0000   -41.6210    77.6570    22.3950    18.0300   -85.5550     9.8380   -58.8630     0.0380     2.4650     0.1730
 2611.5000   -36.9200    69.7930    22.8700    18.2450   -85.3140     9.8550   -51.1760     0.0360     2.4650     0.1670
 2612.0000   -32.2200    64.2300    22.1930    18.3180   -85.0700     9.8720   -44.1180     0.0380     2.4690     0.1700
 2612.5000   -27.5190    65.1320    21.7020    17.6530   -84.8280     9.8880   -44.1180     0.0400     2.4710     0.1760
 2613.0000   -24.0960    67.0750    21.2110    17.5180   -84.5000     9.9050   -44.1180     0.0420     2.4610     0.1780
 2613.5000    -8.1760    66.6980    20.7200    17.3900   -84.1540     9.9230   -33.5290     0.0430     2.4500     0.1760
 2614.0000     6.5980    66.0470    20.2290    17.1530   -83.8140     9.9360    -8.6270     0.0410     2.4470     0.1750
 2614.5000    14.6350    67.9880    19.7380    16.8160   -83.5690     9.9400    14.7060     0.0400     2.4490     0.1740
 2615.0000    10.6580    72.1510    19.2470    16.4790   -83.5920     9.9450     1.4710     0.0380     2.4500     0.1770
 2615.5000     6.6810    76.2980    18.7560    16.1420   -83.6090     9.9510   -10.9800     0.0350     2.4500     0.1810
 2616.0000   -13.1640    80.3600    18.2650    15.8050   -83.6270     9.9560   -23.4310     0.0320     2.4500     0.1830
 2616.5000   -34.1370    81.8390    17.8170    15.3660   -83.6440     9.9610   -35.8820     0.0290     2.4520     0.1840
 2617.0000   -20.9410    82.8870    18.1070    15.5790   -83.6620     9.9660   -42.4310     0.0280     2.4530     0.1850
 2617.5000    -6.1680    82.6170    18.3740    15.8830   -83.6790     9.9720   -37.4510     0.0320     2.4500     0.1850
 2618.0000     4.5180    81.8720    18.6400    16.1860   -83.6970     9.9590   -32.4710     0.0350     2.4460     0.1860
 2618.5000    -4.0160    79.5300    18.9070    16.5460   -83.7140     9.9450   -27.4900     0.0380     2.4490     0.1860
 2619.0000    -6.3590    78.6140    19.0080    16.3350   -83.7320     9.9340   -25.7600     0.0350     2.4530     0.1870
 2619.5000    -9.2310    80.3260    19.0080    16.0940   -83.7490     9.9490   -28.8730     0.0290     2.4560     0.1890
 2620.0000   -12.1040    85.1040    19.0080    16.1850   -83.7580     9.9610   -31.9850     0.0240     2.4540     0.1920
