~VERSION INFORMATION
 VERS.                2.0:   CWLS LOG ASCII STANDARD - VERSION 2.0
 WRAP.                 NO:   ONE LINE PER DEPTH STEP
~WELL INFORMATION
#MNEM.UNIT      DATA TYPE    INFORMATION
#----------   ------------   ------------------------------
 STRT.F          209.5000:   START DEPTH
 STOP.F         3130.0000:   STOP DEPTH
 STEP.F            0.5000:   STEP LENGTH
 NULL.          -999.2500:   NO VALUE
 COMP. FENIX & SCISSON-U.S. NAVY:   COMPANY
 WELL.   FENIX "A" #66-29:   WELL
 FLD .              NPR 3:   FIELD
 LOC .      S29 T39N R78W:   LOCATION
 CNTY.            NATRONA:   COUNTY
 STAT.            WYOMING:   STATE
 CTRY. UNITED STATES OF AMERICA:   COUNTRY
 SRVC.       SCHLUMBERGER:   SERVICE COMPANY
 DATE.        12-JUN-1977:   LOGDATE
 API .     49025103850000:   API NUMBER
~CURVE INFORMATION
#MNEM.UNIT       API CODE    CURVE DESCRIPTION
#----------   ------------   ------------------------------
 DEPT.F                  :   
 CALD.IN     45 280 60 00:   CALIPER FROM DENSITY LOG
 GRD .GAPI   45 310 01 00:   GAMMA RAY FROM DENSITY LOG
 RHOB.G/C3   45 350 01 00:   BULK DENSITY
 CORR.G/C3   45 356 01 00:   DENSITY CORRECTION
 LL8 .OHMM   07 220 08 00:   LATEROLOG-8 RES.
 ILD .OHMM   07 120 46 00:   DEEP INDUCTION RESISTIVITY
 ILM .OHMM   07 120 44 00:   INDUCTION LOG MEDIUM RESISTIVITY
 SPR .MV     07 010 01 00:   SPONTANEOUS POTENTIAL
~PARAMETER INFORMATION
#MNEM.UNIT          VALUE    DESCRIPTION
#----------   ------------   ------------------------------
 EKB .F         5058.0000:   Kelly bushing
 EGL .F         5048.0000:   Ground level
 EDF .F            0.0000:   Drilling floor
 TD  .F         3120.0000:   Total depth
 DATE.        12-JUN-1977:   Date logged
 CLNT.            A2DTECH:   Client Code
 SL  . 1650' FSL & 1650' FEL:   Surface Location
 PD  .                 GL:   Permanent Datum
 EPD .F              5048:   Elevation Permanent Datum
 LMF .                 KB:   Log Measured From
 DMF .                 KB:   Drilling Measured From
 DAPD.F                10:   Feet Above Permanent Datum
 DD  .F              3120:   Depth driller
 DL  .F              3120:   Depth logger
 BLI .F              3120:   Bottom log interval
 TLI .F               219:   Top log interval
 CS1 .IN            8.625:   Casing size
 CBD1.      8.625" @ 225':   Casing driller 1
 CBL1.F               219:   Casing logger 1
 BS1 .IN            7.875:   Bit size
 BSD1.F              3120:   Depth drilled with bit1
 DFT .            KCL MUD:   Type fluid in hole
 DFD .                8.8:   Density
 DFV .                 32:   Viscosity
 DFPH.                7.5:   pH
 DFL .                  8:   Fluid loss
 MSS .              CIRC.:   Source of sample
 RMS .OHMM           2.01:   Rm
 MST .F                72:   Rm Meas. temp.
 RMF .OHMM            1.9:   Rmf
 MFST.F                72:   Rmf Meas. temp.
 RMC .OHMM           3.02:   Rmc
 MCST.F                72:   Rmc Meas. temp.
 MFSS.               MEAS:   Source Rmf.
 MCSS.               CALC:   Source Rmc.
 RMB .OHMM           1.21:   Rm. at BHT
 BHT .F               120:   BHT.
 TCS .HRS            1400:   Time Circ. stopped
 TLAB.HRS            1730:   Time logger at bottom
 MRT .F               120:   Maximum recorded temp.
 LUN .               7711:   Logging unit number
 LUL .               CSPR:   Logging unit location
 ENGI.             SAYLER:   Recorded By
 WITN.             RHODES:   Witnessed by
 ORIG.           5" PRINT:   Origin of data
 UWI .     49025103850000:   Unique Well ID
 DICO. A2D TECHNOLOGIES, INC.:   Digitizing Company
~OTHER INFORMATION
~A   DEPT     CALD         GRD      RHOB       CORR        LL8        ILD        ILM        SPR   
  209.5000  -999.2500    78.0055  -999.2500  -999.2500  -999.2500  -999.2500  -999.2500   -44.5597
  210.0000  -999.2500    77.2237  -999.2500  -999.2500  -999.2500  -999.2500  -999.2500   -43.9977
  210.5000  -999.2500    77.2343  -999.2500  -999.2500  -999.2500  -999.2500  -999.2500   -43.3958
  211.0000  -999.2500    77.2219  -999.2500  -999.2500  -999.2500  -999.2500  -999.2500   -42.9898
  211.5000  -999.2500    77.4166  -999.2500  -999.2500  -999.2500  -999.2500  -999.2500   -42.7819
  212.0000  -999.2500    75.5136  -999.2500  -999.2500  -999.2500  -999.2500  -999.2500   -42.1779
  212.5000  -999.2500    72.6691  -999.2500  -999.2500  -999.2500  -999.2500  -999.2500   -41.5740
  213.0000  -999.2500    72.4715  -999.2500  -999.2500  -999.2500  -999.2500  -999.2500   -40.9700
  213.5000  -999.2500    70.5919  -999.2500  -999.2500  -999.2500  -999.2500  -999.2500   -40.7621
  214.0000  -999.2500    68.5133  -999.2500  -999.2500  -999.2500  -999.2500  -999.2500   -40.7522
  214.5000  -999.2500    68.1160  -999.2500  -999.2500  -999.2500  -999.2500  -999.2500   -40.5443
  215.0000  -999.2500    68.5093  -999.2500  -999.2500  -999.2500  -999.2500  -999.2500   -39.9403
  215.5000  -999.2500    69.2981  -999.2500  -999.2500  -999.2500  -999.2500  -999.2500   -39.3363
  216.0000  -999.2500    69.0984  -999.2500  -999.2500  -999.2500  -999.2500  -999.2500   -37.9403
  216.5000  -999.2500    70.2825  -999.2500  -999.2500  -999.2500  -999.2500  -999.2500   -36.5442
  217.0000  -999.2500    70.6759  -999.2500  -999.2500  -999.2500  -999.2500  -999.2500   -33.3659
  217.5000  -999.2500    72.6509  -999.2500  -999.2500  -999.2500  -999.2500  -999.2500   -28.9994
  218.0000  -999.2500    73.0445  -999.2500  -999.2500  -999.2500  -999.2500  -999.2500   -25.0290
  218.5000  -999.2500    81.3463  -999.2500  -999.2500  -999.2500  -999.2500  -999.2500   -21.0205
  219.0000  -999.2500    83.9151  -999.2500  -999.2500     8.9071  -999.2500  -999.2500   -25.8013
  219.5000    10.1277    86.0884     2.2417  -999.2500     8.5108  -999.2500  -999.2500   -30.7421
  220.0000    10.5626    87.0754     2.2466     0.2508     5.9191     2.4951     2.4951   -38.2191
  220.5000    11.1951    90.0397     2.2866     0.1896     5.6074     3.4201     3.4201   -39.1994
  221.0000    11.5905    90.8292     2.3367     0.1285     5.4097     4.6880     3.5019   -43.9421
  221.5000    11.7486    91.6190     2.3576     0.0736     5.3148     6.4259     3.4090   -47.8928
  222.0000    12.0253    90.4309     2.3795     0.0626     5.1274     7.7560     3.2586   -49.2691
  222.5000    12.1834    90.2317     2.3825     0.0387     4.8133     3.5072     2.9758   -51.0795
  223.0000    12.3811    89.4392     2.3706     0.0477     4.6015     3.2322     2.6684   -52.2577
  223.5000    12.4601    88.2511     2.3616     0.0642     4.5622     3.0337     2.4815   -53.6340
  224.0000    12.3563    87.6564     2.3437     0.1194     2.9264     2.8471     2.1851   -54.6123
  224.5000    12.6528    87.8526     2.3188     0.1035     2.6970     2.3305     2.0138   -55.9886
  225.0000    12.7741    88.2466     2.2760     0.1304     2.4629     2.0707     1.8729   -56.5728
  225.5000    12.7762    88.2451     2.2550     0.1304     2.2698     2.0158     1.8232   -56.9590
  226.0000    12.5388    89.4303     2.1415     0.0966     2.1304     1.9985     1.8748   -57.1471
  226.5000    11.6684    89.0332     2.1186     0.0348     2.2310     2.0364     2.0179   -57.1372
  227.0000    11.2727    87.6472     2.1375     0.0452     2.4455     2.1917     2.1718   -56.9293
  227.5000    10.6792    86.4586     2.1664     0.0557     2.8058     2.5147     2.3806   -56.9194
  228.0000    10.4813    86.4571     2.1923     0.0747     3.3695     2.8589     2.8589   -57.3056
  228.5000    10.2438    90.6097     2.2117     0.0844     3.3406     3.5948     2.9940   -57.8898
  229.0000    10.0458    94.1688     2.2879     0.1036     3.3729     3.9392     3.1360   -58.0779
  229.5000     9.8478    98.5193     2.2928     0.0169     3.7999     4.9527     4.2398   -57.8700
  230.0000     9.5312   101.6831     2.4233     0.0373     5.7333     5.7859     5.7859   -57.0680
  230.5000     9.4469   100.8907     2.4233     0.0548     5.9830     6.2846     6.2846   -57.2561
  231.0000     9.4072    99.7025     2.4163     0.0199     6.1517     6.7028     6.4631   -57.0482
  231.5000     9.4664    98.3165     2.4435     0.0160     6.1549     6.8924     6.6453   -56.6423
  232.0000     9.3871    98.1173     2.4741     0.0200     6.1022     7.0230     6.7097   -56.2363
  232.5000     9.3869    99.5009     2.4602     0.0040     6.0500     7.1561     6.7131   -56.0284
  233.0000     9.3868   101.8739     2.4582     0.0102     6.0531     7.1598     6.7165   -56.0185
  233.5000     9.3866   104.4448     2.4592     0.0170     6.0562     7.0984     6.6589   -56.0087
  234.0000     9.5843   107.8073     2.4651     0.0140     6.0593     6.9735     6.6018   -55.9988
  234.5000     9.5446   108.7958     2.4771     0.0130     6.0624     6.7886     6.4857   -55.5928
  235.0000     9.4059   109.3884     2.4821     0.0190     6.0655     6.6692     6.4890   -55.7810
  235.5000     9.3859   109.7829     2.4861     0.0240     6.0686     6.6726     6.4923   -55.9691
  236.0000     9.3858   109.3862     2.4801     0.0170     6.0717     6.7373     6.3781   -56.5533
  236.5000     9.3856   104.8339     2.4791     0.0140     6.1304     6.7407     6.2090   -56.7414
  237.0000     9.3854   103.0518     2.4791     0.0140     6.1335     6.5620     5.8810   -57.1276
  237.5000     9.3457   103.2485     2.4900     0.0140     6.1927     6.2724     5.4696   -57.7118
  238.0000     9.3653   105.2263     2.4900     0.0111     6.1959     5.7280     5.0864   -58.8901
  238.5000     9.3652   107.2043     2.4900     0.0101     6.0872     5.1362     4.5613   -59.2763
  239.0000     9.3650   109.7757     2.4781     0.0111     5.7131     4.9100     3.9076   -59.8605
  239.5000     9.3649   110.3688     2.4691     0.0121     4.4866     4.4023     3.6345   -60.4447
  240.0000     9.3449   111.7533     2.4532     0.0131     3.5234     4.2465     3.7713   -61.2269
  240.5000     9.3447   113.5336     2.4053     0.0250     3.0532     4.1339     3.8419   -61.6131
  241.0000     9.3445   114.7203     2.3914     0.0400     3.9500     4.0984     3.9155   -62.1592
  241.5000     9.4038   115.5111     2.3854     0.0599     4.6890     4.0632     3.9535   -62.1493
  242.0000     9.3640   111.7491     2.3675     0.0480     4.5650     4.1026     3.9918   -61.7434
  242.5000     9.3243   109.3732     2.3615     0.0151     4.4849     4.3358     4.1047   -61.1394
  243.0000     9.3044   105.4131     2.3882     0.0131     4.8263     4.4994     4.3779   -60.9315
  243.5000     9.3437   103.0366     2.4123     0.0071     5.0998     4.7120     4.7120   -59.7715
  244.0000     9.2842   101.4518     2.4262     0.0012     5.1962     5.2125     5.1182   -59.3655
  244.5000     9.2840   102.8363     2.4392     0.0092     5.1989     5.7138     5.7150   -58.9596
  245.0000     9.2838   105.0127     2.4452     0.0161     5.3455     6.2064     5.8221   -58.5537
  245.5000     9.2243   107.5853     2.4472     0.0161     5.8050     6.3240     6.0418   -57.9497
  246.0000     9.2637   109.7620     2.4551     0.0161     6.1341     6.5626     6.2128   -57.3457
  246.5000     9.2636   110.3549     2.4561     0.0102     6.4818     6.8727     6.3886   -56.9398
  247.0000     9.2634   108.3741     2.4651     0.0102     6.6647     7.1975     6.5694   -57.1279
  247.5000     9.2632   107.3825     2.4741     0.0142     6.9155     7.4012     6.7553   -57.3160
  248.0000     9.2235   107.7783     2.4851     0.0242     6.9823     7.4729     6.8833   -57.7022
  248.5000     9.2233   109.3611     2.4970     0.0411     6.9225     7.4768     6.9501   -57.4943
  249.0000     9.2231   109.9543     2.4980     0.0551     6.8640     7.4126     6.9536   -57.6824
  249.5000     9.2427   109.9531     2.4671     0.0122     6.6212     7.3490     6.8313   -58.0686
