~VERSION INFORMATION
 VERS.                2.0:   CWLS LOG ASCII STANDARD - VERSION 2.0
 WRAP.                 NO:   ONE LINE PER DEPTH STEP
~WELL INFORMATION
#MNEM.UNIT      DATA TYPE    INFORMATION
#----------   ------------   ------------------------------
 STRT.F            0.0000:   START DEPTH
 STOP.F         5576.0000:   STOP DEPTH
 STEP.F            0.5000:   STEP LENGTH
 NULL.          -999.2500:   NO VALUE
 COMP.      FLUCOR DANIEL:   COMPANY
 WELL.  FLUCOR "X" #76-10:   WELL
 FLD .          N.P.R. #3:   FIELD
 LOC .      S10 T38N R78W:   LOCATION
 CNTY.            NATRONA:   COUNTY
 STAT.            WYOMING:   STATE
 CTRY. UNITED STATES OF AMERICA:   COUNTRY
 SRVC. ATLAS WIRELINE SERVICES:   SERVICE COMPANY
 DATE.        16-MAR-1995:   LOGDATE
 API .     49025226860000:   API NUMBER
~CURVE INFORMATION
#MNEM.UNIT       API CODE    CURVE DESCRIPTION
#----------   ------------   ------------------------------
 DEPT.F                  :   
 CNC .DEC    42 890 01 00:   NEUTRON POROSITY LIMESTONE
 CALD.IN     45 280 60 00:   CALIPER FROM DENSITY LOG
 ZDEN.G/C3   45 350 01 00:   BULK DENSITY
 ZCOR.G/C3   45 356 01 00:   DENSITY CORRECTION
 RILD.OHMM   07 120 46 00:   INDUCTION LOG DEEP RESISTIVITY
 RILM.OHMM   07 120 44 00:   INDUCTION LOG MEDIUM RESISTIVITY
 RS  .OHMM   11 220 10 00:   RESISTIVITY SHALLOW
 RD  .OHMM   11 220 09 00:   RESISTIVITY DEEP
 GRR .GAPI   07 310 01 00:   GAMMA RAY
 TENR.LBS    07 635 01 00:   TENSION FROM RESISTIVITY
~PARAMETER INFORMATION
#MNEM.UNIT          VALUE    DESCRIPTION
#----------   ------------   ------------------------------
 EKB .F         5191.0000:   Kelly bushing
 EGL .F         5101.0000:   Ground level
 EDF .F         5190.0000:   Drilling floor
 TD  .F         5582.0000:   Total depth
 CLNT.            A2DTECH:   Client Code
 SL  . 1896' FSL & 832' FEL:   Surface Location
 PD  .                 GL:   Permanent Datum
 EPD .F              5181:   Elevation Permanent Datum
 LMF .                 KB:   Log Measured From
 DMF .                 KB:   Drilling Measured From
 DAPD.F                10:   Feet Above Permanent Datum
 DATE.        16-MAR-1995:   Date Logged [DD-MMM-YYYY]
 DD  .F              5582:   Depth driller
 DL  .F              5578:   Depth logger
 BLI .F              5566:   Bottom log interval
 TLI .F               518:   Top log interval
 CS1 .IN            8.625:   Casing size
 CBD1.      8.625" @ 519':   Casing driller 1
 CBL1.F               518:   Casing logger 1
 BS1 .IN             8.75:   Bit size
 BSD1.F              5582:   Depth drilled with bit1
 DFT .               LSND:   Type fluid in hole
 DFD .               10.1:   Density
 DFV .                 52:   Viscosity
 DFPH.                9.5:   pH
 DFL .                7.2:   Fluid loss
 MSS .           FLOWLINE:   Source of sample
 RMS .OHMM          0.536:   Rm
 MST .F                70:   Rm Meas. temp.
 RMF .OHMM          0.415:   Rmf
 MFST.F                70:   Rmf Meas. temp.
 MFSS.               MEAS:   Source Rmf.
 RMC .OHMM          0.646:   Rmc
 MCST.F                70:   Rmc Meas. temp.
 MCSS.               MEAS:   Source Rmc.
 RMB .OHMM          0.228:   Rm. at BHT
 BHT .F               165:   BHT.
 TCS .HRS             6.5:   Time Circ. stopped
 MRT .F               165:   Maximum recorded temp.
 LUN .            HL-6530:   Logging unit number
 LUL .             CASPER:   Logging unit location
 ENGI.      PAT RASMUSSEN:   Recorded By
 WITN.        GARY STRONG:   Witnessed by
 ORIG.           5" PRINT:   Origin of data
 UWI .     49025226860000:   Unique Well ID
 DICO. A2D TECHNOLOGIES, INC.:   Digitizing Company
~OTHER INFORMATION
~A  DEPTH      CNC       CALD       ZDEN       ZCOR       RILD       RILM         RS         RD        GRR       TENR
# ...
  502.5000     0.4429  -999.2500  -999.2500  -999.2500     7.6152     8.0274  -999.2500  -999.2500    56.8354   185.1145
  503.0000     0.4463  -999.2500  -999.2500  -999.2500     7.4547     7.8066  -999.2500  -999.2500    56.5735   192.7481
  503.5000     0.4520  -999.2500  -999.2500  -999.2500     7.2464     7.4834  -999.2500  -999.2500    56.5594   192.7481
  504.0000     0.4610  -999.2500  -999.2500  -999.2500     7.1944     7.2243  -999.2500  -999.2500    55.6361   192.7481
  504.5000     0.4599  -999.2500  -999.2500  -999.2500     7.0428     7.0732  -999.2500  -999.2500    53.1942   192.7481
  505.0000     0.4548  -999.2500  -999.2500  -999.2500     6.9921     7.0235  -999.2500  -999.2500    51.9679   192.7481
  505.5000     0.4517  -999.2500  -999.2500  -999.2500     6.9418     6.9742  -999.2500  -999.2500    51.6543   192.7481
  506.0000     0.4514  -999.2500  -999.2500  -999.2500     6.8433     6.9742  -999.2500  -999.2500    54.8737   192.7481
  506.5000     0.4684  -999.2500  -999.2500  -999.2500     6.8421     6.9742  -999.2500  -999.2500    57.6831   192.7481
  507.0000     0.4854  -999.2500  -999.2500  -999.2500     6.9870     7.0732  -999.2500  -999.2500    55.5442   192.7481
  507.5000     0.4899  -999.2500  -999.2500  -999.2500     7.1857     7.3787  -999.2500  -999.2500    54.6209   200.3817
  508.0000     0.4914  -999.2500  -999.2500  -999.2500     7.4416     7.9174  -999.2500  -999.2500    55.2128   200.3817
  508.5000     0.4939  -999.2500  -999.2500  -999.2500     7.8162     8.4358  -999.2500  -999.2500    55.8012   200.3817
  509.0000     0.4975  -999.2500  -999.2500  -999.2500     8.0949     8.8012  -999.2500  -999.2500    55.1810   192.7481
  509.5000     0.4993  -999.2500  -999.2500  -999.2500     8.3108     8.9881  -999.2500  -999.2500    53.9394   192.7481
  510.0000     0.4993  -999.2500  -999.2500  -999.2500     8.5610     9.0624  -999.2500  -999.2500    53.0315   192.7481
  510.5000     0.4987  -999.2500  -999.2500  -999.2500     8.8041     9.2451  -999.2500  -999.2500    54.5289   192.7481
  511.0000     0.4963  -999.2500  -999.2500  -999.2500     8.9905     9.3763  -999.2500  -999.2500    54.5148   192.7481
  511.5000     0.4893  -999.2500  -999.2500  -999.2500     9.0524     9.5094  -999.2500  -999.2500    52.9820   200.3817
  512.0000     0.4805  -999.2500  -999.2500  -999.2500     9.0508     9.5767  -999.2500  -999.2500    51.1496   208.0153
  512.5000     0.4742  -999.2500  -999.2500  -999.2500     9.1132     9.6444  -999.2500  -999.2500    50.8324   208.0153
  513.0000     0.4715  -999.2500  -999.2500  -999.2500     9.1113     9.7126  -999.2500  -999.2500    50.8080   215.6488
  513.5000     0.4736  -999.2500  -999.2500  -999.2500     9.1745     9.7126  -999.2500  -999.2500    49.5885   215.6488
  514.0000     0.4806  -999.2500  -999.2500  -999.2500     9.2377     9.7126  -999.2500  -999.2500    48.3622   215.6488
  514.5000     0.4815  -999.2500  -999.2500  -999.2500     9.3010     9.7126  -999.2500  -999.2500    50.7723   215.6488
  515.0000     0.4806  -999.2500  -999.2500  -999.2500     9.2994     9.7126  -999.2500  -999.2500    51.9703   215.6488
  515.5000     0.4793  -999.2500  -999.2500  -999.2500     9.2978     9.6444  -999.2500  -999.2500    51.9526   223.2824
  516.0000     0.4769  -999.2500  -999.2500  -999.2500     9.2962     9.6444  -999.2500  -999.2500    51.6354   223.2824
  516.5000     0.4730  -999.2500  -999.2500  -999.2500     9.2293     9.5767  -999.2500  -999.2500    49.4803   223.2824
  517.0000     0.4624  -999.2500  -999.2500  -999.2500     9.2277     9.5767  -999.2500  -999.2500    42.8157   223.2824
  517.5000     0.4447  -999.2500  -999.2500  -999.2500     9.2261     9.5767  -999.2500  -999.2500    40.6803   223.2824
  518.0000     0.4279    10.5859     2.1928    -0.1120     9.1576     9.5767  -999.2500  -999.2500    46.1207   163.3525
  518.5000     0.4085    10.7062     2.2715     0.1058  -999.2500  -999.2500     1.6278     4.2436    58.5273   -15.0576
  519.0000     0.3807    10.7970     2.2662     0.1345  -999.2500  -999.2500     5.3088  2513.0911    65.7859   -22.3994
  519.5000     0.3655    10.8556     2.2608     0.1253  -999.2500  -999.2500     6.9119 61422.5586    66.3813   -22.1299
  520.0000     0.3649    10.8843     2.2706     0.1206  -999.2500  -999.2500     7.5172 36829.4766    65.7576   -14.3188
  520.5000     0.3891    10.9894     2.2857     0.1205  -999.2500  -999.2500     7.7187     4.9072    65.1338   -14.1077
  521.0000     0.4110    11.1553     2.2811     0.1203  -999.2500  -999.2500     7.5026  -999.2500    65.7293   -13.8966
  521.5000     0.4182    11.2919     2.2720     0.1474  -999.2500  -999.2500     7.2428  -999.2500    68.1358   -13.6327
  522.0000     0.4237    11.3803     2.2696     0.1821  -999.2500  -999.2500     6.7994  -999.2500    69.3338   -13.4216
  522.5000     0.4515    11.4398     2.2885     0.2123  -999.2500  -999.2500     6.5640  -999.2500    67.4979   -13.2105
  523.0000     0.4782    11.4841     2.3167     0.2288  -999.2500  -999.2500     6.3809  -999.2500    65.6656   -12.9466
  523.5000     0.4867    11.5284     2.3467     0.2317  -999.2500  -999.2500     6.2029  -999.2500    66.8636   -12.7355
  524.0000     0.4927    11.5256     2.3505     0.2345  -999.2500  -999.2500     6.6000  -999.2500    68.9671   -12.5244
  524.5000     0.4958    11.4191     2.2936     0.2344  -999.2500  -999.2500     8.1279  -999.2500    69.8620   -12.3112
  525.0000     0.4933    11.2202     2.2405     0.2328  -999.2500  -999.2500     8.5902  -999.2500    69.8479   -12.0494
  525.5000     0.4809    11.0517     2.1734     0.2219  -999.2500  -999.2500     7.8621  -999.2500    68.5502   -11.8383
  526.0000     0.4685    10.9896     2.1344     0.2113  -999.2500  -999.2500     6.9159  -999.2500    64.9676   -11.6272
  526.5000     0.4358    10.9714     2.0851     0.2051  -999.2500  -999.2500     6.8657  -999.2500    63.1352   -11.3633
  527.0000     0.4213    10.9259     2.0600     0.1959  -999.2500  -999.2500     7.3561  -999.2500    63.1211   -11.1522
  527.5000     0.4189    10.8942     2.0342     0.1836  -999.2500  -999.2500     7.8824  -999.2500    63.1034   -10.9411
  528.0000     0.4201    10.8473     2.0149     0.1696  -999.2500  -999.2500     7.5559  -999.2500    63.0893   -10.7251
  528.5000     0.4222    10.7852     2.0023     0.1531  -999.2500  -999.2500     7.5010  -999.2500    63.0751   -10.4661
  529.0000     0.4181    10.7212     2.0022     0.1575  -999.2500  -999.2500     7.6548  -999.2500    63.0606   -10.2550
  529.5000     0.4049    10.6911     2.0135     0.1725  -999.2500  -999.2500     8.3165  -999.2500    63.0433   -10.0439
  530.0000     0.3768    10.6594     2.0764     0.1754  -999.2500  -999.2500     9.0364  -999.2500    66.0594   -24.9385
  530.5000     0.3459    10.6277     2.3071     0.1298  -999.2500  -999.2500     9.1590  -999.2500    75.7422   -24.6747
  531.0000     0.3208    10.6416     2.4490     0.0616  -999.2500  -999.2500     9.0271  -999.2500    84.2094   -24.4636
  531.5000     0.2902    10.6403     2.4800     0.0342  -999.2500  -999.2500     8.5346  -999.2500    87.8316   -24.1997
  532.0000     0.2799    10.6539     2.4868     0.0204  -999.2500  -999.2500     7.8475  -999.2500    88.4271   -39.1471
  532.5000     0.2799    10.6526     2.4859     0.0157  -999.2500  -999.2500     7.3168  -999.2500    88.4094   -54.0417
  533.0000     0.2817    10.6513     2.4836     0.0141  -999.2500  -999.2500     7.3127  -999.2500    89.0013   -31.1178
  533.5000     0.2866    10.6500     2.4820     0.0170  -999.2500  -999.2500     7.4126  -999.2500    88.9836   -23.3025
  534.0000     0.2911    10.6484     2.4797     0.0153  -999.2500  -999.2500     7.4295  -999.2500    87.4543   -23.0914
  534.5000     0.2914    10.6471     2.4850     0.0152  -999.2500  -999.2500     7.5134  -999.2500    82.8912   -22.8803
  535.0000     0.2902    10.6458     2.4917     0.0181  -999.2500  -999.2500     7.6627  -999.2500    82.2710    -7.5107
  535.5000     0.2884    10.6293     2.4963     0.0227  -999.2500  -999.2500     7.8207  -999.2500    82.2568    -7.2995
