~VERSION INFORMATION
 VERS.                2.0:   CWLS LOG ASCII STANDARD - VERSION 2.0
 WRAP.                 NO:   ONE LINE PER DEPTH STEP
~WELL INFORMATION
#MNEM.UNIT      DATA TYPE    INFORMATION
#----------   ------------   ------------------------------
 STRT.F          740.0000:   START DEPTH
 STOP.F         2749.0000:   STOP DEPTH
 STEP.F            0.5000:   STEP LENGTH
 NULL.          -999.2500:   NO VALUE
 COMP.    FENIX & SCISSON:   COMPANY
 WELL.   FENIX SHX #11-10:   WELL
 FLD .                NPR:   FIELD
 LOC .      S10 T38N R78W:   LOCATION
 CNTY.            NATRONA:   COUNTY
 STAT.            WYOMING:   STATE
 CTRY. UNITED STATES OF AMERICA:   COUNTRY
 SRVC.              WELEX:   SERVICE COMPANY
 DATE.        09-APR-1980:   LOGDATE
 API .     49025108060000:   API NUMBER
~CURVE INFORMATION
#MNEM.UNIT       API CODE    CURVE DESCRIPTION
#----------   ------------   ------------------------------
 DEPT.F                  :   
 GRD .GAPI   45 310 01 00:   GAMMA RAY FROM DENSITY LOG
 CALD.IN     45 280 60 00:   CALIPER FROM DENSITY LOG
 TEND.LBS    45 635 01 00:   TENSION FROM DENSITY LOG
 RHOB.G/C3   45 350 01 00:   BULK DENSITY
 CORR.G/C3   45 356 01 00:   DENSITY CORRECTION
~PARAMETER INFORMATION
#MNEM.UNIT          VALUE    DESCRIPTION
#----------   ------------   ------------------------------
 EKB .F         5287.0000:   Kelly bushing
 EGL .F         5277.0000:   Ground level
 EDF .F            0.0000:   Drilling floor
 EPD .F         5277.0000:   Permanent datum
 TD  .F         2762.0000:   Total depth
 DATE.        09-APR-1980:   Date logged
 CLNT.            A2DTECH:   Client Code
 SL  . 474' FNL & 644' FWL:   Surface Location
 PD  .                 GL:   Permanent Datum
 LMF .                 KB:   Log Measured From
 DMF .                 KB:   Drilling Measured From
 DAPD.F                10:   Feet Above Permanent Datum
 DD  .F              2762:   Depth driller
 DL  .F            2751.5:   Depth logger
 BLI .F              2750:   Bottom log interval
 TLI .F               750:   Top log interval
 CS1 .IN            9.625:   Casing size
 CBD1.      9.625" @ 760':   Casing driller 1
 BS1 .IN             8.75:   Bit size
 BSD1.F              2762:   Depth drilled with bit1
 DFT .                AIR:   Type fluid in hole
 TCS .HRS               3:   Time Circ. stopped
 MRT .F               118:   Maximum recorded temp.
 ENGI.            BENTSEN:   Recorded By
 WITN.           DINSMORE:   Witnessed by
 ORIG.         2.5" PRINT:   Origin of data
 UWI .     49025108060000:   Unique Well ID
 DICO. A2D TECHNOLOGIES, INC.:   Digitizing Company
~OTHER INFORMATION
~A   DEPT       GRD      CALD       TEND       RHOB       CORR   
# ...
 1411.0000    66.2800     9.0730  1161.2080     2.5190     0.0360
 1411.5000    66.1270     9.0680  1162.2180     2.5200     0.0280
 1412.0000    65.9660     9.0460  1163.2280     2.5090     0.0220
 1412.5000    65.8190     9.0260  1164.2390     2.4890     0.0140
 1413.0000    65.5980     9.0050  1165.2490     2.4940     0.0250
 1413.5000    65.2960     8.9850  1166.2590     2.4990     0.0250
 1414.0000    65.4130     8.9640  1167.2690     2.4960     0.0180
 1414.5000    66.1560     8.9440  1168.2800     2.5040     0.0280
 1415.0000    66.7960     8.9240  1169.2900     2.5090     0.0370
 1415.5000    67.4990     8.9090  1170.3000     2.5160     0.0460
 1416.0000    67.1430     8.8980  1171.3110     2.5180     0.0560
 1416.5000    66.7090     8.8870  1172.3210     2.5090     0.0560
 1417.0000    66.7060     8.8760  1173.3311     2.5040     0.0540
 1417.5000    68.2810     8.8660  1174.3409     2.5180     0.0580
 1418.0000    68.7760     8.8540  1175.3521     2.5290     0.0670
 1418.5000    68.7490     8.8440  1176.3621     2.5420     0.0700
 1419.0000    68.6770     8.8400  1177.3719     2.5330     0.0600
 1419.5000    68.5860     8.8930  1178.3820     2.5290     0.0510
 1420.0000    68.4800     8.9490  1179.3929     2.5320     0.0410
 1420.5000    68.3910     9.0100  1180.4030     2.5270     0.0320
 1421.0000    68.3020     9.0270  1181.4130     2.5190     0.0220
 1421.5000    68.1570     8.9970  1182.4240     2.5260     0.0360
 1422.0000    68.5150     8.9710  1183.4340     2.5370     0.0450
 1422.5000    69.2510     8.9470  1184.4440     2.5340     0.0410
 1423.0000    69.9500     8.9190  1185.4540     2.5430     0.0500
 1423.5000    70.7090     8.9250  1186.4650     2.5510     0.0650
 1424.0000    71.0800     8.9330  1187.4750     2.5580     0.0600
 1424.5000    70.7140     8.9420  1188.4850     2.5150     0.0380
 1425.0000    70.4210     8.9510  1189.4950     2.5210     0.0230
 1425.5000    70.1030     8.9600  1190.5060     2.5320     0.0440
 1426.0000    69.8840     8.9690  1191.5160     2.5440     0.0630
 1426.5000    69.8040     8.9780  1192.5260     2.5370     0.0530
 1427.0000    69.7040     8.9870  1193.5370     2.5170     0.0400
 1427.5000    69.6060     8.9950  1194.5470     2.5090     0.0290
 1428.0000    69.5100     8.9880  1195.5570     2.5080     0.0340
 1428.5000    69.4100     8.9790  1196.5670     2.5210     0.0410
 1429.0000    69.3690     8.9700  1197.5780     2.5150     0.0470
 1429.5000    69.4570     8.9620  1198.5880     2.5210     0.0540
 1430.0000    69.5390     8.9530  1199.5980     2.5440     0.0600
 1430.5000    69.6290     8.9450  1200.6090     2.5510     0.0670
 1431.0000    69.7110     8.9360  1201.6190     2.5400     0.0690
 1431.5000    69.7980     8.9280  1202.6290     2.5410     0.0690
 1432.0000    69.9010     8.9190  1203.6390     2.5540     0.0690
 1432.5000    69.7820     8.9270  1204.6500     2.5530     0.0690
 1433.0000    69.2520     8.9420  1205.6600     2.5520     0.0690
 1433.5000    68.7390     8.9560  1206.6700     2.5480     0.0700
 1434.0000    68.2440     8.9710  1207.6801     2.5330     0.0610
 1434.5000    67.7120     8.9870  1208.6910     2.5180     0.0420
 1435.0000    67.3170     8.9970  1209.7010     2.5000     0.0220
 1435.5000    67.1010     8.9960  1210.7111     2.5000     0.0150
 1436.0000    68.4370     8.9960  1211.7220     2.5010     0.0240
 1436.5000    69.7980     8.9960  1212.7321     2.4880     0.0110
 1437.0000    69.3720     8.9960  1213.7419     2.4720    -0.0050
 1437.5000    68.7320     8.9950  1214.7520     2.4770     0.0030
 1438.0000    68.0100     8.9940  1215.7629     2.4840     0.0130
 1438.5000    67.3580     8.9930  1216.7729     2.4920     0.0250
 1439.0000    66.6950     8.9920  1217.7830     2.4990     0.0240
 1439.5000    65.9680     8.9910  1218.7930     2.4870     0.0130
 1440.0000    66.0540     8.9900  1219.8040     2.4920     0.0060
 1440.5000    66.6340     8.9890  1220.8140     2.5060     0.0210
 1441.0000    67.1440     8.9880  1221.8240     2.5190     0.0340
 1441.5000    67.5240     8.9880  1222.8350     2.5390     0.0450
 1442.0000    67.2650     8.9870  1223.8450     2.5320     0.0480
 1442.5000    67.0430     8.9860  1224.8550     2.4960     0.0140
 1443.0000    66.7920     8.9850  1225.8650     2.5030     0.0020
 1443.5000    66.5540     8.9840  1226.8760     2.5150     0.0200
 1444.0000    66.3140     8.9830  1227.8860     2.5260     0.0370
 1444.5000    66.0710     8.9820  1228.8960     2.5370     0.0340
 1445.0000    65.8290     8.9810  1229.9060     2.5210     0.0220
 1445.5000    65.5890     8.9800  1230.9170     2.5210     0.0200
 1446.0000    65.3490     8.9800  1231.9270     2.5340     0.0300
 1446.5000    65.1030     8.9790  1232.9370     2.5480     0.0390
 1447.0000    64.8720     8.9780  1233.9480     2.5610     0.0480
 1447.5000    64.6000     8.9770  1234.9580     2.5730     0.0570
 1448.0000    64.5050     8.9760  1235.9680     2.5830     0.0670
 1448.5000    64.4040     8.9750  1236.9780     2.5930     0.0710
 1449.0000    64.3080     8.9740  1237.9890     2.5820     0.0650
 1449.5000    64.2120     8.9730  1238.9990     2.5680     0.0520
 1450.0000    64.1230     8.9720  1240.0090     2.5570     0.0550
 1450.5000    63.9930     8.9720  1241.0200     2.5630     0.0690
 1451.0000    64.2390     8.9710  1242.0300     2.5690     0.0740
 1451.5000    64.7160     8.9700  1243.0400     2.5530     0.0630
 1452.0000    65.1580     8.9690  1244.0500     2.5340     0.0520
 1452.5000    65.5900     8.9680  1245.0610     2.5150     0.0390
 1453.0000    66.0410     8.9670  1246.0710     2.5140     0.0350
 1453.5000    66.4770     8.9660  1247.0811     2.5200     0.0430
 1454.0000    66.9120     8.9650  1248.0909     2.5270     0.0480
 1454.5000    67.3880     8.9640  1249.1021     2.5240     0.0370
 1455.0000    67.4250     8.9630  1250.1121     2.5340     0.0360
 1455.5000    67.0810     8.9630  1251.1219     2.5420     0.0440
 1456.0000    66.7750     8.9620  1252.1331     2.5300     0.0370
 1456.5000    66.4670     8.9610  1253.1429     2.5230     0.0290
 1457.0000    66.1650     8.9600  1254.1530     2.5240     0.0210
 1457.5000    65.8570     8.9590  1255.1639     2.5140     0.0140
 1458.0000    66.1440     8.9580  1256.1750     2.5220     0.0220
 1458.5000    66.6720     8.9570  1257.1870     2.5400     0.0310
 1459.0000    67.2030     8.9570  1258.1960     2.5400     0.0280
 1459.5000    67.4930     8.9670  1259.2080     2.5330     0.0200
 1460.0000    67.2520     8.9770  1260.2220     2.5390     0.0220
 1460.5000    67.0250     8.9880  1261.2200     2.5480     0.0360
 1461.0000    66.7840     8.9980  1262.2410     2.5560     0.0500
 1461.5000    66.5460     9.0080  1262.5480     2.5500     0.0560
 1462.0000    66.3090     9.0180  1262.5291     2.5450     0.0500
 1462.5000    66.0690     9.0290  1262.5250     2.5390     0.0450
 1463.0000    65.8370     9.0390  1262.5310     2.5330     0.0390
 1463.5000    65.5920     9.0490  1262.5520     2.5320     0.0390
 1464.0000    65.3510     9.0600  1262.5400     2.5400     0.0440
 1464.5000    65.3400     9.0700  1262.6121     2.5370     0.0480
 1465.0000    65.9950     9.0800  1262.5811     2.5250     0.0250
 1465.5000    66.6900     9.0900  1262.4270     2.5160     0.0140
 1466.0000    66.8230     9.1010  1262.8470     2.5110     0.0100
 1466.5000    66.4320     9.1110  1262.1899     2.5070     0.0060
 1467.0000    66.0950     9.1150  1260.9670     2.5230     0.0190
 1467.5000    65.7540     9.1130  1233.3610     2.5360     0.0310
 1468.0000    65.4090     9.1110  1209.5229     2.5370     0.0330
 1468.5000    65.0800     9.1100  1184.4640     2.5400     0.0370
 1469.0000    64.6840     9.1080  1201.2980     2.5440     0.0410
 1469.5000    64.9270     9.1070  1219.2200     2.5590     0.0540
 1470.0000    65.6840     9.1050  1238.4480     2.5780     0.0710
 1470.5000    66.3520     9.1040  1257.2400     2.5860     0.0840
 1471.0000    66.9180     9.1020  1262.8610     2.5780     0.0730
 1471.5000    66.6450     9.1010  1262.7390     2.5660     0.0640
