~VERSION INFORMATION
 VERS.                2.0:   CWLS LOG ASCII STANDARD - VERSION 2.0
 WRAP.                 NO:   ONE LINE PER DEPTH STEP
~WELL INFORMATION
#MNEM.UNIT      DATA TYPE    INFORMATION
#----------   ------------   ------------------------------
 STRT.F            0.0000:   START DEPTH
 STOP.F         3083.0000:   STOP DEPTH
 STEP.F            0.5000:   STEP LENGTH
 NULL.          -999.2500:   NO VALUE
 COMP. LAWRENCE & ALLISON & ASSOCIATES:   COMPANY
 WELL. LAWRENCE 71 "AX" #3-29:   WELL
 FLD .              N P R:   FIELD
 LOC .      S29 T38N R78W:   LOCATION
 CNTY.            NATRONA:   COUNTY
 STAT.            WYOMING:   STATE
 CTRY. UNITED STATES OF AMERICA:   COUNTRY
 SRVC.      DRESSER ATLAS:   SERVICE COMPANY
 DATE.        12-MAR-1985:   LOGDATE
 API .     49025110160000:   API NUMBER
~CURVE INFORMATION
#MNEM.UNIT       API CODE    CURVE DESCRIPTION
#----------   ------------   ------------------------------
 DEPT.F                  :   
 GRR .GAPI   07 310 01 00:   GAMMA RAY FROM RESISTIVITY
 SPR .MV     07 010 01 00:   SPONTANEOUS POTENTIAL
 TENR.LBS    07 635 01 00:   TENSION FROM RESISTIVITY
 RFOC.OHMM   07 220 04 00:   RESISTIVITY FOCUSED LOG RES.
 RILD.OHMM   07 120 46 00:   DEEP INDUCTION RESISTIVITY
 RILM.OHMM   07 120 44 00:   INDUCTION LOG MEDIUM RESISTIVITY
 TEND.LBS    45 635 01 00:   TENSION FROM DENSITY LOG
 DEN .G/C3   45 350 01 00:   BULK DENSITY
 CORR.G/C3   45 356 01 00:   DENSITY CORRECTION
 CNC .DEC    42 890 01 00:   NEUTRON PORISITY LIMESTONE
 CALD.IN     45 280 60 00:   CALIPER FROM DENSITY LOG
~PARAMETER INFORMATION
#MNEM.UNIT          VALUE    DESCRIPTION
#----------   ------------   ------------------------------
 EKB .F         4983.0000:   Kelly bushing
 EGL .F         4971.0000:   Ground level
 TD  .F         3082.0000:   Total depth
 DATE.        12-MAR-1985:   Date logged
 CLNT.            A2DTECH:   Client Code
 SL  . 568' FNL AND 829' FEL:   Surface Location
 PD  .                 GL:   Permanent Datum
 EPD .F              4971:   Elevation Permanent Datum
 LMF .                 KB:   Log Measured From
 DMF .                 KB:   Drilling Measured From
 DD  .F              3080:   Depth driller
 DL  .F              3082:   Depth logger
 BLI .F              3080:   Bottom log interval
 TLI .F              2100:   Top log interval
 CS1 .IN            8.625:   Casing size
 CBD1.      8.625" @ 311':   Casing driller 1
 BS1 .IN            7.875:   Bit size
 DFT .            KCL GEL:   Type fluid in hole
 DFD .                9.1:   Density
 DFV .                 38:   Viscosity
 DFPH.                  8:   pH
 DFL .               10.4:   Fluid loss
 MSS .           FLOWLINE:   Source of sample
 RMS .OHMM            .47:   Rm
 MST .F                60:   Rm Meas. temp.
 RMF .OHMM            .35:   Rmf
 MFST.F                61:   Rmf Meas. temp.
 RMC .OHMM            .53:   Rmc
 MCST.F                61:   Rmc Meas. temp.
 MFSS.               CLAC:   Source Rmf.
 RMB .OHMM           .209:   Rm. at BHT
 BHT .F               134:   BHT.
 TCS .HRS               3:   Time Circ. stopped
 MRT .F               134:   Maximum recorded temp.
 LUN .               6234:   Logging unit number
 LUL .               CLTE:   Logging unit location
 ENGI.      MACK/ EDWARDS:   Recorded By
 WITN.             STRONG:   Witnessed by
 PWI .                  -:   Primary Well Identifier
 ORIG.           5" PRINT:   Origin of data
 UWI .     49025110160000:   Unique Well ID
 DICO. A2D TECHNOLOGIES, INC.:   Digitizing Company
 DAPD.F                12:   Feet Above Permanent Datum
 BSD1.F              3080:   Depth drilled with bit1
 MCSS.               CALC:   Source Rmc.
~OTHER INFORMATION
~A    DEPT      GRR       SPR       TENR       RFOC       RILD       RILM       TEND        DEN       CORR        CNC       CALD   
# ...
 1616.5000   106.0730   -50.3690   -66.8320     5.0240     4.7890     4.9330  -999.2500  -999.2500  -999.2500  -999.2500  -999.2500
 1617.0000   107.6830   -50.3960   -66.8320     5.2180     4.9570     5.1160  -999.2500  -999.2500  -999.2500  -999.2500  -999.2500
 1617.5000   110.3950   -50.4240   -66.8320     5.9370     5.1630     5.2040  -999.2500  -999.2500  -999.2500  -999.2500  -999.2500
 1618.0000   111.4730   -50.4510   -66.8320     6.9760     5.0700     5.2940  -999.2500  -999.2500  -999.2500  -999.2500  -999.2500
 1618.5000   112.2090   -50.4780   -66.8320     6.9760     5.2310     5.3840  -999.2500  -999.2500  -999.2500  -999.2500  -999.2500
 1619.0000   113.5600   -50.4460   -66.8320     6.6790     5.3680     5.4740  -999.2500  -999.2500  -999.2500  -999.2500  -999.2500
 1619.5000   115.2860   -50.3400   -66.8320     6.3680     5.4820     5.5640  -999.2500  -999.2500  -999.2500  -999.2500  -999.2500
 1620.0000   118.5000   -50.2340   -66.8320     6.4050     5.5580     5.6560  -999.2500  -999.2500  -999.2500  -999.2500  -999.2500
 1620.5000   123.5270   -50.1270   -66.8320     6.4680     5.6030     5.6680  -999.2500  -999.2500  -999.2500  -999.2500  -999.2500
 1621.0000   128.4080   -50.0200   -66.8320     6.5310     5.5810     5.6790  -999.2500  -999.2500  -999.2500  -999.2500  -999.2500
 1621.5000   128.0330   -49.9160   -66.8320     6.7360     5.5640     5.6910  -999.2500  -999.2500  -999.2500  -999.2500  -999.2500
 1622.0000   123.4480   -50.0750   -66.8320     6.9440     5.5460     5.7080  -999.2500  -999.2500  -999.2500  -999.2500  -999.2500
 1622.5000   120.7390   -50.2710   -66.8320     7.1040     5.5250     5.6440  -999.2500  -999.2500  -999.2500  -999.2500  -999.2500
 1623.0000   118.6750   -50.2710   -66.8320     7.0320     5.5030     5.5350  -999.2500  -999.2500  -999.2500  -999.2500  -999.2500
 1623.5000   115.1720   -50.2420   -66.8320     6.9180     5.2450     5.4260  -999.2500  -999.2500  -999.2500  -999.2500  -999.2500
 1624.0000   112.9740   -50.2120   -66.8320     6.6170     4.9190     5.1430  -999.2500  -999.2500  -999.2500  -999.2500  -999.2500
 1624.5000   112.0980   -50.1840   -66.8320     6.1960     4.5940     4.8150  -999.2500  -999.2500  -999.2500  -999.2500  -999.2500
 1625.0000   110.1360   -50.1560   -66.8320     6.3910     4.2680     4.4870  -999.2500  -999.2500  -999.2500  -999.2500  -999.2500
 1625.5000   107.1140   -50.1250   -66.8320     6.7170     3.9420     4.1590  -999.2500  -999.2500  -999.2500  -999.2500  -999.2500
 1626.0000   103.5500   -49.9040   -66.8320     6.9760     3.6160     3.7520  -999.2500  -999.2500  -999.2500  -999.2500  -999.2500
 1626.5000   101.5700   -48.1960   -66.8320     5.7130     3.5460     3.7870  -999.2500  -999.2500  -999.2500  -999.2500  -999.2500
 1627.0000   100.1690   -47.5820   -66.8320     4.5800     3.5370     3.6840  -999.2500  -999.2500  -999.2500  -999.2500  -999.2500
 1627.5000   100.1980   -48.2970   -66.8320     3.5850     3.5290     3.8630  -999.2500  -999.2500  -999.2500  -999.2500  -999.2500
 1628.0000   100.1970   -48.9790   -66.8320     4.0100     3.5200     4.0360  -999.2500  -999.2500  -999.2500  -999.2500  -999.2500
 1628.5000   100.1930   -49.6850   -66.8320     4.7600     3.6220     4.0360  -999.2500  -999.2500  -999.2500  -999.2500  -999.2500
 1629.0000   100.2110   -49.8690   -66.8320     5.5090     3.7220     4.0360  -999.2500  -999.2500  -999.2500  -999.2500  -999.2500
 1629.5000   100.9310   -49.6930   -66.8320     6.2590     3.8220     4.0030  -999.2500  -999.2500  -999.2500  -999.2500  -999.2500
 1630.0000   101.7020   -48.1330   -66.8320     6.7260     3.9220     4.0790  -999.2500  -999.2500  -999.2500  -999.2500  -999.2500
 1630.5000   100.7550   -47.3810   -66.8320     6.2770     4.0000     4.2060  -999.2500  -999.2500  -999.2500  -999.2500  -999.2500
 1631.0000    98.8850   -49.5630   -66.8320     5.0690     4.0000     4.3340  -999.2500  -999.2500  -999.2500  -999.2500  -999.2500
 1631.5000    95.1580   -50.2770   -66.8320     3.8920     4.0000     4.4070  -999.2500  -999.2500  -999.2500  -999.2500  -999.2500
 1632.0000    94.3830   -49.5890   -66.8320     3.8560     4.0180     4.4470  -999.2500  -999.2500  -999.2500  -999.2500  -999.2500
 1632.5000    98.9650   -48.8440   -66.8320     5.1800     4.0990     4.4980  -999.2500  -999.2500  -999.2500  -999.2500  -999.2500
 1633.0000   102.4710   -48.5220   -66.8320     6.4680     4.1810     4.4240  -999.2500  -999.2500  -999.2500  -999.2500  -999.2500
 1633.5000   105.9590   -48.5190   -66.8320     7.7120     4.2620     4.3020  -999.2500  -999.2500  -999.2500  -999.2500  -999.2500
 1634.0000   109.0030   -48.5190   -66.8320     7.7830     4.3430     4.4550  -999.2500  -999.2500  -999.2500  -999.2500  -999.2500
 1634.5000   108.8420   -48.5190   -66.2270     5.9960     4.4220     4.6030  -999.2500  -999.2500  -999.2500  -999.2500  -999.2500
 1635.0000   104.8600   -48.7240   -65.6440     4.6040     4.7530     4.7510  -999.2500  -999.2500  -999.2500  -999.2500  -999.2500
 1635.5000    99.4970   -49.0690   -65.0600     4.3420     5.0720     4.8990  -999.2500  -999.2500  -999.2500  -999.2500  -999.2500
 1636.0000   101.6120   -49.4160   -64.4760     5.1070     5.3920     5.0470  -999.2500  -999.2500  -999.2500  -999.2500  -999.2500
 1636.5000   105.2090   -49.7650   -63.8930     5.9740     5.7600     5.1950  -999.2500  -999.2500  -999.2500  -999.2500  -999.2500
 1637.0000   108.8560   -50.1140   -63.3090     6.0150     5.7050     5.3420  -999.2500  -999.2500  -999.2500  -999.2500  -999.2500
 1637.5000   112.5210   -50.4630   -62.7260     6.4280     5.6560     5.5530  -999.2500  -999.2500  -999.2500  -999.2500  -999.2500
 1638.0000   114.2110   -50.8050   -62.1420     7.0440     6.0270     5.9540  -999.2500  -999.2500  -999.2500  -999.2500  -999.2500
 1638.5000   113.9360   -51.0970   -61.5590     7.5040     6.3240     6.3170  -999.2500  -999.2500  -999.2500  -999.2500  -999.2500
 1639.0000   109.4720   -50.3250   -60.9750     7.4610     6.6050     6.5720  -999.2500  -999.2500  -999.2500  -999.2500  -999.2500
 1639.5000   105.4600   -50.3250   -60.3910     7.4360     6.5490     6.8260  -999.2500  -999.2500  -999.2500  -999.2500  -999.2500
 1640.0000   104.5660   -50.3700   -59.8080     7.6570     6.4280     6.9130  -999.2500  -999.2500  -999.2500  -999.2500  -999.2500
 1640.5000   105.1950   -50.4070   -59.2240     7.8540     6.3060     6.3680  -999.2500  -999.2500  -999.2500  -999.2500  -999.2500
 1641.0000   106.4560   -50.4430   -58.6410     7.8250     6.1850     6.1250  -999.2500  -999.2500  -999.2500  -999.2500  -999.2500
 1641.5000   107.2510   -50.4860   -58.0570     7.7970     6.0630     5.8970  -999.2500  -999.2500  -999.2500  -999.2500  -999.2500
 1642.0000   108.4250   -50.2110   -57.4740     7.2860     5.9740     5.8440  -999.2500  -999.2500  -999.2500  -999.2500  -999.2500
 1642.5000   110.3430   -49.7620   -56.9310     6.1010     5.9740     5.8190  -999.2500  -999.2500  -999.2500  -999.2500  -999.2500
 1643.0000   113.2100   -50.0160   -59.9630     6.2070     5.9740     5.7940  -999.2500  -999.2500  -999.2500  -999.2500  -999.2500
 1643.5000   115.2610   -50.2720   -62.7980     6.3620     5.9740     5.7690  -999.2500  -999.2500  -999.2500  -999.2500  -999.2500
 1644.0000   116.4610   -50.1310   -65.6320     6.5510     5.9270     5.7440  -999.2500  -999.2500  -999.2500  -999.2500  -999.2500
 1644.5000   117.8780   -49.9990   -68.4670     6.7260     5.8260     5.7190  -999.2500  -999.2500  -999.2500  -999.2500  -999.2500
 1645.0000   115.9480   -49.9010   -71.3010     6.9280     5.7260     5.6940  -999.2500  -999.2500  -999.2500  -999.2500  -999.2500
 1645.5000   111.6160   -49.7690   -74.1360     7.1150     5.6260     5.6690  -999.2500  -999.2500  -999.2500  -999.2500  -999.2500
 1646.0000   107.3460   -49.5720   -76.7330     7.3020     5.5250     5.5920  -999.2500  -999.2500  -999.2500  -999.2500  -999.2500
 1646.5000   106.5010   -49.3740   -53.6920     7.4360     5.4530     5.4600  -999.2500  -999.2500  -999.2500  -999.2500  -999.2500
