~VERSION INFORMATION
 VERS.                2.0:   CWLS LOG ASCII STANDARD - VERSION 2.0
 WRAP.                 NO:   ONE LINE PER DEPTH STEP
~WELL INFORMATION
#MNEM.UNIT      DATA TYPE    INFORMATION
#----------   ------------   ------------------------------
 STRT.F           70.0000:   START DEPTH
 STOP.F         2751.5000:   STOP DEPTH
 STEP.F            0.5000:   STEP LENGTH
 NULL.          -999.2500:   NO VALUE
 COMP.          INTEX OIL:   COMPANY
 WELL. INTEX N.P.R. "AX" #75-20:   WELL
 FLD .             TEAPOT:   FIELD
 LOC .      S20 T39N R78W:   LOCATION
 CNTY.            NATRONA:   COUNTY
 STAT.            WYOMING:   STATE
 CTRY. UNITED STATES OF AMERICA:   COUNTRY
 SRVC.       SCHLUMBERGER:   SERVICE COMPANY
 DATE.        06-MAY-1966:   LOGDATE
 API .     49025095120000:   API NUMBER
~CURVE INFORMATION
#MNEM.UNIT       API CODE    CURVE DESCRIPTION
#----------   ------------   ------------------------------
 DEPT.F                  :   
 CALD.IN     45 280 60 00:   CALIPER FROM DENSITY LOG
 GRD .GAPI   45 310 01 00:   GAMMA RAY FROM DENSITY LOG
 RHOB.G/C3   45 350 01 00:   BULK DENSITY
 CORR.G/C3   45 356 01 00:   DENSITY CORRECTION
 SPR .MV     05 010 01 00:   SPONTANEOUS POTENTIAL
 ILD .OHMM   05 120 46 00:   DEEP INDUCTION RESISTIVITY
 ASN .OHMM   05 041 16 00:   AMPLIFIED SHORT NORMAL 16"
~PARAMETER INFORMATION
#MNEM.UNIT          VALUE    DESCRIPTION
#----------   ------------   ------------------------------
 EKB .F         5016.3000:   Kelly bushing
 EGL .F         5006.0000:   Ground level
 EDF .F            0.0000:   Drilling floor
 TD  .F         2750.0000:   Total depth
 DATE.        06-MAY-1966:   Date logged
 CLNT.            A2DTECH:   Client Code
 PD  .                 GL:   Permanent Datum
 DD  .F              2750:   Depth driller
 DL  .F              2746:   Depth logger
 BLI .F              2745:   Bottom log interval
 CS1 .IN            10.75:   Casing size
 CBD1.       10.75" @ 30':   Casing driller 1
 BS1 .IN            7.875:   Bit size
 DFT .           OIL/EMUL:   Type fluid in hole
 DFD .                9.8:   Density
 DFV .                 43:   Viscosity
 DFPH.                  8:   pH
 DFL .               11.8:   Fluid loss
 MSS .         CIRCULATED:   Source of sample
 RMS .OHMM           1.84:   Rm
 MST .F                73:   Rm Meas. temp.
 RMF .OHMM           1.21:   Rmf
 MFST.F                74:   Rmf Meas. temp.
 MFSS.                 FP:   Source Rmf.
 RMB .OHMM           1.27:   Rm. at BHT
 BHT .F               106:   BHT.
 TCS .HRS             1.5:   Time Circ. stopped
 MRT .F               106:   Maximum recorded temp.
 LUN .               3527:   Logging unit number
 LUL .               CSPR:   Logging unit location
 ENGI.               HAUG:   Recorded By
 WITN.      TUTTLE/HUDSON:   Witnessed by
 ORIG.           5" PRINT:   Origin of data
 UWI .     49025095120000:   Unique Well ID
 DICO. A2D TECHNOLOGIES, INC.:   Digitizing Company
 DAPD.F              10.3:   Feet Above Permanent Datum
 BSD1.F              2750:   Depth drilled with bit1
 MCSS.                 FP:   Source Rmc.
 EPD .F              5006:   Elevation Permanent Datum
 LMF .                 KB:   Log Measured From
 DMF .                 KB:   Drilling Measured From
 TLI .F                88:   Top log interval
~OTHER INFORMATION
~A   DEPT     CALD        GRD       RHOB       CORR        SPR        ILD          ASN 
# ...
 2299.5000     8.4180    88.6560     2.4480     0.0180   -48.4380    15.2400    23.6250
 2300.0000     8.5030    89.6380     2.4400     0.0160   -47.7360    14.6000    23.0190
 2300.5000     8.5870    91.2330     2.4300     0.0140   -47.1590    14.1270    22.4610
 2301.0000     8.6790    92.0770     2.4300     0.0120   -46.9040    13.6590    21.8960
 2301.5000     8.7290    92.7420     2.4330     0.0100   -46.6460    13.1970    21.3290
 2302.0000     8.7160    93.0700     2.4420     0.0080   -46.3870    13.0400    21.0640
 2302.5000     8.7120    93.4400     2.4420     0.0060   -46.3260    13.1530    20.9340
 2303.0000     8.7040    94.1370     2.4430     0.0060   -46.4710    13.3200    20.8000
 2303.5000     8.6970    94.4110     2.4510     0.0210   -46.6140    13.4890    20.6690
 2304.0000     8.6900    91.9520     2.4600     0.0410   -46.7570    13.6580    20.5840
 2304.5000     8.6860    88.5610     2.4610     0.0530   -46.9010    13.8290    21.0770
 2305.0000     8.6860    88.3910     2.4490     0.0440   -47.0470    14.0200    21.4460
 2305.5000     8.6860    90.8110     2.4390     0.0340   -47.2010    14.1220    21.3960
 2306.0000     8.6860    92.9900     2.4360     0.0240   -46.9670    13.9670    21.3370
 2306.5000     8.6860    95.2220     2.4330     0.0130   -46.5780    13.7920    21.2790
 2307.0000     8.6860    96.8580     2.4360     0.0110   -46.1850    13.6140    21.0910
 2307.5000     8.6860    96.5380     2.4430     0.0140   -45.7780    13.4360    20.8350
 2308.0000     8.6860    96.2640     2.4500     0.0180   -45.7200    13.2580    20.5800
 2308.5000     8.6860    95.9160     2.4570     0.0220   -45.8290    13.0820    20.3250
 2309.0000     8.6860    95.7800     2.4640     0.0220   -45.9410    12.9090    20.0650
 2309.5000     8.6860    98.1800     2.4690     0.0170   -46.0540    12.7380    19.9510
 2310.0000     8.6860   100.4480     2.4520     0.0130   -46.1630    12.8120    19.9530
 2310.5000     8.6860    98.5090     2.4340     0.0090   -46.1720    12.8830    20.0670
 2311.0000     8.6860    96.6980     2.4170     0.0040   -45.8200    12.9550    20.1850
 2311.5000     8.6860    95.7110     2.4100     0.0010   -45.4760    13.0280    20.3050
 2312.0000     8.6860    97.8670     2.4090     0.0030   -45.1400    13.1000    20.4240
 2312.5000     8.6860    98.5880     2.4150     0.0060   -45.0110    13.1710    20.5450
 2313.0000     8.6860    97.6840     2.4100     0.0090   -45.6540    13.2390    20.6780
 2313.5000     8.6860    96.9940     2.4090     0.0120   -46.2410    13.4110    20.8670
 2314.0000     8.6860    97.0720     2.4050     0.0100   -46.3010    13.5930    20.8640
 2314.5000     8.6860    97.3610     2.3950     0.0070   -46.3430    13.7740    20.8330
 2315.0000     8.6870    96.2830     2.3940     0.0100   -46.3880    13.9550    20.7970
 2315.5000     8.6830    96.8620     2.3980     0.0120   -46.4350    14.1370    20.7610
 2316.0000     8.6730    98.1020     2.3910     0.0070   -46.3490    14.3180    20.7250
 2316.5000     8.6640    99.2730     2.3930     0.0030   -46.1950    14.4990    20.6900
 2317.0000     8.6550    96.3720     2.3980    -0.0010   -46.0390    14.6800    20.7330
 2317.5000     8.6450    93.2350     2.4030    -0.0010   -45.8800    14.8600    21.1530
 2318.0000     8.6360    89.9210     2.4080     0.0020   -45.9970    15.0200    21.5720
 2318.5000     8.6260    87.7680     2.4160     0.0060   -46.1580    15.0150    21.9870
 2319.0000     8.6170    90.6470     2.4230     0.0070   -46.3180    15.0140    22.3620
 2319.5000     8.6080    94.3310     2.4300     0.0040   -46.4070    15.0150    22.3970
 2320.0000     8.6080    95.6580     2.4270     0.0030   -46.1820    15.0220    22.5210
 2320.5000     8.6080    96.7170     2.4160     0.0050   -45.9630    14.6800    22.0060
 2321.0000     8.6080    97.6090     2.4180     0.0080   -45.7450    14.2380    21.5310
 2321.5000     8.6080    97.5050     2.4260     0.0110   -45.5260    13.7940    21.0560
 2322.0000     8.6080    97.7200     2.4250     0.0140   -45.3010    13.3470    20.5790
 2322.5000     8.6080    95.6440     2.4230     0.0160   -45.4410    13.1290    20.0940
 2323.0000     8.6080    95.8900     2.4230     0.0160   -45.6510    13.0900    20.0680
 2323.5000     8.6080    96.9900     2.4230     0.0080   -45.8640    13.0500    20.0690
 2324.0000     8.6080    98.2190     2.4230     0.0070   -45.4550    13.0100    20.0700
 2324.5000     8.6080    98.8610     2.4230     0.0070   -44.9560    12.9700    20.0690
 2325.0000     8.6080    98.2610     2.4230     0.0080   -45.1950    12.9310    20.0680
 2325.5000     8.6080    97.7900     2.4260     0.0120   -45.5830    12.8920    19.9830
 2326.0000     8.6070    97.6870     2.4290     0.0150   -45.9820    12.8530    19.8880
 2326.5000     8.6080    99.5560     2.4320     0.0190   -45.9190    12.8140    19.7920
 2327.0000     8.6070   100.3340     2.4300     0.0210   -45.7600    12.7750    19.6970
 2327.5000     8.6050    99.9040     2.4280     0.0180   -45.5990    12.7360    19.6010
 2328.0000     8.5540    99.4210     2.4210     0.0130   -45.4700    12.6980    19.5010
 2328.5000     8.5040    99.0490     2.4230     0.0080   -45.5300    12.6590    19.4780
 2329.0000     8.4480    97.6760     2.4260     0.0080   -45.5870    12.7360    19.3990
 2329.5000     8.3970    99.2040     2.4290     0.0140   -45.6430    12.9490    19.5480
 2330.0000     8.3470    99.8020     2.4230     0.0150   -45.6990    13.1590    19.7490
 2330.5000     8.3740    97.6220     2.4110     0.0150   -45.7560    13.3670    19.9500
 2331.0000     8.3610    97.1310     2.4010     0.0150   -45.8130    13.5560    20.1500
 2331.5000     8.3580    94.9970     2.3850     0.0150   -45.8610    14.0790    20.3500
 2332.0000     8.3500    92.5560     2.3610     0.0140   -46.0360    14.6060    20.5500
 2332.5000     8.3440    85.1100     2.3670     0.0180   -46.3360    15.1320    20.7500
 2333.0000     8.3380    80.5950     2.3770     0.0250   -46.6570    15.6570    21.0110
 2333.5000     8.3200    78.2180     2.3790     0.0320   -47.4040    16.1830    21.3540
 2334.0000     8.2840    78.7210     2.3690     0.0320   -48.1850    16.7060    21.6950
 2334.5000     8.2500    80.8050     2.3600     0.0250   -48.9670    16.8990    22.0360
 2335.0000     8.2140    84.4340     2.3440     0.0180   -49.7480    17.0680    22.3750
 2335.5000     8.1800    87.9700     2.3320     0.0140   -50.5290    17.2050    22.6530
 2336.0000     8.1410    90.0190     2.3370     0.0140   -51.2990    16.9390    22.6440
 2336.5000     8.1370    90.1940     2.3380     0.0200   -51.9610    16.6350    22.5740
 2337.0000     8.1440    92.2900     2.3460     0.0260   -51.7430    16.3270    22.5040
 2337.5000     8.1570    94.8690     2.3720     0.0320   -51.4090    16.0200    22.4340
 2338.0000     8.1690    94.3190     2.3960     0.0350   -50.3700    15.7200    22.3620
 2338.5000     8.1780    91.1770     2.4170     0.0260   -49.3340    15.8750    22.3840
 2339.0000     8.1630    87.3410     2.4050     0.0140   -48.3870    16.1810    22.4260
 2339.5000     8.1360    84.9000     2.3810     0.0030   -48.1800    16.4900    22.6000
 2340.0000     8.1130    82.4980     2.3580    -0.0010   -47.9320    16.7990    23.0010
 2340.5000     8.0700    80.8410     2.3500    -0.0010   -47.6780    17.1080    23.4000
 2341.0000     8.0280    80.6750     2.3420     0.0010   -47.4240    17.4150    23.7970
 2341.5000     8.0180    80.6210     2.3350     0.0030   -47.1710    17.5940    24.1910
 2342.0000     8.0200    81.1420     2.3350     0.0050   -46.9170    17.4660    24.5370
 2342.5000     8.0200    83.3930     2.3420     0.0070   -46.6550    17.1710    24.4750
 2343.0000     8.0200    86.4460     2.3610     0.0090   -46.8470    16.8820    24.1310
 2343.5000     8.0200    88.6880     2.3770     0.0110   -47.1170    16.5910    23.7880
 2344.0000     8.0200    92.4250     2.3800     0.0130   -47.3890    16.3010    23.4460
 2344.5000     8.0200    92.5950     2.3750     0.0150   -47.6600    16.0110    23.1030
