~VERSION INFORMATION
 VERS.                2.0:   CWLS LOG ASCII STANDARD - VERSION 2.0
 WRAP.                 NO:   ONE LINE PER DEPTH STEP
~WELL INFORMATION
#MNEM.UNIT      DATA TYPE    INFORMATION
#----------   ------------   ------------------------------
 STRT.F           15.0000:   START DEPTH
 STOP.F         3245.5000:   STOP DEPTH
 STEP.F            0.5000:   STEP LENGTH
 NULL.          -999.2500:   NO VALUE
 COMP. LAWRENCE ALLISON AND ASSOCIATES:   COMPANY
 WELL. LAWRENCE ALLISON 11 X34 #3-3:   WELL
 FLD .             NPR #3:   FIELD
 LOC .       S3 T38N R78W:   LOCATION
 CNTY.            NATRONA:   COUNTY
 STAT.            WYOMING:   STATE
 CTRY. UNITED STATES OF AMERICA:   COUNTRY
 SRVC.      DRESSER ATLAS:   SERVICE COMPANY
 DATE.        23-MAY-1985:   LOGDATE
 API .     49025110530000:   API NUMBER
~CURVE INFORMATION
#MNEM.UNIT       API CODE    CURVE DESCRIPTION
#----------   ------------   ------------------------------
 DEPT.F                  :   
 SPR .MV     07 010 01 00:   SPONTANEOUS POTENTIAL
 GRR .GAPI   07 310 01 00:   GAMMA RAY FROM RESISTIVITY
 SFL .OHMM   07 220 01 00:   SHALLOW FOCUSED LOG RES.
 ILD .OHMM   07 120 46 00:   INDUCTION LOG DEEP RESISTIVITY
 ILM .OHMM   07 120 44 00:   INDUCTION LOG MEDIUM RESISTIVITY
 TENR.LBS    07 635 01 00:   TENSION
 CALR.IN     07 280 01 00:   CALIPER FROM RESISTIVITY
 RHOB.G/C3   45 350 01 00:   BULK DENSITY
 CORR.G/C3   45 356 01 00:   DENSITY CORRECTION
 CNC .DEC    42 890 03 00:   NEUTRON POROSITY SANDSTONE
~PARAMETER INFORMATION
#MNEM.UNIT          VALUE    DESCRIPTION
#----------   ------------   ------------------------------
 EKB .F         5099.0000:   Kelly bushing
 EGL .F         5087.0000:   Ground level
 EDF .F            0.0000:   Drilling floor
 EPD .F         5087.0000:   Permanent datum
 TD  .F         3240.0000:   Total depth
 DATE.         2-MAY-1985:   Date logged
 CLNT.            A2DTECH:   Client Code
 PD  .                 GL:   Permanent Datum
 DD  .F              3239:   Depth driller
 DL  .F              3242:   Depth logger
 BLI .F              3240:   Bottom log interval
 TLI .F                15:   Top log interval
 CS1 .IN            8.625:   Casing size
 CBD1.      8.625" @ 487':   Casing driller 1
 CBL1.F               487:   Casing logger 1
 BSD1.F              3239:   Depth drilled with bit1
 DFT .            KCL GEL:   Type fluid in hole
 ENGI.      MACK. EDWARDS:   Recorded By
 WITN.         MR. STRONG:   Witnessed by
 ORIG.           5" PRINT:   Origin of data
 UWI .     49025110530000:   Unique Well ID
 DICO. A2D TECHNOLOGIES, INC.:   Digitizing Company
 DAPD.IN               12:   Feet Above Permanent Datum
 BS1 .              7.875:   Bit size
 DFD .                9.1:   Density
 DFV .                 35:   Viscosity
 DFPH.                  8:   pH
 DFL .                9.8:   Fluid loss
 MSS .           FLOWLINE:   Source of sample
 RMS .OHMM            .27:   Rm
 MST .F                68:   Rm Meas. temp.
 RMF .OHMM             .2:   Rmf
 MFST.F                68:   Rmf Meas. temp.
 MFSS.               MEAS:   Source Rmf.
 RMC .OHMM            .34:   Rmc
 MCST.F                68:   Rmc Meas. temp.
 MCSS.               CALC:   Source Rmc.
 RMB .OHMM            .15:   Rm. at BHT
 BHT .F               126:   BHT.
 TCS .HRS               3:   Time Circ. stopped
 MRT .F               126:   Maximum recorded temp.
 LUN .               6274:   Logging unit number
 LUL .               GLTE:   Logging unit location
~OTHER INFORMATION
~A   DEPT      SPR        GRR        SFL        ILD        ILM       TENR       CALR       RHOB       CORR        CNC   
# ...
  484.0000  -999.2500    44.8194  -999.2500  -999.2500  -999.2500  -999.2500  -999.2500  -999.2500  -999.2500  -999.2500
  484.5000  -999.2500    44.2173  -999.2500  -999.2500  -999.2500   -12.0255  -999.2500  -999.2500  -999.2500  -999.2500
  485.0000  -999.2500    46.3000     0.2163  -999.2500  -999.2500   -12.2290  -999.2500  -999.2500  -999.2500  -999.2500
  485.5000  -999.2500    51.0689     0.2649  -999.2500  -999.2500   -12.5344  -999.2500  -999.2500  -999.2500  -999.2500
  486.0000  -999.2500    57.6263     0.7689  -999.2500  -999.2500   -12.7380  -999.2500  -999.2500  -999.2500  -999.2500
  486.5000   -74.0975    60.0094     1.6370     7.5377     7.4254    -3.0493  -999.2500  -999.2500  -999.2500  -999.2500
  487.0000   -76.0897    61.1973     1.5210     2.2383     2.1978    -3.3035  -999.2500  -999.2500  -999.2500  -999.2500
  487.5000   -78.4816    59.7007     1.4933     1.6372     1.6062    -3.5578  -999.2500  -999.2500  -999.2500  -999.2500
  488.0000   -79.6801    58.8008     1.4934     1.6986     1.4117    -3.8120  -999.2500  -999.2500  -999.2500  -999.2500
  488.5000   -80.6790    58.7960     1.6374     1.9323     1.7944    -4.0663  -999.2500  -999.2500  -999.2500  -999.2500
  489.0000   -80.8821    59.6866     2.0800     2.2388     1.9679     5.6748  -999.2500  -999.2500  -999.2500  -999.2500
  489.5000   -80.8855    60.8757     2.7413     2.5940     2.2393     5.4207  -999.2500  -999.2500  -999.2500  -999.2500
  490.0000   -81.2893    61.1696     3.2352     4.1095     3.0086    -4.8293  -999.2500  -999.2500  -999.2500  -999.2500
  490.5000   -81.6907    64.4492     3.9613     4.5896     4.5152    -5.0836  -999.2500  -999.2500  -999.2500  -999.2500
  491.0000   -82.0921    66.5343     4.7621     4.9405     4.8614    -5.3380  -999.2500  -999.2500  -999.2500  -999.2500
  491.5000   -82.8932    67.1270     4.8509     5.5178     5.5322    -5.5923  -999.2500  -999.2500  -999.2500  -999.2500
  492.0000   -83.2964    67.4212     4.9415     5.9397     6.0675    -5.8467  -999.2500  -999.2500  -999.2500  -999.2500
  492.5000   -84.0960    68.3126     5.2223     6.5130     6.5328    -6.1520  -999.2500  -999.2500  -999.2500  -999.2500
  493.0000   -84.4985    68.3083     5.3197     6.6344     6.5335    -6.4064  -999.2500  -999.2500  -999.2500  -999.2500
  493.5000   -84.6984    67.7069     5.7267     7.1421     6.2972     3.3370  -999.2500  -999.2500  -999.2500  -999.2500
  494.0000   -84.7072    68.0003     5.7271     7.5481     6.0697     3.0828  -999.2500  -999.2500  -999.2500  -999.2500
  494.5000   -84.7116    68.5933     5.9974     8.1254     6.0701     2.8287  -999.2500  -999.2500  -999.2500  -999.2500
  495.0000   -84.7160    68.5891     5.9980     8.5877     6.0708     2.6761  -999.2500  -999.2500  -999.2500  -999.2500
  495.5000   -84.7204    68.5848     5.9435     8.4317     6.0712   -12.4536  -999.2500  -999.2500  -999.2500  -999.2500
  496.0000   -84.9239    68.8793     5.9441     7.8341     6.0719   -17.9322  -999.2500  -999.2500  -999.2500  -999.2500
  496.5000   -84.9275    69.7711     5.9995     7.5518     6.0723    -8.1876  -999.2500  -999.2500  -999.2500  -999.2500
  497.0000   -85.3310    69.7669     6.0001     7.5524     6.0729    -8.4421  -999.2500  -999.2500  -999.2500  -999.2500
  497.5000   -85.7328    69.7627     6.0561     7.5532     6.0734    -8.6966  -999.2500  -999.2500  -999.2500  -999.2500
  498.0000   -86.1365    69.7585     6.1126     7.5538     6.0740    -8.9512  -999.2500  -999.2500  -999.2500  -999.2500
  498.5000   -86.1401    69.7544     6.1697     7.4168     6.0745    -9.2057  -999.2500  -999.2500  -999.2500  -999.2500
  499.0000   -86.9421    70.6464     6.1703     7.2821     6.1883    -9.4603  -999.2500  -999.2500  -999.2500  -999.2500
  499.5000   -87.3441    73.0309     6.1709     7.2829     6.0758    -9.7149  -999.2500  -999.2500  -999.2500  -999.2500
  500.0000   -87.7479    75.1200     6.1149     7.2835     5.9651   -20.0000  -999.2500  -999.2500  -999.2500  -999.2500
  500.5000   -88.5352    72.2504     6.0674     7.2843     5.9657   -20.0000  -999.2500  -999.2500  -999.2500  -999.2500
  501.0000   -89.3390    70.9398     6.1149     7.2837     5.9652   -20.0000  -999.2500  -999.2500  -999.2500  -999.2500
  501.5000   -89.9345    69.7461     6.0589     7.1508     5.9652   -20.0000  -999.2500  -999.2500  -999.2500  -999.2500
  502.0000   -90.3311    69.7477     6.0589     7.1508     5.9652   -20.0000  -999.2500  -999.2500  -999.2500  -999.2500
  502.5000   -91.3253    71.8408     5.9484     7.1508     5.9652     0.0000  -999.2500  -999.2500  -999.2500  -999.2500
  503.0000   -92.1203    73.9338     5.8939     7.1508     5.9652     0.0000  -999.2500  -999.2500  -999.2500  -999.2500
  503.5000   -92.7160    74.5328     5.8939     7.2837     5.8561    10.0000  -999.2500  -999.2500  -999.2500  -999.2500
  504.0000   -92.7142    76.3269     6.0034     7.4190     5.8561     0.0000  -999.2500  -999.2500  -999.2500  -999.2500
  504.5000   -93.5090    74.5358     6.0589     7.4190     5.8561   -10.0000  -999.2500  -999.2500  -999.2500  -999.2500
  505.0000   -93.9052    73.6413     6.1149     7.5569     5.9652   -10.0000  -999.2500  -999.2500  -999.2500  -999.2500
  505.5000   -94.3017    72.4475     6.2862     7.6973     6.0763   -20.0000  -999.2500  -999.2500  -999.2500  -999.2500
  506.0000   -94.2998    71.2544     6.4030     7.8403     6.0763   -20.0000  -999.2500  -999.2500  -999.2500  -999.2500
  506.5000   -94.8954    70.6585     6.4030     7.8403     6.0763   -20.0000  -999.2500  -999.2500  -999.2500  -999.2500
  507.0000   -95.2919    70.6600     6.4030     7.8403     5.9652   -10.0000  -999.2500  -999.2500  -999.2500  -999.2500
  507.5000   -95.6883    71.5578     6.1715     7.6973     5.8561   -10.0000  -999.2500  -999.2500  -999.2500  -999.2500
  508.0000   -96.2838    73.6503     6.0034     7.5569     5.8399   -10.0000  -999.2500  -999.2500  -999.2500  -999.2500
  508.5000   -96.6802    73.0544     5.9484     7.4190     5.8399   -20.0000  -999.2500  -999.2500  -999.2500  -999.2500
  509.0000   -96.8775    73.6533     5.8399     7.2837     5.7333   -20.0000  -999.2500  -999.2500  -999.2500  -999.2500
  509.5000   -96.8756    73.9535     5.7864     7.1508     5.6287   -20.0000  -999.2500  -999.2500  -999.2500  -999.2500
  510.0000   -96.8737    74.8511     5.7864     7.0204     5.4253   -20.0000  -999.2500  -999.2500  -999.2500  -999.2500
  510.5000   -96.5894    71.5670     5.9484     6.8923     5.4253   -20.0000  -999.2500  -999.2500  -999.2500  -999.2500
  511.0000   -96.4716    69.1791     5.9484     6.6431     5.3263   -10.0000  -999.2500  -999.2500  -999.2500  -999.2500
  511.5000   -96.6684    68.2847     6.0034     6.4030     5.2291   -10.0000  -999.2500  -999.2500  -999.2500  -999.2500
  512.0000   -97.2639    69.1823     5.8939     6.1715     4.8689   -10.0000  -999.2500  -999.2500  -999.2500  -999.2500
  512.5000   -98.0584    70.3786     5.4253     5.9484     4.5224   -10.0000  -999.2500  -999.2500  -999.2500  -999.2500
  513.0000   -99.4502    69.4842     4.8579     5.7333     4.4397   -10.0000  -999.2500  -999.2500  -999.2500  -999.2500
  513.5000   -99.4483    69.1874     4.5130     5.7333     4.4397   -10.0000  -999.2500  -999.2500  -999.2500  -999.2500
  514.0000   -99.4463    70.0846     4.4307     5.7333     4.5224   -10.0000  -999.2500  -999.2500  -999.2500  -999.2500
  514.5000   -99.8426    73.0726     4.8579     5.7333     4.7799   -20.0000  -999.2500  -999.2500  -999.2500  -999.2500
  515.0000   -99.6415    70.9840     5.2291     5.8399     4.9597   -10.0000  -999.2500  -999.2500  -999.2500  -999.2500
  515.5000   -99.4404    69.7911     5.6287     5.9484     5.3398     0.0000  -999.2500  -999.2500  -999.2500  -999.2500
  516.0000   -98.8412    69.7926     5.9484     6.4030     5.4392   -20.0000  -999.2500  -999.2500  -999.2500  -999.2500
  516.5000   -98.8397    69.1970     6.0589     7.1508     5.7490    10.0000  -999.2500  -999.2500  -999.2500  -999.2500
  517.0000   -99.2355    68.6014     6.1715     7.5569     5.9652     0.0000  -999.2500  -999.2500  -999.2500  -999.2500
