~VERSION INFORMATION
 VERS.                2.0:   CWLS LOG ASCII STANDARD - VERSION 2.0
 WRAP.                 NO:   ONE LINE PER DEPTH STEP
~WELL INFORMATION
#MNEM.UNIT      DATA TYPE    INFORMATION
#----------   ------------   ------------------------------
 STRT.F          206.0000:   START DEPTH
 STOP.F         3218.0000:   STOP DEPTH
 STEP.F            0.5000:   STEP LENGTH
 NULL.          -999.2500:   NO VALUE
 COMP.    FENIX & SCISSON:   COMPANY
 WELL.     FENIX AX #16-2:   WELL
 FLD .              NPR 3:   FIELD
 LOC .       S2 T38N R78W:   LOCATION
 CNTY.            NATRONA:   COUNTY
 STAT.            WYOMING:   STATE
 CTRY. UNITED STATES OF AMERICA:   COUNTRY
 SRVC.       SCHLUMBERGER:   SERVICE COMPANY
 DATE.        10-OCT-1977:   LOGDATE
 API .     49025105780000:   API NUMBER
~CURVE INFORMATION
#MNEM.UNIT       API CODE    CURVE DESCRIPTION
#----------   ------------   ------------------------------
 DEPT.F                  :   
 GRD .GAPI   45 310 01 00:   GAMMA RAY FROM DENSITY LOG
 CALD.IN     45 280 60 00:   CALIPER FROM DENSITY LOG
 RHOB.G/C3   45 350 01 00:   BULK DENSITY
 CORR.G/C3   45 356 01 00:   DENSITY CORRECTION
 SPR .MV     07 010 01 00:   SPONTANEOUS POTENTIAL FROM RES.
 RILD.OHMM   07 120 46 00:   DEEP INDUCTION RESISTIVITY
 RILM.OHMM   07 120 44 00:   INDUCTION LOG MEDIUM RESISTIVITY
 RLL8.OHMM   07 220 08 00:   LATEROLOG-8 RES.
~PARAMETER INFORMATION
#MNEM.UNIT          VALUE    DESCRIPTION
#----------   ------------   ------------------------------
 EKB .F         5123.0000:   Kelly bushing
 EGL .F         5113.0000:   Ground level
 EDF .F            0.0000:   Drilling floor
 TD  .F         3220.0000:   Total depth
 CLNT.            A2DTECH:   Client Code
 SL  . 1772' FSL & 576' FWL:   Surface Location
 PD  .                 GL:   Permanent Datum
 EPD .F              5113:   Elevation Permanent Datum
 LMF .                 KB:   Log Measured From
 DMF .                 KB:   Drilling Measured From
 DAPD.F                10:   Feet Above Permanent Datum
 DATE.        10-OCT-1977:   Date Logged [DD-MMM-YYYY]
 DD  .F              3220:   Depth driller
 DL  .F              3218:   Depth logger
 BLI .F              3212:   Bottom log interval
 TLI .F               223:   Top log interval
 CS1 .IN            8.625:   Casing size
 CBD1.      8.625" @ 222':   Casing driller 1
 CBL1.F               223:   Casing logger 1
 BS1 .IN            7.875:   Bit size
 BSD1.F              3220:   Depth drilled with bit1
 DFT .                KCL:   Type fluid in hole
 DFD .                8.6:   Density
 DFV .                 32:   Viscosity
 DFPH.                 11:   pH
 MSS .            MUD PIT:   Source of sample
 RMS .OHMM           0.29:   Rm
 MST .F                82:   Rm Meas. temp.
 RMF .OHMM          0.228:   Rmf
 MFST.F                81:   Rmf Meas. temp.
 MFSS.               MEAS:   Source Rmf.
 RMB .OHMM           0.21:   Rm. at BHT
 BHT .F               122:   BHT.
 TCS .HRS            0600:   Time Circ. stopped
 MRT .F               122:   Maximum recorded temp.
 LUN .               5642:   Logging unit number
 ENGI. CHALUPSKY PETERSON:   Recorded By
 WITN.     WES PETTINGILL:   Witnessed by
 ORIG.           5" PRINT:   Origin of data
 UWI .     49025105780000:   Unique Well ID
 DICO. A2D TECHNOLOGIES, INC.:   Digitizing Company
 TLAB.HRS            1000:   Time logger at bottom
 LUL .               CSPR:   Logging unit location
~OTHER INFORMATION
~A   DEPT       GRD      CALD       RHOB       CORR        SPR       RILD       RILM       RLL8   
# ...
 3162.5000   118.9565     8.7212     2.4706     0.0062   -40.3944     4.0577     3.9965     4.4837
 3163.0000   118.8136     8.7221     2.4512    -0.0073   -40.9648     4.0614     4.0005     4.4567
 3163.5000   119.8739     8.7230     2.4444    -0.0117   -41.5351     4.0360     3.9761     4.4311
 3164.0000   123.0344     8.7388     2.4611     0.0026   -41.9560     4.0110     3.9518     4.4675
 3164.5000   126.7954     8.7227     2.4612     0.0012   -41.6226     3.9706     3.8974     4.4720
 3165.0000   129.5055     8.6508     2.4636    -0.0026   -41.1466     3.9050     3.8438     4.3846
 3165.5000   130.8642     8.5768     2.4704     0.0080   -39.4748     3.8531     3.7910     4.3577
 3166.0000   130.7214     8.5177     2.4828     0.0058   -37.5041     3.8019     3.7166     4.4547
 3166.5000   130.8788     8.4883     2.4902     0.0043   -36.7291     3.7513     3.6717     4.3665
 3167.0000   131.6369     8.4894     2.4835     0.0029   -36.1037     3.7014     3.5984     4.1944
 3167.5000   132.2449     8.4903     2.4738     0.0030   -35.6277     3.6270     3.5509     4.0280
 3168.0000   130.5772     8.4912     2.4769     0.0053   -35.7648     3.5788     3.5032     3.9767
 3168.5000   128.5058     8.4921     2.4830     0.0133   -36.3131     3.5061     3.4579     3.9809
 3169.0000   129.7162     8.5005     2.5019     0.0256   -37.4813     3.4582     3.4123     3.9573
 3169.5000   131.5253     8.5088     2.4892     0.0272   -38.7991     3.3854     3.3673     3.9340
 3170.0000   134.5356     8.5249     2.4743     0.0160   -39.6684     3.3203     3.3229     3.8581
 3170.5000   133.7922     8.5258     2.4811     0.0003   -40.2388     3.2304     3.2790     3.6795
 3171.0000   133.1971     8.5417     2.4788     0.0011   -41.7060     3.1867     3.2358     3.7605
 3171.5000   134.1072     8.5424     2.4688     0.0026   -41.6784     3.1443     3.1939     3.8432
 3172.0000   135.4659     8.5434     2.4633     0.0064   -41.6509     3.1025     3.1701     3.8737
 3172.5000   137.5753     8.5443     2.4732     0.0110   -42.5133     3.0402     3.1102     3.6690
 3173.0000   139.8349     8.5452     2.4718     0.0133   -43.5321     3.0212     3.0692     3.4731
 3173.5000   141.8177     8.5610     2.4606     0.0141   -44.2588     2.9811     3.0287     3.2246
 3174.0000   142.5523     8.5619     2.4434    -0.0023   -42.4306     2.9839     2.9880     3.2728
 3174.5000   141.8107     8.5778     2.4231    -0.0165   -42.1041     2.9448     2.9705     3.3914
 3175.0000   140.4667     8.5787     2.4127    -0.0135   -42.2272     2.9474     2.9523     3.5386
 3175.5000   136.1197     8.5948     2.4263    -0.0067   -42.1985     2.9284     2.9134     3.6668
 3176.0000   135.2243     8.5956     2.4393    -0.0051   -41.6979     2.9317     2.9164     3.6950
 3176.5000   140.0382     8.5813     2.4478    -0.0021   -38.2501     2.9128     2.8986     3.5249
 3177.0000   145.4510     8.5824     2.4605     0.0040   -37.4752     2.9161     2.8809     3.3851
 3177.5000   146.6577     8.5783     2.4756     0.0190   -37.2982     2.8774     2.8845     3.2961
 3178.0000   142.9131     8.5690     2.4719     0.0136   -35.6264     2.8595     2.8874     3.3252
 3178.5000   140.2177     8.5700     2.4765     0.0049   -35.9047     2.8621     2.8691     3.3962
 3179.0000   141.3362     8.5709     2.4774     0.0042   -36.1692     2.8442     2.8727     3.4470
 3179.5000   144.1171     8.5718     2.4654     0.0072   -37.3374     2.8475     2.8756     3.4735
 3180.0000   151.3521     8.5727     2.4580     0.0133   -38.5251     2.8500     2.8785     3.2456
 3180.5000   154.2123     8.5738     2.4551     0.0156   -39.6671     2.8523     2.8815     3.0946
 3181.0000   153.9193     8.5594     2.4348    -0.0001   -39.7959     2.8757     2.8844     3.1634
 3181.5000   152.7254     8.5605     2.4407    -0.0039   -39.7614     2.8989     2.9289     3.3237
 3182.0000   151.2313     8.5614     2.4689     0.0007   -39.8903     2.9224     2.9529     3.4441
 3182.5000   150.7882     8.5623     2.4592     0.0030   -40.4537     2.9460     2.9994     3.4715
 3183.0000   150.9460     8.5482     2.4525     0.0038   -41.6220     2.9698     3.0466     3.4273
 3183.5000   151.1050     8.5491     2.4541     0.0039   -42.6408     2.9939     3.0946     3.5278
 3184.0000   148.2588     8.5499     2.4640     0.0047   -43.0617     3.0841     3.1401     3.7323
 3184.5000   140.1581     8.5508     2.4919     0.0175   -41.6819     3.1991     3.1885     3.7881
 3185.0000   135.8111     8.5367     2.4905     0.0183   -41.0565     3.3185     3.2609     3.8447
 3185.5000   135.0616     8.5228     2.4748     0.0056   -40.1320     3.4919     3.3589     3.8486
 3186.0000   135.9841     8.5387     2.4621    -0.0056   -38.4602     3.6743     3.5348     3.8792
 3186.5000   137.0564     8.5396     2.4576    -0.0070   -36.4895     3.9219     3.8004     3.9101
 3187.0000   138.0945     8.5105     2.4570    -0.0040   -36.0135     4.1862     4.2045     4.0798
 3187.5000   137.5012     8.4961     2.4706     0.0007   -35.5375     4.4683     4.8208     4.7703
 3188.0000   135.7068     8.4522     2.5031     0.0036   -35.2047     4.7054     5.1462     8.2782
 3188.5000   136.3147     8.4531     2.5326     0.0014   -34.8834     4.9132     5.3009     8.6975
 3189.0000   142.6283     8.4540     2.5229    -0.0075   -34.7006     5.0602     5.3062     7.7408
 3189.5000   145.3384     8.4549     2.5056    -0.0112   -34.8294     5.1377     5.2362     6.7478
 3190.0000   151.9523     8.4408     2.4756    -0.0007   -34.9514     5.1423     5.3183     5.2299
 3190.5000   156.4642     8.4417     2.4877     0.0076   -35.2159     5.2211     5.4781     5.0911
 3191.0000   157.2243     8.4427     2.4969     0.0054   -35.3447     5.3390     5.6426     5.5769
 3191.5000   148.2212     8.4436     2.5053     0.0010   -35.6099     5.5382     5.8121     6.6821
 3192.0000   134.2646     8.4295     2.5161     0.0071   -35.8806     5.8694     5.9867     7.4205
 3192.5000   120.6082     8.4004     2.5235     0.0123   -35.8520     6.1849     6.2553     7.5311
 3193.0000   118.3633     8.2663     2.5213    -0.0018   -35.9750     6.5150     6.4432     7.6454
 3193.5000   119.9084     8.0573     2.5192    -0.0033   -35.7911     6.8397     6.7323     8.2010
 3194.0000   120.7804     8.0258     2.5185    -0.0048   -35.6140     7.0443     6.9345     8.5571
 3194.5000   117.3361     8.0441     2.5193    -0.0024   -35.4370     7.2551     7.1984     8.8059
 3195.0000   113.5897     8.0450     2.5262     0.0029   -34.8116     7.4722     7.4193     9.0620
 3195.5000   111.9454     8.0459     2.5225     0.0112   -34.0366     7.6411     7.8001     9.1975
 3196.0000   111.8007     8.0469     2.5211     0.0082   -32.9584     7.8137     8.0344     9.2707
 3196.5000   112.1102     8.0478     2.5310     0.0030   -31.6975     7.7649     8.0425     9.1525
 3197.0000   112.7181     8.0487     2.5387     0.0113   -30.5091     7.5531     7.8800     9.0333
 3197.5000   113.9267     8.0496     2.5365     0.0079   -30.1826     7.3333     7.6111     8.6690
 3198.0000   116.9370     8.0505     2.5260     0.0002   -30.1551     6.9466     7.1955     8.1644
 3198.5000   120.1219     8.0513     2.5133     0.0006   -30.2839     6.6137     6.8027     7.7328
 3199.0000   121.6285     8.0522     2.5096     0.0026   -30.4058     6.2967     6.4774     7.4261
 3199.5000   122.9669     8.0531     2.5074     0.0064   -30.6703     6.0379     6.0801     6.7945
 3200.0000   122.3724     8.0540     2.5056    -0.0019   -31.2407     5.8718     5.8727     6.1739
 3200.5000   122.0721     8.0247     2.5019     0.0030   -31.9590     5.9630     5.9244     5.8881
 3201.0000   123.7237     8.0256     2.5064     0.0011   -32.6774     6.1855     6.1062     6.0593
 3201.5000   129.4294     8.0112     2.5161    -0.0034   -33.5367     6.3706     6.3285     6.4549
 3202.0000   131.5716     8.0121     2.5289     0.0176   -34.1052     6.6084     6.4722     7.0404
 3202.5000   128.5285     7.9977     2.5476     0.0259   -34.5316     6.6158     6.4787     9.4620
