~VERSION INFORMATION
 VERS.                2.0:   CWLS LOG ASCII STANDARD - VERSION 2.0
 WRAP.                 NO:   ONE LINE PER DEPTH STEP
~WELL INFORMATION
#MNEM.UNIT      DATA TYPE    INFORMATION
#----------   ------------   ------------------------------
 STRT.F          204.5000:   START DEPTH
 STOP.F         2964.0000:   STOP DEPTH
 STEP.F            0.5000:   STEP LENGTH
 NULL.          -999.2500:   NO VALUE
 COMP.    FENIX & SCISSON:   COMPANY
 WELL. FENIX NPR 3 "AX" #14-28:   WELL
 FLD .  TEAPOT DOME NPR-3:   FIELD
 LOC .      S28 T39N R78W:   LOCATION
 CNTY.            NATRONA:   COUNTY
 STAT.            WYOMING:   STATE
 CTRY. UNITED STATES OF AMERICA:   COUNTRY
 SRVC.           BIRDWELL:   SERVICE COMPANY
 DATE.        24-MAY-1978:   LOGDATE
 API .     49025106450000:   API NUMBER
~CURVE INFORMATION
#MNEM.UNIT       API CODE    CURVE DESCRIPTION
#----------   ------------   ------------------------------
 DEPT.F                  :   
 SPR .MV     05 010 01 00:   SPONTANEOUS POTENTIAL
 CORR.G/C3   45 356 01 00:   DENSITY CORRECTION
 DEN .G/C3   45 350 01 00:   DENSITY
 CALD.IN     45 280 60 00:   CALIPER FROM DENSITY LOG
 GRD .GAPI   45 310 01 00:   GAMMA RAY FROM DENSITY LOG
 SN  .OHMM   05 040 16 00:   SHORT NORMAL 16"
 ILD .OHMM   05 120 46 00:   DEEP INDUCTION RESISTIVITY
~PARAMETER INFORMATION
#MNEM.UNIT          VALUE    DESCRIPTION
#----------   ------------   ------------------------------
 EKB .F         5042.0000:   Kelly bushing
 EGL .F         5032.0000:   Ground level
 EDF .F            0.0000:   Drilling floor
 TD  .F         2957.0000:   Total depth
 DATE.        24-MAY-1978:   Date logged
 CLNT.            A2DTECH:   Client Code
 SL  . 2410' FNL & 280' FWL:   Surface Location
 PD  .                 GL:   Permanent Datum
 EPD .F              5032:   Elevation Permanent Datum
 LMF .                 KB:   Log Measured From
 DMF .                 KB:   Drilling Measured From
 DAPD.F                10:   Feet Above Permanent Datum
 DD  .F              2950:   Depth driller
 DL  .F              2957:   Depth logger
 BLI .F              2951:   Bottom log interval
 TLI .F               225:   Top log interval
 CS1 .IN            8.625:   Casing size
 CBL1.F               225:   Casing logger 1
 BS1 .IN            7.875:   Bit size
 BSD1.F              2950:   Depth drilled with bit1
 DFT .       CHEMICAL GEL:   Type fluid in hole
 DFD .                  9:   Density
 DFV .                 34:   Viscosity
 DFPH.               10.5:   pH
 DFL .                  6:   Fluid loss
 MSS .           FLOWLINE:   Source of sample
 RMS .OHMM            1.5:   Rm
 MST .F                70:   Rm Meas. temp.
 RMF .OHMM            1.1:   Rmf
 MFST.F                78:   Rmf Meas. temp.
 RMC .OHMM            2.8:   Rmc
 MCST.F                72:   Rmc Meas. temp.
 MFSS.               MEAS:   Source Rmf.
 RMB .OHMM           0.95:   Rm. at BHT
 BHT .F               110:   BHT.
 TCS .HRS               2:   Time Circ. stopped
 MRT .F               110:   Maximum recorded temp.
 LUN .               2958:   Logging unit number
 LUL .               CASP:   Logging unit location
 ENGI.             MILLER:   Recorded By
 WITN.            RHOADES:   Witnessed by
 ORIG.           5" PRINT:   Origin of data
 UWI .     49025106450000:   Unique Well ID
 DICO. A2D TECHNOLOGIES, INC.:   Digitizing Company
~OTHER INFORMATION
~A   DEPT      SPR       CORR        DEN       CALD         GRD        SN        ILD   
# ...
 1114.5000    -5.3320     0.0760     2.5220     8.6900   113.1660     6.8900     6.8670
 1115.0000    -5.3130     0.0760     2.5220     8.6900   112.3270     6.7620     6.7110
 1115.5000    -5.2940     0.0720     2.5240     8.6900   109.5320     6.7670     6.6370
 1116.0000    -5.2750     0.0690     2.5230     8.6900   108.9210     6.7730     6.6370
 1116.5000    -5.2570     0.0660     2.5160     8.6900   112.1400     6.7780     6.6370
 1117.0000    -5.2380     0.0620     2.5140     8.6900   114.9480     6.7830     6.6370
 1117.5000    -5.2190     0.0590     2.5170     8.6900   116.0400     6.7890     6.6370
 1118.0000    -5.2000     0.0550     2.5190     8.6900   111.8490     6.7940     6.6370
 1118.5000    -5.1810     0.0510     2.5140     8.6900   108.2260     6.7990     6.6370
 1119.0000    -5.1620     0.0480     2.5160     8.6900   104.4020     6.8050     6.6370
 1119.5000    -5.1430     0.0450     2.5190     8.6900   100.6600     6.8100     6.6370
 1120.0000    -5.1250     0.0420     2.5230     8.6900    98.0300     6.8150     6.6370
 1120.5000    -5.1060     0.0390     2.5170     8.6900    95.9450     6.8210     6.6370
 1121.0000    -5.0870     0.0380     2.5120     8.6900    93.7740     6.8260     6.6370
 1121.5000    -5.0680     0.0380     2.5070     8.6900    93.5140     6.8310     6.6370
 1122.0000    -5.0490     0.0380     2.5120     8.6900    93.3660     6.8370     6.6370
 1122.5000    -5.0300     0.0380     2.5150     8.6900    95.2450     6.8420     6.6370
 1123.0000    -5.0110     0.0380     2.5130     8.6900    97.2920     6.8470     6.6370
 1123.5000    -4.9920     0.0400     2.5140     8.6900    99.2430     6.8530     6.6370
 1124.0000    -4.9740     0.0400     2.5170     8.6900   101.0010     6.8580     6.6370
 1124.5000    -4.9550     0.0360     2.5190     8.6900    96.2190     6.8640     6.6370
 1125.0000    -4.9360     0.0430     2.5160     8.6900    93.3630     6.8690     6.6370
 1125.5000    -4.9170     0.0490     2.5150     8.6900    93.2330     6.8740     6.6370
 1126.0000    -4.8980     0.0440     2.5180     8.6900    92.9150     6.8790     6.6380
 1126.5000    -4.8790     0.0470     2.5160     8.6900    93.2950     6.8850     6.6360
 1127.0000    -4.8600     0.0570     2.5030     8.6900    93.7230     6.8690     6.6370
 1127.5000    -4.8420     0.0670     2.4990     8.6900    94.3340     6.8480     6.6370
 1128.0000    -4.8230     0.0760     2.4990     8.6900    95.4510     6.8270     6.6370
 1128.5000    -4.8040     0.0860     2.5020     8.6900    96.5410     6.8060     6.4360
 1129.0000    -4.7850     0.0950     2.5030     8.6900    97.7640     6.7850     6.1670
 1129.5000    -4.7660     0.1050     2.5040     8.6900    97.4280     6.7620     6.1690
 1130.0000    -4.7470     0.1100     2.5050     8.6900    96.1790     6.7580     6.1720
 1130.5000    -4.7280     0.1080     2.5110     8.6900    96.8030     6.7540     6.1750
 1131.0000    -4.7090     0.1060     2.5120     8.6900    97.0550     6.7510     6.1780
 1131.5000    -4.6910     0.1090     2.5120     8.6900    98.0210     6.7470     6.1810
 1132.0000    -4.6720     0.1040     2.5170     8.6900    99.3070     6.7430     6.1850
 1132.5000    -4.6530     0.0960     2.5250     8.6900    99.0610     6.7400     6.1880
 1133.0000    -4.6340     0.1020     2.5110     8.6900    95.4200     6.7360     6.1910
 1133.5000    -4.6150     0.1090     2.4920     8.6900    95.7240     6.7330     6.1950
 1134.0000    -4.6000     0.1350     2.4780     8.6900    95.9120     6.7290     6.1980
 1134.5000    -4.6000     0.1500     2.5150     8.6900    96.3620     6.7260     6.2010
 1135.0000    -4.6000     0.1210     2.5400     8.6900    96.5610     6.7220     6.2040
 1135.5000    -4.6000     0.1000     2.5170     8.6900    97.4690     6.7190     6.2070
 1136.0000    -4.6000     0.0930     2.5280     8.6900    98.3090     6.7150     6.2110
 1136.5000    -4.6000     0.0660     2.5420     8.6900    99.2630     6.7120     6.2140
 1137.0000    -4.6000     0.0420     2.5360     8.6900    99.7920     6.7080     6.2170
 1137.5000    -4.6000     0.0320     2.5260     8.6900   100.1740     6.7050     6.2200
 1138.0000    -4.6000     0.0310     2.5170     8.6900   100.0760     6.7010     6.2240
 1138.5000    -4.6000     0.0290     2.5170     8.6900   100.3180     6.6980     6.2270
 1139.0000    -4.6000     0.0270     2.5170     8.6890   100.9860     6.6940     6.2300
 1139.5000    -4.6000     0.0210     2.5160     8.6880   100.7290     6.6910     6.2330
 1140.0000    -4.6000     0.0200     2.5150     8.6870    99.0990     6.6870     6.2360
 1140.5000    -4.6000     0.0260     2.5130     8.6860    99.8360     6.6840     6.2400
 1141.0000    -4.6000     0.0300     2.5190     8.6850    99.6630     6.6800     6.2430
 1141.5000    -4.6000     0.0330     2.5200     8.6840    99.7220     6.6770     6.2460
 1142.0000    -4.6000     0.0360     2.5120     8.6830    99.8000     6.6730     6.2490
 1142.5000    -4.6000     0.0640     2.5220     8.6820   100.3450     6.6700     6.2530
 1143.0000    -4.6000     0.0740     2.5310     8.6810   100.8360     6.6660     6.2560
 1143.5000    -4.6000     0.0740     2.5280     8.6800   101.6640     6.6630     6.2590
 1144.0000    -4.6000     0.0740     2.5260     8.6780    99.9810     6.6590     6.2620
 1144.5000    -4.6000     0.0740     2.5250     8.6770    96.3860     6.6560     6.2660
 1145.0000    -4.6000     0.0770     2.5310     8.6760    92.6570     6.6520     6.2690
 1145.5000    -4.6000     0.0830     2.5390     8.6750    93.5170     6.6490     6.2720
 1146.0000    -4.6000     0.0890     2.5370     8.6740    94.4260     6.6450     6.2760
 1146.5000    -4.6000     0.0950     2.5290     8.6730    95.2850     6.6410     6.2820
 1147.0000    -4.6000     0.1010     2.5230     8.6720    96.0670     6.6370     6.2780
 1147.5000    -4.6000     0.0980     2.5330     8.6710    97.0010     6.5920     6.2380
 1148.0000    -4.6000     0.0920     2.5460     8.6700   100.5830     6.5310     6.2040
 1148.5000    -4.6000     0.0860     2.5470     8.6690   103.0650     6.4720     6.1680
 1149.0000    -4.6000     0.0810     2.5450     8.6670   103.6480     6.4120     6.1320
 1149.5000    -4.6000     0.0750     2.5470     8.6660   104.3860     6.3530     6.0990
 1150.0000    -4.6000     0.0690     2.5490     8.6650   103.8450     6.2810     6.0560
 1150.5000    -4.6000     0.0640     2.5490     8.6640   102.3290     6.3210     6.0690
 1151.0000    -4.6000     0.0580     2.5460     8.6630   100.8600     6.3710     6.0850
 1151.5000    -4.6000     0.0520     2.5400     8.6620   100.1650     6.4210     6.1010
 1152.0000    -4.6000     0.0550     2.5340     8.6610   100.5160     6.4710     6.1180
 1152.5000    -4.6000     0.0660     2.5320     8.6600   101.4690     6.5200     6.1340
 1153.0000    -4.6000     0.0760     2.5370     8.6590   102.5640     6.5700     6.1510
 1153.5000    -4.6000     0.0850     2.5420     8.6580   103.5390     6.6370     6.1670
 1154.0000    -4.6000     0.0830     2.5460     8.6560   101.1300     6.6090     6.1840
 1154.5000    -4.6000     0.0800     2.5510     8.6550    98.6800     6.5660     6.2000
 1155.0000    -4.6050     0.0760     2.5470     8.6540    95.8380     6.5230     6.2160
 1155.5000    -4.6230     0.0770     2.5400     8.6530    94.6110     6.4790     6.2320
 1156.0000    -4.6410     0.0840     2.5330     8.6520    97.0050     6.4360     6.2480
 1156.5000    -4.6590     0.0910     2.5260     8.6510   100.0810     6.3980     6.2630
 1157.0000    -4.6770     0.0950     2.5210     8.6500   103.3450     6.4420     6.2800
 1157.5000    -4.6950     0.0960     2.5190     8.6490   105.3570     6.4820     6.2810
 1158.0000    -4.7130     0.0980     2.5240     8.6490   105.4040     6.5230     6.2810
 1158.5000    -4.7310     0.0980     2.5290     8.6490   101.7460     6.5630     6.2810
 1159.0000    -4.7490     0.0980     2.5340     8.6490    99.6630     6.6030     6.2800
 1159.5000    -4.7670     0.0980     2.5330     8.6490   100.4100     6.6370     6.2800
