~VERSION INFORMATION
 VERS.                2.0:   CWLS LOG ASCII STANDARD - VERSION 2.0
 WRAP.                 NO:   ONE LINE PER DEPTH STEP
~WELL INFORMATION
#MNEM.UNIT      DATA TYPE    INFORMATION
#----------   ------------   ------------------------------
 STRT.F          208.0000:   START DEPTH
 STOP.F         2980.0000:   STOP DEPTH
 STEP.F            0.5000:   STEP LENGTH
 NULL.          -999.2500:   NO VALUE
 COMP. FENIX & SCISSON INC:   COMPANY
 WELL. FENIX  32AX #28-28:   WELL
 FLD .        TEAPOT DOME:   FIELD
 LOC .      S28 T39N R78W:   LOCATION
 CNTY.            NATRONA:   COUNTY
 STAT.            WYOMING:   STATE
 CTRY. UNITED STATES OF AMERICA:   COUNTRY
 SRVC.           BIRDWELL:   SERVICE COMPANY
 DATE.        09-OCT-1977:   LOGDATE
 API .     49025104430000:   API NUMBER
~CURVE INFORMATION
#MNEM.UNIT       API CODE    CURVE DESCRIPTION
#----------   ------------   ------------------------------
 DEPT.F                  :   
 SPR .MV     05 010 01 00:   SPONTANEOUS POTENTIAL
 ILD .OHMM   05 120 46 00:   DEEP INDUCTION RESISTIVITY
 SN  .OHMM   05 040 16 00:   SHORT NORMAL
 GRD .GAPI   45 310 01 00:   GAMMA RAY FROM DENSITY LOG
 CALD.IN     45 280 60 00:   CALIPER FROM DENSITY LOG
 CORR.G/C3   45 356 01 00:   DENSITY CORRECTION
 DEN .G/C3   45 350 01 00:   BULK DENSITY
~PARAMETER INFORMATION
#MNEM.UNIT          VALUE    DESCRIPTION
#----------   ------------   ------------------------------
 EKB .F         5005.0000:   Kelly bushing
 EGL .F         4995.0000:   Ground level
 EDF .F            0.0000:   Drilling floor
 EPD .F         4995.0000:   Permanent datum
 TD  .F         2980.0000:   Total depth
 DATE.        09-OCT-1977:   Date logged
 CLNT.            A2DTECH:   Client Code
 SL  . 990' FNL & 1650' FWL:   Surface Location
 PD  .                 GL:   Permanent Datum
 DAPD.F                10:   Feet Above Permanent Datum
 DD  .F              2980:   Depth driller
 DL  .F              2979:   Depth logger
 BLI .F              2974:   Bottom log interval
 TLI .F               221:   Top log interval
 CS1 .IN            8.625:   Casing size
 CBD1.      8.625" @ 211':   Casing driller 1
 CBL1.F               221:   Casing logger 1
 BS1 .IN            7.875:   Bit size
 BSD1.F              2980:   Depth drilled with bit1
 DFT .            KCL GEL:   Type fluid in hole
 DFD .                8.8:   Density
 DFV .                 33:   Viscosity
 DFPH.                 11:   pH
 DFL .                6.4:   Fluid loss
 MSS .           FLOWLINE:   Source of sample
 RMS .OHMM            .52:   Rm
 MST .F                59:   Rm Meas. temp.
 RMF .OHMM            .67:   Rmf
 MFST.F                54:   Rmf Meas. temp.
 RMC .OHMM            .45:   Rmc
 MCST.F                56:   Rmc Meas. temp.
 MFSS.               MEAS:   Source Rmf.
 MCSS.               MEAS:   Source Rmc.
 RMB .OHMM            .35:   Rm. at BHT
 BHT .F                91:   BHT.
 TCS .HRS               3:   Time Circ. stopped
 MRT .F                91:   Maximum recorded temp.
 LUN .               2958:   Logging unit number
 LUL .             CASPER:   Logging unit location
 ENGI.                LAW:   Recorded By
 WITN.       W. PENINGELL:   Witnessed by
 ORIG.           5" PRINT:   Origin of data
 UWI .     49025104430000:   Unique Well ID
 DICO. A2D TECHNOLOGIES, INC.:   Digitizing Company
~OTHER INFORMATION
~A   DEPT      SPR        ILD         SN         GRD      CALD       CORR        DEN   
  208.0000  -999.2500  -999.2500  -999.2500    62.1320  -999.2500  -999.2500  -999.2500
  208.5000  -999.2500  -999.2500  -999.2500    64.4570  -999.2500  -999.2500  -999.2500
  209.0000  -999.2500  -999.2500  -999.2500    66.7920  -999.2500  -999.2500  -999.2500
  209.5000  -999.2500  -999.2500  -999.2500    66.3940  -999.2500  -999.2500  -999.2500
  210.0000  -999.2500  -999.2500  -999.2500    66.7600  -999.2500  -999.2500  -999.2500
  210.5000  -999.2500  -999.2500  -999.2500    67.9510  -999.2500  -999.2500  -999.2500
  211.0000  -999.2500  -999.2500  -999.2500    67.6600  -999.2500  -999.2500  -999.2500
  211.5000  -999.2500  -999.2500  -999.2500    66.7640  -999.2500  -999.2500  -999.2500
  212.0000  -999.2500  -999.2500  -999.2500    67.5520  -999.2500  -999.2500  -999.2500
  212.5000  -999.2500  -999.2500  -999.2500    67.3190  -999.2500  -999.2500  -999.2500
  213.0000  -999.2500  -999.2500  -999.2500    66.3950  -999.2500  -999.2500  -999.2500
  213.5000  -999.2500  -999.2500  -999.2500    65.9970  -999.2500  -999.2500  -999.2500
  214.0000  -999.2500  -999.2500  -999.2500    66.6950  -999.2500  -999.2500  -999.2500
  214.5000  -999.2500  -999.2500  -999.2500    62.6600  -999.2500  -999.2500  -999.2500
  215.0000  -999.2500  -999.2500  -999.2500    58.6220  -999.2500  -999.2500  -999.2500
  215.5000  -999.2500  -999.2500  -999.2500    55.9720  -999.2500  -999.2500  -999.2500
  216.0000  -999.2500  -999.2500  -999.2500    53.1680  -999.2500  -999.2500  -999.2500
  216.5000  -999.2500  -999.2500  -999.2500    59.6950  -999.2500  -999.2500  -999.2500
  217.0000  -999.2500  -999.2500  -999.2500    61.0930  -999.2500  -999.2500  -999.2500
  217.5000  -999.2500  -999.2500  -999.2500    63.0460  -999.2500  -999.2500  -999.2500
  218.0000  -999.2500  -999.2500  -999.2500    67.8210  -999.2500    -0.1530  -999.2500
  218.5000  -999.2500  -999.2500  -999.2500    71.4520  -999.2500     0.1040     2.1800
  219.0000  -999.2500  -999.2500  -999.2500    70.8880  -999.2500     0.2430     2.2700
  219.5000  -999.2500  -999.2500  -999.2500    69.3010  -999.2500     0.2340     2.2820
  220.0000  -999.2500  -999.2500  -999.2500    70.2040    10.7330     0.2070     2.2820
  220.5000  -999.2500  -999.2500  -999.2500    71.5580    10.6340     0.1700     2.2920
  221.0000  -999.2500  -999.2500  -999.2500    72.8380    10.6140     0.1770     2.2710
  221.5000  -999.2500  -999.2500     9.6820    74.8350    10.9600     0.1820     2.3720
  222.0000    13.7190  -999.2500     9.3330    74.7130    11.1510     0.1480     2.3590
  222.5000     3.9180  -999.2500     9.4870    76.1640    11.9050     0.0700     2.3260
  223.0000     1.4900  -999.2500     9.6380    72.1930    12.0500     0.0550     2.2940
  223.5000     1.0480  -999.2500     9.8250    72.1580    12.1430     0.0530     2.3090
  224.0000    -0.1370  -999.2500    10.0180    72.5520    12.4490     0.0420     2.3150
  224.5000    -1.8770  -999.2500    10.3300    72.4700    12.4650     0.0050     2.2840
  225.0000    -4.7680  -999.2500    10.8290    72.0220    12.4520    -0.0160     2.2460
  225.5000    -7.4490    22.0930    11.4220    73.4520    12.4220    -0.0340     2.1720
  226.0000   -10.1520    17.9130    11.3070    75.0050    12.0470    -0.0530     2.1050
  226.5000   -10.7280    17.9730    11.1120    75.7060    11.8170    -0.0540     2.0340
  227.0000    -9.6960    18.1400    11.1820    72.8520    11.5010    -0.0470     2.0010
  227.5000    -9.3370    18.0700    11.3440    74.3800    10.7530     0.0250     2.0040
  228.0000    -9.6510    21.3280    11.5180    75.7810    10.7610     0.2080     1.9980
  228.5000    -9.9010    20.7480    11.4520    77.5260     9.8040     0.0410     2.3600
  229.0000   -10.0280    21.1480    11.3640    79.4060     9.2500     0.0320     2.3490
  229.5000    -9.9790    21.9240    11.2760    80.4410     9.1680     0.0300     2.3860
  230.0000   -11.5490    19.1020    11.2150    83.1940     9.0840     0.0310     2.3930
  230.5000   -12.2060    20.4560    11.9300    86.1670     9.0180     0.0180     2.3880
  231.0000   -12.1870    22.1310    12.4810    88.7490     8.9980     0.0090     2.3780
  231.5000   -14.1230    23.8060    13.0320    87.7720     8.9660     0.0070     2.3840
  232.0000   -17.0220    24.5990    13.5830    87.6730     8.9030     0.0120     2.3800
  232.5000   -19.2290    24.7030    13.8210    88.8910     8.8410     0.0130     2.3880
  233.0000   -20.7140    24.4770    13.9970    89.9170     8.7780     0.0120     2.3870
  233.5000   -22.2830    23.5950    14.1050    89.4490     8.7200     0.0120     2.3880
  234.0000   -23.8770    19.6360    14.0700    89.4860     8.6940     0.0180     2.3900
  234.5000   -23.8700    19.8170    14.0420    89.6470     8.6500     0.0240     2.3910
  235.0000   -23.7470    19.8170    14.0140    90.8040     8.6110     0.0270     2.4020
  235.5000   -24.3710    19.8170    13.9860    91.9980     8.5800     0.0230     2.4080
  236.0000   -24.9760    19.3620    13.9570    90.9470     8.5380     0.0140     2.3980
  236.5000   -25.7400    19.1020    13.9290    88.7880     8.5010     0.0180     2.4020
  237.0000   -27.2780    18.7400    13.9010    87.8820     8.4950     0.0250     2.4140
  237.5000   -28.8850    18.5150    13.8730    88.4070     8.4900     0.0310     2.4320
  238.0000   -29.6010    18.2890    13.7850    90.5720     8.4990     0.0220     2.4260
  238.5000   -30.0810    18.0630    13.5270    90.6520     8.5040     0.0110     2.4130
  239.0000   -31.0380    17.8370    13.2680    90.6890     8.5050     0.0060     2.3970
  239.5000   -31.6590    17.6120    13.0100    91.2200     8.4750     0.0030     2.3940
  240.0000   -32.0040    17.5610    12.7510    92.0920     8.4420     0.0070     2.3890
  240.5000   -33.2700    17.5240    12.5140    89.6260     8.4080     0.0200     2.4030
  241.0000   -33.4790    17.4860    12.4440    87.9210     8.3850     0.0230     2.4200
  241.5000   -33.6690    17.4480    12.3750    89.7970     8.3640     0.0240     2.4240
  242.0000   -34.2310    17.4110    12.3060    89.6610     8.3420     0.0260     2.4260
  242.5000   -34.2100    17.3730    12.2370    91.6430     8.3280     0.0220     2.4250
  243.0000   -34.1240    17.3360    12.1680    89.2300     8.3440     0.0120     2.4160
  243.5000   -34.3360    17.2980    12.0990    86.3580     8.3490     0.0060     2.4080
  244.0000   -35.1040    17.2670    12.0290    88.0250     8.3520     0.0100     2.4150
  244.5000   -35.4280    17.0230    11.8010    87.4440     8.3550     0.0130     2.4230
  245.0000   -35.6440    16.7120    11.5730    87.7300     8.3590     0.0140     2.4290
  245.5000   -35.8640    16.4000    11.5150    88.7350     8.3620     0.0140     2.4250
  246.0000   -36.1990    16.2340    11.4940    92.9600     8.3640     0.0110     2.4240
  246.5000   -36.1800    16.1020    11.4720    91.6340     8.3600     0.0080     2.4250
  247.0000   -36.0860    15.9700    11.4510    91.4500     8.3540     0.0110     2.4180
  247.5000   -35.9900    15.8370    11.4300    93.5680     8.3490     0.0140     2.4150
  248.0000   -35.8840    15.7050    11.4220    94.7170     8.3440     0.0150     2.4270
  248.5000   -36.2210    15.5760    11.3980    89.8700     8.3440     0.0160     2.4300
  249.0000   -36.8730    15.4570    11.3740    92.1220     8.3440     0.0170     2.4360
  249.5000   -37.0770    15.3380    11.3510    96.0790     8.3440     0.0170     2.4420
  250.0000   -37.1430    15.2190    11.3280    96.3460     8.3440     0.0170     2.4390
  250.5000   -37.2000    15.0910    11.3040    96.3050     8.3440     0.0170     2.4360
  251.0000   -37.2530    14.9060    11.2810    93.6720     8.3440     0.0180     2.4300
  251.5000   -37.3560    14.6360    11.2580    90.8170     8.3440     0.0190     2.4260
  252.0000   -37.4450    14.6890    11.2340    91.9320     8.3440     0.0210     2.4250
  252.5000   -37.1300    14.7720    11.2150    91.8660     8.3500     0.0190     2.4230
  253.0000   -37.0640    15.1840    11.4220    90.2710     8.3570     0.0170     2.4190
