~VERSION INFORMATION
 VERS.                2.0:   CWLS LOG ASCII STANDARD - VERSION 2.0
 WRAP.                 NO:   ONE LINE PER DEPTH STEP
~WELL INFORMATION
#MNEM.UNIT      DATA TYPE    INFORMATION
#----------   ------------   ------------------------------
 STRT.F          517.0000:   START DEPTH
 STOP.F         3222.0000:   STOP DEPTH
 STEP.F            0.5000:   STEP LENGTH
 NULL.          -999.2500:   NO VALUE
 COMP.    FENIX & SCISSON:   COMPANY
 WELL.  FENIX "TX" #53-33:   WELL
 FLD .             NPR #3:   FIELD
 LOC .      S33 T39N R78W:   LOCATION
 CNTY.            NATRONA:   COUNTY
 STAT.            WYOMING:   STATE
 CTRY. UNITED STATES OF AMERICA:   COUNTRY
 SRVC.              WELEX:   SERVICE COMPANY
 DATE.        24-AUG-1980:   LOGDATE
 API .     49025108460000:   API NUMBER
~CURVE INFORMATION
#MNEM.UNIT       API CODE    CURVE DESCRIPTION
#----------   ------------   ------------------------------
 DEPT.F                  :   
 CALD.IN     45 280 60 00:   CALIPER FROM DENSITY LOG
 GRD .GAPI   45 310 01 00:   GAMMA RAY FROM DENSITY LOG
 CORR.G/C3   45 356 01 00:   DENSITY CORRECTION
 RHOB.G/C3   45 350 01 00:   BULK DENSITY
 SPR .MV     07 010 01 00:   SPONTANEOUS POTENTIAL
 ILD .OHMM   07 120 46 00:   DEEP INDUCTION RESISTIVITY
 ILM .OHMM   07 120 44 00:   INDUCTION LOG MEDIUM RESISTIVITY
 SGRD.OHMM   07 220 05 00:   SHALLOW SHORT GUARD RESISTIVITY
~PARAMETER INFORMATION
#MNEM.UNIT          VALUE    DESCRIPTION
#----------   ------------   ------------------------------
 EKB .F         5173.0000:   Kelly bushing
 EGL .F         5163.0000:   Ground level
 EDF .F            0.0000:   Drilling floor
 EPD .F            0.0000:   Permanent datum
 TD  .F         3224.0000:   Total depth
 CLNT.            A2DTECH:   Client Code
 SL  . 1650' FNL & 2500' FEL:   Surface Location
 PD  .                 GL:   Permanent Datum
 DAPD.F                10:   Feet Above Permanent Datum
 DATE.        24-AUG-1980:   Date Logged [DD-MMM-YYYY]
 DD  .F              3190:   Depth driller
 DL  .F              3224:   Depth logger
 BLI .F              3222:   Bottom log interval
 TLI .F               528:   Top log interval
 CS1 .IN            8.625:   Casing size
 CBD1.      8.625" @ 532':   Casing driller 1
 CBL1.F               528:   Casing logger 1
 BS1 .IN            7.875:   Bit size
 BSD1.F              3190:   Depth drilled with bit1
 DFT .     WATER BASE MUD:   Type fluid in hole
 DFD .                8.8:   Density
 DFV .                 45:   Viscosity
 DFL .                9.4:   Fluid loss
 MSS .            MUD PIT:   Source of sample
 RMS .OHMM           2.10:   Rm
 MST .F                65:   Rm Meas. temp.
 RMF .OHMM           1.68:   Rmf
 MFST.F                65:   Rmf Meas. temp.
 MFSS.               CALC:   Source Rmf.
 RMC .OHMM           2.52:   Rmc
 MCST.F                65:   Rmc Meas. temp.
 MCSS.               CALC:   Source Rmc.
 RMB .OHMM           1.14:   Rm. at BHT
 BHT .F               120:   BHT.
 TCS .HRS               3:   Time Circ. stopped
 MRT .F               120:   Maximum recorded temp.
 LUN .               1892:   Logging unit number
 LUL .             CASPER:   Logging unit location
 ENGI.           WACHTEIL:   Recorded By
 ORIG.         2.5" PRINT:   Origin of data
 UWI .     49025108460000:   Unique Well ID
 DICO. A2D TECHNOLOGIES, INC.:   Digitizing Company
~OTHER INFORMATION
~A   DEPT     CALD         GRD      CORR       RHOB        SPR        ILD        ILM       SGRD   
# ...
 1043.5000    12.2959    90.1276     0.0852     2.5221   -26.7793     6.8781     6.8574     6.1641
 1044.0000    12.3275    89.2072     0.0791     2.5205   -26.7868     6.8731     6.7579     6.1607
 1044.5000    12.3709    88.7365     0.0851     2.5282   -26.7943     6.8681     6.7528     6.2439
 1045.0000    12.3699    88.2658     0.0911     2.5359   -26.8018     6.8631     6.7476     6.2397
 1045.5000    12.3689    88.2455     0.0941     2.5385   -27.1096     6.8581     6.7425     6.2356
 1046.0000    12.3679    87.7780     0.0970     2.5349   -27.1171     6.8522     6.7373     6.2323
 1046.5000    12.3669    88.3926     0.0970     2.5338   -27.1246     6.9436     6.7322     6.2289
 1047.0000    12.3659    88.8604     0.0969     2.5457   -26.8318     6.9381     6.7271     6.4005
 1047.5000    12.3648    88.5400     0.0977     2.5571   -26.8407     7.0300     6.7211     6.4863
 1048.0000    12.3637    86.7896     0.0999     2.5516   -26.8480     7.0251     6.9048     6.5733
 1048.5000    12.3550    87.2205     0.0998     2.5486   -26.8552     7.1216     7.0935     6.7620
 1049.0000    12.3213    87.2011     0.0983     2.5591   -26.8624     7.2123     7.0883     6.9403
 1049.5000    12.2699    87.1816     0.0816     2.5635   -26.8696     7.2067     7.1819     7.0574
 1050.0000    12.2538    85.8108     0.0634     2.5514   -26.5766     7.2350     7.2767     7.2271
 1050.5000    12.2074    84.3640     0.0513     2.5513   -26.2835     7.2966     7.3801     7.3240
 1051.0000    12.1760    82.0167     0.0452     2.5548   -26.2913     7.3428     7.4701     7.3191
 1051.5000    12.1447    80.3446     0.0512     2.5595   -26.2988     7.3876     7.4640     7.4171
 1052.0000    12.1437    80.6246     0.0633     2.5662   -26.3063     7.3814     7.4583     7.4123
 1052.5000    12.1427    82.6688     0.0791     2.5750   -26.1987     7.3763     7.4526     7.4084
 1053.0000    12.1719    84.5631     0.0964     2.5803   -26.3213     7.3711     7.4469     7.3623
 1053.5000    12.2032    87.0162     0.0964     2.5705   -26.7903     7.3660     7.4413     7.2989
 1054.0000    12.2605    87.8977     0.0963     2.5689   -26.9383     7.3608     7.4345     7.2948
 1054.5000    12.2665    87.4277     0.0975     2.5748   -27.2459     7.3554     7.4290     7.2909
 1055.0000    12.3189    86.9578     0.1068     2.5717   -27.5534     7.3501     7.4235     7.3887
 1055.5000    12.3599    86.0375     0.1083     2.5732   -27.5606     7.3183     7.4181     7.3843
 1056.0000    12.3770    85.1171     0.1082     2.5746   -27.5679     7.2701     7.4126     7.3802
 1056.5000    12.3760    83.2950     0.1051     2.5679   -27.5751     7.3819     7.4072     7.4190
 1057.0000    12.3747    82.8259     0.0840     2.5532   -27.8829     7.4878     7.4018     7.4748
 1057.5000    12.3737    83.9301     0.0806     2.5403   -27.8904     7.8085     7.5097     7.6797
 1058.0000    12.3727    85.3362     0.0839     2.5351   -27.8979     7.9850     7.6164     7.6756
 1058.5000    12.3717    86.8216     0.0962     2.5469   -27.9054     8.2965     7.8062     7.8870
 1059.0000    12.3707    87.4730     0.1125     2.5579   -27.9129     8.4056     7.7995     8.1042
 1059.5000    12.3394    88.5748     0.1275     2.5620   -27.6201     8.6348     7.7936     8.2129
 1060.0000    12.3041    88.5553     0.1240     2.5589   -27.1671     8.7485     7.7876     8.4390
 1060.5000    12.2704    87.1845     0.1144     2.5586   -27.0345     8.7412     7.7239     8.5522
 1061.0000    12.2456    85.8137     0.1078     2.5618   -26.7429     8.8561     7.5623     8.5473
 1061.5000    12.2446    83.9924     0.0986     2.5557   -27.0504     8.7267     7.7690     8.5425
 1062.0000    12.2296    83.9730     0.0956     2.5509   -27.0576     8.7194     7.8715     8.5378
 1062.5000    12.1493    83.5023     0.0986     2.5517   -27.0649     8.7122     7.8658     8.5331
 1063.0000    12.0599    83.0315     0.1046     2.5581   -27.0721     8.7050     7.8600     8.5283
 1063.5000    12.0412    82.7859     0.1048     2.5629   -27.0796     8.6977     7.6396     8.6425
 1064.0000    12.1787    81.4894     0.1075     2.5613   -27.3874     8.6893     7.7405     8.6369
 1064.5000    12.2986    80.3429     0.1168     2.5651   -27.3949     8.6823     7.7344     8.7527
 1065.0000    12.3882    78.6712     0.1265     2.5778   -27.4024     8.6754     7.7285     8.7481
 1065.5000    12.4485    77.0703     0.1330     2.5853   -27.4099     8.7898     7.7227     8.7434
 1066.0000    12.4768    81.5553     0.1254     2.5731   -27.4174     8.9049     8.3172     8.7388
 1066.5000    12.5060    83.3377     0.1090     2.5609   -27.1246     8.8976     9.2673     8.7339
 1067.0000    12.5352    84.6695     0.0966     2.5518   -27.1336     9.0148     9.8857     8.7291
 1067.5000    12.5340    84.6501     0.0951     2.5502   -27.1408     9.1332    10.2367     8.7243
 1068.0000    12.5329    85.0811     0.0981     2.5468   -27.1480     9.1247    10.7255     8.7194
 1068.5000    12.5319    84.6104     0.0890     2.5364   -27.1552     9.2443    10.7176     8.7146
 1069.0000    12.5306    83.5390     0.0763     2.5299   -27.1625     9.3654    10.8599     8.7098
 1069.5000    12.5600    81.7544     0.0768     2.5240   -27.1697     9.4881    10.8511     8.7040
 1070.0000    12.5588    80.7957     0.0677     2.5210   -27.1772     9.6125    10.6940     8.6994
 1070.5000    12.5578    79.8371     0.0707     2.5320   -27.1847     9.6037    10.6861     8.6947
 1071.0000    12.5568    79.1036     0.0711     2.5497   -27.1922     9.5960    10.8272     8.6901
 1071.5000    12.5860    79.9802     0.0857     2.5647   -26.8983     9.4565    10.7958     8.8066
 1072.0000    12.5849    80.4112     0.1048     2.5782   -26.9069     9.3188    10.6617     8.8019
 1072.5000    12.5838    80.8446     0.1128     2.5691   -26.9144     9.2929    10.6536     8.9200
 1073.0000    12.5828    81.2732     0.1097     2.5615   -26.9219     9.1754    10.6455     8.9148
 1073.5000    12.5817    82.1546     0.0976     2.5533   -26.9309     9.1678    10.6374     8.9099
 1074.0000    12.5807    79.8829     0.0854     2.5327   -26.9381     9.2894    10.6293     8.9049
 1074.5000    12.5796    78.9625     0.0824     2.5250   -26.9453     9.3442    10.6196     9.0241
 1075.0000    12.5785    80.4430     0.0823     2.5441   -27.2529     9.5329    10.4658     9.0821
 1075.5000    12.5773    82.5272     0.0883     2.5593   -27.2601     9.7912    10.4581     9.1399
 1076.0000    12.5763    81.7541     0.0973     2.5640   -27.5676    10.0582    10.4505     9.2622
 1076.5000    12.5753    79.7856     0.1003     2.5579   -27.8944    10.0502    10.2991     9.3862
 1077.0000    12.5743    80.6622     0.0821     2.5458   -28.1832    10.3243    11.4975     9.3806
 1077.5000    12.5733    79.2157     0.0881     2.5547   -28.4910    10.4600    11.9765     9.3756
 1078.0000    12.5722    77.0148     0.0911     2.5622   -28.4985    10.4517    11.9496     9.5013
 1078.5000    12.5711    75.1935     0.0855     2.5591   -28.5060    10.5890    11.4150     9.8991
 1079.0000    12.5772    74.7236     0.0759     2.5514   -28.8138    10.5793    10.9579    10.0546
 1079.5000    12.6089    73.8032     0.0849     2.5454   -29.1216    10.5706    10.6876    10.3081
 1080.0000    12.6405    75.1351     0.0940     2.5650   -29.1306    10.5618    10.6794    10.4463
 1080.5000    12.6878    76.9175     0.0969     2.5755   -29.1378    10.5530    10.9640    10.4396
 1081.0000    12.7037    77.4968     0.1029     2.5709   -28.8447    10.5427    11.6032    10.5066
 1081.5000    12.7459    78.7905     0.0968     2.5768   -28.5517    10.6813    11.7398    10.5735
 1082.0000    12.8053    79.5618     0.0877     2.5674   -28.5589    10.6728    11.7296    10.5667
 1082.5000    12.8043    77.8864     0.0756     2.5600   -28.5661    10.6643    11.8854    10.5611
 1083.0000    12.8335    75.4640     0.0761     2.5569   -28.2553    10.6558    11.8757    10.5555
 1083.5000    12.8627    74.5387     0.0823     2.5523   -27.9395    10.6346    11.8670    10.4047
