~VERSION INFORMATION
 VERS.                2.0:   CWLS LOG ASCII STANDARD - VERSION 2.0
 WRAP.                 NO:   ONE LINE PER DEPTH STEP
~WELL INFORMATION
#MNEM.UNIT      DATA TYPE    INFORMATION
#----------   ------------   ------------------------------
 STRT.F          748.0000:   START DEPTH
 STOP.F         2734.0000:   STOP DEPTH
 STEP.F            0.5000:   STEP LENGTH
 NULL.          -999.2500:   NO VALUE
 COMP.    FENIX & SCISSON:   COMPANY
 WELL. FENIX NPR 3 "SHX" #84-4:   WELL
 FLD .             TEAPOT:   FIELD
 LOC .       S4 T38N R78W:   LOCATION
 CNTY.            NATRONA:   COUNTY
 STAT.            WYOMING:   STATE
 CTRY. UNITED STATES OF AMERICA:   COUNTRY
 SRVC.              WELEX:   SERVICE COMPANY
 DATE.        08-MAY-1980:   LOGDATE
 API .     49025108050000:   API NUMBER
~CURVE INFORMATION
#MNEM.UNIT       API CODE    CURVE DESCRIPTION
#----------   ------------   ------------------------------
 DEPT.F                  :   
 CALD.IN     45 280 60 00:   CALIPER FROM DENSITY LOG
 GRD .GAPI   45 310 01 00:   GAMMA RAY FROM DENSITY LOG
 RHOB.G/C3   45 350 01 00:   BULK DENSITY
 CORR.G/C3   45 356 01 00:   DENSITY CORRECTION
~PARAMETER INFORMATION
#MNEM.UNIT          VALUE    DESCRIPTION
#----------   ------------   ------------------------------
 EKB .F         5244.0000:   Kelly bushing
 EGL .F         5234.0000:   Ground level
 EDF .F            0.0000:   Drilling floor
 TD  .F         2733.0000:   Total depth
 DATE.        08-MAY-1980:   Date logged
 CLNT.            A2DTECH:   Client Code
 SL  . 7461' FNL & 383' FEL:   Surface Location
 PD  .                 GL:   Permanent Datum
 EPD .F              5234:   Elevation Permanent Datum
 LMF .                 KB:   Log Measured From
 DMF .                 KB:   Drilling Measured From
 DAPD.F                10:   Feet Above Permanent Datum
 DD  .F              2700:   Depth driller
 DL  .F              2733:   Depth logger
 BLI .F              2731:   Bottom log interval
 TLI .F               752:   Top log interval
 CS1 .IN            9.625:   Casing size
 CBD1.      9.625" @ 260':   Casing driller 1
 BS1 .IN              8.5:   Bit size
 BSD1.F              2700:   Depth drilled with bit1
 DFT .                AIR:   Type fluid in hole
 MRT .F               118:   Maximum recorded temp.
 LUN .                  2:   Logging unit number
 ENGI.           TORTILLE:   Recorded By
 WITN.              AMEND:   Witnessed by
 ORIG.           5" PRINT:   Origin of data
 UWI .     49025108050000:   Unique Well ID
 DICO. A2D TECHNOLOGIES, INC.:   Digitizing Company
~OTHER INFORMATION
~A   DEPT       CALD       GRD        RHOB       CORR 
# ...
 1259.0000     8.9800    90.7810     2.4590     0.0310
 1259.5000     8.9800    91.1880     2.4800     0.0590
 1260.0000     8.9800    91.6000     2.5010     0.0900
 1260.5000     8.9800    92.0090     2.5120     0.0810
 1261.0000     8.9800    92.5760     2.4970     0.0640
 1261.5000     8.9800    93.2020     2.4780     0.0460
 1262.0000     8.9800    93.8270     2.4580     0.0330
 1262.5000     8.9800    94.4410     2.4570     0.0350
 1263.0000     8.9800    95.0770     2.4650     0.0490
 1263.5000     8.9800    95.6850     2.4850     0.0630
 1264.0000     8.9800    96.2550     2.4870     0.0670
 1264.5000     8.9800    96.1030     2.4920     0.0720
 1265.0000     8.9800    95.9370     2.4950     0.0760
 1265.5000     8.9800    95.7400     2.4990     0.0810
 1266.0000     8.9800    95.5640     2.5000     0.0760
 1266.5000     8.9800    95.3790     2.4850     0.0630
 1267.0000     8.9800    95.1950     2.4700     0.0510
 1267.5000     8.9800    95.0130     2.4530     0.0370
 1268.0000     8.9800    94.8300     2.4440     0.0330
 1268.5000     8.9800    94.6460     2.4420     0.0340
 1269.0000     8.9800    94.4660     2.4580     0.0390
 1269.5000     8.9800    94.2760     2.4530     0.0410
 1270.0000     8.9800    94.1020     2.4460     0.0410
 1270.5000     8.9800    93.9220     2.4480     0.0410
 1271.0000     8.9800    94.0940     2.4520     0.0410
 1271.5000     8.9800    94.2940     2.4590     0.0440
 1272.0000     8.9800    94.5070     2.4720     0.0530
 1272.5000     8.9800    94.7090     2.4850     0.0620
 1273.0000     8.9800    94.9180     2.4960     0.0690
 1273.5000     8.9800    95.1190     2.5080     0.0700
 1274.0000     8.9800    95.3320     2.5060     0.0730
 1274.5000     8.9800    95.5350     2.5020     0.0760
 1275.0000     8.9800    95.6750     2.5000     0.0780
 1275.5000     8.9800    95.4320     2.5010     0.0820
 1276.0000     8.9800    95.2300     2.4940     0.0740
 1276.5000     8.9800    95.0060     2.4850     0.0650
 1277.0000     8.9800    94.7930     2.4930     0.0780
 1277.5000     8.9800    94.5770     2.5080     0.0900
 1278.0000     8.9800    94.3610     2.4930     0.0850
 1278.5000     8.9800    94.1450     2.4780     0.0700
 1279.0000     8.9800    93.9290     2.4820     0.0610
 1279.5000     8.9800    93.7150     2.4840     0.0610
 1280.0000     8.9800    93.4950     2.4800     0.0610
 1280.5000     8.9800    93.2840     2.4760     0.0610
 1281.0000     8.9800    93.0700     2.4800     0.0610
 1281.5000     8.9800    92.8210     2.4760     0.0610
 1282.0000     8.9800    92.8560     2.4600     0.0510
 1282.5000     8.9800    93.4280     2.4540     0.0340
 1283.0000     8.9800    93.9740     2.4660     0.0400
 1283.5000     8.9800    94.5040     2.4750     0.0490
 1284.0000     8.9800    95.0830     2.4770     0.0530
 1284.5000     8.9800    94.8730     2.4730     0.0510
 1285.0000     8.9800    94.4120     2.4690     0.0480
 1285.5000     8.9800    93.9610     2.4680     0.0460
 1286.0000     8.9800    93.5300     2.4700     0.0450
 1286.5000     8.9800    93.0670     2.4760     0.0460
 1287.0000     8.9800    92.6480     2.4820     0.0500
 1287.5000     8.9800    92.1430     2.4830     0.0440
 1288.0000     8.9800    92.1010     2.4710     0.0350
 1288.5000     8.9800    92.1690     2.4590     0.0260
 1289.0000     8.9800    92.5010     2.4560     0.0240
 1289.5000     8.9800    92.8140     2.4580     0.0330
 1290.0000     8.9800    93.1450     2.4690     0.0480
 1290.5000     8.9800    93.4590     2.4740     0.0500
 1291.0000     8.9800    93.7960     2.4700     0.0410
 1291.5000     8.9800    93.9040     2.4680     0.0370
 1292.0000     8.9800    93.8720     2.4820     0.0460
 1292.5000     8.9800    93.5070     2.4980     0.0570
 1293.0000     8.9800    93.1600     2.5060     0.0600
 1293.5000     8.9800    92.7900     2.4750     0.0470
 1294.0000     8.9800    92.4350     2.4880     0.0420
 1294.5000     8.9800    92.0760     2.4800     0.0570
 1295.0000     8.9800    91.7110     2.4850     0.0700
 1295.5000     8.9800    91.3630     2.5090     0.0840
 1296.0000     8.9800    90.9990     2.5240     0.0980
 1296.5000     8.9800    91.1240     2.5170     0.0960
 1297.0000     8.9800    91.4550     2.5060     0.0780
 1297.5000     8.9800    91.7730     2.4950     0.0670
 1298.0000     8.9800    92.0900     2.4940     0.0700
 1298.5000     8.9800    92.4060     2.4980     0.0810
 1299.0000     8.9800    92.7300     2.5040     0.0910
 1299.5000     8.9800    93.0460     2.5100     0.0970
 1300.0000     8.9800    93.2720     2.5150     0.0860
 1300.5000     8.9800    93.0220     2.5090     0.0740
 1301.0000     8.9800    92.8150     2.4980     0.0690
 1301.5000     8.9800    92.5820     2.5050     0.0700
 1302.0000     8.9800    92.3640     2.5160     0.0840
 1302.5000     8.9800    92.1350     2.5190     0.0990
 1303.0000     8.9800    91.9210     2.5210     0.1060
 1303.5000     8.9800    91.6870     2.5080     0.0990
 1304.0000     8.9800    91.4610     2.4890     0.0740
 1304.5000     8.9800    90.8870     2.4950     0.0830
 1305.0000     8.9800    90.3700     2.5130     0.1020
 1305.5000     8.9800    89.8320     2.5090     0.0920
 1306.0000     8.9800    89.3060     2.5020     0.0820
 1306.5000     8.9800    88.7510     2.4950     0.0780
 1307.0000     8.9800    88.4970     2.4880     0.0830
 1307.5000     8.9800    88.8080     2.4870     0.0890
 1308.0000     8.9800    89.0610     2.4940     0.0950
 1308.5000     8.9800    89.3330     2.4930     0.0960
 1309.0000     8.9800    89.6150     2.4750     0.0810
 1309.5000     8.9800    89.6100     2.4560     0.0590
 1310.0000     8.9800    89.2290     2.4540     0.0570
 1310.5000     8.9800    88.8630     2.4580     0.0580
 1311.0000     8.9800    88.4920     2.4630     0.0610
 1311.5000     8.9800    88.1150     2.4680     0.0640
 1312.0000     8.9800    87.7500     2.4700     0.0650
 1312.5000     8.9800    87.3260     2.4700     0.0650
 1313.0000     8.9800    86.7680     2.4650     0.0600
 1313.5000     8.9800    86.0810     2.4580     0.0530
 1314.0000     8.9800    85.4180     2.4510     0.0470
 1314.5000     8.9800    84.6880     2.4430     0.0400
 1315.0000     8.9800    84.2580     2.4370     0.0340
 1315.5000     8.9800    84.3670     2.4340     0.0350
 1316.0000     8.9800    84.4660     2.4450     0.0570
 1316.5000     8.9800    84.5670     2.4530     0.0610
 1317.0000     8.9800    84.6860     2.4470     0.0510
 1317.5000     8.9800    84.7760     2.4530     0.0450
 1318.0000     8.9800    84.8730     2.4680     0.0570
 1318.5000     8.9800    84.4460     2.4820     0.0660
 1319.0000     8.9800    83.9550     2.4970     0.0730
 1319.5000     8.9800    83.4570     2.5100     0.0780
 1320.0000     8.9800    82.9520     2.5120     0.0810
 1320.5000     8.9800    82.4770     2.5050     0.0750
 1321.0000     8.9800    81.9400     2.4980     0.0660
 1321.5000     8.9800    81.8940     2.4940     0.0700
 1322.0000     8.9800    81.7310     2.5120     0.0820
 1322.5000     8.9800    81.5950     2.5150     0.0930
 1323.0000     8.9800    81.4330     2.5200     0.0930
 1323.5000     8.9800    81.2850     2.5240     0.0930
 1324.0000     8.9800    81.1330     2.5190     0.0910
 1324.5000     8.9800    80.9800     2.5100     0.0810
 1325.0000     8.9800    80.8290     2.5040     0.0710
 1325.5000     8.9800    80.6770     2.5050     0.0640
 1326.0000     8.9800    80.5250     2.5060     0.0690
 1326.5000     8.9800    80.3730     2.5030     0.0740
 1327.0000     8.9800    80.2210     2.4980     0.0810
 1327.5000     8.9800    80.0690     2.5020     0.0810
 1328.0000     8.9800    79.9180     2.5100     0.0810
 1328.5000     8.9800    79.7660     2.4930     0.0720
 1329.0000     8.9800    79.6140     2.4800     0.0570
 1329.5000     8.9800    79.4620     2.4640     0.0480
 1330.0000     8.9800    79.3100     2.4620     0.0490
 1330.5000     8.9800    79.1590     2.4620     0.0490
 1331.0000     8.9800    79.0050     2.4610     0.0510
 1331.5000     8.9800    78.7560     2.4630     0.0570
