~VERSION INFORMATION
 VERS.                2.0:   CWLS LOG ASCII STANDARD - VERSION 2.0
 WRAP.                 NO:   ONE LINE PER DEPTH STEP
~WELL INFORMATION
#MNEM.UNIT      DATA TYPE    INFORMATION
#----------   ------------   ------------------------------
 STRT.F           16.0000:   START DEPTH
 STOP.F         4208.0000:   STOP DEPTH
 STEP.F            0.5000:   STEP LENGTH
 NULL.          -999.2500:   NO VALUE
 COMP.    FENIX & SCISSON:   COMPANY
 WELL. FENIX NPR 3 "MX" #41-10:   WELL
 FLD .                NPR:   FIELD
 LOC .      S10 T38N R78W:   LOCATION
 CNTY.            NATRONA:   COUNTY
 STAT.            WYOMING:   STATE
 CTRY. UNITED STATES OF AMERICA:   COUNTRY
 SRVC.       SCHLUMBERGER:   SERVICE COMPANY
 DATE.        04-NOV-1978:   LOGDATE
 API .     49025107260000:   API NUMBER
~CURVE INFORMATION
#MNEM.UNIT       API CODE    CURVE DESCRIPTION
#----------   ------------   ------------------------------
 DEPT.F                  :   
 TENR.LBS    07 635 01 00:   TENSION FROM RESISTIVITY
 SPR .MV     07 010 01 00:   SPONTANEOUS POTENTIAL
 SFL .OHMM   07 220 01 00:   SHALLOW FOCUSED LOG RESISTIVITY
 ILD .OHMM   07 120 46 00:   DEEP INDUCTION RESISTIVITY
 ILM .OHMM   07 120 44 00:   INDUCTION LOG MEDIUM RESISTIVITY
 CALD.IN     45 280 60 00:   CALIPER FROM DENSITY LOG
 GRD .GAPI   45 310 01 00:   GAMMA RAY FROM DENSITY LOG
 TEND.LBS    45 635 01 00:   TENSION FROM DENSITY LOG
 RHOB.G/C3   45 350 01 00:   BULK DENSITY
 CORR.G/C3   45 356 01 00:   DENSITY CORRECTION
 NPHI.DEC    42 890 03 00:   NEUTRON POROSITY SANDSTONE
~PARAMETER INFORMATION
#MNEM.UNIT          VALUE    DESCRIPTION
#----------   ------------   ------------------------------
 EKB .F         5237.0000:   Kelly bushing
 EGL .F         5227.0000:   Ground level
 EDF .F            0.0000:   Drilling floor
 TD  .F         4200.0000:   Total depth
 DATE.        04-NOV-1978:   Date logged
 CLNT.            A2DTECH:   Client Code
 SL  . 70' FNL & 2370' FWL:   Surface Location
 PD  .                 GL:   Permanent Datum
 EPD .F              5227:   Elevation Permanent Datum
 LMF .                 KB:   Log Measured From
 DMF .                 KB:   Drilling Measured From
 DAPD.F                10:   Feet Above Permanent Datum
 DD  .F              4200:   Depth driller
 DL  .F              4191:   Depth logger
 BLI .F              4185:   Bottom log interval
 TLI .F               506:   Top log interval
 CS1 .IN            9.625:   Casing size
 CBD1.      9.625" @ 500':   Casing driller 1
 CBL1.F               506:   Casing logger 1
 BS1 .IN             8.75:   Bit size
 BSD1.F              4200:   Depth drilled with bit1
 DFT .                FGM:   Type fluid in hole
 DFD .                9.3:   Density
 DFV .                 42:   Viscosity
 DFPH.               11.5:   pH
 DFL .                6.4:   Fluid loss
 MSS .               TANK:   Source of sample
 RMS .OHMM           1.08:   Rm
 MST .F                67:   Rm Meas. temp.
 RMF .OHMM           0.83:   Rmf
 MFST.F                67:   Rmf Meas. temp.
 MFSS.               MEAS:   Source Rmf.
 RMB .OHMM           0.58:   Rm. at BHT
 BHT .F               125:   BHT.
 TCS .HRS            0430:   Time Circ. stopped
 TLAB.HRS            0830:   Time logger at bottom
 MRT .F               125:   Maximum recorded temp.
 LUN .               8039:   Logging unit number
 LUL .               CSPR:   Logging unit location
 ENGI.          STADULLIS:   Recorded By
 WITN.              AMEND:   Witnessed by
 ORIG.           5" PRINT:   Origin of data
 UWI .     49025107260000:   Unique Well ID
 DICO. A2D TECHNOLOGIES, INC.:   Digitizing Company
~OTHER INFORMATION
~A   DEPT     TENR        SPR        SFL        ILD        ILM       CALD         GRD      TEND       RHOB       CORR       NPHI   
# ...
 4164.0000  1532.2090   -17.4300     4.3500     3.4020     3.5000     8.8540   129.3670  1923.2581     2.5450     0.0300     0.2650
 4164.5000  1511.4860   -17.4660     4.7140     3.3760     3.5480     8.8540   143.5960  1923.0120     2.5450     0.0320     0.2820
 4165.0000  1490.7629   -17.4940     4.9500     3.3500     3.5410     8.8540  -999.2500  1922.7670     2.5630     0.0440     0.2890
 4165.5000  1470.0400   -17.5610     4.6680     3.3240     3.5200     8.8540  -999.2500  1922.5210     2.5790     0.0530     0.2850
 4166.0000  1521.0170   -17.3990     4.3740     3.2980     3.4990     8.8540  -999.2500  1922.2760     2.5950     0.0640     0.2770
 4166.5000  1590.0940   -17.3630     4.0390     3.2720     3.4830     8.8550  -999.2500  1922.0300     2.6130     0.0730     0.2660
 4167.0000  1666.6670   -17.3560     3.9650     3.2460     3.4070     8.8520  -999.2500  1921.7841     2.6120     0.0780     0.2700
 4167.5000  1666.6670   -17.3500     4.0740     3.2200     3.3800     8.8470  -999.2500  1921.5389     2.6080     0.0840     0.2840
 4168.0000  1706.8270   -17.3240     4.2310     3.1940     3.3570     8.8420  -999.2500  1921.2930     2.6040     0.0890     0.2970
 4168.5000  1666.6670   -17.3030     4.1200     3.1680     3.3570     8.8370  -999.2500  1921.0480     2.6070     0.0960     0.3050
 4169.0000  1592.4500   -17.2820     3.9650     3.1420     3.3570     8.8330  -999.2500  1920.8020     2.6070     0.0880     0.3040
 4169.5000  1468.1121   -17.2610     3.9650     3.1170     3.3570     8.8280  -999.2500  1920.5560     2.5910     0.0740     0.2990
 4170.0000  1438.0020   -17.2390     4.2420     3.1920     3.3640     8.8230  -999.2500  1920.3110     2.5760     0.0590     0.2990
 4170.5000  1483.3330   -17.2180     4.5060     3.2620     3.3910     8.8180  -999.2500  1920.0649     2.5690     0.0510     0.3000
 4171.0000  1528.6650   -17.1970     4.7700     3.3330     3.4190     8.8140  -999.2500  1919.8199     2.5770     0.0570     0.3020
 4171.5000  1573.9960   -17.1720     4.7700     3.4040     3.5120     8.8090  -999.2500  1919.5740     2.5830     0.0620     0.2920
 4172.0000  1619.3270   -17.1840     4.6150     3.5200     3.6780     8.8040  -999.2500  1919.3290     2.5890     0.0680     0.2800
 4172.5000  1664.6591   -17.2470     4.5130     3.6480     3.8440     8.8000  -999.2500  1919.0830     2.5950     0.0740     0.2670
 4173.0000  1706.8270   -17.3070     4.5970     3.7760     4.0100     8.7950  -999.2500  1918.8370     2.6010     0.0780     0.2550
 4173.5000  1642.1689   -17.3670     5.1540     3.9040     4.1910     8.7900  -999.2500  1918.5920     2.5890     0.0790  -999.2500
 4174.0000  1581.7271   -17.4290     5.6740     4.0320     4.3030     8.7850  -999.2500  1918.3459     2.5760     0.0730  -999.2500
 4174.5000  1521.2850   -17.4860     6.1950     4.1140     4.4300     8.7810  -999.2500  1918.1010     2.5610     0.0640  -999.2500
 4175.0000  1460.8430   -17.5550     6.4130     4.0830     4.2570     8.7760  -999.2500  1917.8550     2.5510     0.0550  -999.2500
 4175.5000  1444.2910   -17.5590     6.2300     4.0500     4.0790     8.7730  -999.2500  1917.6100     2.5500     0.0460  -999.2500
 4176.0000  1488.6980   -17.5610     5.7920     3.9160     3.9010     8.7730  -999.2500  1917.3640     2.5570     0.0410  -999.2500
 4176.5000  1533.1040   -17.5590     5.3550     3.7250     3.7230     8.7730  -999.2500  1917.1180     2.5880     0.0490  -999.2500
 4177.0000  1577.5100   -17.5600     4.9170     3.5350     3.5440     8.7730  -999.2500  1916.8730     2.6160     0.0690  -999.2500
 4177.5000  1621.9160   -17.5600     4.4800     3.3440     3.3660     8.7730  -999.2500  1916.6270     2.6490     0.0880  -999.2500
 4178.0000  1666.3220   -17.5580     4.0390     3.1540     3.1170     8.7730  -999.2500  1916.3820     2.6420     0.1050  -999.2500
 4178.5000  1710.7290   -17.5290     3.9650     3.0040     3.1300     8.7730  -999.2500  1916.1360     2.6300     0.1010  -999.2500
 4179.0000  1755.1350   -17.4980     3.9650     2.9700     3.1520     8.7730  -999.2500  1915.8900     2.6190     0.0970  -999.2500
 4179.5000  1773.4520   -17.4590     4.0080     2.9280     3.1760     8.7580  -999.2500  1915.6450     2.6090     0.0940  -999.2500
 4180.0000  1724.3710   -17.4390     4.1140     2.8860     3.0950     8.7430  -999.2500  1915.3990     2.6000     0.0860  -999.2500
 4180.5000  1675.2910   -17.3980     4.0120     2.8420     3.0050     8.7360  -999.2500  1915.1541     2.5910     0.0700  -999.2500
 4181.0000  1626.2100   -17.3250     3.7140     2.8420     2.9140     8.7500  -999.2500  1914.9080     2.5810     0.0540  -999.2500
 4181.5000  1577.1300   -17.1590     3.4190  -999.2500  -999.2500     8.7640  -999.2500  1914.6630     2.5830     0.0500  -999.2500
 4182.0000  1528.0490   -16.9620     3.2950  -999.2500  -999.2500     8.7780  -999.2500  1914.4170     2.5860     0.0600  -999.2500
 4182.5000  1478.9690   -16.5490     3.2950  -999.2500  -999.2500     8.7920  -999.2500  1914.1710     2.5890     0.0680  -999.2500
 4183.0000  1425.7030   -16.8350     3.3530  -999.2500  -999.2500     8.8060  -999.2500  1913.9260     2.5840     0.0680  -999.2500
 4183.5000  1495.2070   -17.2060     3.4070  -999.2500  -999.2500     8.8150  -999.2500  1913.6801     2.5820     0.0650  -999.2500
 4184.0000  1571.1910   -17.5450     3.4610  -999.2500  -999.2500     8.8140  -999.2500  1913.4351     2.5840     0.0640  -999.2500
 4184.5000  1647.1750   -17.5520  -999.2500  -999.2500  -999.2500     8.8140  -999.2500  1913.1890     2.5850     0.0660  -999.2500
 4185.0000  1723.1591   -17.5650  -999.2500  -999.2500  -999.2500     8.8140  -999.2500  1912.9430     2.5850     0.0670  -999.2500
 4185.5000  1799.1429  -999.2500  -999.2500  -999.2500  -999.2500     8.8080  -999.2500  1912.6980     2.5950     0.0690  -999.2500
 4186.0000  1867.4700  -999.2500  -999.2500  -999.2500  -999.2500     8.8010  -999.2500  1912.4520     2.6100     0.0760  -999.2500
 4186.5000  1818.7419  -999.2500  -999.2500  -999.2500  -999.2500     8.7940  -999.2500  1912.2070     2.6260     0.0850  -999.2500
 4187.0000  1669.0760  -999.2500  -999.2500  -999.2500  -999.2500     8.7880  -999.2500  1911.9611     2.6200     0.0860  -999.2500
 4187.5000  1519.4110  -999.2500  -999.2500  -999.2500  -999.2500     8.7790  -999.2500  1911.7159     2.6170     0.0880  -999.2500
 4188.0000  1345.3820  -999.2500  -999.2500  -999.2500  -999.2500     8.7690  -999.2500  1911.4700  -999.2500     0.0920  -999.2500
 4188.5000  1305.2209  -999.2500  -999.2500  -999.2500  -999.2500     8.6880  -999.2500  1911.2240  -999.2500     0.1410  -999.2500
 4189.0000  1265.0601  -999.2500  -999.2500  -999.2500  -999.2500     8.6060  -999.2500  1910.9790  -999.2500     0.1760  -999.2500
 4189.5000  1265.0601  -999.2500  -999.2500  -999.2500  -999.2500     8.5220  -999.2500  1910.7330  -999.2500  -999.2500  -999.2500
 4190.0000  1265.0601  -999.2500  -999.2500  -999.2500  -999.2500     8.4520  -999.2500  1910.4880  -999.2500  -999.2500  -999.2500
 4190.5000  1265.0601  -999.2500  -999.2500  -999.2500  -999.2500  -999.2500  -999.2500  1910.2419  -999.2500  -999.2500  -999.2500
 4191.0000  1265.0601  -999.2500  -999.2500  -999.2500  -999.2500  -999.2500  -999.2500  1909.9969  -999.2500  -999.2500  -999.2500
 4191.5000  1265.0601  -999.2500  -999.2500  -999.2500  -999.2500  -999.2500  -999.2500  1909.7510  -999.2500  -999.2500  -999.2500
 4192.0000  1265.0601  -999.2500  -999.2500  -999.2500  -999.2500  -999.2500  -999.2500  1909.5050  -999.2500  -999.2500  -999.2500
 4192.5000  1265.0601  -999.2500  -999.2500  -999.2500  -999.2500  -999.2500  -999.2500  1909.2600  -999.2500  -999.2500  -999.2500
 4193.0000  1265.0601  -999.2500  -999.2500  -999.2500  -999.2500  -999.2500  -999.2500  1909.0140  -999.2500  -999.2500  -999.2500
 4193.5000  1272.4900  -999.2500  -999.2500  -999.2500  -999.2500  -999.2500  -999.2500  1908.7690  -999.2500  -999.2500  -999.2500
 4194.0000  1278.9659  -999.2500  -999.2500  -999.2500  -999.2500  -999.2500  -999.2500  1908.5229  -999.2500  -999.2500  -999.2500
