~VERSION INFORMATION
 VERS.                2.0:   CWLS LOG ASCII STANDARD - VERSION 2.0
 WRAP.                 NO:   ONE LINE PER DEPTH STEP
~WELL INFORMATION
#MNEM.UNIT      DATA TYPE    INFORMATION
#----------   ------------   ------------------------------
 STRT.F           50.0000:   START DEPTH
 STOP.F         5698.0000:   STOP DEPTH
 STEP.F            0.5000:   STEP LENGTH
 NULL.          -999.2500:   NO VALUE
 COMP. LAWRENCE - ALLISON:   COMPANY
 WELL. LAWRENCE TPX #57-3:   WELL
 FLD .              NPR 3:   FIELD
 LOC .       S3 T38N R78W:   LOCATION
 CNTY.            NATRONA:   COUNTY
 STAT.            WYOMING:   STATE
 CTRY. UNITED STATES OF AMERICA:   COUNTRY
 SRVC.       SCHLUMBERGER:   SERVICE COMPANY
 DATE.        09-AUG-1982:   LOGDATE
 API .     49025108900000:   API NUMBER
~CURVE INFORMATION
#MNEM.UNIT       API CODE    CURVE DESCRIPTION
#----------   ------------   ------------------------------
 DEPT.F                  :   
 TEND.LBS    45 635 01 00:   TENSION FROM DENSITY LOG
 CALD.IN     45 280 60 00:   CALIPER FROM DENSITY LOG
 NPHI.DEC    42 890 03 00:   NEUTRON POROSITY SANDSTONE
 CORR.G/C3   45 356 01 00:   DENSITY CORRECTION
 RHOB.G/C3   45 350 01 00:   BULK DENSITY
 SPR .MV     11 010 01 00:   SPONTANEOUS POTENTIAL FROM RESISTIVITY
 TENR.LBS    11 635 01 00:   TENSION FROM RESISTIVITY
 GRR .GAPI   11 310 01 00:   GAMMA RAY FROM RESISTIVITY
 LLD .OHMM   11 220 10 00:   LATEROLOG DEEP
 LLS .OHMM   11 220 09 00:   LATEROLOG LOG SHALLOW
 MSFL.OHMM   11 270 04 00:   MICRO SPHERICALLY FOCUSED
~PARAMETER INFORMATION
#MNEM.UNIT          VALUE    DESCRIPTION
#----------   ------------   ------------------------------
 EKB .F         5190.0000:   Kelly bushing
 EGL .F         5180.0000:   Ground level
 EDF .F         5189.0000:   Drilling floor
 TD  .F         5686.0000:   Total depth
 CLNT.            A2DTECH:   Client Code
 SL  . 1002' FSL & 2479' FEL:   Surface Location
 PD  .                 GL:   Permanent Datum
 EPD .F              5180:   Elevation Permanent Datum
 LMF .                 KB:   Log Measured From
 DMF .                 KB:   Drilling Measured From
 DAPD.F                10:   Feet Above Permanent Datum
 DATE.        09-AUG-1982:   Date Logged [DD-MMM-YYYY]
 DD  .F              5685:   Depth driller
 DL  .F              5686:   Depth logger
 BLI .F              5683:   Bottom log interval
 TLI .F               494:   Top log interval
 CS1 .IN            9.625:   Casing size
 CBD1.      9.625" @ 500':   Casing driller 1
 CBL1.F               494:   Casing logger 1
 BS1 .IN             8.75:   Bit size
 BSD1.F              5685:   Depth drilled with bit1
 DFT .                KCL:   Type fluid in hole
 DFD .                9.0:   Density
 DFV .                 38:   Viscosity
 DFPH.                8.5:   pH
 DFL .                9.0:   Fluid loss
 MSS .            MUDTANK:   Source of sample
 RMS .OHMM           0.27:   Rm
 MST .F                79:   Rm Meas. temp.
 RMF .OHMM           0.27:   Rmf
 MFST.F                79:   Rmf Meas. temp.
 MFSS.               MEAS:   Source Rmf.
 RMB .OHMM            .13:   Rm. at BHT
 BHT .F               164:   BHT.
 TCS .HRS            1300:   Time Circ. stopped
 MRT .F               164:   Maximum recorded temp.
 LUN .               8035:   Logging unit number
 LUL .               CSPR:   Logging unit location
 ENGI.            PERAKIS:   Recorded By
 WITN.           L. FIVAS:   Witnessed by
 ORIG.        2" 5" PRINT:   Origin of data
 UWI .     49025108900000:   Unique Well ID
 DICO. A2D TECHNIOLOGIES,INC.:   Digitizing Company
 RMC .OHMM           0.41:   Rmc
 MCST.F                79:   Rmc Meas. temp.
 MCSS.               CALC:   Source Rmc.
 TLAB.HRS            2000:   Time logger at bottom
~OTHER INFORMATION
~A  DEPTH     TEND       CALD       NPHI       CORR       RHOB        SPR       TENR        GRR        LLD        LLS       MSFL
# ...
 4625.0000  1656.6265    11.0226     0.2276     0.0186     2.6595   -65.3373  1696.6967   122.9277    14.0874    13.9204    20.7751
 4625.5000  1656.6265    11.0079     0.2270     0.0149     2.6717   -65.3717  1696.6967   125.9823    13.8072    13.7357    21.5178
 4626.0000  1656.6265    11.0082     0.2273     0.0038     2.6700   -65.4062  1696.6967   130.0156    13.3478    13.3716    22.0231
 4626.5000  1656.6265    11.0084     0.2306     0.0009     2.6558   -65.4414  1711.7117   132.7044    12.8154    13.0152    17.8714
 4627.0000  1656.6265    11.0087     0.2417     0.0016     2.6514   -65.4745  1711.7117   131.2341    12.4745    12.6680    17.6451
 4627.5000  1662.5836    10.9940     0.2462     0.0039     2.6514   -65.4315  1711.7117   128.8589    12.2264    12.5887    17.1774
 4628.0000  1669.3976    10.9943     0.2539     0.0039     2.6552   -65.1152  1711.7117   128.2841    12.0551    12.5965    16.7170
 4628.5000  1676.7068    10.9795     0.2612     0.0017     2.6515   -64.8006  1726.7267   128.9350    11.5861    12.3455    17.8021
 4629.0000  1676.7068    10.9647     0.2596     0.0010     2.6463   -64.4079  1726.7267   131.6880    11.2007    11.8534    18.8244
 4629.5000  1676.7068    10.9348     0.2524     0.0018     2.6433   -64.0275  1726.7267   135.0443    11.1284    11.6174    17.3380
 4630.0000  1676.7068    10.9049     0.2461     0.0048     2.6434   -63.6479  1726.7267   136.5906    11.6046    11.8677    15.6417
 4630.5000  1676.7068    10.9053     0.2500     0.0019     2.6464   -63.2673  1726.7267   126.3818    12.7836    12.9899    17.4736
 4631.0000  1676.7068    10.8754     0.2499     0.0004     2.6337   -62.8745  1726.7267   105.3037    16.0469    16.7808    25.2213
 4631.5000  1676.7068    10.8736     0.2132     0.0020     2.6226   -62.4658  1741.7417    90.5604    21.2338    22.9870    32.3575
 4632.0000  1676.7068    10.8609     0.1813     0.0050     2.6167   -62.1988  1741.7417    82.1425    25.8156    26.6870    34.9317
 4632.5000  1676.7068    10.8613     0.1153     0.0013     2.6115   -62.0221  1741.7417    86.7149    26.0075    25.7969    33.7666
 4633.0000  1676.7068    10.8616     0.0951    -0.0048     2.6063   -61.8474  1741.7417    91.8812    24.6291    23.4342    29.8384
 4633.5000  1676.7068    10.8619     0.0945    -0.0098     2.6026   -61.6727  1741.7417    98.8574    19.7769    20.9960    26.9191
 4634.0000  1676.7068    10.8622     0.1144    -0.0105     2.6034   -61.4979  1741.7417   101.9295    18.7262    19.6070    24.2533
 4634.5000  1676.7068    10.8625     0.1321    -0.0060     2.6153   -61.3270  1726.7267    99.8479    19.5276    20.3079    25.3315
 4635.0000  1681.1953    10.8628     0.1378    -0.0022     2.6191   -61.1421  1726.7267    92.0429    22.4172    24.1484    29.5046
 4635.5000  1687.2076    10.8480     0.1245    -0.0029     2.6148   -60.9602  1726.7267    81.5228    27.9389    29.1615    34.3651
 4636.0000  1693.2200    10.8483     0.1143    -0.0044     2.5934   -60.7780  1726.7267    68.8912    32.5280    35.5953    38.1378
 4636.5000  1696.7871    10.8486     0.0905    -0.0044     2.5715   -60.5961  1726.7267    66.5064    38.1559    36.3621    40.6073
 4637.0000  1696.7871    10.8489     0.0772    -0.0036     2.5655   -60.4140  1726.7267    66.2428    39.4784    35.8851    40.3521
 4637.5000  1696.7871    10.8492     0.0711    -0.0019     2.5723   -60.2316  1726.7267    65.9879    38.4282    35.6542    40.0986
 4638.0000  1699.9197    10.8495     0.0666     0.0017     2.5865   -60.0497  1741.7417    66.9443    37.1498    35.1864    39.8110
 4638.5000  1706.7336    10.8498     0.0693     0.0062     2.5999   -59.8933  1741.7417    69.4840    36.9101    34.7296    32.6409
 4639.0000  1713.5475    10.8501     0.0765     0.0107     2.6044   -59.8803  1741.7417    72.4472    37.7041    35.4954    28.0579
 4639.5000  1716.8674    10.8504     0.0795     0.0115     2.5985   -59.8644  1741.7417    73.9935    39.0432    37.5211    27.1181
 4640.0000  1716.8674    10.8507     0.0798     0.0108     2.5858   -59.8481  1741.7417    74.9366    39.6047    39.1316    38.5930
 4640.5000  1716.8674    10.8510     0.0795     0.0071     2.5807   -59.8317  1741.7417    76.1812    39.6264    39.6996    47.1766
 4641.0000  1716.8674    10.8513     0.0801     0.0034     2.5859   -59.8154  1741.7417    81.0458    38.3125    38.6414    48.8630
 4641.5000  1716.8674    10.8516     0.0830     0.0012     2.5964   -59.7990  1741.7417    92.8486    35.7867    34.8608    43.6270
 4642.0000  1716.8674    10.8519     0.1047     0.0043     2.6113   -59.7826  1726.7267   110.2171    30.3606    27.3937    28.7530
 4642.5000  1716.8674    10.8522     0.1321     0.0080     2.6247   -59.7663  1726.7267   123.7987    22.4491    18.4926    20.2312
 4643.0000  1709.8528    10.8525     0.1612     0.0043     2.6315   -59.7499  1726.7267   125.2402    16.2604    16.3117    19.0209
 4643.5000  1703.0388    10.8528     0.1973     0.0021     2.6278   -59.7336  1726.7267   121.6679    14.7764    16.0159    21.8538
 4644.0000  1696.7761    10.8531     0.2039     0.0051     2.6271   -59.7171  1726.7267   122.3092    14.4692    15.4841    22.6350
 4644.5000  1696.7708    10.8534     0.2006     0.0082     2.6368   -59.7007  1726.7267   129.2854    13.2535    14.7624    20.0018
 4645.0000  1696.7817    10.8538     0.2036     0.0067     2.6443   -59.6999  1726.7267   132.0384    12.6376    14.2700    17.9207
 4645.5000  1696.7871    10.8540     0.2258     0.0015     2.6418   -59.7000  1726.7267   133.6494    12.1335    13.6049    16.2793
 4646.0000  1696.7871    10.8543     0.2460    -0.0053     2.6257   -59.7001  1726.7267   124.2240    13.0037    14.1889    19.3609
 4646.5000  1696.7871    10.8546     0.2472    -0.0073     2.6242   -59.7006  1726.7267   105.2916    16.1004    19.5577    36.0621
 4647.0000  1696.7871    10.8549     0.2237     0.0084     2.6347   -59.7001  1741.7417    90.8728    21.7977    24.0117    38.9310
 4647.5000  1696.7871    10.8552     0.1577     0.0188     2.6504   -59.6544  1741.7417    83.3694    28.1248    28.9496    40.0453
 4648.0000  1696.7871    10.8555     0.1174     0.0174     2.6586   -59.4198  1741.7417    82.8041    31.9050    32.1279    41.1914
 4648.5000  1696.7871    10.8558     0.1059     0.0114     2.6542   -59.1907  1741.7417    81.6355    32.7553    32.5942    42.9594
 4649.0000  1711.2450    10.8561     0.1020     0.0070     2.6423   -58.9620  1741.7417    80.4669    32.5439    32.1665    41.4541
 4649.5000  1728.2798    10.8565     0.1018     0.0069     2.6296   -58.7333  1741.7417    78.9967    31.6824    30.8798    34.9696
 4650.0000  1734.4291    10.8568     0.1077     0.0123     2.6162   -58.5046  1741.7417    76.6214    30.0033    29.2390    31.9837
 4650.5000  1729.3489    10.8571     0.1092     0.0169     2.6118   -58.2759  1750.5255    73.6401    28.6091    28.6482    32.0013
 4651.0000  1724.1859    10.8575     0.1022     0.0198     2.6178   -58.0472  1764.0723    70.6675    27.4679    28.2696    31.5789
 4651.5000  1719.0548    10.8580     0.0956     0.0221     2.6223   -57.8185  1762.8733    65.8762    27.1067    28.2810    31.1667
 4652.0000  1713.1718    10.8584     0.0916     0.0199     2.6201   -57.5897  1761.6766    68.3247    27.2967    28.2927    30.7516
 4652.5000  1706.7604    10.8589     0.0898     0.0132     2.6082   -57.3606  1760.2510    72.2815    27.6856    28.5026    30.5564
 4653.0000  1700.3254    10.8594     0.0880     0.0058     2.6023   -57.1298  1744.1146    74.7300    28.2737    28.7117    31.2168
 4653.5000  1696.7871    10.8599     0.0861    -0.0016     2.5993   -56.9108  1742.9496    72.0503    28.6765    28.9222    33.4662
 4654.0000  1696.7871    10.8604     0.0816    -0.0031     2.6083   -57.0349  1741.7845    63.0358    29.0850    29.1343    33.2537
 4654.5000  1696.7871    10.8608     0.0789     0.0000     2.6150   -57.1765  1740.6183    59.4511    30.3217    29.5513    33.7610
 4655.0000  1699.6876    10.8613     0.0753     0.0084     2.6173   -57.3165  1739.4532    59.4872    32.0485    30.3910    35.1845
