~VERSION INFORMATION
 VERS.                2.0:   CWLS LOG ASCII STANDARD - VERSION 2.0
 WRAP.                 NO:   ONE LINE PER DEPTH STEP
~WELL INFORMATION
#MNEM.UNIT      DATA TYPE    INFORMATION
#----------   ------------   ------------------------------
 STRT.F          204.0000:   START DEPTH
 STOP.F         3104.0000:   STOP DEPTH
 STEP.F            0.5000:   STEP LENGTH
 NULL.          -999.2500:   NO VALUE
 COMP.    FENIX & SCISSON:   COMPANY
 WELL. FENIX NPR 83 "AX" #3-10:   WELL
 FLD .                NPR:   FIELD
 LOC .      S10 T38N R78W:   LOCATION
 CNTY.            NATRONA:   COUNTY
 STAT.            WYOMING:   STATE
 CTRY. UNITED STATES OF AMERICA:   COUNTRY
 SRVC.              WELEX:   SERVICE COMPANY
 DATE.        14-JUL-1977:   LOGDATE
 API .     49025103980000:   API NUMBER
~CURVE INFORMATION
#MNEM.UNIT       API CODE    CURVE DESCRIPTION
#----------   ------------   ------------------------------
 DEPT.F                  :   
 ILD .OHMM   07 120 46 00:   DEEP INDUCTION RESISTIVITY
 GURD.OHMM   07 220 05 00:   GUARD LOG RESISTIVITY
 ILM .OHMM   07 120 44 00:   INDUCTION LOG MEDIUM RESISTIVITY
 SPR .MV     07 010 01 00:   SPONTANEOUS POTENTIAL
 CALD.IN     45 280 60 00:   CALIPER FROM DENSITY LOG
 GRD .GAPI   45 310 01 00:   GAMMA RAY FROM DENSITY LOG
 RHOB.G/C3   45 350 01 00:   BULK DENSITY
 CORR.G/C3   45 356 01 00:   DENSITY CORRECTION
 NPHI.DEC    42 890 03 00:   NEUTRON POROSITY SANDSTONE
~PARAMETER INFORMATION
#MNEM.UNIT          VALUE    DESCRIPTION
#----------   ------------   ------------------------------
 EKB .F         5176.0000:   Kelly bushing
 EGL .F         5166.0000:   Ground level
 TD  .F         3105.0000:   Total depth
 DATE.        14-JUL-1977:   Date logged
 CLNT.            A2DTECH:   Client Code
 SL  . 1650' FNL & 100' FEL:   Surface Location
 PD  .                 GL:   Permanent Datum
 DD  .F              3094:   Depth driller
 DL  .F              3105:   Depth logger
 BLI .F              3103:   Bottom log interval
 CS1 .IN            8.625:   Casing size
 CBD1.      8.625" @ 218':   Casing driller 1
 CBL1.F               220:   Casing logger 1
 BS1 .IN            7.875:   Bit size
 DFT .            KCL/GEL:   Type fluid in hole
 DFD .                9.4:   Density
 DFV .                 36:   Viscosity
 DFPH.                  8:   pH
 DFL .                 12:   Fluid loss
 MSS .           FLOWLINE:   Source of sample
 RMS .OHMM           1.54:   Rm
 MST .F               100:   Rm Meas. temp.
 RMF .OHMM            1.5:   Rmf
 MFST.F               100:   Rmf Meas. temp.
 RMC .OHMM           3.47:   Rmc
 MCST.F               100:   Rmc Meas. temp.
 MFSS.               FANN:   Source Rmf.
 RMB .OHMM           1.36:   Rm. at BHT
 BHT .F               113:   BHT.
 TCS .HRS             2.5:   Time Circ. stopped
 MRT .F               113:   Maximum recorded temp.
 LUN .               8766:   Logging unit number
 LUL .             CASPER:   Logging unit location
 ENGI. G. BENTSEN/T. JOYNER:   Recorded By
 WITN.      B. HARRINGTON:   Witnessed by
 ORIG.           5" PRINT:   Origin of data
 UWI .     49025103980000:   Unique Well ID
 DICO. A2D TECHNOLOGIES, INC.:   Digitizing Company
 DAPD.F                10:   Feet Above Permanent Datum
 BSD1.F              3094:   Depth drilled with bit1
 MCSS.                KIT:   Source Rmc.
 TLI .F               210:   Top log interval
 EPD .F              5166:   Elevation Permanent Datum
 LMF .                 KB:   Log Measured From
 DMF .                 KB:   Drilling Measured From
~OTHER INFORMATION
~A   DEPT      ILD       GURD        ILM        SPR       CALD        GRD       RHOB       CORR       NPHI   
# ...
  569.0000     4.1410     5.5730     3.8130   -62.6730    10.3980   109.8870     2.4380     0.0310     0.3360
  569.5000     4.5700     5.7470     4.3030   -62.6730    10.3960   109.0180     2.4290     0.0270     0.3370
  570.0000     5.0000     5.9280     4.7930   -62.6730    10.3930   108.1760     2.4250     0.0250     0.3330
  570.5000     5.4370     6.1140     5.1280   -62.6730    10.3900   108.3110     2.4490     0.0270     0.3320
  571.0000     6.2440     6.3030     5.2100   -62.6730    10.3870   109.6260     2.4530     0.0290     0.3290
  571.5000     6.9130     6.3030     5.2920   -62.6730    10.3840   110.7880     2.4580     0.0310     0.3270
  572.0000     6.6930     6.3030     5.3750   -62.6730    10.3860   110.2920     2.4650     0.0330     0.3250
  572.5000     6.4140     6.3030     5.4570   -62.6730    10.3970   109.5880     2.4730     0.0380     0.3250
  573.0000     6.1350     6.2840     5.5390   -62.6730    10.4070   110.9570     2.4870     0.0420     0.3260
  573.5000     5.8540     6.2610     5.5890   -62.6670    10.4180   112.3360     2.4970     0.0460     0.3250
  574.0000     5.7020     6.2380     5.5120   -62.6440    10.4290   112.7210     2.4990     0.0500     0.3250
  574.5000     5.4870     6.2150     5.4340   -62.6220    10.4390   111.3530     2.5010     0.0520     0.3250
  575.0000     5.5060     6.1920     5.3870   -62.6000    10.4500   110.7390     2.5030     0.0520     0.3260
  575.5000     5.5520     6.1870     5.4440   -62.5780    10.4610   112.8300     2.5020     0.0520     0.3260
  576.0000     5.6360     6.1870     5.5410   -62.5560    10.4710   114.8490     2.4970     0.0520     0.3260
  576.5000     5.6130     6.1870     5.6940   -62.5330    10.4820   116.2940     2.4900     0.0520     0.3270
  577.0000     5.5650     6.1870     5.6600   -62.5110    10.4930   115.8270     2.4840     0.0520     0.3270
  577.5000     5.5170     6.1990     5.5760   -62.4890    10.5030   115.3470     2.4780     0.0500     0.3260
  578.0000     5.4700     6.2530     5.4920   -62.4670    10.5140   114.8480     2.4720     0.0480     0.3250
  578.5000     5.4220     6.3080     5.4080   -62.4450    10.5200   114.7850     2.4660     0.0450     0.3240
  579.0000     5.3740     6.3610     5.3240   -62.4220    10.5200   116.3340     2.4620     0.0430     0.3210
  579.5000     5.3370     6.2640     5.2400   -62.4000    10.5180   117.7280     2.4580     0.0400     0.3210
  580.0000     5.3370     6.1680     5.1910   -62.3780    10.5110   116.2890     2.4550     0.0380     0.3210
  580.5000     5.3370     6.0740     5.2220   -62.3560    10.5030   114.7580     2.4550     0.0380     0.3230
  581.0000     5.3530     6.1130     5.2710   -62.3340    10.4960   113.2480     2.4600     0.0390     0.3220
  581.5000     5.3690     6.1750     5.3210   -62.3110    10.4880   111.9020     2.4650     0.0390     0.3210
  582.0000     5.3840     6.2360     5.3700   -62.2890    10.4810   112.8390     2.4700     0.0400     0.3210
  582.5000     5.4030     6.2980     5.4190   -62.2670    10.4730   114.0090     2.4750     0.0410     0.3210
  583.0000     5.4230     6.3600     5.4690   -62.2450    10.4660   115.1790     2.4690     0.0410     0.3210
  583.5000     5.4440     6.4800     5.5180   -62.2230    10.4620   116.3940     2.4610     0.0410     0.3200
  584.0000     5.4640     6.3470     5.5670   -62.2000    10.4690   116.2560     2.4530     0.0420     0.3200
  584.5000     5.4870     6.1300     5.6170   -62.1780    10.4750   115.4930     2.4480     0.0470     0.3200
  585.0000     5.4280     6.1500     5.6940   -62.1560    10.4810   114.7170     2.4450     0.0520     0.3170
  585.5000     5.3590     6.1940     5.6420   -62.1340    10.4870   114.3890     2.4420     0.0540     0.3170
  586.0000     5.2890     6.2450     5.5250   -62.1120    10.4940   115.8070     2.4380     0.0540     0.3170
  586.5000     5.2190     6.2150     5.4070   -62.0890    10.5000   115.8640     2.4350     0.0540     0.3190
  587.0000     5.1490     6.1480     5.2900   -62.0670    10.5060   114.8540     2.4320     0.0530     0.3200
  587.5000     5.0560     6.0810     5.1720   -62.0450    10.5120   113.9310     2.4250     0.0520     0.3230
  588.0000     4.8930     6.0180     5.0550   -62.0230    10.5180   114.0180     2.4180     0.0510     0.3250
  588.5000     4.7290     5.7630     4.9380   -62.0010    10.5250   114.3030     2.4100     0.0520     0.3260
  589.0000     4.5660     5.5200     4.8200   -61.9780    10.5310   113.2030     2.4040     0.0520     0.3240
  589.5000     4.4780     5.2780     4.7330   -61.9560    10.5370   112.0070     2.4030     0.0490     0.3230
  590.0000     4.5810     4.9570     4.8310   -61.9340    10.5340   110.8110     2.4240     0.0450     0.3220
  590.5000     4.6790     5.1740     4.9230   -61.9120    10.5260   109.6320     2.5130     0.0490     0.3220
  591.0000     4.7770     5.5040     5.0150   -61.8900    10.5170   108.7260     2.5190     0.0520     0.3210
  591.5000     4.8750     5.8330     5.1070   -61.8670    10.5090   108.4530     2.5220     0.0550     0.3210
  592.0000     4.9730     6.1130     5.1990   -61.8450    10.5010   109.4780     2.5200     0.0510     0.3220
  592.5000     5.0710     6.2610     5.2910   -61.8230    10.4920   110.7940     2.5100     0.0460     0.3260
  593.0000     5.1680     6.4080     5.3830   -61.8010    10.4840   111.9050     2.4990     0.0450     0.3300
  593.5000     5.2960     6.5550     5.4760   -61.7790    10.4760   111.0370     2.4930     0.0390     0.3350
  594.0000     5.5010     6.7010     5.7010   -61.7560    10.4670   110.1830     2.4870     0.0340     0.3410
  594.5000     5.7060     6.8450     5.9460   -61.7340    10.4610   109.3420     2.4820     0.0320     0.3420
  595.0000     5.8650     6.9770     6.0830   -61.7120    10.4610   109.4560     2.4760     0.0310     0.3470
  595.5000     5.9040     6.9770     6.1150   -61.6890    10.4610   110.4130     2.4710     0.0310     0.3520
  596.0000     5.9440     6.9770     6.1470   -61.6830    10.4610   110.0020     2.4710     0.0300     0.3530
  596.5000     5.9830     6.9770     6.1790   -61.6830    10.4610   109.5700     2.4720     0.0310     0.3570
  597.0000     6.0220     7.0190     6.2110   -61.6830    10.4610   109.1410     2.4730     0.0310     0.3570
  597.5000     6.0740     7.1050     6.2430   -61.6830    10.4610   108.7140     2.4730     0.0310     0.3590
  598.0000     6.0690     7.1920     6.2750   -61.6830    10.4610   108.2860     2.4730     0.0320     0.3580
  598.5000     6.0620     7.2780     6.3070   -61.6830    10.4610   107.8580     2.4720     0.0320     0.3590
  599.0000     6.0550     7.3650     6.3390   -61.6830    10.4610   107.4310     2.4730     0.0320     0.3580
  599.5000     6.0480     7.4890     6.4060   -61.6830    10.4610   106.9940     2.4760     0.0320     0.3560
  600.0000     6.0410     7.3710     6.5570   -61.6830    10.4610   107.1490     2.4790     0.0330     0.3530
  600.5000     6.0340     7.2150     6.7240   -61.6830    10.4610   107.5590     2.4830     0.0330     0.3510
  601.0000     6.0270     7.0580     6.6870   -61.6830    10.4610   107.9780     2.4780     0.0340     0.3460
  601.5000     6.0200     7.0420     6.6130   -61.6830    10.4610   108.3970     2.4770     0.0340     0.3410
  602.0000     6.0010     7.0870     6.5390   -61.6830    10.4610   108.8150     2.4790     0.0360     0.3410
  602.5000     5.9660     7.1220     6.4650   -61.6830    10.4610   109.2350     2.4820     0.0390     0.3390
  603.0000     5.9310     7.1580     6.3910   -61.6830    10.4610   109.6050     2.4850     0.0420     0.3380
  603.5000     5.8960     7.1930     6.3170   -61.6830    10.4610   109.3740     2.4880     0.0450     0.3370
  604.0000     5.8610     7.2390     6.2430   -61.6830    10.4610   109.1100     2.4840     0.0430     0.3350
  604.5000     5.8260     7.1690     6.1690   -61.6830    10.4340   108.8470     2.4780     0.0400     0.3340
  605.0000     5.7900     7.0670     6.1300   -61.6830    10.3890   108.5850     2.4710     0.0380     0.3320
