~VERSION INFORMATION
 VERS.                2.0:   CWLS LOG ASCII STANDARD - VERSION 2.0
 WRAP.                 NO:   ONE LINE PER DEPTH STEP
~WELL INFORMATION
#MNEM.UNIT      DATA TYPE    INFORMATION
#----------   ------------   ------------------------------
 STRT.F         2200.0000:   START DEPTH
 STOP.F         3200.0000:   STOP DEPTH
 STEP.F            0.5000:   STEP LENGTH
 NULL.          -999.2500:   NO VALUE
 COMP.   LAWRENCE ALLISON:   COMPANY
 WELL. LAWRENCE "X" #18-34:   WELL
 FLD .          NPR NO. 3:   FIELD
 LOC .      S34 T39N R78W:   LOCATION
 CNTY.            NATRONA:   COUNTY
 STAT.            WYOMING:   STATE
 CTRY. UNITED STATES OF AMERICA:   COUNTRY
 SRVC.      DRESSER ATLAS:   SERVICE COMPANY
 DATE.        14-MAY-1986:   LOGDATE
 API .     49025110720000:   API NUMBER
~CURVE INFORMATION
#MNEM.UNIT       API CODE    CURVE DESCRIPTION
#----------   ------------   ------------------------------
 DEPT.F                  :   
 CALD.IN     45 280 60 00:   CALIPER FROM DENSITY LOG
 GRD .GAPI   45 310 01 00:   GAMMA RAY FROM DENSITY LOG
 TEND.LBS    45 635 01 00:   TENSION FORM DENSITY LOG
 CORR.G/C3   45 356 01 00:   DENSITY CORRECTION
 DEN .G/C3   45 350 01 00:   BULK DENSITY
 CNC .DEC    42 890 03 00:   NEUTRON POROSITY SANDSTONE
~PARAMETER INFORMATION
#MNEM.UNIT          VALUE    DESCRIPTION
#----------   ------------   ------------------------------
 EKB .F         5192.0000:   Kelly bushing
 EGL .F         5181.0000:   Ground level
 EDF .F         5189.0000:   Drilling floor
 TD  .F         3195.0000:   Total depth
 CLNT.            A2DTECH:   Client Code
 SL  . 722' FWL & 239' FSL:   Surface Location
 PD  .                 GL:   Permanent Datum
 EPD .F              5181:   Elevation Permanent Datum
 LMF .                 KB:   Log Measured From
 DMF .                 KB:   Drilling Measured From
 DAPD.F                11:   Feet Above Permanent Datum
 DATE.        14-MAY-1986:   Date Logged [DD-MMM-YYYY]
 DD  .F              3195:   Depth driller
 DL  .F              3194:   Depth logger
 BLI .F              3192:   Bottom log interval
 TLI .F                 0:   Top log interval
 CS1 .IN            8.625:   Casing size
 CBD1.      8.625" @ 601':   Casing driller 1
 CBL1.F               596:   Casing logger 1
 BS1 .IN            7.875:   Bit size
 BSD1.F              3195:   Depth drilled with bit1
 DFT .        POLYMER-KCL:   Type fluid in hole
 DFD .                  9:   Density
 DFV .                 35:   Viscosity
 DFPH.                9.5:   pH
 DFL .               16.2:   Fluid loss
 MSS .           FLOWLINE:   Source of sample
 RMS .OHMM          0.378:   Rm
 MST .F                65:   Rm Meas. temp.
 RMF .OHMM          0.306:   Rmf
 MFST.F                65:   Rmf Meas. temp.
 MFSS.               MEAS:   Source Rmf.
 RMC .OHMM          0.472:   Rmc
 MCST.F                65:   Rmc Meas. temp.
 MCSS.               CALC:   Source Rmc.
 RMB .OHMM          0.208:   Rm. at BHT
 BHT .F               118:   BHT.
 TCS .HRS               3:   Time Circ. stopped
 MRT .F               118:   Maximum recorded temp.
 LUN .            HL-6274:   Logging unit number
 LUL .           GILLETTE:   Logging unit location
 ENGI.             RAUTIO:   Recorded By
 WITN.             STRONG:   Witnessed by
 ORIG.           5" PRINT:   Origin of data
 UWI .     49025110720000:   Unique Well ID
 DICO. A2D TECHNOLOGIES, INC.:   Digitizing Company
~OTHER INFORMATION
~A  DEPT        CALD      GRD        TEND        CORR        DEN        CNC 
# ...
 2928.0000     8.6679   128.2655   -22.6160     0.0074     2.5321     0.2940
 2928.5000     8.6675   124.9068   -22.3227    -0.0017     2.5442     0.3001
 2929.0000     8.6521   122.7045   -22.0296    -0.0063     2.5539     0.3119
 2929.5000     8.6368   124.8992   -21.7293    -0.0108     2.5629     0.3155
 2930.0000     8.6365   128.5043   -21.3700     0.0042     2.5508     0.3293
 2930.5000     8.6362   132.4111   -13.5579     0.0284     2.5342     0.3252
 2931.0000     8.6359   134.8096   -13.2648     0.0525     2.5228     0.3135
 2931.5000     8.6356   136.3068   -12.9716     0.0615     2.5198     0.3065
 2932.0000     8.6353   132.0651   -12.6785     0.0404     2.5190     0.3144
 2932.5000     8.6350   126.9221   -19.9774     0.0101     2.5213     0.3289
 2933.0000     8.6498   122.6842   -27.2029    -0.0171     2.5337     0.3353
 2933.5000     8.6495   123.5744   -34.3609    -0.0201     2.5460     0.3292
 2934.0000     8.6492   125.3695   -34.0601     0.0297     2.5520     0.3136
 2934.5000     8.6489   127.2823   -26.2406     0.0508     2.5518     0.2957
 2935.0000     8.6486   126.5454   -18.3648     0.0512     2.5503     0.2773
 2935.5000     8.6331   124.1173   -18.0717     0.0311     2.5481     0.2603
 2936.0000     8.6328   123.4992   -10.2596     0.0188     2.5458     0.2564
 2936.5000     8.6325   123.1578    -9.9665     0.0356     2.5442     0.2664
 2937.0000     8.6322   121.3075   -17.1921     0.0461     2.5449     0.2753
 2937.5000     8.6470   121.0380   -16.8990     0.0279     2.5411     0.2785
 2938.0000     8.6467   122.2298   -24.1353     0.0204     2.5358     0.2725
 2938.5000     8.6464   124.6283   -31.3503     0.0113     2.5372     0.2665
 2939.0000     8.6612   123.4069   -31.0526     0.0007     2.5410     0.2644
 2939.5000     8.6609   122.1855   -30.7519    -0.0054     2.5447     0.2665
 2940.0000     8.6757   122.7740   -30.3973     0.0021     2.5479     0.2771
 2940.5000     8.6754   125.1725   -30.1042     0.0097     2.5514     0.2869
 2941.0000     8.6600   125.1578   -29.8110     0.0161     2.5498     0.2861
 2941.5000     8.6597   125.7463   -29.5179     0.0232     2.5475     0.2856
 2942.0000     8.6594   128.1448   -28.2268     0.0262     2.5460     0.2883
 2942.5000     8.6591   130.9434   -21.7555     0.0110     2.5429     0.2968
 2943.0000     8.6588   139.8757   -15.2842    -0.0102     2.5368     0.3004
 2943.5000     8.6585   167.6141   -13.3075     0.0064     2.5225     0.3092
 2944.0000     8.6734   178.9140    -4.7819     0.0291     2.4953     0.3237
 2944.5000     8.6730   177.2389    17.4272     0.0517     2.4643     0.3289
 2945.0000     8.6576   170.2860    25.2393     0.0653     2.4477     0.3227
 2945.5000     8.6422   147.3451    10.4949     0.0713     2.4653     0.3084
 2946.0000     8.6415   130.7391    -4.3229     0.0282     2.5162     0.2730
 2946.5000     8.6265   123.9613   -11.5484     0.0199     2.5463     0.2664
 2947.0000     8.6111   119.0944   -18.7741     0.0455     2.5651     0.2639
 2947.5000     8.6108   116.2114   -18.4076     0.0591     2.5704     0.2584
 2948.0000     8.6257   115.2916   -25.6391     0.0575     2.5718     0.2460
 2948.5000     8.6253   115.8802   -17.8196     0.0605     2.5748     0.2398
 2949.0000     8.6250   119.4853    -9.9999     0.0484     2.5821     0.2450
 2949.5000     8.6096   121.5822    -2.1240     0.0287     2.5913     0.2501
 2950.0000     8.6093   123.0757     5.6879     0.0423     2.5995     0.2559
 2950.5000     8.6090   125.4234     5.9812     0.0711     2.6040     0.2631
 2951.0000     8.5937   128.4653     6.2743     0.0860     2.5980     0.2713
 2951.5000     8.5934   131.5325    -1.0246     0.0920     2.5866     0.2753
 2952.0000     8.5931   132.7421    -8.2503     0.0709     2.5715     0.2689
 2952.5000     8.5942   132.0916    -8.4324     0.0769     2.5783     0.2650
 2953.0000     8.5995   130.3354    -8.7045     0.0859     2.5948     0.2626
 2953.5000     8.6047   127.9250    -8.8764     0.1208     2.6114     0.2608
 2954.0000     8.6094   124.3081    -8.7842     0.1541     2.6319     0.2593
 2954.5000     8.6244   124.9143    -8.7105     0.1722     2.6385     0.2617
 2955.0000     8.6244   127.0289    -8.6368     0.1752     2.6324     0.2647
 2955.5000     8.6244   129.7468    -8.5631     0.1737     2.6241     0.2647
 2956.0000     8.6244   132.1630    -8.4893     0.1662     2.6090     0.2602
 2956.5000     8.5943   135.4842    -8.4157     0.1526     2.5939     0.2653
 2957.0000     8.5480   142.3079    -8.3419     0.1662     2.5893     0.2838
 2957.5000     8.5339   153.4416    -8.2682     0.1843     2.5870     0.2965
 2958.0000     8.5943   170.4862    -8.1945     0.1949     2.5787     0.3168
 2958.5000     8.6244   175.6174   -15.8488     0.1931     2.5674     0.3216
 2959.0000     8.6546   176.8269   -23.0847     0.1707     2.5590     0.3123
 2959.5000     8.6546   174.1149   -30.5298     0.1344     2.5500     0.2881
 2960.0000     8.6697   167.7831   -37.9748     0.0921     2.5605     0.2670
 2960.5000     8.6697   151.7981   -37.8827     0.0559     2.5755     0.2512
 2961.0000     8.6848   128.5737   -45.3462     0.0287     2.5861     0.2449
 2961.5000     8.6848   124.0518   -52.7913     0.0211     2.5944     0.2416
 2962.0000     8.6848   121.9431   -52.6991     0.0181     2.5981     0.2422
 2962.5000     8.6848   121.9461   -52.6255     0.0181     2.5973     0.2455
 2963.0000     8.6848   121.6466   -52.5517     0.0211     2.5972     0.2476
 2963.5000     8.6697   121.3479   -52.4780     0.0272     2.5912     0.2492
 2964.0000     8.6697   120.7475   -44.8855     0.0412     2.5821     0.2498
 2964.5000     8.6546   120.1478   -52.3308     0.0483     2.5685     0.2495
 2965.0000     8.6395   119.2459   -44.7368     0.0393     2.5519     0.2495
 2965.5000     8.6244   117.6801   -44.6617     0.0272     2.5428     0.2486
 2966.0000     8.6244   115.0293   -44.5722     0.0196     2.5450     0.2480
 2966.5000     8.6239   115.6355   -44.4985     0.0242     2.5503     0.2486
 2967.0000     8.6094   116.2418   -36.9060     0.0166     2.5510     0.2440
 2967.5000     8.6094   115.6414   -36.8323     0.0030     2.5463     0.2374
 2968.0000     8.5943   114.4377   -36.7586    -0.0091     2.5419     0.2408
 2968.5000     8.5792   112.9316   -29.1660    -0.0045     2.5441     0.2501
 2969.0000     8.5641   114.1419   -29.0924     0.0030     2.5494     0.2556
 2969.5000     8.5641   118.9714   -36.5374     0.0168     2.5516     0.2559
 2970.0000     8.5490   122.8959   -36.4637     0.0257     2.5508     0.2468
 2970.5000     8.5490   122.8688   -36.3900     0.0166     2.5470     0.2389
 2971.0000     8.5490   120.7909   -36.3158     0.0151     2.5395     0.2378
 2971.5000     8.5490   118.9839   -36.2406     0.0227     2.5356     0.2423
 2972.0000     8.5490   116.5736   -36.1504     0.0242     2.5409     0.2484
 2972.5000     8.5490   113.8616   -36.0767     0.0181     2.5485     0.2402
 2973.0000     8.5490   110.8480   -36.0030     0.0076     2.5546     0.2351
 2973.5000     8.5490   111.1526   -35.9293    -0.0015     2.5589     0.2363
 2974.0000     8.5490   113.5688   -35.8555    -0.0106     2.5536     0.2418
 2974.5000     8.5490   116.5883   -35.7819    -0.0196     2.5483     0.2472
 2975.0000     8.5490   119.6078   -35.7081    -0.0151     2.5430     0.2512
 2975.5000     8.5339   122.6576   -50.6720     0.0018     2.5407     0.2488
 2976.0000     8.5339   122.0277   -58.1203     0.0111     2.5422     0.2424
 2976.5000     8.5189   119.3158   -58.0434     0.0242     2.5421     0.2453
 2977.0000     8.5189   118.1113   -50.4509     0.0196     2.5406     0.2597
 2977.5000     8.5189   126.2598   -35.3383     0.0060     2.5360     0.2748
 2978.0000     8.5038   147.9822   -19.1322    -0.0091     2.5253     0.3084
 2978.5000     8.5038   170.6096    -5.0985     0.0211     2.5048     0.3356
 2979.0000     8.5038   200.2149    -5.0248     0.0378     2.4553     0.3525
 2979.5000     8.5038   224.3113   -12.4883     0.0498     2.4092     0.3426
