~VERSION INFORMATION
 VERS.                2.0:   CWLS LOG ASCII STANDARD - VERSION 2.0
 WRAP.                 NO:   ONE LINE PER DEPTH STEP
~WELL INFORMATION
#MNEM.UNIT      DATA TYPE    INFORMATION
#----------   ------------   ------------------------------
 STRT.F          186.0000:   START DEPTH
 STOP.F         3060.0000:   STOP DEPTH
 STEP.F            0.5000:   STEP LENGTH
 NULL.          -999.2500:   NO VALUE
 COMP.    FENIX & SCISSON:   COMPANY
 WELL. FENIX NPR 3 "AX" #63-29:   WELL
 FLD .              N P R:   FIELD
 LOC .      S29 T39N R78W:   LOCATION
 CNTY.            NATRONA:   COUNTY
 STAT.            WYOMING:   STATE
 CTRY. UNITED STATES OF AMERICA:   COUNTRY
 SRVC.           BIRDWELL:   SERVICE COMPANY
 DATE.        28-FEB-1978:   LOGDATE
 API .     49025105960000:   API NUMBER
~CURVE INFORMATION
#MNEM.UNIT       API CODE    CURVE DESCRIPTION
#----------   ------------   ------------------------------
 DEPT.F                  :   
 CALD.IN     45 280 60 00:   CALIPER FROM DENSITY LOG
 GRD .GAPI   45 310 01 00:   GAMMA RAY FROM DENSITY LOG
 DEN .LBS    07 635 01 00:   
 CORR.G/C3   45 356 01 00:   DENSITY CORRECTION
 SPR .MV     05 010 01 00:   SPONTANEOUS POTENTIAL
 SN  .OHMM   05 040 00 00:   SHORT NORMAL
 ILD .OHMM   05 120 46 00:   DEEP INDUCTION RESISTIVITY
~PARAMETER INFORMATION
#MNEM.UNIT          VALUE    DESCRIPTION
#----------   ------------   ------------------------------
 EKB .F         4993.0000:   Kelly bushing
 EGL .F         4983.0000:   Ground level
 EDF .F            0.0000:   Drilling floor
 TD  .F         3060.0000:   Total depth
 DATE.        28-FEB-1978:   Date logged
 CLNT.            A2DTECH:   Client Code
 SL  . 1300' FNL & 1050' FEL:   Surface Location
 PD  .                 GL:   Permanent Datum
 DD  .F              3060:   Depth driller
 DL  .F              3056:   Depth logger
 BLI .F              5050:   Bottom log interval
 CS1 .IN            8.625:   Casing size
 CBD1.      8.625" @ 214':   Casing driller 1
 CBL1.F               218:   Casing logger 1
 BS1 .IN            7.875:   Bit size
 DFT .     LIGNOSULFONATE:   Type fluid in hole
 DFD .                  9:   Density
 DFV .                 34:   Viscosity
 DFPH.               10.5:   pH
 DFL .                  9:   Fluid loss
 MSS .           FLOWLINE:   Source of sample
 RMS .OHMM            1.8:   Rm
 MST .F                58:   Rm Meas. temp.
 RMF .OHMM             .9:   Rmf
 MFST.F                65:   Rmf Meas. temp.
 RMC .OHMM            2.5:   Rmc
 MCST.F                70:   Rmc Meas. temp.
 MFSS.               MEAS:   Source Rmf.
 RMB .OHMM             88:   Rm. at BHT
 BHT .F               118:   BHT.
 TCS .HRS               8:   Time Circ. stopped
 MRT .F               118:   Maximum recorded temp.
 LUN .               2959:   Logging unit number
 LUL .               CASP:   Logging unit location
 ENGI.             MILLER:   Recorded By
 WITN.         HARRINGTON:   Witnessed by
 ORIG.           5" PRINT:   Origin of data
 UWI .     49025105960000:   Unique Well ID
 DICO. A2D TECHNOLOGIES, INC.:   Digitizing Company
 BSD1.F              3060:   Depth drilled with bit1
 EPD .F              4983:   Elevation Permanent Datum
 LMF .                 KB:   Log Measured From
 DMF .                 KB:   Drilling Measured From
 TLI .F               800:   Top log interval
~OTHER INFORMATION
~A   DEPT     CALD         GRD       DEN       CORR        SPR         SN        ILD   
# ...
 1915.0000     8.5010    84.2640     2.4920     0.0290   -38.8860     9.8830     7.8310
 1915.5000     8.5020    84.8380     2.4920     0.0230   -38.9850     9.8710     7.8300
 1916.0000     8.5020    85.4410     2.4920     0.0160   -39.0860     9.8580     7.8570
 1916.5000     8.5030    85.9570     2.4870     0.0140   -39.1880     9.8420     7.9130
 1917.0000     8.5040    86.5010     2.4800     0.0190   -39.2870     9.9300     7.9690
 1917.5000     8.5040    87.0750     2.4740     0.0220   -39.3880    10.3210     8.0240
 1918.0000     8.5050    87.6590     2.4670     0.0200   -39.4980    10.7130     8.0810
 1918.5000     8.5060    87.2630     2.4610     0.0160   -39.5540    11.1050     8.1640
 1919.0000     8.5060    84.7990     2.4590     0.0120   -39.5100    11.4970     8.3520
 1919.5000     8.5070    84.4320     2.4560     0.0100   -39.4760    11.6150     8.5410
 1920.0000     8.5070    84.4080     2.4550     0.0130   -39.4400    11.6390     8.7290
 1920.5000     8.5080    84.3810     2.4550     0.0170   -39.4030    11.6640     8.9070
 1921.0000     8.5090    83.7730     2.4600     0.0200   -39.3670    11.6890     8.9180
 1921.5000     8.5090    83.2010     2.4640     0.0240   -39.3310    11.7130     8.9280
 1922.0000     8.5100    82.5410     2.4690     0.0260   -39.2950    11.7380     8.9390
 1922.5000     8.5110    81.9660     2.4710     0.0260   -39.2590    11.7630     8.9490
 1923.0000     8.5110    81.7410     2.4680     0.0240   -39.2230    11.7880     8.9600
 1923.5000     8.5120    84.2580     2.4650     0.0230   -39.1870    11.8250     8.9700
 1924.0000     8.5120    86.6790     2.4670     0.0220   -39.1510    11.8190     8.9810
 1924.5000     8.5130    89.1980     2.4690     0.0230   -39.1150    11.7710     8.9910
 1925.0000     8.5140    91.6770     2.4720     0.0320   -39.0790    11.7240     9.0010
 1925.5000     8.5140    94.2120     2.4760     0.0420   -39.0430    11.6760     9.0120
 1926.0000     8.5150    96.6180     2.4790     0.0380   -39.0070    11.6290     9.0220
 1926.5000     8.5150    95.6860     2.4790     0.0280   -38.9710    11.5820     9.0320
 1927.0000     8.5160    90.5240     2.4790     0.0190   -38.9350    11.5350     9.0430
 1927.5000     8.5170    86.9090     2.4790     0.0090   -38.8990    11.4870     9.0530
 1928.0000     8.5170    86.1050     2.4760     0.0060   -38.8630    11.4400     9.0700
 1928.5000     8.5180    86.0360     2.4670     0.0060   -38.8270    11.3520     9.0210
 1929.0000     8.5190    87.6290     2.4580     0.0160   -38.7910    11.1110     8.7860
 1929.5000     8.5190    89.3400     2.4580     0.0220   -38.7550    10.8700     8.5540
 1930.0000     8.5200    90.6280     2.4660     0.0220   -38.7190    10.6280     8.3190
 1930.5000     8.5200    88.5620     2.4740     0.0250   -38.6830    10.4000     8.0840
 1931.0000     8.5210    87.6270     2.4810     0.0360   -38.6470    10.3930     7.8310
 1931.5000     8.5220    87.4030     2.4830     0.0370   -38.6110    10.3830     7.9770
 1932.0000     8.5220    86.1980     2.4850     0.0340   -38.5750    10.3730     7.9680
 1932.5000     8.5230    83.4830     2.4920     0.0310   -38.5390    10.3640     7.9600
 1933.0000     8.5240    80.5850     2.5010     0.0270   -38.5030    10.3540     7.9520
 1933.5000     8.5240    79.2680     2.5000     0.0260   -38.4670    10.3440     7.9440
 1934.0000     8.5250    82.7370     2.4830     0.0260   -38.4300    10.3340     7.9360
 1934.5000     8.5250    87.0330     2.4670     0.0260   -38.3960    10.3240     7.9280
 1935.0000     8.5260    87.0040     2.4640     0.0260   -38.3570    10.3140     7.9200
 1935.5000     8.5260    89.7320     2.4630     0.0220   -38.3830    10.3040     7.9130
 1936.0000     8.5260    91.8130     2.4630     0.0160   -38.4170    10.2950     7.9050
 1936.5000     8.5260    91.5640     2.4630     0.0140   -38.4540    10.2850     7.8970
 1937.0000     8.5260    91.6210     2.4570     0.0280   -38.4890    10.2750     7.8890
 1937.5000     8.5260    91.5920     2.4510     0.0420   -38.5240    10.2650     7.8810
 1938.0000     8.5260    91.4050     2.4450     0.0510   -38.5600    10.2550     7.8740
 1938.5000     8.5260    88.3190     2.4510     0.0390   -38.5950    10.2450     7.8660
 1939.0000     8.5260    85.2900     2.4580     0.0330   -38.6310    10.2340     7.8580
 1939.5000     8.5260    82.1270     2.4780     0.0500   -38.6650    10.2240     7.8500
 1940.0000     8.5260    80.4380     2.4970     0.0540   -38.7000    10.2170     7.8430
 1940.5000     8.5260    82.8620     2.4560     0.0430   -38.7430    10.1820     7.8370
 1941.0000     8.5260    85.8850     2.4490     0.0300   -38.6980    10.1090     7.7890
 1941.5000     8.5260    88.8040     2.4690     0.0260   -38.5440    10.0380     7.6500
 1942.0000     8.5260    91.9250     2.5080     0.0260   -38.4000     9.6530     7.5110
 1942.5000     8.5260    90.2060     2.4940     0.0280   -38.2550     9.1420     7.3720
 1943.0000     8.5260    86.9190     2.4380     0.0530   -38.1080     9.1420     7.2330
 1943.5000     8.5260    86.3300     2.4430     0.0720   -37.9620     9.1420     7.0930
 1944.0000     8.5260    84.3200     2.4170     0.0920   -37.8170     9.1420     6.9540
 1944.5000     8.5260    80.7830     2.4450     0.0770   -37.6690     8.8500     6.8860
 1945.0000     8.5260    76.6680     2.4550     0.0540   -37.5250     8.4920     6.8510
 1945.5000     8.5260    76.0580     2.4600     0.0480   -37.3800     8.4920     6.8040
 1946.0000     8.5260    75.8790     2.4810     0.0700   -37.2240     8.4920     6.7570
 1946.5000     8.5260    75.8740     2.4660     0.0590   -37.1520     8.4920     6.7110
 1947.0000     8.5260    75.7050     2.4370     0.0430   -37.1910     8.4920     6.6640
 1947.5000     8.5260    75.6640     2.4580     0.0380   -37.2180     8.4920     6.6180
 1948.0000     8.5260    75.8120     2.4770     0.0340   -37.2460     8.4920     6.5710
 1948.5000     8.5260    77.8380     2.4650     0.0410   -37.2770     8.3210     6.5160
 1949.0000     8.5260    79.4830     2.4570     0.0550   -37.3050     8.0270     6.3980
 1949.5000     8.5260    78.4560     2.4570     0.0670   -37.3340     7.7330     6.2030
 1950.0000     8.5260    77.5080     2.4680     0.0830   -37.3630     7.4390     6.0220
 1950.5000     8.5260    75.5650     2.4790     0.0850   -37.3930     7.1460     5.8420
 1951.0000     8.5260    72.4340     2.4810     0.0680   -37.4210     6.8080     5.6610
 1951.5000     8.5260    69.0890     2.4730     0.0520   -37.4510     6.8080     5.4800
 1952.0000     8.5260    66.7620     2.4760     0.0380   -37.4790     6.8080     5.4220
 1952.5000     8.5260    66.3650     2.4970     0.0390   -37.5080     7.0570     5.5430
 1953.0000     8.5260    69.0150     2.5090     0.0400   -37.5400     7.3340     5.6780
 1953.5000     8.5270    71.0420     2.4930     0.0420   -37.5400     7.6100     5.8130
 1954.0000     8.5280    76.3910     2.4790     0.0420   -37.5140     7.8890     5.9480
 1954.5000     8.5290    86.3060     2.4640     0.0340   -37.4910     8.1850     6.0540
 1955.0000     8.5300    85.4970     2.4630     0.0340   -37.4680     8.1850     6.0540
 1955.5000     8.5310    83.8460     2.4670     0.0380   -37.4440     7.9990     6.0540
 1956.0000     8.5320    82.0320     2.4680     0.0450   -37.4210     7.2760     5.6780
 1956.5000     8.5330    82.0900     2.4630     0.0500   -37.3970     6.5540     5.2440
 1957.0000     8.5340    83.2260     2.4590     0.0540   -37.3740     6.2090     4.9460
 1957.5000     8.5350    84.2230     2.4530     0.0370   -37.3500     6.0960     4.8560
 1958.0000     8.5360    85.0810     2.4470     0.0190   -37.3270     6.0960     4.8780
 1958.5000     8.5370    83.6550     2.4620     0.0190   -37.3030     6.1710     4.9180
 1959.0000     8.5380    82.5270     2.4860     0.0310   -37.2800     6.3590     4.9570
 1959.5000     8.5390    82.4870     2.4650     0.0340   -37.2570     6.5470     4.9970
 1960.0000     8.5400    83.7640     2.4500     0.0300   -37.2330     6.6840     5.0360
