~VERSION INFORMATION
 VERS.                2.0:   CWLS LOG ASCII STANDARD - VERSION 2.0
 WRAP.                 NO:   ONE LINE PER DEPTH STEP
~WELL INFORMATION
#MNEM.UNIT      DATA TYPE    INFORMATION
#----------   ------------   ------------------------------
 STRT.F           61.5000:   START DEPTH
 STOP.F         4220.0000:   STOP DEPTH
 STEP.F            0.5000:   STEP LENGTH
 NULL.          -999.2500:   NO VALUE
 COMP.   LAWRENCE ALLISON:   COMPANY
 WELL. ALLISON NPR 3 "LX" #28-34:   WELL
 FLD .                NPR:   FIELD
 LOC .      S34 T39N R78W:   LOCATION
 CNTY.            NATRONA:   COUNTY
 STAT.            WYOMING:   STATE
 CTRY. UNITED STATES OF AMERICA:   COUNTRY
 SRVC.       DRESER ATLAS:   SERVICE COMPANY
 DATE.        23-MAR-1983:   LOGDATE
 API .     49025109190000:   API NUMBER
~CURVE INFORMATION
#MNEM.UNIT       API CODE    CURVE DESCRIPTION
#----------   ------------   ------------------------------
 DEPT.F                  :   
 TEND.LBS    45 635 01 00:   TENSION FROM DENSITY LOG
 CORR.G/C3   45 356 01 00:   DENSITY CORRECTION
 RHOB.G/C3   45 350 01 00:   BULK DENSITY
 CN  .DEC    42 890 00 00:   Neutron Porosity
 SPR .MV     07 010 01 00:   SPONTANEOUS POTENTIAL
 GRR .GAPI   07 310 01 00:   GAMMA RAY FROM RESISTIVITY
 TENR.LBS    07 635 01 00:   TENSION FROM RESISTIVITY
 RILD.OHMM   07 120 46 00:   DEEP INDUCTION RESISTIVITY
 RILM.OHMM   07 120 44 00:   INDUCTION LOG MEDIUM RESISTIVITY
 RFOC.OHMM   07 220 01 00:   RESISTIVITY FOCUSED LOG RES.
 TENS.LBS    60 635 01 00:   TENSION FROM SONIC LOG
 DT  .US/F   60 520 00 00:   DELTA TIME
 CALS.IN     60 280 50 00:   CALIPER FROM SONIC LOG
~PARAMETER INFORMATION
#MNEM.UNIT          VALUE    DESCRIPTION
#----------   ------------   ------------------------------
 EKB .F         5184.0000:   Kelly bushing
 EGL .F         5174.0000:   Ground level
 EDF .F            0.0000:   Drilling floor
 TD  .F         4397.0000:   Total depth
 DATE.        23-MAR-1983:   Date logged
 CLNT.            A2DTECH:   Client Code
 SL  . 942' FWL & 645' FSL:   Surface Location
 PD  .                 GL:   Permanent Datum
 EPD .F              5174:   Elevation Permanent Datum
 LMF .                 KB:   Log Measured From
 DMF .                 KB:   Drilling Measured From
 DAPD.F                10:   Feet Above Permanent Datum
 DD  .F              4397:   Depth driller
 DL  .F              4203:   Depth logger
 BLI .F              4201:   Bottom log interval
 CS1 .IN            9.625:   Casing size
 CBD1.      9.625" @ 659':   Casing driller 1
 CBL1.F               658:   Casing logger 1
 BS1 .IN             8.75:   Bit size
 BSD1.F              4397:   Depth drilled with bit1
 DFT .   GEL/DRISPACK/KCL:   Type fluid in hole
 DFD .                8.6:   Density
 DFV .                 36:   Viscosity
 DFPH.                8.5:   pH
 DFL .                 18:   Fluid loss
 MSS .               TANK:   Source of sample
 RMS .OHMM           0.55:   Rm
 MST .F                74:   Rm Meas. temp.
 RMF .OHMM           0.43:   Rmf
 MFST.F                66:   Rmf Meas. temp.
 RMC .OHMM           0.69:   Rmc
 MCST.F                74:   Rmc Meas. temp.
 MFSS.               MEAS:   Source Rmf.
 MCSS.               CALC:   Source Rmc.
 RMB .OHMM           0.33:   Rm. at BHT
 BHT .F               122:   BHT.
 TCS .HRS             5.5:   Time Circ. stopped
 MRT .F               122:   Maximum recorded temp.
 LUN .               6270:   Logging unit number
 LUL .              WLSTN:   Logging unit location
 ENGI.             REEVES:   Recorded By
 WITN.             STRONG:   Witnessed by
 ORIG.           5" PRINT:   Origin of data
 UWI .     49025109190000:   Unique Well ID
 DICO. A2D TECHNOLOGIES, INC.:   Digitizing Company
~OTHER INFORMATION
~A   DEPT     TEND       CORR       RHOB         CN        SPR         GRR      TENR       RILD       RILM       RFOC       TENS         DT       CALS   
# ...
 3467.5000   -48.0560     0.0130     2.4440     0.2260   -55.0690   112.1720  -136.4730     3.9490     4.0420     4.5640  -144.5780    87.9320    13.9000
 3468.0000   -47.0500     0.0020     2.4420     0.2240   -55.1880   111.1530  -138.9980     4.0240     4.0830     4.5030  -144.5780    87.3530    13.9000
 3468.5000   -46.0440    -0.0060     2.4400     0.2230   -55.3000   105.3960  -141.5230     4.0980     4.1240     4.4850  -137.1490    86.7750    13.9000
 3469.0000   -45.0380    -0.0120     2.4420     0.2220   -55.4110   100.4620  -144.0480     4.1730     4.1640     4.7810  -111.8470    86.3940    13.9000
 3469.5000   -39.0180    -0.0170     2.4430     0.2200   -55.5240   100.2560  -109.1180     4.2480     4.2050     5.0100   -84.3370    86.2100    13.8930
 3470.0000   -28.9580    -0.0120     2.4450     0.2220   -55.6360   102.2280   -64.6290     4.3230     4.2460     4.9440  -110.4420    86.0260    13.8700
 3470.5000   -18.8980    -0.0010     2.4460     0.2250   -55.7470   104.3270  -107.1810     4.4030     4.2870     4.8170  -144.9610    85.8420    13.8490
 3471.0000    -8.8380     0.0050     2.4450     0.2260   -55.8600   105.4240  -135.9900     4.4030     4.3220     4.6890  -146.1380    85.6830    13.8260
 3471.5000   -13.1060     0.0010     2.4440     0.2210   -55.9740   105.9200  -138.2860     4.4700     4.4290     4.5620  -147.3150    85.9290    13.8560
 3472.0000   -28.1960    -0.0010     2.4460     0.2190   -56.0800   104.9880  -140.5810     4.5290     4.5220     4.4340  -148.4920    86.1460    13.9080
 3472.5000   -43.2870    -0.0020     2.4490     0.2190   -56.2040   102.8800  -142.8770     4.5880     4.6160     4.5950  -149.6680    86.1950    13.9570
 3473.0000   -58.3770     0.0130     2.4440     0.2190   -56.0910   100.9110  -145.1720     4.6470     4.7100     4.8500  -150.8450    85.9260    14.0070
 3473.5000   -58.7370     0.0110     2.4380     0.2170   -55.8680   100.8010  -147.4680     4.7060     4.8030     5.0100  -152.0220    85.6450    13.9860
 3474.0000   -48.6770     0.0090     2.4040     0.2130   -55.6560   102.2100  -149.7630     4.7650     4.8970     5.0560  -153.1990    85.3640    13.9410
 3474.5000   -52.0540     0.0050     2.3750     0.2120   -55.4470   104.5310  -152.0590     4.8240     4.9910     5.1350  -154.3760    85.0800    13.8930
 3475.0000   -61.2890     0.0040     2.2700     0.2140   -55.2300   104.7150  -154.8100     4.8830     5.1030     5.1980  -155.5520    84.7040    13.8600
 3475.5000   -49.2990     0.0040     2.0950     0.2260   -55.0250   103.9710  -150.7620     5.0100     5.1030     5.0440  -156.7290    84.0000    13.8450
 3476.0000    26.1520    -0.0240     1.9970     0.2710   -54.8030   103.8430  -145.7110     4.2230     4.6130     5.0620  -157.9060    82.9640    13.8180
 3476.5000    67.3180    -0.0630     2.0040     0.2970   -54.5720   108.9540  -140.6610     3.4420     3.8100     5.3060  -159.0830    82.6710    13.9400
 3477.0000    37.9760    -0.0530     2.0050     0.3110   -53.9570   119.6370  -135.6110     2.5310     3.0080     5.4940  -160.2600    85.4820    14.2670
 3477.5000   -20.7080    -0.0400     2.0080     0.3220   -53.3560   131.8840  -130.5610     2.4590     1.9190     5.4940  -161.4360    91.0690    14.5730
 3478.0000   -55.3960    -0.0420     2.0020     0.3280   -52.7020   144.8920  -124.7490     2.4020     1.9770     4.2890  -162.6130   101.1040    14.8730
 3478.5000   -57.2590    -0.0650     2.1810     0.3330   -52.1270   146.3490  -140.0660     2.4330     2.2140     3.1310  -163.7900   120.2210    15.2570
 3479.0000   -59.1220    -0.0720     2.3470     0.3050   -51.4710   140.7730  -158.1020     2.4640     2.4520     1.7180  -158.0320   120.2210    15.0420
 3479.5000   -60.9850    -0.0600     2.4090     0.2710   -52.0950   130.6530  -174.8500     2.4960     2.6750     2.1250  -132.7310   116.8650    14.5460
 3480.0000   -62.8480    -0.0510     2.3960     0.2670   -52.8980   123.8650  -106.7130     2.5310     2.9330     3.1000  -107.4300   106.8630    14.0760
 3480.5000   -64.7110    -0.0400     2.3810     0.2640   -53.7040   118.4200   -64.6290     2.8920     3.2430     7.3820   -84.3370    93.9090    13.8040
 3481.0000   -66.5740    -0.0130     2.3660     0.2620   -54.5490   121.3710   -98.9480     3.3020     3.5530     7.0610  -110.5420    86.4860    13.7810
 3481.5000   -68.4370    -0.0050     2.3650     0.2600   -54.9130   126.9510  -130.5110     3.7130     3.8630     6.4300  -148.4940    84.7750    13.7890
 3482.0000   -70.3000    -0.0210     2.3720     0.2570   -55.2930   128.5170  -164.8300     4.1230     4.1720     5.7980  -165.3010    87.2480    13.7910
 3482.5000   -72.1630    -0.0340     2.3790     0.2620   -55.6400   128.0210  -132.5650     4.4850     4.4850     5.1660  -134.9400    90.7030    13.7970
 3483.0000   -74.0260    -0.0430     2.3860     0.2680   -56.0000   127.8080   -94.6890     4.8280     4.5450     4.7300  -116.5160    92.9680    13.8010
 3483.5000   -71.3030    -0.0120     2.3880     0.2720   -56.3790   127.4030  -105.4310     4.7600     4.5980     4.6990  -122.8410    94.7190    13.8060
 3484.0000   -66.2730    -0.0030     2.3850     0.2770   -56.8460   129.6530  -125.6310     4.6320     4.6520     4.6530  -124.4980    95.0060    13.8110
 3484.5000   -61.5500     0.0080     2.3770     0.2830   -57.3780   136.7990  -134.7700     4.5030     4.7060     4.7460  -124.4980    94.9270    13.8150
 3485.0000   -56.9780     0.0070     2.3650     0.2820   -57.2720   140.3890  -124.7490     4.3750     4.7400     4.9160  -126.1410    94.5720    13.8200
 3485.5000   -52.4050     0.0060     2.3530     0.2790   -57.1960   139.4010  -124.7490     4.2460     4.6180     5.0850  -130.7410    94.2180    13.8200
 3486.0000   -47.8320     0.0220     2.2940     0.2750   -57.0770   140.3070  -133.1660     4.1660     4.4910     5.2550  -135.3410    93.8640    13.8200
 3486.5000   -44.5890     0.0440     2.2760     0.2730   -56.9810   142.5480  -140.3810     4.1660     4.3630     5.3940  -139.9420    93.5140    13.8190
 3487.0000   -44.5890     0.0430     2.2850     0.2670   -56.6960   143.8860  -147.5950     4.0770     4.2360     5.1100  -144.5780    94.3170    13.8310
 3487.5000   -44.5890     0.0370     2.2970     0.2610   -56.4550   144.2830  -154.8100     4.0460     4.1090     4.9180  -147.9250    96.1370    13.8620
 3488.0000   -34.4890     0.0160     2.3140     0.2620   -56.1990   145.3290  -162.0240     4.0150     3.9810     4.2430  -153.5480    97.9710    13.8920
 3488.5000   -14.3690    -0.0060     2.1940     0.2670   -55.9320   141.7390  -164.8300     3.8340     3.8540     3.7220  -159.1700   100.1410    13.9220
 3489.0000     5.7520    -0.0290     2.0840     0.2810   -55.7880   134.7620  -164.8300     3.6560     3.7270     3.2170  -164.6590    98.9000    13.9680
 3489.5000    25.8720    -0.0320     2.0090     0.2970   -55.8000   131.1870  -130.3610     3.4770     3.6000     3.2170  -127.6440    96.9280    14.0350
 3490.0000    35.5710    -0.0280     2.0080     0.2950   -55.8060   139.1690   -96.6930     3.2980     3.4610     4.1080   -84.3370    98.4300    14.1040
 3490.5000    -6.6630    -0.0670     2.0130     0.3060   -55.7890   163.6820   -88.0140     3.1190     3.3070     6.1380  -105.3820   101.8710    14.1880
 3491.0000   -44.3890    -0.1320     2.1640     0.3000   -55.7870   168.1950  -101.6110     2.8800     3.1000     5.0800  -124.4980   105.3120    14.6410
 3491.5000   -54.6090    -0.1160     2.3250     0.2830   -55.4210   164.3500  -115.2070     2.8910     3.1360     3.8340  -137.8510   108.7530    14.9300
 3492.0000   -54.6090    -0.0610     2.4150     0.2670   -55.4080   139.9850  -128.8040     2.9320     3.2710     2.1830  -150.5020   110.3450    14.6030
 3492.5000   -54.6090     0.0060     2.4120     0.2540   -55.3910   113.7560  -142.4000     2.9730     3.4060     3.0660  -164.6590   107.3090    14.2910
 3493.0000   -54.6090     0.0390     2.3980     0.2580   -55.4200   111.6380  -154.8100     3.0140     3.5420     4.3740  -164.6590    97.6950    13.9630
