~VERSION INFORMATION
 VERS.                2.0:   CWLS LOG ASCII STANDARD - VERSION 2.0
 WRAP.                 NO:   ONE LINE PER DEPTH STEP
~WELL INFORMATION
#MNEM.UNIT      DATA TYPE    INFORMATION
#----------   ------------   ------------------------------
 STRT.F            0.0000:   START DEPTH
 STOP.F         3982.0000:   STOP DEPTH
 STEP.F            0.5000:   STEP LENGTH
 NULL.          -999.2500:   NO VALUE
 COMP.   LAWRENCE ALLISON:   COMPANY
 WELL. LAWRENCE NPR 3 "LX" #61-10:   WELL
 FLD .                NPR:   FIELD
 LOC .      S10 T38N R78W:   LOCATION
 CNTY.            NATRONA:   COUNTY
 STAT.            WYOMING:   STATE
 CTRY. UNITED STATES OF AMERICA:   COUNTRY
 SRVC.      DRESSER ATLAS:   SERVICE COMPANY
 DATE.        14-APR-1983:   LOGDATE
 API .     49025109180000:   API NUMBER
~CURVE INFORMATION
#MNEM.UNIT       API CODE    CURVE DESCRIPTION
#----------   ------------   ------------------------------
 DEPT.F                  :   
 CALD.IN     45 280 60 00:   CALIPER FROM DENSITY LOG
 RHOB.G/C3   45 350 01 00:   BULK DENSITY
 DRHO.G/C3   45 356 01 00:   DENSITY CORRECTION
 TEND.LBS    45 635 01 00:   TENSION FROM DENSITY LOG
 CNC .DEC    42 890 03 00:   NEUTRON PORISITY SANDSTONE
 GRR .GAPI   07 310 01 00:   GAMMA RAY FROM RESISTIVITY
 SPR .MV     07 010 01 00:   SPONTANEOUS POTENTIAL
 ILD .OHMM   07 120 46 00:   DEEP INDUCTION RESISTIVITY
 ILM .OHMM   07 120 44 00:   INDUCTION LOG MEDIUM RESISTIVITY
 SFL .OHMM   07 220 01 00:   SHALLOW FOCUSED LOG RESISTIVITY
 TENS.LBS    60 635 01 00:   TENSION FROM SONIC LOG
 DT  .US/F   60 520 00 00:   DELTA TIME
 TENR.LBS    07 635 01 00:   TENSION FROM RESISTIVITY
~PARAMETER INFORMATION
#MNEM.UNIT          VALUE    DESCRIPTION
#----------   ------------   ------------------------------
 EKB .F         5164.0000:   Kelly bushing
 EGL .F         5154.0000:   Ground level
 EDF .F            0.0000:   Drilling floor
 TD  .F         3985.0000:   Total depth
 DATE.        14-APR-1983:   Date logged
 CLNT.            A2DTECH:   Client Code
 SL  . 138' FNL & 1331' FEL:   Surface Location
 PD  .                 GL:   Permanent Datum
 EPD .F              5154:   Elevation Permanent Datum
 LMF .                 KB:   Log Measured From
 DMF .                 KB:   Drilling Measured From
 DD  .F              3985:   Depth driller
 DL  .F              3948:   Depth logger
 BLI .F              3945:   Bottom log interval
 CS1 .IN            8.625:   Casing size
 CBD1.      8.625" @ 442':   Casing driller 1
 CBL1.F               453:   Casing logger 1
 BS1 .IN            7.875:   Bit size
 DFT .                KCI:   Type fluid in hole
 DFD .                8.9:   Density
 DFV .                 40:   Viscosity
 DFPH.                8.5:   pH
 DFL .                 10:   Fluid loss
 MSS .           FLOWLINE:   Source of sample
 RMS .OHMM           0.38:   Rm
 MST .F                68:   Rm Meas. temp.
 RMF .OHMM           0.30:   Rmf
 MFST.F                68:   Rmf Meas. temp.
 RMC .OHMM           0.49:   Rmc
 MCST.F                68:   Rmc Meas. temp.
 MFSS.               MEAS:   Source Rmf.
 RMB .OHMM           0.22:   Rm. at BHT
 BHT .F               122:   BHT.
 TCS .HRS               4:   Time Circ. stopped
 MRT .F               122:   Maximum recorded temp.
 LUN .               6764:   Logging unit number
 LUL .              WLSTN:   Logging unit location
 ENGI.            QUICKEL:   Recorded By
 WITN.           JENNINGS:   Witnessed by
 ORIG.           5" PRINT:   Origin of data
 UWI .     49025109180000:   Unique Well ID
 DICO. A2D TECHNOLOGIES, INC.:   Digitizing Company
 DAPD.                 10:   Feet Above Permanent Datum
 BSD1.               3985:   Depth drilled with bit1
 MCSS.               CALC:   Source Rmc.
~OTHER INFORMATION
~A    DEPT    CALD       RHOB       DRHO       TEND        CNC         GRR       SPR        ILD        ILM        SFL       TENS         DT       TENR   
# ...
 3458.0000     8.2210     2.3510     0.0170   -69.0440     0.2890   134.5290   -32.3970     5.7810     6.1430     6.0230   -74.6490    90.9090   -28.9610
 3458.5000     8.2200     2.3570    -0.0070   -72.3840     0.2920   135.8960   -32.6840     5.7310     6.1030     5.9940   -74.6490    90.6620   -29.8450
 3459.0000     8.2190     2.3670    -0.0090   -75.6970     0.2880   135.3780   -32.7870     5.6810     6.0630     6.3050   -74.6490    90.2970   -30.7290
 3459.5000     8.2170     2.3770     0.0110   -70.0860     0.2810   133.9610   -32.9000     5.6230     5.9390     6.6440   -74.6490    89.8500   -31.6130
 3460.0000     8.2160     2.3820     0.0350   -65.1450     0.2910   133.6540   -32.4860     5.6070     5.6910     6.8090   -74.6490    89.4490   -32.4970
 3460.5000     8.2150     2.3780     0.0220   -62.4370     0.3100   135.1620   -31.0100     5.5720     5.2660     6.1600   -74.6490    89.6810   -33.3810
 3461.0000     8.2140     2.3670     0.0120   -59.7290     0.3180   136.9660   -28.8080     5.6230     5.0410     5.7450   -74.6490    90.6970   -34.2660
 3461.5000     8.2120     2.3480     0.0000   -57.0210     0.3120   137.6970   -27.2140     5.4860     5.0590     5.1260   -74.6490    92.2750   -35.1500
 3462.0000     8.2110     2.3180     0.0060   -54.3120     0.2880   140.6100   -28.0260     5.2830     5.0870     4.6860   -74.6490    93.7580   -36.0340
 3462.5000     8.2100     2.2910     0.0400   -51.6040     0.2690   138.2220   -29.8070     4.9450     4.8600     4.4370   -74.6490    93.5570   -36.9180
 3463.0000     8.2160     2.2910     0.0630   -48.8960     0.2710   126.6620   -30.0910     4.4710     4.4020     5.3240   -74.6490    90.4910   -37.8020
 3463.5000     8.2250     2.2970     0.0430   -46.1880     0.2820   123.5380   -29.9910     3.9410     3.9060     7.8780   -74.6490    85.6950   -38.6860
 3464.0000     8.2550     2.2910    -0.0140   -43.4800     0.2940   133.6530   -30.2980     3.9410     3.3760     7.8070   -74.6490    83.6370   -39.5700
 3464.5000     8.3580     2.2300    -0.0130   -40.7720     0.2940   151.4760   -30.3680     4.1680     3.3760     4.3970   -74.6490    92.1650   -40.4540
 3465.0000     8.4580     2.1140     0.0020   -38.0640     0.2900   156.5660   -30.5010     4.4780     3.9150     3.1670   -73.8140    99.1420   -41.3380
 3465.5000     8.4700     2.0570     0.0430   -35.3560     0.2940   144.7240   -30.6500     4.5190     5.0410     2.6880   -71.7480   104.4790   -42.2220
 3466.0000     8.4720     2.0810     0.0560   -32.6480     0.2940   128.9090   -30.6940     4.4370     5.4220     3.5330   -69.6810   102.6300   -43.1060
 3466.5000     8.4050     2.2290     0.0330   -29.9400     0.2920   115.8310   -30.8340     4.1630     5.1300     7.3240   -67.6140    93.5600   -43.9900
 3467.0000     8.3130     2.3410    -0.0080   -27.2320     0.2830   116.1650   -30.9370     4.0880     4.8600     9.6270   -65.5480    86.3940   -44.8740
 3467.5000     8.2310     2.3810    -0.0080   -26.4670     0.2740   121.0850   -31.0350     4.1630     4.8600     9.5400   -56.7560    82.1340   -45.7590
 3468.0000     8.2330     2.3740     0.0030   -27.5930     0.2700   127.5870   -31.1310     4.7960     5.0410     5.7340   -43.8100    83.7580   -46.8290
 3468.5000     8.2380     2.3610     0.0140   -28.7190     0.2790   137.6380   -31.1290     5.2280     5.5730     5.0870   -38.2990    86.9440   -44.3630
 3469.0000     8.2440     2.3610     0.0240   -29.8450     0.2850   137.7380   -31.1300     5.8320     6.2160     5.1340   -54.6090    88.4580   -41.2410
 3469.5000     8.2490     2.3660     0.0250   -30.9710     0.2830   132.6940   -31.1350     6.2500     6.5160     5.8320   -56.8320    89.2480   -38.1190
 3470.0000     8.2550     2.3740     0.0250   -32.0960     0.2710   128.1800   -31.1240     6.5970     6.8890     7.0850   -59.9320    88.4970   -34.9980
 3470.5000     8.2600     2.3820     0.0250   -33.2220     0.2640   122.6170   -31.1440     6.9350     7.3240     8.1380   -63.0320    87.1440   -31.8760
 3471.0000     8.2660     2.3890     0.0250   -34.3480     0.2630   120.3990   -31.1090     7.3570     7.5140     8.8690   -58.9040    86.3330   -28.7540
 3471.5000     8.2710     2.3900     0.0250   -35.4740     0.2620   121.4930   -30.9510     7.8670     7.7430     9.2830   -47.0940    86.0970   -21.5060
 3472.0000     8.2770     2.3900     0.0250   -36.6000     0.2550   128.4740   -30.7390     8.3760     7.9720     8.1920   -35.2850    86.4140    -9.0190
 3472.5000     8.2820     2.3910     0.0050   -37.7260     0.2550   138.1080   -30.5970     9.5860     8.0970     6.9980   -23.4760    86.9440     3.4690
 3473.0000     8.2880     2.3920     0.0050   -38.8510     0.2630   145.3350   -30.4430    11.1660     8.4350     6.6260   -14.5290    88.2460    12.6360
 3473.5000     8.2930     2.3950     0.0130   -39.9770     0.2700   140.4380   -30.0420    12.3130     8.6300     6.6260   -25.7470    89.4860    -1.4150
 3474.0000     8.2990     2.3990     0.0330   -41.1030     0.2680   128.8710   -29.5910    14.9100     9.8940     7.5980   -36.5300    89.9500   -12.5150
 3474.5000     8.3040     2.4020     0.0490   -42.2290     0.2630   117.6380   -29.0880    12.8790     9.9850     8.5520   -47.3120    88.6470   -27.0070
 3475.0000     8.3120     2.4050     0.0460   -43.3550     0.2620   109.5430   -28.1130    10.3560     7.8400    11.5520   -58.0940    84.9580   -27.0070
 3475.5000     8.3790     2.4040     0.0440   -44.4810     0.2640   109.3700   -27.1280     7.7440     4.9040    11.5520   -64.6290    81.3060   -27.0070
 3476.0000     8.4520     2.3840     0.0410   -45.6060     0.2810   108.7810   -26.5180     4.8450     2.6390     7.0030   -64.6290    80.5310   -27.0070
 3476.5000     8.5950     2.2590     0.0730   -32.2380     0.3220   104.2500   -25.7360     2.3020     1.5800     3.8700   -64.6290    83.9020   -34.3210
 3477.0000     8.7250     2.1200     0.1220   -15.5380     0.3630    99.6860   -25.0610     1.9980     1.2620     2.4540   -64.6290    88.4230   -29.3260
 3477.5000     9.7510     2.0010     0.1260    -5.9760     0.4040   101.0060   -24.9540     1.6580     1.2620     1.4200   -64.6290    94.2260   -24.3310
 3478.0000    11.2770     2.0010     0.1280    25.6970     0.4320   109.9870   -25.0020     1.6110     1.3460     1.3280   -64.6290   101.4240   -19.3360
 3478.5000    13.0680     1.9990     0.1570    43.8250     0.4090   126.0800   -25.0240     1.5420     1.4860     1.5990   -64.6290   109.0880   -17.5300
 3479.0000    12.9100     2.0000     0.1660    -8.3670     0.3660   142.0480   -24.8710     1.5420     1.8280     2.1690   -64.6290   108.0660   -18.7580
 3479.5000    12.0750     2.0010     0.1500   -58.4660     0.3230   142.9820   -24.8300     1.5560     2.3880     2.9130   -64.6290   104.3190   -19.9870
 3480.0000    10.7670     2.0050     0.1340   -85.6570     0.2830   132.7680   -25.2790     1.8340     2.9330     4.7290   -64.6290    97.1640   -21.2150
 3480.5000     8.9750     2.0280     0.0880   -85.6570     0.2700   120.8030   -25.5980     2.2940     3.4520     7.9020   -64.6290    91.0630   -22.4430
 3481.0000     8.6580     2.1500     0.0080   -83.3230     0.2610   110.3270   -26.0970     2.6640     3.8700    13.0050   -64.6290    86.9980   -23.6710
 3481.5000     8.5060     2.3080    -0.0270   -79.8270     0.2540   106.5870   -27.0550     3.6640     5.6230    13.4880   -64.6290    81.5330   -24.9000
 3482.0000     8.3690     2.3810    -0.0010   -76.3320     0.2540   106.1090   -27.2680     6.9490     6.7680    11.6580   -64.6290    80.6310   -26.1280
 3482.5000     8.3460     2.4060     0.0210   -72.8370     0.2650   107.4890   -26.7870     9.6270     7.8780    11.2620   -64.6290    81.2700   -27.3560
 3483.0000     8.3410     2.4050     0.0290   -69.3410     0.2760   112.3270   -26.3850    10.7400     7.8070    11.0660   -65.9650    81.8720   -28.5850
 3483.5000     8.3360     2.4010     0.0380   -65.8460     0.2790   122.4210   -26.0460     8.6270     7.7360    10.8380   -67.2370    82.8420   -29.8130
