~VERSION INFORMATION
 VERS.                2.0:   CWLS LOG ASCII STANDARD - VERSION 2.0
 WRAP.                 NO:   ONE LINE PER DEPTH STEP
~WELL INFORMATION
#MNEM.UNIT      DATA TYPE    INFORMATION
#----------   ------------   ------------------------------
 STRT.F          195.5000:   START DEPTH
 STOP.F         3197.0000:   STOP DEPTH
 STEP.F            0.5000:   STEP LENGTH
 NULL.          -999.2500:   NO VALUE
 COMP.    FENIX & SCISSON:   COMPANY
 WELL.  FENIX "AX" #17-11:   WELL
 FLD .              NPR-3:   FIELD
 LOC .      S11 T38N R78W:   LOCATION
 CNTY.            NATRONA:   COUNTY
 STAT.            WYOMING:   STATE
 CTRY. UNITED STATES OF AMERICA:   COUNTRY
 SRVC.              WELEX:   SERVICE COMPANY
 DATE.        16-SEP-1977:   LOGDATE
 API .     49025104170000:   API NUMBER
~CURVE INFORMATION
#MNEM.UNIT       API CODE    CURVE DESCRIPTION
#----------   ------------   ------------------------------
 DEPT.F                  :   
 GRD .GAPI   45 310 01 00:   GAMMA RAY FROM DENSITY LOG
 CALD.IN     45 280 60 00:   CALIPER FROM DENSITY LOG
 CORR.G/C3   45 356 01 00:   DENSITY CORRECTION
 TEND.LBS    45 635 01 00:   TENSION FORM DENSITY LOG
 RHOB.G/C3   45 350 01 00:   BULK DENSITY
 SPR .MV     07 010 01 00:   SPONTANEOUS POTENTIAL
 TENR.LBS    07 635 01 00:   TENSION FROM RESISTIVITY
 ILD .OHMM   07 120 46 00:   DEEP INDUCTION RESISTIVITY
 ILM .OHMM   07 120 44 00:   INDUCTION LOG MEDIUM RESISTIVITY
 SGRD.OHMM   07 220 05 00:   SHALLOW SHORT GUARD RESISTIVITY
~PARAMETER INFORMATION
#MNEM.UNIT          VALUE    DESCRIPTION
#----------   ------------   ------------------------------
 EKB .F         5212.0000:   Kelly bushing
 EGL .F         5202.0000:   Ground level
 TD  .F         3195.0000:   Total depth
 CLNT.            A2DTECH:   Client Code
 SL  . 1090' FSL & 330' FWL:   Surface Location
 PD  .                 GL:   Permanent Datum
 EPD .F              5202:   Elevation Permanent Datum
 LMF .                 KB:   Log Measured From
 DMF .                 KB:   Drilling Measured From
 DAPD.F                10:   Feet Above Permanent Datum
 DATE.        16-SEP-1977:   Date Logged [DD-MMM-YYYY]
 DD  .F              3195:   Depth driller
 DL  .F              3195:   Depth logger
 BLI .F              3193:   Bottom log interval
 TLI .F               217:   Top log interval
 CS1 .IN            8.625:   Casing size
 CBD1.      8.625" @ 216':   Casing driller 1
 CBL1.F               217:   Casing logger 1
 BS1 .IN            7.875:   Bit size
 BSD1.F              3195:   Depth drilled with bit1
 DFT .            KCL MUD:   Type fluid in hole
 DFD .                9.2:   Density
 DFV .                 36:   Viscosity
 DFPH.                 11:   pH
 DFL .                8.8:   Fluid loss
 MSS .           FLOWLINE:   Source of sample
 RMS .OHMM           2.76:   Rm
 MST .F                99:   Rm Meas. temp.
 RMF .OHMM           1.54:   Rmf
 MFST.F                99:   Rmf Meas. temp.
 MFSS.               MEAS:   Source Rmf.
 RMC .OHMM           3.01:   Rmc
 MCST.F                99:   Rmc Meas. temp.
 MCSS.               MEAS:   Source Rmc.
 RMB .OHMM           2.40:   Rm. at BHT
 BHT .F               112:   BHT.
 TCS .HRS               6:   Time Circ. stopped
 MRT .F               112:   Maximum recorded temp.
 LUN .               8611:   Logging unit number
 LUL .             CASPER:   Logging unit location
 ENGI.          D. LAWSON:   Recorded By
 WITN.         HARRINGTON:   Witnessed by
 ORIG.           5" PRINT:   Origin of data
 UWI .     49025104170000:   Unique Well ID
 DICO. A2D TECHNOLOGIES, INC.:   Digitizing Company
~OTHER INFORMATION
~A   DEPT       GRD      CALD       CORR       TEND       RHOB        SPR       TENR        ILD        ILM       SGRD   
# ...
 2976.0000   108.1146     8.2378     0.0133  2112.5747     2.5522   -72.5941  1917.9640     4.5537     6.0964    10.8640
 2976.5000   106.8899     8.2233     0.0118  2094.3069     2.5506   -72.6030  1934.0012     4.7800     6.2188    10.5630
 2977.0000   109.2885     8.2229     0.0084  2084.4314     2.5498   -72.6139  1934.8710     4.9827     6.3908    10.2703
 2977.5000   106.8606     8.2129     0.0071  2085.4316     2.5498   -72.6227  1935.7412     5.1224     6.4782    10.0527
 2978.0000   105.9410     8.1880     0.0100  2086.3062     2.5498   -72.6315  1936.6110     5.1934     6.4750    10.5492
 2978.5000   108.0379     8.2024     0.0100  2087.1257     2.5498   -72.6403  1937.4807     5.2653     6.4723    10.9165
 2979.0000   110.4365     8.2011     0.0114  2088.2021     2.5505   -72.6491  1938.3510     5.3383     6.4697    11.1412
 2979.5000   111.6290     8.2002     0.0113  2089.0037     2.5513   -72.6579  1909.2808     5.4120     6.3779    11.1367
 2980.0000   106.7873     8.1990     0.0123  2089.8203     2.5579   -72.6667  1910.1797     5.4113     6.2816    10.9791
 2980.5000   103.7205     8.1980     0.0144  2090.6807     2.5624   -72.6758  1911.0778     5.4106     6.1546    10.6012
 2981.0000   103.4398     8.1970     0.0173  2076.6465     2.5609   -72.6865  1882.1677     5.3352     6.1095    10.3770
 2981.5000   108.5497     8.1959     0.0204  2087.2903     2.5571   -72.6953  1883.0380     5.2976     6.1071    10.0700
 2982.0000   113.3615     8.1949     0.0229  2093.4133     2.5563   -72.7041  1883.9077     5.1152     6.1900     9.5428
 2982.5000   113.9539     8.1936     0.0260  2102.4395     2.5555   -72.7121  1884.7776     4.9705     6.1875     8.9007
 2983.0000   111.2206     8.2080     0.0273  2125.1497     2.5540   -72.6606  1885.6478     4.9059     6.1850     8.6541
 2983.5000   107.5861     8.2369     0.0287  2126.0479     2.5525   -72.5055  1886.5271     5.0432     6.2690     9.6642
 2984.0000   106.9681     8.2510     0.0256  2126.9636     2.5464   -72.4362  1887.4250     5.1131     6.3125    10.4974
 2984.5000   109.7136     8.2499     0.0241  2127.8442     2.5388   -72.1420  1873.2875     5.1124     6.3951    11.0910
 2985.0000   112.6703     8.2639     0.0240  2128.7424     2.5342   -71.8477  1859.1873     5.1475     6.4378    11.5569
 2985.5000   112.3503     8.2547     0.0239  2129.7339     2.5317   -71.5535  1860.2745     5.1826     6.4345    11.7133
 2986.0000   109.9224     8.2468     0.0238  2115.4202     2.5274   -71.2593  1861.1448     5.1818     6.3432    11.7075
 2986.5000   108.0978     8.2609     0.0238  2116.5139     2.5243   -71.2703  1862.0145     5.1030     6.0818    11.0721
 2987.0000   109.5914     8.2749     0.0235  2132.3586     2.5220   -71.2791  1862.8843     4.9003     5.7507    10.3271
 2987.5000   115.0066     8.2767     0.0221  2129.7820     2.5212   -71.2879  1863.7725     4.6996     5.5138     9.2403
 2988.0000   118.0086     8.2878     0.0220  2118.9927     2.5182   -71.2970  1864.8418     4.5072     5.2836     8.6186
 2988.5000   115.8823     8.2867     0.0220  2105.0901     2.5129   -71.6107  1865.7115     4.2335     5.0222     9.1762
 2989.0000   114.9627     8.2857     0.0230  2105.9880     2.5060   -71.9225  1866.5818     3.8141     4.6610     9.3579
 2989.5000   121.5808     8.2845     0.0235  2091.9685     2.4939   -72.0828  1867.4515     3.1834     4.0548     9.3532
 2990.0000   133.0292     8.2836     0.0264  2092.8438     2.4816   -71.9401  1868.3213     2.8881     3.5275     8.3688
 2990.5000   152.6224     8.2759     0.0292  2093.7183     2.4706   -71.9489  1869.1915     2.6919     3.2441     6.9871
 2991.0000   180.6621     8.2664     0.0291  2085.8843     2.4645   -71.8061  1870.0613     2.5774     2.9834     5.4431
 2991.5000   198.0669     8.2653     0.0260  2080.5388     2.4569   -71.6635  1870.9584     2.4777     3.0239     3.9022
 2992.0000   203.8617     8.2792     0.0214  2081.4370     2.4509   -71.6745  1871.8561     2.5121     3.4034     3.1253
 2992.5000   164.9318     8.2783     0.0139  2082.3352     2.4531   -71.6833  1872.7545     2.6552     3.6778     4.3255
 2993.0000   134.2435     8.2771     0.0093  2083.2336     2.4928   -71.8436  1873.7588     2.7678     4.0150     9.5879
 2993.5000   115.1409     8.2762     0.0047  2084.1318     2.5409   -72.0039  1874.6285     2.8852     4.3020    10.5598
 2994.0000   101.8374     8.2749     0.0092  2085.0913     2.5566   -72.0121  1875.4983     3.0924     4.7395    11.3136
 2994.5000    98.2029     8.2741     0.0151  2085.9282     2.5665   -72.0212  1876.3685     3.3149     5.2578    11.7876
 2995.0000    96.3783     8.2729     0.0135  2086.8262     2.5625   -72.0303  1877.2455     3.5655     5.7924    12.1139
 2995.5000    95.4586     8.2718     0.0074  2087.7246     2.5519   -72.0394  1878.1437     4.0247     6.1209    11.9301
 2996.0000    99.9689     8.2708     0.0073  2088.6638     2.5459   -72.0485  1879.1958     4.6238     6.2040    11.2932
 2996.5000   101.8545     8.2851     0.0133  2089.5383     2.5413   -72.0576  1880.0656     5.1667     6.2014    10.9802
 2997.0000   101.1462     8.2688     0.0207  2090.4192     2.5383   -72.0677  1880.9354     5.4613     6.1984    10.5291
 2997.5000   101.1312     8.2676     0.0236  2091.3174     2.5359   -72.2280  1881.7365     5.5756     6.1959     9.9576
 2998.0000   101.9728     8.2667     0.0250  2092.2158     2.5359   -72.3425  1882.6754     5.4597     6.1079     9.4172
 2998.5000   102.5732     8.2656     0.0250  2093.1140     2.5351   -72.3971  1898.5151     5.3464     5.9796     9.0931
 2999.0000   103.5073     8.2646     0.0264  2094.0120     2.5350   -72.4061  1914.3712     5.1564     5.8539     9.1526
 2999.5000   105.8848     8.2634     0.0284  2079.8179     2.5380   -72.4169  1915.4426     4.7826     5.6912     9.4049
 3000.0000   108.5968     8.2624     0.0307  2065.9412     2.5409   -72.5772  1916.1677     4.4302     5.4189     9.5323
 3000.5000   111.3088     8.2612     0.0336  2066.8889     2.5424   -72.7375  1887.0988     4.0191     5.1552     9.1958
 3001.0000   114.0208     8.2755     0.0368  2067.6909     2.5341   -72.7463  1888.1881     3.6972     4.7446     9.0110
 3001.5000   117.9394     8.2744     0.0380  2068.5659     2.5220   -72.7551  1889.0593     3.4976     4.4756     8.6408
 3002.0000   128.1929     8.2883     0.0379  2069.4612     2.5129   -72.7639  1889.9305     3.2627     3.9585     7.9486
 3002.5000   134.8265     8.2873     0.0349  2070.3591     2.5046   -72.7727  1890.8021     2.6813     3.5410     7.2112
 3003.0000   152.6553     8.3013     0.0303  2071.2576     2.4956   -72.7818  1891.6168     2.4032     3.2118     6.6335
 3003.5000   161.5192     8.3046     0.0271  2072.2842     2.4824   -72.7925  1892.5446     2.1803     2.8730     5.9354
 3004.0000   180.3675     8.3143     0.0226  2073.0537     2.4744   -72.8013  1893.4133     2.0912     2.6423     4.9461
 3004.5000   189.4143     8.3132     0.0196  2074.1064     2.4713   -72.8101  1894.3114     2.0910     2.3967     3.8069
 3005.0000   186.9981     8.2971     0.0195  2077.1016     2.4796   -72.8189  1895.3768     2.1648     2.3992     3.4538
 3005.5000   178.5487     8.2957     0.0179  2090.7537     2.4975   -72.8277  1926.1881     2.2883     2.6950     3.5989
 3006.0000   135.4085     8.2649     0.0152  2106.5869     2.5178   -72.8365  1927.0593     2.4212     3.2499     6.9456
 3006.5000   116.4011     8.2636     0.0166  2109.9673     2.5373   -72.9379  1927.9310     2.6108     3.7330     9.3510
 3007.0000   111.5716     8.2627     0.0166  2123.3533     2.5432   -72.9200  1943.7721     2.7598     4.0561    10.4425
 3007.5000   112.4839     8.2617     0.0166  2139.3821     2.5409   -72.7951  1929.6406     2.9581     4.2276    10.2524
 3008.0000   113.6773     8.2605     0.0150  2140.1199     2.5370   -72.7657  1930.5450     3.1269     5.0976    10.5785
 3008.5000   113.3720     8.2596     0.0126  2141.0181     2.5340   -72.5015  1931.4371     3.5431     5.8231    11.4906
 3009.0000   113.0674     8.2585     0.0104  2142.0068     2.5347   -72.2033  1932.5051     4.1306     5.9761    11.4860
