~VERSION INFORMATION
 VERS.                2.0:   CWLS LOG ASCII STANDARD - VERSION 2.0
 WRAP.                 NO:   ONE LINE PER DEPTH STEP
~WELL INFORMATION
#MNEM.UNIT      DATA TYPE    INFORMATION
#----------   ------------   ------------------------------
 STRT.F           46.0000:   START DEPTH
 STOP.F         2952.5000:   STOP DEPTH
 STEP.F            0.5000:   STEP LENGTH
 NULL.          -999.2500:   NO VALUE
 COMP.    FENIX & SCISSON:   COMPANY
 WELL. FENIX NPR 3 "SHX" #11-15:   WELL
 FLD .        TEAPOT DOME:   FIELD
 LOC .      S15 T38N R78W:   LOCATION
 CNTY.            NATRONA:   COUNTY
 STAT.            WYOMING:   STATE
 CTRY. UNITED STATES OF AMERICA:   COUNTRY
 SRVC.           BIRDWELL:   SERVICE COMPANY
 DATE.        19-JAN-1979:   LOGDATE
 API .     49025107640000:   API NUMBER
~CURVE INFORMATION
#MNEM.UNIT       API CODE    CURVE DESCRIPTION
#----------   ------------   ------------------------------
 DEPT.F                  :   
 GRD .GAPI   45 310 01 00:   GAMMA RAY FROM DENSITY LOG
 CALD.IN     45 280 60 00:   CALIPER FROM DENSITY LOG
 RHOB.G/C3   45 350 01 00:   BULK DENSITY
 CORR.G/C3   45 356 01 00:   DENSITY CORRECTION
 SPR .MV     07 010 01 00:   SPONTANEOUS POTENTIAL
 SN  .OHMM   01 040 00 00:   SHORT NORMAL
 ILD .OHMM   07 120 46 00:   INDUCTION LOG DEEP RESISTIVITY
~PARAMETER INFORMATION
#MNEM.UNIT          VALUE    DESCRIPTION
#----------   ------------   ------------------------------
 EKB .F         5258.0000:   Kelly bushing
 EGL .F         5248.0000:   Ground level
 EDF .F            0.0000:   Drilling floor
 TD  .F         1300.0000:   Total depth
 DATE.        19-JAN-1979:   Date logged
 CLNT.            A2DTECH:   Client Code
 SL  . 177' FNL & 155' FWL:   Surface Location
 PD  .                 GL:   Permanent Datum
 EPD .F              5248:   Elevation Permanent Datum
 LMF .                 KB:   Log Measured From
 DMF .                 KB:   Drilling Measured From
 DAPD.F                10:   Feet Above Permanent Datum
 DD  .F              1300:   Depth driller
 DL  .F              1283:   Depth logger
 BLI .F              1277:   Bottom log interval
 TLI .F               100:   Top log interval
 CBD1.F                40:   Casing driller 1
 CBL1.F                40:   Casing logger 1
 BS1 .IN            7.875:   Bit size
 BSD1.F              1300:   Depth drilled with bit1
 DFT .           CHEM/GEL:   Type fluid in hole
 DFD .                8.8:   Density
 DFV .                 37:   Viscosity
 DFL .               15.4:   Fluid loss
 MSS .           FLOWLINE:   Source of sample
 RMS .OHMM            .75:   Rm
 MST .F                68:   Rm Meas. temp.
 RMF .OHMM            .75:   Rmf
 MFST.F                64:   Rmf Meas. temp.
 RMC .OHMM            1.3:   Rmc
 MCST.F                68:   Rmc Meas. temp.
 MFSS.               MEAS:   Source Rmf.
 MCSS.               MEAS:   Source Rmc.
 RMB .OHMM            .73:   Rm. at BHT
 BHT .F                70:   BHT.
 TCS .HRS               2:   Time Circ. stopped
 MRT .F                70:   Maximum recorded temp.
 LUN .               3029:   Logging unit number
 LUL .               CSPR:   Logging unit location
 ENGI.            ROLLINS:   Recorded By
 WITN.           DINSMORE:   Witnessed by
 ORIG.           5" PRINT:   Origin of data
 UWI .     49025107640000:   Unique Well ID
 DICO. A2D TECHNOLOGIES, INC.:   Digitizing Company
~OTHER INFORMATION
~A   DEPT      GRD       CALD       RHOB       CORR        SPR           SN        ILD 
# ...
 2139.0000   142.5590    10.6090     2.4090     0.1740  -999.2500  -999.2500  -999.2500
 2139.5000   141.0390    10.6020     2.4080     0.1720  -999.2500  -999.2500  -999.2500
 2140.0000   141.7540    10.5990     2.3990     0.1860  -999.2500  -999.2500  -999.2500
 2140.5000   143.1670    10.6470     2.3580     0.2010  -999.2500  -999.2500  -999.2500
 2141.0000   144.0860    10.6880     2.3250     0.2630  -999.2500  -999.2500  -999.2500
 2141.5000   146.8870    10.7330     2.3070     0.2650  -999.2500  -999.2500  -999.2500
 2142.0000   148.9680    10.7540     2.3080     0.2530  -999.2500  -999.2500  -999.2500
 2142.5000   149.4360    10.7510     2.3190     0.2210  -999.2500  -999.2500  -999.2500
 2143.0000   149.4140    10.7500     2.3280     0.1930  -999.2500  -999.2500  -999.2500
 2143.5000   149.3120    10.7120     2.3400     0.1730  -999.2500  -999.2500  -999.2500
 2144.0000   149.1500    10.6780     2.3510     0.1730  -999.2500  -999.2500  -999.2500
 2144.5000   148.6870    10.6370     2.3540     0.1780  -999.2500  -999.2500  -999.2500
 2145.0000   148.1230    10.6220     2.3780     0.2000  -999.2500  -999.2500  -999.2500
 2145.5000   143.2620    10.6090     2.4160     0.2160  -999.2500  -999.2500  -999.2500
 2146.0000   140.5660    10.5970     2.4310     0.2160  -999.2500  -999.2500  -999.2500
 2146.5000   140.9910    10.6350     2.4240     0.2220  -999.2500  -999.2500  -999.2500
 2147.0000   143.3690    10.6750     2.3680     0.2320  -999.2500  -999.2500  -999.2500
 2147.5000   145.3770    10.7070     2.3250     0.2410  -999.2500  -999.2500  -999.2500
 2148.0000   147.8460    10.6580     2.3190     0.2260  -999.2500  -999.2500  -999.2500
 2148.5000   150.4140    10.6120     2.3310     0.1780  -999.2500  -999.2500  -999.2500
 2149.0000   148.7610    10.5930     2.3440     0.1730  -999.2500  -999.2500  -999.2500
 2149.5000   144.2640    10.5940     2.4040     0.1760  -999.2500  -999.2500  -999.2500
 2150.0000   145.4250    10.6020     2.4170     0.1870  -999.2500  -999.2500  -999.2500
 2150.5000   145.7670    10.6160     2.4190     0.1970  -999.2500  -999.2500  -999.2500
 2151.0000   146.5500    10.6290     2.4140     0.2010  -999.2500  -999.2500  -999.2500
 2151.5000   145.8530    10.6410     2.4100     0.2000  -999.2500  -999.2500  -999.2500
 2152.0000   144.9140    10.6580     2.4030     0.1940  -999.2500  -999.2500  -999.2500
 2152.5000   143.9420    10.6620     2.3970     0.1860  -999.2500  -999.2500  -999.2500
 2153.0000   143.8940    10.7440     2.3940     0.1800  -999.2500  -999.2500  -999.2500
 2153.5000   145.5540    10.9060     2.3970     0.1630  -999.2500  -999.2500  -999.2500
 2154.0000   148.0610    10.8610     2.4140     0.1450  -999.2500  -999.2500  -999.2500
 2154.5000   155.7510    10.6800     2.4320     0.1450  -999.2500  -999.2500  -999.2500
 2155.0000   162.0190    10.6780     2.4390     0.1450  -999.2500  -999.2500  -999.2500
 2155.5000   158.0700    10.7080     2.4140     0.1580  -999.2500  -999.2500  -999.2500
 2156.0000   149.0070    10.7380     2.3830     0.1780  -999.2500  -999.2500  -999.2500
 2156.5000   144.3780    10.7670     2.3540     0.1960  -999.2500  -999.2500  -999.2500
 2157.0000   144.8630    10.7830     2.3470     0.2120  -999.2500  -999.2500  -999.2500
 2157.5000   148.1070    10.5760     2.3430     0.2470  -999.2500  -999.2500  -999.2500
 2158.0000   152.5260    10.7310     2.3270     0.2800  -999.2500  -999.2500  -999.2500
 2158.5000   156.8080    10.9280     2.3420     0.2740  -999.2500  -999.2500  -999.2500
 2159.0000   158.7640    10.9050     2.3760     0.2490  -999.2500  -999.2500  -999.2500
 2159.5000   155.8650    10.9080     2.3780     0.2220  -999.2500  -999.2500  -999.2500
 2160.0000   152.6680    10.9120     2.3690     0.1930  -999.2500  -999.2500  -999.2500
 2160.5000   138.0310    10.9000     2.3680     0.1670  -999.2500  -999.2500  -999.2500
 2161.0000   139.2140    10.8800     2.3790     0.1350  -999.2500  -999.2500  -999.2500
 2161.5000   142.1080    10.8590     2.4100     0.1330  -999.2500  -999.2500  -999.2500
 2162.0000   146.8850    10.8370     2.4190     0.1350  -999.2500  -999.2500  -999.2500
 2162.5000   152.7050    10.8180     2.4090     0.1690  -999.2500  -999.2500  -999.2500
 2163.0000   151.5380    10.7940     2.4030     0.2000  -999.2500  -999.2500  -999.2500
 2163.5000   148.7900    10.8260     2.3980     0.2160  -999.2500  -999.2500  -999.2500
 2164.0000   146.5180    10.8700     2.3940     0.2060  -999.2500  -999.2500  -999.2500
 2164.5000   146.1920    10.9150     2.3370     0.2020  -999.2500  -999.2500  -999.2500
 2165.0000   146.3340    10.9480     2.2770     0.2030  -999.2500  -999.2500  -999.2500
 2165.5000   146.5130    10.9480     2.2960     0.2280  -999.2500  -999.2500  -999.2500
 2166.0000   152.1010    10.9490     2.3470     0.2280  -999.2500  -999.2500  -999.2500
 2166.5000   154.4610    10.9490     2.3980     0.2110  -999.2500  -999.2500  -999.2500
 2167.0000   151.0660    10.9490     2.4260     0.1640  -999.2500  -999.2500  -999.2500
 2167.5000   150.1080    10.9490     2.4300     0.1110  -999.2500  -999.2500  -999.2500
 2168.0000   151.4590    10.9490     2.4320     0.1350  -999.2500  -999.2500  -999.2500
 2168.5000   153.3140    10.9490     2.3920     0.1890  -999.2500  -999.2500  -999.2500
 2169.0000   154.4160    10.9490     2.3840     0.2300  -999.2500  -999.2500  -999.2500
 2169.5000   154.6420    10.9490     2.3740     0.2190  -999.2500  -999.2500  -999.2500
 2170.0000   153.1090    10.9490     2.3450     0.1960  -999.2500  -999.2500  -999.2500
 2170.5000   149.9860    10.9490     2.3130     0.1640  -999.2500  -999.2500  -999.2500
 2171.0000   148.9560    10.9480     2.2960     0.1780  -999.2500  -999.2500  -999.2500
 2171.5000   149.2000    10.9500     2.3220     0.1960  -999.2500  -999.2500  -999.2500
 2172.0000   151.7110    10.9500     2.4020     0.1740  -999.2500  -999.2500  -999.2500
 2172.5000   154.3340    10.9840     2.3870     0.1730  -999.2500  -999.2500  -999.2500
 2173.0000   156.5580    10.9890     2.3760     0.1710  -999.2500  -999.2500  -999.2500
 2173.5000   155.7060    11.0160     2.3560     0.1700  -999.2500  -999.2500  -999.2500
 2174.0000   153.9870    11.0130     2.3440     0.1680  -999.2500  -999.2500  -999.2500
 2174.5000   152.1570    10.8680     2.3800     0.1350  -999.2500  -999.2500  -999.2500
 2175.0000   151.3320    10.7320     2.4260     0.1010  -999.2500  -999.2500  -999.2500
 2175.5000   155.7060    10.6810     2.4430     0.1170  -999.2500  -999.2500  -999.2500
 2176.0000   160.3290    10.6720     2.4580     0.1470  -999.2500  -999.2500  -999.2500
 2176.5000   154.0120    10.7130     2.4610     0.1340  -999.2500  -999.2500  -999.2500
 2177.0000   148.3850    10.7610     2.4410     0.1340  -999.2500  -999.2500  -999.2500
 2177.5000   146.7050    10.8140     2.4090     0.1440  -999.2500  -999.2500  -999.2500
 2178.0000   145.5930    10.8130     2.3740     0.1630  -999.2500  -999.2500  -999.2500
 2178.5000   147.7470    10.7710     2.3710     0.1460  -999.2500  -999.2500  -999.2500
 2179.0000   149.3470    10.7330     2.3790     0.1390  -999.2500  -999.2500  -999.2500
 2179.5000   151.2470    10.7120     2.3810     0.1780  -999.2500  -999.2500  -999.2500
 2180.0000   153.0660    10.7090     2.3810     0.2160  -999.2500  -999.2500  -999.2500
 2180.5000   153.3890    10.7640     2.3810     0.2010  -999.2500  -999.2500  -999.2500
 2181.0000   154.0480    10.8690     2.3850     0.1800  -999.2500  -999.2500  -999.2500
 2181.5000   162.4540    10.8680     2.3940     0.1790  -999.2500  -999.2500  -999.2500
 2182.0000   165.1660    10.8740     2.4170     0.1460  -999.2500  -999.2500  -999.2500
 2182.5000   159.1320    10.8190     2.3990     0.1200  -999.2500  -999.2500  -999.2500
 2183.0000   154.7900    10.7150     2.3860     0.1500  -999.2500  -999.2500  -999.2500
 2183.5000   151.1060    10.7590     2.3240     0.1780  -999.2500  -999.2500  -999.2500
 2184.0000   146.8360    10.8110     2.2240     0.2090  -999.2500  -999.2500  -999.2500
