~VERSION INFORMATION
 VERS.                2.0:   CWLS LOG ASCII STANDARD - VERSION 2.0
 WRAP.                 NO:   ONE LINE PER DEPTH STEP
~WELL INFORMATION
#MNEM.UNIT      DATA TYPE    INFORMATION
#----------   ------------   ------------------------------
 STRT.F          199.0000:   START DEPTH
 STOP.F         2951.0000:   STOP DEPTH
 STEP.F            0.5000:   STEP LENGTH
 NULL.          -999.2500:   NO VALUE
 COMP.    FENIX & SCISSON:   COMPANY
 WELL. FENIX & SCISSON "A" #3-21:   WELL
 FLD .              XPR-3:   FIELD
 LOC .      S21 T39N R78W:   LOCATION
 CNTY.            NATRONA:   COUNTY
 STAT.            WYOMING:   STATE
 CTRY. UNITED STATES OF AMERICA:   COUNTRY
 SRVC.              WELEX:   SERVICE COMPANY
 DATE.        27-JUN-1977:   LOGDATE
 API .     49025103880000:   API NUMBER
~CURVE INFORMATION
#MNEM.UNIT       API CODE    CURVE DESCRIPTION
#----------   ------------   ------------------------------
 DEPT.F                  :   
 CALD.IN     45 280 60 00:   CALIPER FROM DENSITY LOG
 GRD .GAPI   45 310 01 00:   GAMMA RAY FROM DENSITY LOG
 CORR.G/C3   45 356 01 00:   DENSITY CORRECTION
 RHOB.G/C3   45 350 01 00:   BULK DENSITY
 SPR .MV     07 010 01 00:   SPONTANEOUS POTENTIAL
 ILD .OHMM   07 120 46 00:   DEEP INDUCTION RESISTIVITY
 ILM .OHMM   07 120 44 00:   INDUCTION LOG MEDIUM RESISTIVITY
 SGRD.OHMM   07 220 05 00:   SHALLOW SHORT GUARD RESISTIVITY
~PARAMETER INFORMATION
#MNEM.UNIT          VALUE    DESCRIPTION
#----------   ------------   ------------------------------
 EKB .F         4981.0000:   Kelly bushing
 EGL .F         4971.0000:   Ground level
 TD  .F         2953.0000:   Total depth
 CLNT.            A2DTECH:   Client Code
 SL  . 330' FSL & 1650' FWL:   Surface Location
 DATE.        27-JUN-1977:   Date Logged [DD-MMM-YYYY]
 DD  .F              2930:   Depth driller
 DL  .F              2953:   Depth logger
 BLI .F              2951:   Bottom log interval
 TLI .F               200:   Top log interval
 CS1 .              8.625:   Casing size
 CBD1.      8.625" @ 217':   Casing driller 1
 BS1 .IN            7.875:   Bit size
 BSD1.F              2930:   Depth drilled with bit1
 DFT .            KCL MUD:   Type fluid in hole
 DFD .                9.4:   Density
 DFV .                 37:   Viscosity
 DFPH.                9.0:   pH
 DFL .               16.0:   Fluid loss
 MSS .           FLOWLINE:   Source of sample
 RMS .OHMM           1.10:   Rm
 MST .F                92:   Rm Meas. temp.
 RMF .OHMM           0.85:   Rmf
 MFST.F                92:   Rmf Meas. temp.
 MFSS.           FANN KIT:   Source Rmf.
 RMC .OHMM           1.44:   Rmc
 MCST.F                92:   Rmc Meas. temp.
 MCSS.           FANN KIT:   Source Rmc.
 RMB .OHMM           0.93:   Rm. at BHT
 BHT .F               109:   BHT.
 TCS .HRS            0230:   Time Circ. stopped
 MRT .F               109:   Maximum recorded temp.
 LUN .               8611:   Logging unit number
 LUL .             CASPER:   Logging unit location
 ENGI.         G. BENTSEN:   Recorded By
 WITN.  MR. W. PETTINGILL:   Witnessed by
 ORIG.      2.5" 5" PRINT:   Origin of data
 UWI .     49025103880000:   Unique Well ID
 DICO. A2D TECHNOLOGIES, INC.:   Digitizing Company
 PD  .                 GL:   Permanent Datum
 EPD .               4971:   Elevation Permanent Datum
 LMF .                 KB:   Log Measured From
 DMF .                 KB:   Drilling Measured From
 DAPD.                 10:   Feet Above Permanent Datum
~OTHER INFORMATION
~A   DEPT       CALD       GRD       CORR        RHOB      SPR        ILD        ILM       SGRD   
# ...
 1292.5000     9.1696    98.5928     0.0178     2.5616   -40.0000     6.6004     7.3311     9.2845
 1293.0000     9.1688    98.5820     0.0209     2.5678   -39.9764     6.5582     7.3352     9.2236
 1293.5000     9.1990    98.5728     0.0208     2.5722   -39.9480     6.5614     7.3392     9.1640
 1294.0000     9.2079    98.5635     0.0208     2.5688   -39.9243     6.5645     7.3433     9.2960
 1294.5000     9.2284    98.5542     0.0208     2.5675   -39.9007     6.5677     7.3981     9.5596
 1295.0000     9.2586    98.3488     0.0207     2.5675   -39.7292     6.5709     7.4022     9.8987
 1295.5000     9.2676    97.9164     0.0207     2.5674   -39.7056     6.6195     7.4574     9.8348
 1296.0000     9.3190    97.9071     0.0206     2.5674   -39.3861     6.7144     7.4616     9.4404
 1296.5000     9.3492    97.8978     0.0206     2.5689   -39.2146     6.7176     7.6216     9.3150
 1297.0000     9.3483    97.8885     0.0205     2.5720   -39.0430     6.7290     7.6258     9.8469
 1297.5000     9.3475    97.6780     0.0205     2.5782   -39.0194     6.7712     7.6300    10.0567
 1298.0000     9.3158    97.2508     0.0204     2.5905   -39.1497     6.7745     7.6869     9.1990
 1298.5000     9.3150    95.5963     0.0204     2.5947   -39.2681     6.7304     7.6912     9.3305
 1299.0000     9.3143    94.1378     0.0203     2.5858   -39.6883     6.6875     7.6954     9.7954
 1299.5000     9.3135    94.9515     0.0203     2.5781   -39.8185     6.6915     7.5932    10.1429
 1300.0000     9.3024    95.9768     0.0234     2.5827   -39.7806     6.7328     7.4935     9.9545
 1300.5000     9.2810    95.9660     0.0233     2.5950   -39.6085     6.7133     7.3966     9.3472
 1301.0000     9.2802    95.9566     0.0233     2.6027   -39.4363     6.7484     7.3492     9.0340
 1301.5000     9.2794    95.3281     0.0232     2.6104   -39.2642     6.7988     7.3549     9.2282
 1302.0000     9.2787    94.6997     0.0232     2.6181   -39.1301     6.8025     7.4103     9.7558
 1302.5000     9.2779    94.4789     0.0231     2.6289   -39.1124     6.8063     7.5178     9.8959
 1303.0000     9.2771    93.2301     0.0231     2.6366   -39.2425     6.8100     7.7326     9.2416
 1303.5000     9.2870    91.9814     0.0262     2.6474   -39.5207     6.8138     7.8990    10.1821
 1304.0000     9.3066    90.1136     0.0261     2.6551   -39.5028     6.8175     8.0135    12.3543
 1304.5000     9.3165    88.0299     0.0273     2.6227   -39.6330     6.8213     7.8005    12.0243
 1305.0000     9.3360    87.2136     0.0291     2.6087   -39.7632     6.7773     7.6973    10.6271
 1305.5000     9.3662    88.2591     0.0291     2.6025   -40.0415     6.7819     7.5446     9.9245
 1306.0000     9.3654    90.1095     0.0322     2.6040   -40.0235     6.6920     7.3960     9.7262
 1306.5000     9.3646    91.7398     0.0321     2.6040   -40.0057     6.6966     7.2982     9.4014
 1307.0000     9.3949    93.5893     0.0321     2.6040   -40.4317     6.7003     7.1544     9.1492
 1307.5000     9.3940    95.0412     0.0320     2.6040   -41.1536     6.6123     7.1588     9.3458
 1308.0000     9.3932    96.6687     0.0320     2.6040   -41.2838     6.5246     7.1130     9.4150
 1308.5000     9.3925    98.5181     0.0319     2.6039   -41.1181     6.4834     7.1185     9.1635
 1309.0000     9.3917    99.9730     0.0319     2.6039   -40.3607     6.4879     7.1721     9.1039
 1309.5000     9.3909   101.5976     0.0318     2.6039   -39.6033     6.4914     7.1766     9.1723
 1310.0000     9.3901   103.2763     0.0303     2.6039   -39.5760     6.4950     7.1810     9.5640
 1310.5000     9.3894   101.9938     0.0286     2.5992   -41.1950     6.5435     7.1854     9.7013
 1311.0000     9.3576    99.5997     0.0240     2.5961   -41.6210     6.5471     7.2396     9.7731
 1311.5000     9.3605    98.3570     0.0176     2.5914   -41.3074     6.5507     7.2941     9.9123
 1312.0000     9.3652    97.8328     0.0145     2.5852   -40.5499     6.5996     7.3491     9.6487
 1312.5000     9.3669    97.8328     0.0082     2.5806   -40.0884     6.6488     7.3537     9.3265
 1313.0000     9.3356    97.8328     0.0034     2.5744   -40.6623     6.6984     7.3066     9.2022
 1313.5000     9.3044    97.9441     0.0034     2.5651   -40.9408     6.7484     7.4136     9.4000
 1314.0000     9.2673    98.5676     0.0065     2.5558   -40.9227     6.7521     7.5731     9.7341
 1314.5000     9.2418    99.1910     0.0080     2.5516   -40.6090     6.8495     7.6302     9.8049
 1315.0000     9.2106    99.6904     0.0112     2.5635   -40.4433     6.9006     7.7408     9.7423
 1315.5000     9.1793    99.4345     0.0174     2.5753   -39.9818     6.9521     7.6396    10.1595
 1316.0000     9.1790    96.9497     0.0219     2.5872   -39.6682     6.9559     7.5919    10.7390
 1316.5000     9.1477    94.6003     0.0249     2.5909   -39.6504     6.9111     7.5966     9.7575
 1317.0000     9.1164    93.3580     0.0249     2.5876   -39.6326     6.9158     7.6538     9.1124
 1317.5000     9.1161    92.7349     0.0248     2.5847   -39.6149     6.9196     7.6586    10.0398
 1318.0000     9.1158    92.8793     0.0266     2.5829   -39.8930     6.8288     7.5066    10.3954
 1318.5000     9.1155    93.0319     0.0279     2.5800   -39.8752     6.7847     7.4084     9.9805
 1319.0000     9.1152    93.6555     0.0278     2.5839   -39.8574     6.7419     7.3116     9.7799
 1319.5000     9.1148    95.2201     0.0278     2.5960   -39.6917     6.7466     7.4176     9.3884
 1320.0000     9.1456    98.3279     0.0277     2.6015   -39.6740     6.7969     7.7889     9.7233
 1320.5000     9.1452   100.3096     0.0277     2.5967   -39.6562     6.8006     7.9018     9.7952
 1321.0000     9.1759    99.5172     0.0276     2.5951   -39.6384     6.8044     7.6390     9.7999
 1321.5000     9.2065    98.2745     0.0276     2.5922   -40.0651     6.8075     7.4862     9.4065
 1322.0000     9.2152    97.6511     0.0275     2.5906   -40.1953     6.8586     7.4920    10.1531
 1322.5000     9.2369    97.2136     0.0266     2.5904   -40.3248     6.9098     7.6006    10.5140
 1323.0000     9.2460    97.2136     0.0233     2.5883   -40.4556     6.9136     7.7108    10.5905
 1323.5000     9.2982    97.2136     0.0202     2.5807   -40.4372     6.9174     7.8227     9.9598
 1324.0000     9.3288    97.2136     0.0149     2.5745   -40.2715     6.7798     7.8816     9.6926
 1324.5000     9.3595    97.8328     0.0149     2.5683   -39.9579     6.7835     7.5152     9.8330
 1325.0000     9.4004    97.8328     0.0138     2.5636   -39.4963     6.8341     7.5199     9.9742
 1325.5000     9.4518    97.8328     0.0116     2.5595   -39.6272     6.7900     7.6289     9.9105
 1326.0000     9.4824    98.0473     0.0085     2.5576   -39.9054     6.7947     7.6864     9.9153
 1326.5000     9.4820    98.4520     0.0073     2.5545   -40.0355     6.7509     7.5337     9.9200
 1327.0000     9.4817    99.0712     0.0041     2.5514   -39.2773     6.7555     7.4352     9.7890
 1327.5000     9.4814   100.3718     0.0021     2.5498   -38.8158     6.6668     7.4399     8.9548
 1328.0000     9.4811   102.6296     0.0021     2.5470   -38.7980     6.6705     7.4445     8.7146
 1328.5000     9.4498   103.4056     0.0020     2.5454   -38.7802     6.6742     7.4491     9.3417
 1329.0000     9.4376   103.1661     0.0020     2.5435   -38.9113     6.6779     7.4537     9.8079
 1329.5000     9.4183   102.1672     0.0019     2.5422   -38.8926     6.6348     7.5618    10.0868
 1330.0000     9.4056   102.1672     0.0019     2.5422   -38.8749     6.6394     7.4630    10.2304
 1330.5000     9.3741   101.9154     0.0018     2.5446   -39.0050     6.6889     7.4676     9.5551
 1331.0000     9.3554   101.2923     0.0018     2.5543   -39.1396     6.7854     7.6282     9.1726
 1331.5000     9.3551   100.6687     0.0017     2.5647   -39.1174     6.8832     7.7923     9.5643
 1332.0000     9.3548    99.4262     0.0017     2.5740   -39.2520     6.8870     7.7972     9.8363
 1332.5000     9.3545    96.1402     0.0016     2.5845   -39.3822     6.8908     7.7484     9.9090
