~VERSION INFORMATION
 VERS.                2.0:   CWLS LOG ASCII STANDARD - VERSION 2.0
 WRAP.                 NO:   ONE LINE PER DEPTH STEP
~WELL INFORMATION
#MNEM.UNIT      DATA TYPE    INFORMATION
#----------   ------------   ------------------------------
 STRT.F          216.0000:   START DEPTH
 STOP.F         3241.0000:   STOP DEPTH
 STEP.F            0.5000:   STEP LENGTH
 NULL.          -999.2500:   NO VALUE
 COMP.    FENIX & SCISSON:   COMPANY
 WELL.    FENIX "A" #72-4:   WELL
 FLD .             NPR #3:   FIELD
 LOC .       S4 T38N R78W:   LOCATION
 CNTY.            NATRONA:   COUNTY
 STAT.            WYOMING:   STATE
 CTRY. UNITED STATES OF AMERICA:   COUNTRY
 SRVC.              WELEX:   SERVICE COMPANY
 DATE.        09-JUL-1977:   LOGDATE
 API .     49025103900000:   API NUMBER
~CURVE INFORMATION
#MNEM.UNIT       API CODE    CURVE DESCRIPTION
#----------   ------------   ------------------------------
 DEPT.F                  :   
 CORR.G/C3   45 356 01 00:   DENSITY CORRECTION
 GRD .GAPI   45 310 01 00:   GAMMA RAY FROM DENSITY LOG
 RHOB.G/C3   45 350 01 00:   BULK DENSITY
 CALD.IN     45 280 60 00:   CALIPER FROM DENSITY LOG
 SPR .MV     07 010 01 00:   SPONTANEOUS POTENTIAL
 ILD .OHMM   07 120 46 00:   DEEP INDUCTION RESISTIVITY
 ILM .OHMM   07 120 44 00:   INDUCTION LOG MEDIUM RESISTIVITY
 SGRD.OHMM   07 220 05 00:   SHALLOW SHORT GUARD RESISTIVITY
~PARAMETER INFORMATION
#MNEM.UNIT          VALUE    DESCRIPTION
#----------   ------------   ------------------------------
 EKB .F         5192.0000:   Kelly bushing
 EGL .F         5182.0000:   Ground level
 TD  .F         3243.0000:   Total depth
 CLNT.            A2DTECH:   Client Code
 SL  . 990' FNL & 990' FEL:   Surface Location
 PD  .                 GL:   Permanent Datum
 EPD .F              5182:   Elevation Permanent Datum
 LMF .                 KB:   Log Measured From
 DMF .                 KB:   Drilling Measured From
 DAPD.F                10:   Feet Above Permanent Datum
 DATE.        09-JUL-1977:   Date Logged [DD-MMM-YYYY]
 DD  .F              3230:   Depth driller
 DL  .F              3243:   Depth logger
 BLI .F              3241:   Bottom log interval
 TLI .F               224:   Top log interval
 CS1 .IN            8.625:   Casing size
 CBD1.      8.625" @ 221':   Casing driller 1
 CBL1.F               224:   Casing logger 1
 BS1 .IN            7.875:   Bit size
 BSD1.F              3230:   Depth drilled with bit1
 DFT .                KCL:   Type fluid in hole
 DFD .                8.9:   Density
 DFV .                 44:   Viscosity
 DFPH.                7.5:   pH
 DFL .                5.8:   Fluid loss
 MSS .            MUD PIT:   Source of sample
 RMS .OHMM           0.24:   Rm
 MST .F                68:   Rm Meas. temp.
 RMF .OHMM           0.20:   Rmf
 MFST.F                68:   Rmf Meas. temp.
 MFSS.               MEAS:   Source Rmf.
 RMC .OHMM           0.31:   Rmc
 MCST.F                68:   Rmc Meas. temp.
 MCSS.               MEAS:   Source Rmc.
 RMB .OHMM           0.13:   Rm. at BHT
 BHT .F               117:   BHT.
 TCS .HRS               3:   Time Circ. stopped
 MRT .F               117:   Maximum recorded temp.
 LUN .               8766:   Logging unit number
 LUL .             CASPER:   Logging unit location
 ENGI.          T. JOYNER:   Recorded By
 WITN.         HARRINGTON:   Witnessed by
 ORIG.           5" PRINT:   Origin of data
 UWI .     49025103900000:   Unique Well ID
 DICO. A2D TECHNOLOGIES, INC.:   Digitizing Company
~OTHER INFORMATION
~A   DEPT     CORR         GRD        RHOB     CALD        SPR        ILD        ILM       SGRD   
# ...
 1228.5000     0.0210   116.0632     2.4795     9.4958   -72.9054     6.0461     6.4306     8.5888
 1229.0000     0.0195   114.9090     2.4757     9.4960   -72.7364     6.1344     6.5219     8.5946
 1229.5000     0.0188   117.0429     2.4734     9.4961   -72.5662     6.2239     6.6612     8.6004
 1230.0000     0.0173   118.5617     2.4675     9.4963   -72.3952     6.2277     6.8016     8.6058
 1230.5000     0.0165   113.8402     2.4630     9.4964   -72.2243     6.2749     6.8510     8.6121
 1231.0000     0.0158   112.3875     2.4615     9.4966   -72.0534     6.3226     6.8529     8.6184
 1231.5000     0.0165   113.9165     2.4646     9.4967   -71.8826     6.3714     6.9022     8.6238
 1232.0000     0.0173   110.9033     2.4676     9.4969   -71.7117     6.4197     6.9041     8.6297
 1232.5000     0.0157   109.5212     2.4676     9.4970   -71.5409     6.4236     6.9059     8.7564
 1233.0000     0.0142   109.2611     2.4654     9.4972   -71.3700     6.4275     6.9557     8.7625
 1233.5000     0.0128   108.1164     2.4609     9.4973   -71.1994     6.4314     6.9576     8.8577
 1234.0000     0.0113   108.4524     2.4624     9.4975   -71.0284     6.4802     6.9595     8.8981
 1234.5000     0.0106   111.4710     2.4655     9.4976   -70.8534     6.5293     6.9614     8.9041
 1235.0000     0.0106   112.4032     2.4654     9.4978   -70.7495     6.5333     7.0119     8.9102
 1235.5000     0.0106   110.3548     2.4648     9.4979   -70.5532     6.6286     7.0138     8.9162
 1236.0000     0.0114   109.4891     2.4655     9.4981   -70.3603     6.6340     7.0643     8.9223
 1236.5000     0.0129   110.7288     2.4678     9.5131   -70.1672     6.7297     7.1646     8.9283
 1237.0000     0.0159   111.0648     2.4708     9.5133   -69.9738     6.8288     7.2162     8.9344
 1237.5000     0.0189   110.8048     2.4754     9.5134   -69.7803     6.9285     7.3693     8.9407
 1238.0000     0.0226   106.5756     2.4799     9.5136   -69.5872     6.9810     7.4224     8.9480
 1238.5000     0.0256   104.3234     2.4829     9.5137   -69.4137     7.0829     7.5309     8.8906
 1239.0000     0.0279   104.0633     2.4777     9.5288   -69.3568     7.1366     7.6346     8.8981
 1239.5000     0.0279   104.4088     2.4657     9.5289   -69.3004     7.2407     7.6371     8.8411
 1240.0000     0.0279   104.1488     2.4462     9.5440   -69.2436     7.2954     7.3289     8.8486
 1240.5000     0.0279   102.6964     2.4326     9.5590   -69.1866     7.3509     6.7943     8.8545
 1241.0000     0.0279   102.7344     2.4203     9.5741   -69.1294     7.3554     6.0849     8.6179
 1241.5000     0.0286   103.0705     2.4049     9.5891   -69.0728     7.2584     5.3009     7.7711
 1242.0000     0.0294   103.1085     2.3778     9.5744   -69.0532     7.0557     4.8804     6.9947
 1242.5000     0.0294   104.3387     2.3410     9.5298   -69.2730     6.9709     4.9840     6.6722
 1243.0000     0.0294   105.8670     2.3050     9.4703   -69.4948     6.9762     5.3539     6.8260
 1243.5000     0.0287   105.9165     2.2313     9.4109   -69.7157     7.1770     8.2016     7.4756
 1244.0000     0.0264   104.1312     2.1794     9.3961   -69.9367     7.4867    10.4482     8.1870
 1244.5000     0.0235   104.5631     2.0917     9.4284   -70.1578     7.7559    11.8350     9.0286
 1245.0000     0.0138   106.6246     2.0291     9.5455   -70.3809     8.0346    10.4538     9.8194
 1245.5000     0.0011   106.9511     2.0675     9.7394   -70.6083     8.4398     9.0443    10.5323
 1246.0000     0.0004   106.0949     2.4652    10.2015   -70.6007     8.8654     8.9220    10.7612
 1246.5000     0.0242   106.7385     2.5089    10.5444   -70.5784     9.1222     9.4322    10.8435
 1247.0000     0.0250   106.7765     2.5066    10.4850   -70.5573     9.3832     9.9023    11.0026
 1247.5000     0.0235   107.4107     2.4999    10.2914   -70.5366     9.5214    10.1896    11.3202
 1248.0000     0.0220   106.2564     2.4954     9.8742   -70.5160     9.5936    10.3992    11.4084
 1248.5000     0.0213   105.0926     2.5007     9.6806   -70.4953     9.5316    10.2593    11.3353
 1249.0000     0.0213   105.1401     2.5015     9.6510   -70.4747     9.5389    10.1205    11.3449
 1249.5000     0.0220   104.5820     2.5045     9.6362   -70.4540     9.4117    10.1239    11.1942
 1250.0000     0.0228   103.1297     2.5135     9.6364   -70.4334     9.1610    10.7022    11.0473
 1250.5000     0.0258   103.5140     2.5278     9.6321   -70.4127     9.0388    10.9293    10.9024
 1251.0000     0.0296   103.8033     2.5368     9.6221   -70.3921     9.0457    10.8569    10.9116
 1251.5000     0.0311   101.9898     2.5414     9.6373   -70.3714     8.9576    10.6365    10.8360
 1252.0000     0.0311   100.5214     2.5384     9.6376   -70.3508     8.7484    10.1292    11.2253
 1252.5000     0.0281   101.4330     2.5250     9.6379   -70.3301     8.7538     9.6614    11.5468
 1253.0000     0.0230   102.6428     2.5191     9.6531   -70.3095     8.7592     8.8958    11.7954
 1253.5000     0.0200   102.0641     2.5148     9.6534   -70.2888     8.7646     8.4792    11.8010
 1254.0000     0.0178    99.3990     2.5050     9.6537   -70.2682     8.7699     8.3666    11.7250
 1254.5000     0.0148    98.2235     2.4980     9.6689   -70.2475     8.7146     8.4288    11.7306
 1255.0000     0.0111    99.4340     2.4850     9.6841   -70.2269     8.7514     8.6157    11.7363
 1255.5000     0.0097    99.4516     2.4821     9.6844   -70.2062     8.8474     8.9391    11.7420
 1256.0000     0.0090   100.3994     2.4859     9.6847   -70.1855     8.8637     9.5615    11.6661
 1256.5000     0.0090   101.5772     2.4897     9.6999   -70.1649     8.9834     9.9029    11.6731
 1257.0000     0.0090   100.1044     2.4913     9.7002   -70.1442     9.2419     9.9764    11.6787
 1257.5000     0.0098    98.0354     2.4914     9.7005   -70.1236     9.5080     9.9811    11.7656
 1258.0000     0.0113    97.7505     2.4930     9.7157   -70.1029     9.7816    10.1250    12.2718
 1258.5000     0.0113    99.5607     2.4975     9.7159   -70.0823    10.0632    10.4141    12.9787
 1259.0000     0.0121   100.4723     2.5006     9.7312   -70.0616    10.4249    10.7859    13.8218
 1259.5000     0.0122    99.8937     2.4961     9.7314   -70.0405    10.7997    11.2485    14.2177
 1260.0000     0.0122    99.6125     2.4902     9.7317   -70.0215    11.1105    11.6500    14.4233
 1260.5000     0.0115    99.6306     2.4896     9.7321   -70.0660    11.3513    11.8180    14.3304
 1261.0000     0.0107    99.6481     2.4934     9.7324   -70.1139    11.5972    11.9884    14.2380
 1261.5000     0.0100    99.7097     2.4897     9.7177   -70.1615    11.7666    12.0856    14.0466
 1262.0000     0.0093   100.8796     2.4786     9.7181   -70.2091    11.9384    12.2665    13.7568
 1262.5000     0.0086   101.7913     2.4741     9.7184   -70.2566    12.0290    12.3439    13.4342
 1263.0000     0.0079   102.7029     2.4712     9.7186   -70.3041    11.9530    12.1786    13.1269
 1263.5000     0.0079   103.3166     2.4698     9.7338   -70.3516    11.7157    11.7714    12.7720
 1264.0000     0.0079   103.4238     2.4714     9.7341   -70.3991    11.4796    11.5337    12.4282
 1264.5000     0.0080   103.6452     2.4729     9.7344   -70.4467    11.1738    11.4596    12.0951
 1265.0000     0.0087   103.0665     2.4738     9.7497   -70.4942    10.9503    11.3859    11.7696
 1265.5000     0.0088   103.3865     2.4739     9.7500   -70.5417    10.7296    11.3142    11.5325
 1266.0000     0.0096   104.0001     2.4777     9.7652   -70.5892    10.4422    11.3195    11.3790
 1266.5000     0.0111   105.2340     2.4830     9.7655   -70.6367    10.1641    11.2466    11.3043
 1267.0000     0.0119   106.4195     2.4868     9.7657   -70.6843    10.0286    11.2522    11.3111
 1267.5000     0.0126   104.6486     2.4884     9.7809   -70.7318     9.8979    11.2575    11.3953
 1268.0000     0.0134   104.3680     2.4885     9.7812   -70.7793     9.9040    11.1781    11.4801
 1268.5000     0.0142   106.4763     2.4915     9.7815   -70.8268     9.7735    11.0240    11.5694
