~VERSION INFORMATION
 VERS.                2.0:   CWLS LOG ASCII STANDARD - VERSION 2.0
 WRAP.                 NO:   ONE LINE PER DEPTH STEP
~WELL INFORMATION
#MNEM.UNIT      DATA TYPE    INFORMATION
#----------   ------------   ------------------------------
 STRT.F          200.5000:   START DEPTH
 STOP.F         3012.5000:   STOP DEPTH
 STEP.F            0.5000:   STEP LENGTH
 NULL.          -999.2500:   NO VALUE
 COMP.    FENIX & SCISSON:   COMPANY
 WELL.  FENIX "AX" #75-29:   WELL
 FLD .              NPR-3:   FIELD
 LOC .      S29 T39N R78W:   LOCATION
 CNTY.            NATRONA:   COUNTY
 STAT.            WYOMING:   STATE
 CTRY. UNITED STATES OF AMERICA:   COUNTRY
 SRVC.           BIRDWELL:   SERVICE COMPANY
 DATE.        15-FEB-1978:   LOGDATE
 API .     49025105830000:   API NUMBER
~CURVE INFORMATION
#MNEM.UNIT       API CODE    CURVE DESCRIPTION
#----------   ------------   ------------------------------
 DEPT.F                  :   
 GRD .GAPI   45 310 01 00:   GAMMA RAY FROM DENSITY LOG
 CALD.IN     45 280 60 00:   CALIPER FROM DENSITY LOG
 DEN .G/C3   45 350 01 00:   BULK DENSITY
 DCOR.G/C3   45 356 01 00:   DENSITY CORRECTION
 SPR .MV     05 010 01 00:   SPONTANEOUS POTENTIAL
 SN  .OHMM   05 040 16 00:   SHORT NORMAL 16"
 RILD.OHMM   05 120 46 00:   DEEP INDUCTION RESISTIVITY
~PARAMETER INFORMATION
#MNEM.UNIT          VALUE    DESCRIPTION
#----------   ------------   ------------------------------
 EKB .F         5042.0000:   Kelly bushing
 EGL .F         5032.0000:   Ground level
 EDF .F            0.0000:   Drilling floor
 TD  .F         3010.0000:   Total depth
 DATE.        15-FEB-1978:   Date logged
 CLNT.            A2DTECH:   Client Code
 SL  . 2550' FSL & 950' FEL:   Surface Location
 PD  .                 GL:   Permanent Datum
 EPD .F              5032:   Elevation Permanent Datum
 LMF .                 KB:   Log Measured From
 DMF .                 KB:   Drilling Measured From
 DAPD.F                10:   Feet Above Permanent Datum
 DD  .F              3010:   Depth driller
 DL  .F              3010:   Depth logger
 BLI .F              3002:   Bottom log interval
 TLI .F               200:   Top log interval
 CS1 .IN            8.625:   Casing size
 CBD1.      8.625" @ 222':   Casing driller 1
 CBL1.F               222:   Casing logger 1
 BS1 .IN            7.875:   Bit size
 BSD1.F              3010:   Depth drilled with bit1
 DFT .         LIGNO/SULF:   Type fluid in hole
 DFD .                9.1:   Density
 DFV .                 33:   Viscosity
 DFPH.                 10:   pH
 DFL .                4.9:   Fluid loss
 MSS .           FLOWLINE:   Source of sample
 RMS .OHMM              2:   Rm
 MST .F                66:   Rm Meas. temp.
 RMF .OHMM            2.2:   Rmf
 MFST.F                58:   Rmf Meas. temp.
 RMC .OHMM            1.8:   Rmc
 MCST.F                60:   Rmc Meas. temp.
 MFSS.               MEAS:   Source Rmf.
 RMB .OHMM            1.7:   Rm. at BHT
 BHT .F               118:   BHT.
 TCS .HRS               5:   Time Circ. stopped
 MRT .F               118:   Maximum recorded temp.
 LUN .               2958:   Logging unit number
 LUL .               CASP:   Logging unit location
 ENGI.            POINTER:   Recorded By
 WITN.           MCGINLEY:   Witnessed by
 ORIG.           5" PRINT:   Origin of data
 UWI .     49025105830000:   Unique Well ID
 DICO. A2D TECHNOLOGIES, INC.:   Digitizing Company
~OTHER INFORMATION
~A   DEPT       GRD      CALD        DEN       DCOR        SPR         SN       RILD   
# ...
 2248.0000    99.0340     8.0000     2.5030     0.0790   -43.6990     4.9940     4.1260
 2248.5000    99.4070     8.0000     2.4940     0.0800   -43.9270     4.9530     4.4090
 2249.0000    98.7630     8.0000     2.4900     0.0810   -44.1410     4.9250     4.3690
 2249.5000    95.3370     8.0000     2.4970     0.0820   -44.2820     5.0390     4.3290
 2250.0000    91.9370     8.0000     2.5150     0.0830   -44.4240     5.1240     4.4030
 2250.5000    92.3840     8.0000     2.5320     0.0840   -44.5260     5.2100     4.5150
 2251.0000    91.3710     8.0000     2.5340     0.0860   -44.7930     5.2540     4.6170
 2251.5000    89.3010     8.0000     2.5440     0.0870   -45.3620     5.2540     4.5850
 2252.0000    91.6450     8.0000     2.5520     0.0850   -45.5120     5.2590     4.5550
 2252.5000    92.3740     8.0000     2.5480     0.0810   -45.5230     5.2690     4.5330
 2253.0000    92.8980     8.0000     2.5410     0.0790   -45.6400     5.2800     4.5390
 2253.5000    95.0980     8.0000     2.5340     0.0840   -46.1340     5.2900     4.5450
 2254.0000    94.6020     8.0060     2.5270     0.0930   -46.3320     5.3020     4.5500
 2254.5000    94.1550     8.0110     2.5290     0.0910   -45.5520     5.2830     4.5550
 2255.0000    93.8410     8.0160     2.5250     0.0870   -45.4690     5.2610     4.5600
 2255.5000    95.6380     8.0220     2.5250     0.0830   -44.4700     5.2370     4.5650
 2256.0000    99.3930     8.0270     2.5040     0.0830   -43.8490     5.2050     4.5710
 2256.5000    99.9030     8.0320     2.5050     0.0830   -43.9840     5.2380     4.5750
 2257.0000    99.9270     8.0390     2.4960     0.0820   -44.2870     5.3120     4.7220
 2257.5000   100.9780     8.0560     2.4990     0.0780   -44.6080     5.4070     4.8350
 2258.0000    98.6920     8.0630     2.4950     0.0700   -44.3240     5.5010     4.8110
 2258.5000    96.6530     8.0710     2.4830     0.0660   -43.9260     5.5240     4.7910
 2259.0000    97.3030     8.0780     2.4890     0.0680   -43.9280     5.5520     4.8080
 2259.5000    95.7980     8.0850     2.4790     0.0700   -43.9250     5.4730     4.8330
 2260.0000    94.3700     8.0930     2.4860     0.0780   -43.9240     5.3140     4.7640
 2260.5000    93.7110     8.1010     2.4960     0.0960   -43.9240     5.2150     4.6150
 2261.0000    94.7710     8.1080     2.5060     0.1010   -43.9250     5.3020     4.4670
 2261.5000    97.2000     8.1160     2.5160     0.1020   -43.9260     5.0450     4.3230
 2262.0000    97.1430     8.1220     2.5270     0.1030   -44.0260     4.7370     4.1590
 2262.5000    98.2390     8.1280     2.5140     0.1000   -44.3200     4.4290     3.9260
 2263.0000    99.4910     8.1340     2.4970     0.1000   -44.6130     4.2230     3.6930
 2263.5000    98.0150     8.1370     2.4930     0.1020   -44.9080     4.0210     3.4600
 2264.0000    97.8190     8.1260     2.4880     0.1230   -44.9220     3.8840     3.1640
 2264.5000   100.6090     8.1150     2.4950     0.1540   -44.9190     3.6790     3.1770
 2265.0000   104.7920     8.1040     2.5130     0.1870   -44.9200     3.4740     3.1930
 2265.5000   106.3170     8.0930     2.5230     0.1900   -44.9370     3.2830     3.1690
 2266.0000   106.1890     8.0820     2.5100     0.1500   -44.3310     3.2830     3.1430
 2266.5000   103.2630     8.0710     2.4950     0.1080   -43.9290     3.3130     3.1170
 2267.0000    98.9980     8.0600     2.4480     0.0950   -43.9280     3.3680     3.0780
 2267.5000    96.9260     8.0560     2.4650     0.1220   -43.9240     3.5340     3.1160
 2268.0000    96.7100     8.0530     2.4920     0.1360   -43.8920     3.4860     3.1940
 2268.5000    98.4060     8.0500     2.5280     0.1380   -43.7650     3.3850     3.2720
 2269.0000   101.6990     8.0470     2.5220     0.1390   -43.6410     3.4450     3.3220
 2269.5000   102.8790     8.0440     2.5220     0.1210   -43.5270     3.5240     3.3520
 2270.0000   103.7780     8.0400     2.5310     0.1050   -43.5200     3.5700     3.3750
 2270.5000    94.9000     8.0530     2.5120     0.0890   -43.5590     3.5760     3.3420
 2271.0000    93.8930     8.0700     2.4990     0.1020   -44.4200     3.5830     3.3350
 2271.5000    94.7350     8.0870     2.5140     0.1150   -44.8210     3.5890     3.3280
 2272.0000    98.2300     8.1050     2.5120     0.1270   -44.9190     3.5960     3.3200
 2272.5000   101.8250     8.1220     2.5080     0.1370   -44.9200     3.6020     3.3130
 2273.0000   101.9730     8.1400     2.5170     0.1330   -44.9220     3.6090     3.3060
 2273.5000   100.1630     8.1580     2.5140     0.1240   -44.9100     3.6150     3.2990
 2274.0000    96.2600     8.1580     2.5100     0.1150   -44.5870     3.6220     3.2910
 2274.5000    93.6370     8.1570     2.4980     0.1000   -44.2520     3.6280     3.2830
 2275.0000    92.2940     8.1570     2.4850     0.0940   -44.1720     3.6330     3.2930
 2275.5000    93.4490     8.1560     2.4770     0.0970   -44.2470     3.6330     3.3050
 2276.0000    96.0550     8.1560     2.4820     0.1190   -44.3180     3.6330     3.3170
 2276.5000    95.5880     8.1550     2.4990     0.1340   -44.2530     3.6330     3.3290
 2277.0000   100.5990     8.1540     2.5170     0.1170   -44.1820     3.6340     3.3410
 2277.5000    98.3880     8.1540     2.5210     0.0940   -44.1250     3.6340     3.4100
 2278.0000    95.3470     8.1530     2.5070     0.1050   -44.2820     3.6330     3.5340
 2278.5000    96.6010     8.1530     2.4950     0.1220   -44.4490     3.8170     3.5200
 2279.0000    94.8760     8.1520     2.5300     0.0990   -44.5260     4.0210     3.4700
 2279.5000    91.1050     8.1520     2.5210     0.0600   -44.3220     3.9110     3.5340
 2280.0000    87.9680     8.1510     2.4860     0.0760   -44.0600     4.1720     3.4630
 2280.5000    88.2640     8.1510     2.5000     0.1040   -43.7830     3.9880     3.3670
 2281.0000    96.6120     8.1500     2.5350     0.1200   -43.9460     3.7920     3.2810
 2281.5000    99.1630     8.1490     2.5530     0.1290   -44.2510     3.5960     3.2640
 2282.0000   100.0620     8.1490     2.5300     0.1360   -44.1290     3.4000     3.2110
 2282.5000    99.5060     8.1480     2.5210     0.1370   -43.8680     3.3220     3.0810
 2283.0000   102.0000     8.1480     2.5080     0.1270   -43.5940     3.3060     2.9500
 2283.5000   102.6250     8.1470     2.5080     0.1070   -43.5580     3.2960     2.8590
 2284.0000   102.4680     8.1470     2.4870     0.0980   -44.2070     3.2830     3.0000
 2284.5000   102.7840     8.1460     2.4770     0.1140   -44.6730     3.3590     3.1640
 2285.0000   106.2650     8.1450     2.5000     0.1340   -44.6190     3.4380     3.1390
 2285.5000   109.9590     8.1450     2.5140     0.1290   -45.0080     3.3980     3.0870
 2286.0000   110.1260     8.1440     2.5040     0.1210   -45.4030     3.3750     3.0490
 2286.5000    98.9580     8.1440     2.4920     0.1260   -45.3160     3.5280     3.4040
 2287.0000    97.6440     8.1430     2.5000     0.1350   -44.8950     3.6490     3.3890
 2287.5000    96.8180     8.1430     2.5140     0.1390   -44.4720     3.8820     3.3750
 2288.0000    97.3380     8.1420     2.5300     0.1340   -44.0510     4.0490     3.7090
 2288.5000    98.0140     8.1410     2.5130     0.1090   -43.7160     4.2730     3.9770
 2289.0000    97.1000     8.1410     2.5220     0.1020   -43.7240     4.5900     4.2440
 2289.5000    94.9460     8.1400     2.5360     0.0830   -43.7260     4.9500     4.4660
 2290.0000    89.9850     8.1400     2.5260     0.0640   -43.7350     5.2480     4.5330
 2290.5000    84.4520     8.1390     2.5110     0.0630   -43.3970     5.4610     4.5550
 2291.0000    81.6870     8.1390     2.5110     0.1010   -43.4020     5.5200     4.5830
 2291.5000    84.2730     8.1340     2.5630     0.1160   -43.7770     5.5520     4.6100
 2292.0000    90.4440     8.1300     2.5580     0.1300   -43.9220     5.5010     4.6380
 2292.5000    90.7290     8.1260     2.5580     0.1500   -43.9240     5.1580     4.6600
 2293.0000    94.9490     8.1220     2.5630     0.1670   -43.9240     5.2140     4.6470
