~VERSION INFORMATION
 VERS.                2.0:   CWLS LOG ASCII STANDARD - VERSION 2.0
 WRAP.                 NO:   ONE LINE PER DEPTH STEP
~WELL INFORMATION
#MNEM.UNIT      DATA TYPE    INFORMATION
#----------   ------------   ------------------------------
 STRT.F            0.0000:   START DEPTH
 STOP.F         2870.0000:   STOP DEPTH
 STEP.F            0.5000:   STEP LENGTH
 NULL.          -999.2500:   NO VALUE
 COMP.  FENIX AND SCISSON:   COMPANY
 WELL.  FENIX "A" #304-28:   WELL
 FLD .             NPR #3:   FIELD
 LOC .      S28 T39N R78W:   LOCATION
 CNTY.            NATRONA:   COUNTY
 STAT.            WYOMING:   STATE
 CTRY. UNITED STATES OF AMERICA:   COUNTRY
 SRVC.         MCCULLOUGH:   SERVICE COMPANY
 DATE.        21-DEC-1977:   LOGDATE
 API .     49025105600000:   API NUMBER
~CURVE INFORMATION
#MNEM.UNIT       API CODE    CURVE DESCRIPTION
#----------   ------------   ------------------------------
 DEPT.F                  :   
 GR  .GAPI   30 310 01 00:   GAMMA RAY
 CALI.IN     70 280 01 00:   CALIPER
~PARAMETER INFORMATION
#MNEM.UNIT          VALUE    DESCRIPTION
#----------   ------------   ------------------------------
 EKB .F            0.0000:   Kelly bushing
 EGL .F            0.0000:   Ground level
 EDF .F         5074.7000:   Drilling floor
 EPD .F         5074.7000:   Permanent datum
 TD  .F         2868.0000:   Total depth
 DATE.        21-DEC-1977:   Date logged
 CLNT.            A2DTECH:   Client Code
 DL  .F              2868:   Depth logger
 BLI .F              2866:   Bottom log interval
 TLI .F              2000:   Top log interval
 CS1 .IN             6.25:   Casing size
 CBD1.     6.625" @ 2935':   Casing driller 1
 BS1 .IN             6.25:   Bit size
 BSD1.F              2868:   Depth drilled with bit1
 DFT .              WATER:   Type fluid in hole
 TCS .HRS             1.5:   Time Circ. stopped
 ENGI.             CONLEY:   Recorded By
 WITN.           HARRISON:   Witnessed by
 ORIG.           5" PRINT:   Origin of data
 UWI .     49025105600000:   Unique Well ID
 DICO. A2D TECHNOLOGIES, INC.:   Digitizing Company
~OTHER INFORMATION
~A    DEPT      GR         CALI 
# ...
 2551.5000    59.1410     6.6920
 2552.0000    59.8350     6.6920
 2552.5000    59.9180     6.6950
 2553.0000    57.8440     6.6880
 2553.5000    58.2140     6.6920
 2554.0000    57.8190     6.8840
 2554.5000    55.2830     6.7190
 2555.0000    54.9890     6.7120
 2555.5000    56.2300     6.7070
 2556.0000    60.3730     6.7050
 2556.5000    63.8450     6.7040
 2557.0000    65.2060     6.7040
 2557.5000    64.3720     6.7040
 2558.0000    64.1120     6.7040
 2558.5000    63.6450     6.7040
 2559.0000    65.8850     6.7040
 2559.5000    63.5790     6.7050
 2560.0000    60.2670     6.7050
 2560.5000    63.2310     6.7050
 2561.0000    63.5900     6.7050
 2561.5000    63.9320     6.7070
 2562.0000    64.3770     6.7120
 2562.5000    63.1430     6.7110
 2563.0000    63.0470     6.7070
 2563.5000    63.4080     6.7120
 2564.0000    62.4680     6.7140
 2564.5000    62.8700     6.6980
 2565.0000    62.2370     6.6830
 2565.5000    61.3740     6.6810
 2566.0000    61.9220     6.6800
 2566.5000    60.9990     6.6810
 2567.0000    61.9760     6.6860
 2567.5000    64.6200     6.6890
 2568.0000    64.9310     6.6930
 2568.5000    66.2140     6.6940
 2569.0000    66.6480     6.7000
 2569.5000    66.3330     6.7290
 2570.0000    66.5150     6.7350
 2570.5000    65.6130     6.7340
 2571.0000    63.1240     6.7410
 2571.5000    63.1050     6.7430
 2572.0000    63.0700     6.7360
 2572.5000    64.3580     6.7240
 2573.0000    62.4020     6.7240
 2573.5000    61.4920     6.7270
 2574.0000    61.7380     6.7310
 2574.5000    63.3620     6.7350
 2575.0000    61.3370     6.7390
 2575.5000    59.0990     6.7420
 2576.0000    59.8890     6.7500
 2576.5000    57.7650     6.9240
 2577.0000    56.2210     6.6620
 2577.5000    60.0440     6.6730
 2578.0000    61.6670     6.6710
 2578.5000    63.0960     6.6710
 2579.0000    61.6970     6.6710
 2579.5000    61.3770     6.6690
 2580.0000    60.9980     6.6680
 2580.5000    59.8290     6.6680
 2581.0000    62.0820     6.6680
 2581.5000    61.9950     6.6680
 2582.0000    61.8960     6.6520
 2582.5000    60.7830     6.6440
 2583.0000    57.2960     6.6440
 2583.5000    58.7930     6.6440
 2584.0000    61.7880     6.6440
 2584.5000    65.0770     6.6440
 2585.0000    66.2370     6.6450
 2585.5000    66.5920     6.6450
 2586.0000    66.1860     6.6410
 2586.5000    64.1440     6.6320
 2587.0000    62.0220     6.6330
 2587.5000    60.6890     6.6330
 2588.0000    62.1590     6.6360
 2588.5000    64.8080     6.6450
 2589.0000    66.1740     6.6490
 2589.5000    64.1320     6.6530
 2590.0000    63.3200     6.6570
 2590.5000    65.6280     6.6590
 2591.0000    67.6970     6.6580
 2591.5000    68.8090     6.6460
 2592.0000    69.3230     6.6480
 2592.5000    69.2130     6.6500
 2593.0000    66.4010     6.6420
 2593.5000    66.4410     6.6270
 2594.0000    68.4540     6.6250
 2594.5000    68.4610     6.6250
 2595.0000    67.2480     6.6290
 2595.5000    65.5170     6.6360
 2596.0000    59.7990     6.6430
 2596.5000    57.5190     6.6480
 2597.0000    56.8890     6.6490
 2597.5000    55.3310     6.6530
 2598.0000    55.7330     6.6970
 2598.5000    60.3260     6.9960
 2599.0000    61.4640     6.7400
 2599.5000    62.6760     6.7450
 2600.0000    65.0670     6.7500
 2600.5000    66.5580     6.7280
 2601.0000    66.5370     6.7100
 2601.5000    65.4750     6.7100
 2602.0000    65.8840     6.7110
 2602.5000    67.4610     6.7120
 2603.0000    67.7920     6.7090
 2603.5000    69.4750     6.7080
 2604.0000    69.3080     6.7060
 2604.5000    68.8190     6.7030
 2605.0000    72.2440     6.7070
 2605.5000    71.3360     6.7100
 2606.0000    69.8940     6.7120
 2606.5000    72.0620     6.7150
 2607.0000    73.1540     6.7160
 2607.5000    71.9550     6.7160
 2608.0000    70.0250     6.7150
 2608.5000    68.5520     6.7170
 2609.0000    68.8540     6.7220
 2609.5000    68.3030     6.7260
 2610.0000    66.9450     6.7250
 2610.5000    67.2840     6.7240
 2611.0000    66.7880     6.7240
 2611.5000    69.9810     6.7240
 2612.0000    72.7160     6.7240
 2612.5000    70.9550     6.7280
 2613.0000    72.1180     6.7280
 2613.5000    73.4450     6.7330
 2614.0000    76.3490     6.7370
 2614.5000    77.7140     6.7390
 2615.0000    76.9450     6.7390
 2615.5000    74.5840     6.7390
 2616.0000    74.3990     6.7420
 2616.5000    74.9750     6.7490
 2617.0000    74.2450     6.7570
 2617.5000    71.6110     6.7640
 2618.0000    70.4190     6.7710
 2618.5000    73.8350     6.7810
 2619.0000    76.6550     6.7890
 2619.5000    79.0870     6.7950
 2620.0000    78.8060     6.8070
 2620.5000    78.7820     6.8180
 2621.0000    76.1030     6.9260
 2621.5000    74.0120     6.7130
 2622.0000    73.8580     6.7320
 2622.5000    72.3220     6.7400
 2623.0000    73.5640     6.7240
 2623.5000    74.7820     6.7120
 2624.0000    74.9920     6.7110
 2624.5000    77.4180     6.6990
 2625.0000    77.1030     6.6900
 2625.5000    77.7910     6.6880
 2626.0000    78.1850     6.6910
 2626.5000    77.5980     6.6910
 2627.0000    77.0420     6.6910
 2627.5000    76.2540     6.6920
 2628.0000    77.2490     6.6940
 2628.5000    76.2150     6.6960
 2629.0000    73.7620     6.6950
 2629.5000    72.6590     6.6960
 2630.0000    72.1730     6.7030
 2630.5000    68.4360     6.6850
 2631.0000    67.6050     6.6850
 2631.5000    68.3080     6.6860
 2632.0000    65.9040     6.6810
 2632.5000    67.5790     6.6730
 2633.0000    66.6070     6.6700
 2633.5000    68.1950     6.6710
 2634.0000    71.4440     6.6720
 2634.5000    73.5040     6.6730
 2635.0000    70.4580     6.6700
 2635.5000    68.0250     6.6670
 2636.0000    66.4830     6.6700
 2636.5000    65.4740     6.6750
 2637.0000    66.4470     6.6830
 2637.5000    66.6230     6.6910
 2638.0000    66.6570     6.6970
 2638.5000    67.2970     6.7000
 2639.0000    66.8990     6.6990
 2639.5000    68.0280     6.7030
 2640.0000    69.2180     6.7040
 2640.5000    70.3240     6.7000
 2641.0000    70.9580     6.6980
 2641.5000    70.9080     6.6940
 2642.0000    71.5290     6.7030
 2642.5000    71.0720     6.9050
 2643.0000    71.8640     6.7480
 2643.5000    73.1160     6.7530
 2644.0000    75.3240     6.7530
 2644.5000    79.0680     6.7560
 2645.0000    78.3480     6.7590
 2645.5000    77.3560     6.7620
 2646.0000    76.4210     6.7640
 2646.5000    73.9730     6.7600
 2647.0000    76.5030     6.7530
 2647.5000    77.5860     6.7500
 2648.0000    77.1290     6.7510
 2648.5000    76.8400     6.7510
 2649.0000    78.4340     6.7530
 2649.5000    77.7170     6.7540
 2650.0000    76.6330     6.7550
 2650.5000    76.6340     6.7570
 2651.0000    77.7630     6.7590
 2651.5000    81.4770     6.7650
 2652.0000    80.4910     6.7710
 2652.5000    80.0170     6.7600
 2653.0000    81.7550     6.7500
 2653.5000    74.8490     6.7480
 2654.0000    72.4760     6.7460
 2654.5000    72.9220     6.7310
 2655.0000    72.5270     6.7320
 2655.5000    71.6480     6.7390
 2656.0000    77.3720     6.7420
 2656.5000    77.2790     6.7420
 2657.0000    75.1460     6.7480
 2657.5000    73.5710     6.7460
 2658.0000    70.6380     6.7490
 2658.5000    69.7410     6.7540
 2659.0000    70.5930     6.7570
 2659.5000    65.4200     6.7600
 2660.0000    62.1710     6.7550
 2660.5000    62.5360     6.7490
 2661.0000    65.3980     6.7810
 2661.5000    64.5030     6.9930
 2662.0000    62.7920     6.7070
 2662.5000    66.5490     6.7130
 2663.0000    67.9300     6.7130
 2663.5000    71.7930     6.7150
 2664.0000    71.1850     6.7130
 2664.5000    72.8500     6.7120
 2665.0000    70.3720     6.7130
 2665.5000    72.1690     6.7150
 2666.0000    75.0730     6.7170
 2666.5000    73.9790     6.7180
 2667.0000    71.3650     6.7150
 2667.5000    71.2880     6.7150
 2668.0000    74.9670     6.7160
 2668.5000    74.7180     6.7160
 2669.0000    74.0350     6.7160
 2669.5000    76.7420     6.7150
 2670.0000    71.4660     6.7150
 2670.5000    72.5470     6.7150
 2671.0000    72.9150     6.7160
 2671.5000    75.7030     6.7170
 2672.0000    77.1750     6.7190
 2672.5000    77.0100     6.7210
