~VERSION INFORMATION
 VERS.                2.0:   CWLS LOG ASCII STANDARD - VERSION 2.0
 WRAP.                 NO:   ONE LINE PER DEPTH STEP
~WELL INFORMATION
#MNEM.UNIT      DATA TYPE    INFORMATION
#----------   ------------   ------------------------------
 STRT.F           63.5000:   START DEPTH
 STOP.F         4112.0000:   STOP DEPTH
 STEP.F            0.5000:   STEP LENGTH
 NULL.          -999.2500:   NO VALUE
 COMP. LAWRENCE-ALLISON & ASSOC:   COMPANY
 WELL. LAWRENCE "X" #34-34:   WELL
 FLD .           N.P.R.#3:   FIELD
 LOC .      S34 T39N R78W:   LOCATION
 CNTY.            NATRONA:   COUNTY
 STAT.            WYOMING:   STATE
 CTRY. UNITED STATES OF AMERICA:   COUNTRY
 SRVC.      DRESSER ATLAS:   SERVICE COMPANY
 DATE.        19-OCT-1983:   LOGDATE
 API .     49025109440000:   API NUMBER
~CURVE INFORMATION
#MNEM.UNIT       API CODE    CURVE DESCRIPTION
#----------   ------------   ------------------------------
 DEPT.F                  :   
 AC  .US/F   60 250 00 00:   ACCOUSTIC
 TENS.LBS    60 635 01 00:   TENSION FROM SONIC
 ILD .OHMM   07 120 46 00:   DEEP INDUCTION RESISTIVITY
 ILM .OHMM   07 120 44 00:   INDUCTION LOG MEDIUM RESISTIVITY
 RFOC.OHMM   07 220 04 00:   RESISTIVITY FOCUSED LOG RES.
 TENR.LBS    07 635 01 00:   TENSION FROM RESISTIVITY
 SPR .MV     07 010 01 00:   SPONTANEOUS POTENTIAL
 GRR .GAPI   07 310 01 00:   GAMMA RAY FROM RESISTIVITY
 CALD.IN     45 280 60 00:   CALIPER FROM DENSITY LOG
 RHOB.G/C3   45 350 01 00:   BULK DENSITY
 CORR.G/C3   45 356 01 00:   DENSITY CORRECTION
 TEND.LBS    45 635 01 00:   TENSION FROM DENSITY LOG
 NPHI.DEC    42 890 03 00:   NEUTRON POROSITY SANDSTONE
~PARAMETER INFORMATION
#MNEM.UNIT          VALUE    DESCRIPTION
#----------   ------------   ------------------------------
 EKB .F         5100.0000:   Kelly bushing
 EGL .F         5090.0000:   Ground level
 TD  .F         4107.0000:   Total depth
 DATE.        19-OCT-1983:   Date logged
 CLNT.            A2DTECH:   Client Code
 SL  . 1997' FNL & 1661' FWL:   Surface Location
 PD  .                 GL:   Permanent Datum
 EPD .F              5090:   Elevation Permanent Datum
 LMF .                 KB:   Log Measured From
 DMF .                 KB:   Drilling Measured From
 DAPD.F                10:   Feet Above Permanent Datum
 DD  .F              4107:   Depth driller
 DL  .F              4102:   Depth logger
 BLI .F              4100:   Bottom log interval
 CS1 .IN            9.625:   Casing size
 CBD1.      9.625" @ 695':   Casing driller 1
 CBL1.F               696:   Casing logger 1
 BS1 .IN            7.875:   Bit size
 BSD1.F              4107:   Depth drilled with bit1
 DFT .            GEL-KCL:   Type fluid in hole
 DFD .                  9:   Density
 DFV .                 43:   Viscosity
 DFPH.                  9:   pH
 DFL .                 11:   Fluid loss
 MSS .           FLOWLINE:   Source of sample
 RMS .OHMM          0.313:   Rm
 MST .F                72:   Rm Meas. temp.
 RMF .OHMM          0.265:   Rmf
 MFST.F                68:   Rmf Meas. temp.
 RMC .OHMM          0.598:   Rmc
 MCST.F                68:   Rmc Meas. temp.
 MFSS.               MEAS:   Source Rmf.
 MCSS.               MEAS:   Source Rmc.
 RMB .OHMM          0.173:   Rm. at BHT
 BHT .F               130:   BHT.
 TCS .HRS               4:   Time Circ. stopped
 MRT .F               130:   Maximum recorded temp.
 LUN .               6774:   Logging unit number
 LUL .               GLTE:   Logging unit location
 ENGI.           FAHLEING:   Recorded By
 WITN.           JENNINGS:   Witnessed by
 ORIG.           5" PRINT:   Origin of data
 UWI .     49025109440000:   Unique Well ID
 DICO. A2D TECHNOLOGIES, INC.:   Digitizing Company
~OTHER INFORMATION
~A   DEPT       AC       TENS        ILD        ILM       RFOC       TENR        SPR         GRR      CALD       RHOB       CORR       TEND       NPHI   
# ...
 4067.5000    58.4600   368.0550    17.5910    14.0020    29.6680   431.8790   -28.7050  -999.2500     7.3930     2.6210     0.0160   198.1820     0.0870
 4068.0000    61.3530   374.1820    15.1580    12.1680    13.7700   438.4440   -28.1470  -999.2500     7.3930     2.5980     0.0110   199.1660     0.1020
 4068.5000    64.4550   380.3090    12.7250    11.5250    12.1970   445.0090   -27.8830  -999.2500     7.3940     2.5760     0.0060   200.1500     0.1180
 4069.0000    66.0260   386.4360    11.4610    10.8830    12.4300   451.5750   -27.6280  -999.2500     7.3940     2.5760     0.0080   201.2910     0.1360
 4069.5000    67.0300   392.5630    10.9780    10.2400    13.3090   454.1540   -27.6490  -999.2500     7.3950     2.5770     0.0140   202.8410     0.1340
 4070.0000    66.7380   398.6900    10.4950     9.9210    14.1050   450.9590   -27.9280  -999.2500     7.3950     2.5770     0.0190   204.3920     0.1300
 4070.5000    66.4540   404.8170    10.0260     9.6760    14.6990   447.0310   -27.9360  -999.2500     7.3960     2.5770     0.0190   205.9420     0.1250
 4071.0000    66.1700   410.9440     9.5260     9.4320    14.5580   450.5430   -27.9350  -999.2500     7.3970     2.5810     0.0170   207.4930     0.1210
 4071.5000    65.8420   417.0700     9.0390     8.6810    14.4270   478.3960   -27.9350  -999.2500     7.3970     2.5880     0.0150   209.0430     0.1210
 4072.0000    65.8420   423.1970     8.3210     7.8310    13.9950   504.8130   -27.9270  -999.2500     7.3980     2.5940     0.0120   210.5940     0.1250
 4072.5000    65.8420   429.3240     7.5610     6.9860    13.2880   466.4570   -28.4150  -999.2500     7.3980     2.5950     0.0090   228.5290     0.1340
 4073.0000    65.8420   435.4510     6.8010     6.1460    10.9840   466.2400   -29.0350  -999.2500     7.3990     2.5870     0.0040   252.1430     0.1430
 4073.5000    65.8420   441.5780     6.0410     5.3060     8.3190   484.4770   -29.3200  -999.2500     7.3990     2.5750    -0.0010   271.7830     0.1520
 4074.0000    65.8420   447.7050     5.2810     4.4660     6.7000   502.7140   -29.6130  -999.2500     7.4000     2.5630     0.0130   271.7830     0.1740
 4074.5000    65.8420   453.8320     4.5210     4.3060     6.0010   504.8130   -29.9060  -999.2500     7.4000     2.5530     0.0310   271.7830     0.1980
 4075.0000    65.8420   459.9590     4.1970     4.2120     6.0450   504.8130   -30.1980  -999.2500     7.4010     2.5550     0.0490   271.7830     0.2230
 4075.5000    65.8420   466.0860     4.0800     4.1190     6.1340   504.8130   -30.5000  -999.2500     7.4020     2.5560     0.0440   271.7830     0.2300
 4076.0000    65.8420   472.2130     3.9100     4.0180     6.2290   504.8130   -30.6120  -999.2500     7.4110     2.5540     0.0360   271.7830     0.2250
 4076.5000    65.8420   478.3400     3.7400     3.8660     6.3790   504.8130   -30.6870  -999.2500     7.4200     2.5530     0.0270   271.7830     0.2180
 4077.0000    65.8420   484.4670     3.5710     3.7010     6.5420   504.8130   -30.7710  -999.2500     7.4290     2.5670     0.0170   271.7830     0.2140
 4077.5000    65.8420   490.5940     3.3860     3.5360     6.6500   504.8130   -30.4420  -999.2500     7.4380     2.5820     0.0080   271.7830     0.2200
 4078.0000    65.8420   492.5740     3.1970     3.3710     6.2970   504.8130   -29.9880  -999.2500     7.4470     2.5840     0.0020   271.7830     0.2260
 4078.5000    65.8420   492.5740     3.0200     3.2060     5.2740   511.4990   -29.5370  -999.2500     7.4550     2.5690     0.0070   271.7830     0.2350
 4079.0000    65.8420   492.5740     2.9110     3.0410     4.6210   520.4150   -29.1980  -999.2500     7.4640     2.5520     0.0130   271.7830     0.2430
 4079.5000    65.8420   494.4700     2.8030     2.8760     4.5040   529.3310   -29.5770  -999.2500     7.4730     2.5360     0.0180   271.7830     0.2520
 4080.0000    65.6440   501.9090     2.6940     2.7310     4.5310   538.2470   -29.9430  -999.2500     7.4820     2.5310     0.0200   271.7830     0.2610
 4080.5000    63.8500   509.3490     2.5860     2.6900     4.6320   547.1630   -30.1200  -999.2500     7.4810     2.5350     0.0220   273.4830     0.2560
 4081.0000    60.2600   516.7890     2.5160     2.6900     4.7320   556.0790   -29.9800  -999.2500     7.4800     2.5420     0.0230   276.8490     0.2500
 4081.5000    60.0990   524.2290     2.5060     2.6900     4.7520   564.9950   -29.8470  -999.2500     7.4790     2.5540     0.0210   280.2150     0.2440
 4082.0000    62.7050   531.6690     2.4960     2.7100     4.7070   573.9110   -29.8460  -999.2500     7.4780     2.5640     0.0160   283.5810     0.2420
 4082.5000    65.1350   539.1090     2.5550     2.7810     4.6210   582.8270   -30.0520  -999.2500     7.4770     2.5680     0.0120   286.9470     0.2450
 4083.0000  -999.2500   546.5490     2.6280     2.8480     4.6310   591.7430   -30.2560  -999.2500     7.4760     2.5700     0.0080   290.3140     0.2520
 4083.5000  -999.2500   553.9890     2.7010     2.9160     4.6750   600.6590   -30.4590  -999.2500     7.4750     2.5640     0.0050   293.6800     0.2570
 4084.0000  -999.2500   561.4290     2.7730     2.9800     4.7500   609.5740   -30.5760  -999.2500     7.4740     2.5570     0.0120   297.0460     0.2560
 4084.5000  -999.2500   568.8680     2.8460     3.1390     4.9200   616.2610   -30.4720  -999.2500     7.4720     2.5550     0.0190   300.4120     0.2540
 4085.0000  -999.2500   576.3080     2.9970     3.2910     5.1230   616.2610   -30.3150  -999.2500     7.4710     2.5550     0.0190   303.7780  -999.2500
 4085.5000  -999.2500   583.7480     3.1900     3.4430     5.3430   636.5250   -30.1720  -999.2500     7.4700     2.5560     0.0240   307.1440  -999.2500
 4086.0000  -999.2500   591.1880     3.3830     3.6580     5.5020   636.5250   -30.3800  -999.2500     7.4690     2.5630     0.0370   310.5100  -999.2500
 4086.5000  -999.2500   598.6280     3.5760     3.9030     5.7280   636.5250   -30.6240  -999.2500     7.4680     2.5680     0.0490   313.8760  -999.2500
 4087.0000  -999.2500   606.0680     3.7680     4.0550     6.0570   646.6570   -30.8680  -999.2500     7.4670     2.5700     0.0370   317.2430  -999.2500
 4087.5000  -999.2500   613.2430     3.9800     4.1320     6.9030   646.6570   -31.1190  -999.2500     7.4660     2.5720     0.0350   320.6090  -999.2500
 4088.0000  -999.2500   619.7520     3.9870     4.0900     6.7890   656.7880   -31.2260  -999.2500     7.4650     2.5700     0.0380   325.2840  -999.2500
 4088.5000  -999.2500   626.2620     3.9950     4.0550     6.5570   666.9200   -31.2880  -999.2500     7.4640     2.5660     0.0410   331.5230  -999.2500
 4089.0000  -999.2500   632.7720     4.0020     3.9410     6.2860   666.9200   -31.3480  -999.2500     7.4630     2.5620     0.0390   337.7630  -999.2500
 4089.5000  -999.2500   639.2820     4.0100     3.8160     6.0150   697.3150   -31.4080  -999.2500     7.4620     2.5610     0.0360   344.0030  -999.2500
 4090.0000  -999.2500   645.7920     4.0180     3.6920     5.7490   707.4470   -31.4680  -999.2500     7.4620     2.5620     0.0330   350.2420  -999.2500
 4090.5000  -999.2500   652.3020     3.9540     3.5920     5.4950   717.5790   -31.5290  -999.2500     7.4620     2.5640     0.0290   356.4820  -999.2500
 4091.0000  -999.2500   658.8120     3.8870     3.6190     5.2400   718.9310   -31.5900  -999.2500     7.4620     2.5650     0.0240   362.7210  -999.2500
 4091.5000  -999.2500   665.3220     3.8190     3.6680     5.0200   722.7610   -31.6360  -999.2500     7.4620     2.5610     0.0180   368.9610  -999.2500
 4092.0000  -999.2500   671.8320     3.7640     3.7290     4.9790   726.5910   -31.6830  -999.2500     7.4620     2.5560     0.0120   374.1380  -999.2500
 4092.5000  -999.2500   678.3420     3.7800     3.6550     5.3250   730.4200   -31.7290  -999.2500     7.4610     2.5510     0.0090   381.6260  -999.2500
 4093.0000  -999.2500   684.8510     3.7990     3.5600     5.9300   734.2500   -31.7750  -999.2500     7.4420     2.5470     0.0090   389.1130  -999.2500
