~VERSION INFORMATION
 VERS.                2.0:   CWLS LOG ASCII STANDARD - VERSION 2.0
 WRAP.                 NO:   ONE LINE PER DEPTH STEP
~WELL INFORMATION
#MNEM.UNIT      DATA TYPE    INFORMATION
#----------   ------------   ------------------------------
 STRT.F          200.0000:   START DEPTH
 STOP.F         3124.0000:   STOP DEPTH
 STEP.F            0.5000:   STEP LENGTH
 NULL.          -999.2500:   NO VALUE
 COMP.    FENIX & SCISSON:   COMPANY
 WELL. FENIX SCISSON #18-27:   WELL
 FLD .                NPR:   FIELD
 LOC .      S27 T39N R78W:   LOCATION
 CNTY.            NATRONA:   COUNTY
 STAT.            WYOMING:   STATE
 CTRY. UNITED STATES OF AMERICA:   COUNTRY
 SRVC.              WELEX:   SERVICE COMPANY
 DATE.        26-SEP-1977:   LOGDATE
 API .     49025104210000:   API NUMBER
~CURVE INFORMATION
#MNEM.UNIT       API CODE    CURVE DESCRIPTION
#----------   ------------   ------------------------------
 DEPT.F                  :   
 CALD.IN     45 280 60 00:   CALIPER FROM DENSITY LOG
 GRD .GAPI   45 310 01 00:   GAMMA RAY FROM DENSITY LOG
 RHOB.G/C3   45 350 01 00:   BULK DENSITY
 CORR.G/C3   45 356 01 00:   DENSITY CORRECTION
 NPHI.DEC    42 890 03 00:   NEUTRON POROSITY SANDSTONE
 SPR .MV     07 010 01 00:   SPONTANEOUS POTENTIAL
 GURD.OHMM   07 220 05 00:   GUARD LOG RESISTIVITY
 ILD .OHMM   07 120 46 00:   DEEP INDUCTION RESISTIVITY
 ILM .OHMM   07 120 44 00:   INDUCTION LOG MEDIUM RESISTIVITY
 TENR.LBS    07 635 01 00:   TENSION FROM RESISTIVITY
~PARAMETER INFORMATION
#MNEM.UNIT          VALUE    DESCRIPTION
#----------   ------------   ------------------------------
 EKB .F         5080.0000:   Kelly bushing
 EGL .F         5070.0000:   Ground level
 EDF .F            0.0000:   Drilling floor
 EPD .F            0.0000:   Permanent datum
 TD  .F         3117.0000:   Total depth
 DATE.        26-SEP-1977:   Date logged
 CLNT.            A2DTECH:   Client Code
 SL  . 330' FSL & 1650' FWL:   Surface Location
 PD  .                 GL:   Permanent Datum
 DAPD.F                10:   Feet Above Permanent Datum
 DD  .F              3115:   Depth driller
 DL  .F              3117:   Depth logger
 BLI .F              3115:   Bottom log interval
 TLI .F               200:   Top log interval
 CS1 .IN            8.625:   Casing size
 CBD1.      8.625" @ 219':   Casing driller 1
 CBL1.F               220:   Casing logger 1
 BS1 .IN            7.875:   Bit size
 BSD1.F              3115:   Depth drilled with bit1
 DFT .            KCL MUD:   Type fluid in hole
 DFD .                9.1:   Density
 DFV .                 35:   Viscosity
 DFPH.                 11:   pH
 DFL .               17.2:   Fluid loss
 MSS .           FLOWLINE:   Source of sample
 RMS .OHMM            .59:   Rm
 MST .F                98:   Rm Meas. temp.
 RMF .OHMM            .56:   Rmf
 MFST.F                98:   Rmf Meas. temp.
 RMC .OHMM            .24:   Rmc
 MCST.F                98:   Rmc Meas. temp.
 MFSS.               MEAS:   Source Rmf.
 MCSS.               MEAS:   Source Rmc.
 RMB .OHMM            .48:   Rm. at BHT
 BHT .F               116:   BHT.
 TCS .HRS               4:   Time Circ. stopped
 MRT .F               116:   Maximum recorded temp.
 LUN .               8611:   Logging unit number
 LUL .             CASPER:   Logging unit location
 ENGI.            C. DOAK:   Recorded By
 WITN.         PETTINGILL:   Witnessed by
 ORIG.           5" PRINT:   Origin of data
 UWI .     49025104210000:   Unique Well ID
 DICO. A2D TECHNOLOGIES, INC.:   Digitizing Company
~OTHER INFORMATION
~A   DEPT     CALD        GRD       RHOB       CORR         NPHI      SPR       GURD        ILD        ILM        TENR  
# ...
 2712.5000     9.3492    92.1687     2.5953     0.0285     0.2068   -66.0495    21.0846    12.1508    13.3198   884.4266
 2713.0000     9.2895    89.3886     2.6022     0.0305     0.2068   -66.6495    18.8856    11.2907    12.2639   884.2756
 2713.5000     9.3489    90.5746     2.5923     0.0285     0.2088   -67.2507    14.4698     9.9287    11.7141   874.1394
 2714.0000     9.3289    97.3128     2.5644     0.0245     0.2148   -67.6529    11.9323     9.3110    10.9853   854.0170
 2714.5000     9.3287   102.8617     2.5425     0.0205     0.2332   -68.0550    10.7863     8.9755     9.7493   873.8365
 2715.0000     9.3286   111.1857     2.5286     0.0106     0.2472   -68.4572     9.8399     8.6523     9.1426   873.6852
 2715.5000     9.3284   116.3376     2.5216     0.0106     0.2612   -68.8594     9.3128     8.1889     8.6529   873.5340
 2716.0000     9.3282   119.5057     2.5286     0.0126     0.2789   -69.2615     8.8139     7.6792     8.3413   873.3828
 2716.5000     9.3281   122.8694     2.5345     0.0125     0.2829   -69.8615     9.1444     6.8781     8.1899   883.2177
 2717.0000     9.3279   116.7204     2.5316     0.0105     0.2865   -69.8681     9.3146     6.5697     7.5404   873.0798
 2717.5000     9.3477   117.5099     2.5276     0.0125     0.2925   -69.6769     7.7766     6.2177     6.6307   872.9286
 2718.0000     9.3474   117.9021     2.5226     0.0105     0.3009   -70.0791     7.5652     5.8845     6.2754   872.7773
 2718.5000     9.3473   117.5013     2.5236     0.0105     0.3021   -70.0857     7.4277     5.2706     6.4512   872.6261
 2719.0000     9.3471   114.1249     2.5305     0.0125     0.3045   -70.0923     7.3601     5.1276     7.0077   872.4748
 2719.5000     9.3469   112.5329     2.5315     0.0105     0.3049   -70.0989     7.3606     5.1279     7.0728   872.3236
 2720.0000     9.3467   116.6952     2.5256     0.0144     0.2961   -70.1055     8.6072     5.1281     7.0733   872.1718
 2720.5000     9.3466   120.4557     2.5236     0.0105     0.2961   -70.1121     8.1941     4.8981     6.3352   882.0080
 2721.0000     9.3464   122.0372     2.5206     0.0084     0.2969   -70.1188     7.9717     4.6784     6.3940   871.8390
 2721.5000     9.3462   118.6646     2.5156     0.0084     0.3002   -70.1254     7.4071     4.5935     6.6950   871.7179
 2722.0000     9.2866   118.2638     2.5056     0.0084     0.3046   -69.7364     7.2062     4.5937     6.6954   871.5667
 2722.5000     9.2864   119.8452     2.5046     0.0064     0.3113   -69.9408     7.2066     4.4690     5.6750   871.4154
 2723.0000     9.2863   119.4444     2.5136     0.0124     0.3173   -70.1452     7.2070     4.3879     5.3709   881.2518
 2723.5000     9.2861   121.4230     2.5215     0.0124     0.3225   -69.9541     6.7585     4.2688     5.1301   871.1122
 2724.0000     9.2859   122.2115     2.5255     0.0124     0.3273   -69.9593     7.0986     4.2299     4.9908   880.9495
 2724.5000     9.2858   122.9999     2.5295     0.0143     0.3301   -69.5704     6.3966     4.1531     5.0372   880.7984
 2725.0000     9.2460   126.5631     2.5295     0.0223     0.3325   -69.5770     6.3969     4.1533     5.0374   880.6473
 2725.5000     9.2260   127.3514     2.5175     0.0223     0.3301   -69.1881     6.4564     4.1919     5.1312   880.4961
 2726.0000     9.1862   126.1577     2.5056     0.0143     0.3249   -68.6014     6.6373     4.3491     5.1314   870.3551
 2726.5000     9.1861   125.7568     2.5026     0.0183     0.3213   -67.6191     6.8232     4.1923     5.1790   870.2038
 2727.0000     9.1661   124.1668     2.5036     0.0202     0.3197   -66.6369     7.0793     4.2312     5.2271   880.0421
 2727.5000     9.1065   122.9732     2.5095     0.0202     0.3193   -65.4569     7.1466     4.4713     5.2757   869.9011
 2728.0000     9.0865   121.3833     2.5155     0.0262     0.3154   -64.4746     7.5048     4.5128     5.2760   879.7397
 2728.5000     9.0268   122.7634     2.5175     0.0282     0.3082   -63.0968     7.1458     4.6821     5.3250   879.5885
 2729.0000     9.0267   122.3635     2.5145     0.0301     0.3042   -61.5199     7.0160     4.6823     5.5757   869.4471
 2729.5000     8.9869   119.3883     2.5015     0.0301     0.3001   -59.5488     7.2126     4.9937     5.7321   869.2957
 2730.0000     8.9273   115.8170     2.4797     0.0281     0.2977   -57.5777     7.7634     5.4246     5.7852   879.1350
 2730.5000     8.8677   111.0559     2.4548     0.0261     0.2933   -54.4629     8.4907     5.5702     5.9123   878.9608
 2731.0000     8.8675    99.5577     2.4399     0.0221     0.2830   -52.6332     8.5083     5.6782     6.1114   879.4984
 2731.5000     8.7881    86.8428     2.4210     0.0181     0.2726   -50.6552     8.2756     5.8360     6.3392   879.7085
 2732.0000     8.7483    74.1856     2.4150     0.0141     0.2622   -48.6771     8.1986     5.9984     6.5154   889.9074
 2732.5000     8.6887    73.3895     2.4100     0.0241     0.2543   -47.4903    10.4091     6.1085     6.6352   870.1398
 2733.0000     8.6687    72.5935     2.4060     0.0221     0.2484   -46.8969     8.2716     6.2783     6.8826   880.3387
 2733.5000     8.6686    68.6272     2.4030     0.0141     0.2372   -46.5013     8.0454     6.3937     7.0094   880.5488
 2734.0000     8.5891    63.4723     2.4020     0.0121     0.2368   -46.1057     8.3454     6.5716     7.2042   880.7587
 2734.5000     8.5891    67.0354     2.4140     0.0101     0.2324   -47.0947     8.2677     6.7545     7.4044   880.9688
 2735.0000     8.6086    75.7505     2.4189     0.0081     0.2312   -47.6881     8.4197     7.0707     7.6102   881.1789
 2735.5000     8.6680    83.2758     2.4358     0.0101     0.2316   -49.8640     9.3999     7.3343     7.9668   871.4005
 2736.0000     8.7669    91.9902     2.4567     0.0101     0.2364   -50.8530    11.5045     7.6077     8.1881   891.5873
 2736.5000     8.8063   102.2892     2.4666     0.0101     0.2364   -52.0398    11.5027     7.9642     8.4157   881.8090
 2737.0000     8.8458   112.1907     2.4845     0.0120     0.2563   -53.4244    10.6253     8.1106     8.4926   892.0072
 2737.5000     8.9052   116.3448     2.4975     0.0220     0.2591   -54.0178    10.0531     7.8886     8.6224   882.1871
 2738.0000     8.9248   112.9747     2.4925     0.0200     0.2607   -54.4134     9.5996     7.7028     8.7269   882.3972
 2738.5000     8.9643   112.1780     2.4805     0.0199     0.2611   -55.6002     9.2513     7.4633     8.7255   882.6072
 2739.0000     8.9443   113.3624     2.4716     0.0120     0.2631   -56.3914     9.1651     6.8698     8.7241   882.8172
 2739.5000     8.9441   116.5284     2.4656     0.0120     0.2651   -57.3804     9.3338     6.6819     8.7227   873.0395
 2740.0000     8.9440   118.7020     2.4596     0.0080     0.2659   -58.1716     9.8619     6.2073     8.6415   883.2373
 2740.5000     8.9438   112.5572     2.4556     0.0100     0.2679   -59.1607    10.2884     6.0933     8.4828   883.4473
 2741.0000     8.9436   108.7876     2.4517     0.0080     0.2707   -59.7541    10.6722     5.9267     8.2508   883.6573
 2741.5000     8.9435   111.7565     2.4507     0.0079     0.2723   -60.1497     9.9139     5.8179     7.8063   883.8673
 2742.0000     8.9433   116.5068     2.4586     0.0079     0.2723   -60.9409     9.0420     5.8170     7.5754   864.1024
 2742.5000     8.9432   120.4638     2.4665     0.0079     0.2715   -61.5343     8.3228     5.9786     7.2514   864.3966
 2743.0000     8.9430   126.0052     2.4755     0.0079     0.2703   -62.1277     8.1702     5.9230     6.7979   884.4973
 2743.5000     8.9428   127.5861     2.4815     0.0119     0.2687   -62.1277     7.9721     5.9767     6.7353   884.7074
 2744.0000     8.9427   130.9475     2.4854     0.0138     0.2651   -62.7211     8.2698     5.8670     7.1816   884.9174
 2744.5000     8.9425   121.2384     2.4824     0.0218     0.2600   -63.1167    27.2174     5.8124     9.5469   885.1274
 2745.0000     8.9424   118.0653     2.4794     0.0198     0.2552   -63.5123    15.9552     5.8115     9.5454   885.3374
 2745.5000     8.9422   116.8727     2.4834     0.0138     0.2512   -63.9079     9.6319     5.8106     7.7971   885.5474
