~VERSION INFORMATION
 VERS.                2.0:   CWLS LOG ASCII STANDARD - VERSION 2.0
 WRAP.                 NO:   ONE LINE PER DEPTH STEP
~WELL INFORMATION
#MNEM.UNIT      DATA TYPE    INFORMATION
#----------   ------------   ------------------------------
 STRT.F          204.0000:   START DEPTH
 STOP.F         3024.0000:   STOP DEPTH
 STEP.F            0.5000:   STEP LENGTH
 NULL.          -999.2500:   NO VALUE
 COMP.    FENIX & SCISSON:   COMPANY
 WELL. FENIX NPR 3 "AX" #87-33:   WELL
 FLD .      NPR - WILDCAT:   FIELD
 LOC .      S33 T39N R78W:   LOCATION
 CNTY.            NATRONA:   COUNTY
 STAT.            WYOMING:   STATE
 CTRY. UNITED STATES OF AMERICA:   COUNTRY
 SRVC.              WELEX:   SERVICE COMPANY
 DATE.        20-JUN-1977:   LOGDATE
 API .     49025103840000:   API NUMBER
~CURVE INFORMATION
#MNEM.UNIT       API CODE    CURVE DESCRIPTION
#----------   ------------   ------------------------------
 DEPT.F                  :   
 SPR .MV     07 010 01 00:   SPONTANEOUS POTENTIAL
 ILD .OHMM   07 120 46 00:   DEEP INDUCTION RESISTIVITY
 ILM .OHMM   07 120 44 00:   INDUCTION LOG MEDIUM RESISTIVITY
 SGRD.OHMM   07 220 05 00:   SHALLOW SHORT GUARD RESISTIVITY
 CALD.IN     45 280 60 00:   CALIPER FROM DENSITY LOG
 GRD .GAPI   45 310 01 00:   GAMMA RAY FROM DENSITY LOG
 RHOB.G/C3   45 350 01 00:   BULK DENSITY
 CORR.G/C3   45 356 01 00:   DENSITY CORRECTION
~PARAMETER INFORMATION
#MNEM.UNIT          VALUE    DESCRIPTION
#----------   ------------   ------------------------------
 EKB .F         5170.0000:   Kelly bushing
 EGL .F         5160.0000:   Ground level
 TD  .F         3040.0000:   Total depth
 DATE.        20-JUN-1977:   Date logged
 CLNT.            A2DTECH:   Client Code
 SL  . 800' FSL & 100' FEL:   Surface Location
 PD  .                 GL:   Permanent Datum
 EPD .F              5160:   Elevation Permanent Datum
 LMF .                 KB:   Log Measured From
 DMF .                 KB:   Drilling Measured From
 DD  .F              3040:   Depth driller
 DL  .F              3027:   Depth logger
 BLI .F              3025:   Bottom log interval
 TLI .F               200:   Top log interval
 CS1 .IN            8.625:   Casing size
 CBD1.      8.625" @ 230':   Casing driller 1
 CBL1.F               210:   Casing logger 1
 BS1 .IN            7.875:   Bit size
 BSD1.F              3040:   Depth drilled with bit1
 DFT .                KCL:   Type fluid in hole
 DFD .                9.2:   Density
 DFV .                 38:   Viscosity
 DFPH.                7.5:   pH
 DFL .                5.4:   Fluid loss
 MSS .           FLOWLINE:   Source of sample
 RMS .OHMM            .60:   Rm
 MST .F                92:   Rm Meas. temp.
 RMF .OHMM            .29:   Rmf
 MFST.F                92:   Rmf Meas. temp.
 RMC .OHMM            .76:   Rmc
 MCST.F                92:   Rmc Meas. temp.
 MFSS.               MEAS:   Source Rmf.
 MCSS.               MEAS:   Source Rmc.
 RMB .OHMM            .49:   Rm. at BHT
 BHT .F               112:   BHT.
 TCS .HRS               2:   Time Circ. stopped
 MRT .F               112:   Maximum recorded temp.
 LUN .               8611:   Logging unit number
 LUL .           GILLETTE:   Logging unit location
 ENGI.            C. DOAK:   Recorded By
 WITN.      B. HARRINGTON:   Witnessed by
 ORIG.     2.5", 5" PRINT:   Origin of data
 UWI .     49025103840000:   Unique Well ID
 DICO. A2D TECHNOLOGIES, INC.:   Digitizing Company
~OTHER INFORMATION
~A   DEPT      SPR        ILD        ILM       SGRD         CALD       GRD        RHOB      CORR  
# ...
 1702.5000   -61.1660     7.6160     8.3910     9.3570     9.8650   108.3320     2.4960    -0.0030
 1703.0000   -61.1870     7.6290     8.3910     9.5020     9.8590   107.2330     2.5040    -0.0020
 1703.5000   -61.2080     7.6430     8.3910     9.6430     9.8530   106.6990     2.5130    -0.0020
 1704.0000   -61.2280     7.6640     8.3910     9.8750     9.8470   106.1760     2.5120    -0.0020
 1704.5000   -61.2490     7.6590     8.3910     9.7070     9.8400   105.8270     2.5090    -0.0010
 1705.0000   -61.2700     7.6390     8.3910     9.2880     9.8310   106.5070     2.5120     0.0000
 1705.5000   -61.2910     7.6190     8.3910     8.7000     9.8220   107.1520     2.5160     0.0010
 1706.0000   -61.3120     7.6010     8.3910     9.1410     9.8120   108.2790     2.5210     0.0020
 1706.5000   -61.3320     7.5820     8.3910     9.8750     9.8030   109.4920     2.5200     0.0020
 1707.0000   -61.3530     7.5620     8.3000     9.7870     9.7940   110.7000     2.5160     0.0010
 1707.5000   -61.3740     7.5410     8.2090     9.6410     9.7840   111.6970     2.5120    -0.0010
 1708.0000   -61.3950     7.5250     8.1190     9.5240     9.7730   111.0340     2.5130    -0.0020
 1708.5000   -61.4150     7.4480     8.0280     8.8590     9.7620   110.0400     2.5110    -0.0040
 1709.0000   -61.4360     7.3820     7.9370     9.0650     9.7510   109.0670     2.5020    -0.0050
 1709.5000   -61.4570     7.3160     7.8470     9.3530     9.7400   108.2840     2.5000    -0.0040
 1710.0000   -61.4780     7.2490     7.7560     9.1580     9.7290   107.5710     2.5100    -0.0010
 1710.5000   -61.4980     7.1830     7.6650     8.8310     9.7200   106.8530     2.5160     0.0010
 1711.0000   -61.5210     7.1300     7.7420     8.7000     9.7110   106.1350     2.5160     0.0020
 1711.5000   -61.5170     7.2000     7.8180     8.8200     9.7020   105.4200     2.5190     0.0020
 1712.0000   -61.5090     7.2580     7.8940     9.0210     9.6940   104.9640     2.5200     0.0010
 1712.5000   -61.5000     7.3160     7.9710     9.3110     9.6850   104.5440     2.5150     0.0010
 1713.0000   -61.4920     7.3740     8.0470     9.5530     9.6670   104.1260     2.5150     0.0000
 1713.5000   -61.4840     7.4330     8.1550     9.7690     9.6500   103.7880     2.5160    -0.0020
 1714.0000   -61.4750     7.4910     8.3090     9.9450     9.6330   104.0390     2.5070    -0.0040
 1714.5000   -61.4670     7.5490     8.4640    10.1220     9.6150   104.2990     2.4990    -0.0050
 1715.0000   -61.4590     7.6070     8.6190    10.2990     9.5980   104.5560     2.4990    -0.0010
 1715.5000   -61.4510     7.6650     8.7730    10.4750     9.5870   104.8130     2.5040     0.0020
 1716.0000   -61.4420     7.7220     8.9280    10.6160     9.5870   105.0710     2.5090     0.0060
 1716.5000   -61.4340     7.7780     9.0460    10.6160     9.5870   105.3300     2.5150     0.0090
 1717.0000   -61.4260     7.8340     9.1090    10.6160     9.5870   105.4650     2.5240     0.0100
 1717.5000   -61.4180     7.8900     9.1720    10.6160     9.5870   105.5960     2.5330     0.0100
 1718.0000   -61.4090     7.9470     9.2350    10.6160     9.5890   105.7250     2.5320     0.0090
 1718.5000   -61.4010     8.0030     9.2980    10.6160     9.5930   105.7650     2.5300     0.0090
 1719.0000   -61.3930     8.0590     9.3610    10.6160     9.5970   104.4510     2.5340     0.0080
 1719.5000   -61.3840     8.0930     9.4240    10.6160     9.6010   103.0400     2.5390     0.0070
 1720.0000   -61.3760     8.1550     9.5240    10.4590     9.6050   102.0780     2.5440     0.0070
 1720.5000   -61.3680     8.2170     9.5180    10.2390     9.6150   101.8050     2.5450     0.0060
 1721.0000   -61.3600     8.2790     9.5020    10.4110     9.6290   102.3660     2.5430     0.0050
 1721.5000   -61.3510     8.3410     9.4860    10.8100     9.6420   103.0610     2.5450     0.0040
 1722.0000   -61.3430     8.3910     9.4700    10.6970     9.6560   103.7640     2.5400     0.0030
 1722.5000   -61.3350     8.2810     9.4550    10.5080     9.6580   104.4500     2.5280     0.0020
 1723.0000   -61.3260     8.1900     9.4390    10.3200     9.6200   105.1170     2.5210     0.0020
 1723.5000   -61.3180     8.0980     9.4230    10.0560     9.5880   105.7820     2.5210     0.0010
 1724.0000   -61.3100     8.0070     9.4080    10.1670     9.6020   106.6720     2.5200     0.0010
 1724.5000   -61.3020     7.9150     9.3930    10.3520     9.6160   107.8110     2.5180     0.0010
 1725.0000   -61.2930     7.8050     9.3760    10.4260     9.6300   108.9700     2.5210     0.0010
 1725.5000   -61.2850     7.7580     9.3570    10.0620     9.6440   109.9100     2.5190     0.0020
 1726.0000   -61.2770     7.6990     9.3490     9.6980     9.6570   110.8460     2.5170     0.0020
 1726.5000   -61.2690     7.6390     9.2400     9.4930     9.6710   112.0360     2.5190     0.0020
 1727.0000   -61.2600     7.5800     9.1510     9.1860     9.6850   113.3160     2.5210     0.0010
 1727.5000   -61.2520     7.5210     9.0600     9.1860     9.6990   114.1600     2.5190     0.0000
 1728.0000   -61.2440     7.4620     8.9670     9.5480     9.7100   114.8890     2.5130    -0.0010
 1728.5000   -61.2350     7.4020     8.8750    10.0560     9.7180   114.8240     2.5030    -0.0020
 1729.0000   -61.2270     7.3430     8.7830     9.9390     9.7260   114.1860     2.5000    -0.0030
 1729.5000   -61.2190     7.2840     8.6910     9.7430     9.7340   113.5260     2.5040    -0.0030
 1730.0000   -61.2110     7.2290     8.6000     9.5480     9.7420   113.6380     2.5090    -0.0020
 1730.5000   -61.2020     7.1770     8.5070     9.3530     9.7500   114.2850     2.5100    -0.0020
 1731.0000   -61.1940     7.1240     8.4130     9.2150     9.7580   114.6580     2.5080    -0.0010
 1731.5000   -61.1860     7.0720     8.3180     9.0760     9.7660   113.6210     2.5090     0.0000
 1732.0000   -61.1770     7.0200     8.2240     8.8910     9.7700   113.8530     2.5120     0.0010
 1732.5000   -61.1690     6.9670     8.1300     8.6740     9.7740   114.8510     2.5170     0.0010
 1733.0000   -61.1610     6.9150     8.0360     8.4570     9.7780   115.3770     2.5230     0.0010
 1733.5000   -61.1530     6.8620     7.9420     8.2410     9.7830   115.5630     2.5300     0.0020
 1734.0000   -61.1450     6.8100     7.8480     8.5330     9.7870   114.3080     2.5370     0.0020
 1734.5000   -61.1350     6.7580     7.7540     9.0210     9.7910   113.0300     2.5440     0.0030
 1735.0000   -61.1410     6.7050     7.6600     8.7870     9.7950   112.6480     2.5400     0.0060
 1735.5000   -61.1580     6.6530     7.5650     8.2410     9.8000   112.5080     2.5380     0.0090
 1736.0000   -61.1730     6.6290     7.5280     8.3570     9.8040   113.8520     2.5400     0.0140
 1736.5000   -61.1880     6.6240     7.5280     8.5500     9.7970   114.8380     2.5490     0.0160
 1737.0000   -61.2040     6.6180     7.5280     8.8590     9.7890   113.8330     2.5470     0.0150
 1737.5000   -61.2200     6.6130     7.5280     8.8300     9.7800   112.7110     2.5410     0.0140
 1738.0000   -61.2350     6.6080     7.5280     8.7570     9.7720   111.5660     2.5390     0.0130
 1738.5000   -61.2510     6.6020     7.5280     8.6840     9.7640   110.9330     2.5380     0.0120
 1739.0000   -61.2660     6.5970     7.5280     8.6110     9.7560   110.4520     2.5330     0.0110
 1739.5000   -61.2820     6.5920     7.5290     8.5370     9.7470   109.9790     2.5250     0.0100
 1740.0000   -61.2970     6.5870     7.5210     8.4640     9.7420   109.5040     2.5220     0.0090
 1740.5000   -61.3130     6.5810     7.5060     8.3910     9.7380   109.2170     2.5260     0.0070
 1741.0000   -61.3280     6.5760     7.4930     8.4770     9.7350   109.0880     2.5270     0.0060
 1741.5000   -61.3440     6.5710     7.4790     8.5630     9.7310   108.9550     2.5280     0.0050
 1742.0000   -61.3590     6.5650     7.4660     8.7000     9.7270   109.4720     2.5230     0.0040
 1742.5000   -61.3750     6.5600     7.4520     8.6560     9.7160   110.4960     2.5190     0.0040
