~VERSION INFORMATION
 VERS.                2.0:   CWLS LOG ASCII STANDARD - VERSION 2.0
 WRAP.                 NO:   ONE LINE PER DEPTH STEP
~WELL INFORMATION
#MNEM.UNIT      DATA TYPE    INFORMATION
#----------   ------------   ------------------------------
 STRT.F            0.0000:   START DEPTH
 STOP.F         4700.0000:   STOP DEPTH
 STEP.F            0.5000:   STEP LENGTH
 NULL.          -999.2500:   NO VALUE
 COMP. LAWRENCE ALLISON & ASSOCIATES:   COMPANY
 WELL. LAWRENCE NPR 3 "X" #33-23:   WELL
 FLD .                NPR:   FIELD
 LOC .      S23 T38N R78W:   LOCATION
 CNTY.            NATRONA:   COUNTY
 STAT.            WYOMING:   STATE
 CTRY. UNITED STATES OF AMERICA:   COUNTRY
 SRVC.      DRESSER ATLAS:   SERVICE COMPANY
 DATE.        12-NOV-1984:   LOGDATE
 API .     49025109930000:   API NUMBER
~CURVE INFORMATION
#MNEM.UNIT       API CODE    CURVE DESCRIPTION
#----------   ------------   ------------------------------
 DEPT.F                  :   
 TEND.LBS    45 635 01 00:   TENSION FROM DENSITY LOG
 CALD.IN     45 280 60 00:   CALIPER FROM DENSITY LOG
 CORR.G/C3   45 356 01 00:   DENSITY CORRECTION
 DEN .G/C3   45 350 01 00:   BULK DENSITY
 CNC .DEC    42 890 03 00:   NEUTRON PORISITY SANDSTONE
 SPR .MV     07 010 01 00:   SPONTANEOUS POTENTIAL
 GRR .GAPI   07 310 01 00:   GAMMA RAY FROM RESISTIVITY
 RFOC.OHMM   07 220 01 00:   RESISTIVITY FOCUSED LOG RES.
 ILM .OHMM   07 120 44 00:   INDUCTION LOG MEDIUM RESISTIVITY
 ILD .OHMM   07 120 46 00:   INDUCTION LOG DEEP RESISTIVITY
 TENS.LBS    60 635 01 00:   TENSION FROM SONIC LOG
 DT  .US/F   60 520 00 00:   DELTA TIME
 TENR.LBS    07 635 01 00:   TENSION
~PARAMETER INFORMATION
#MNEM.UNIT          VALUE    DESCRIPTION
#----------   ------------   ------------------------------
 EKB .F         5308.0000:   Kelly bushing
 EGL .F         5296.0000:   Ground level
 EDF .F            0.0000:   Drilling floor
 EPD .F            0.0000:   Permanent datum
 TD  .F         4695.0000:   Total depth
 DATE.        12-NOV-1984:   Date logged
 CLNT.            A2DTECH:   Client Code
 SL  . 1415' FNL & 1874' FWL:   Surface Location
 PD  .                 GL:   Permanent Datum
 LMF .                 KB:   Log Measured From
 DMF .                 KB:   Drilling Measured From
 DAPD.F                12:   Feet Above Permanent Datum
 DD  .F              4695:   Depth driller
 DL  .F              4694:   Depth logger
 BLI .F              4691:   Bottom log interval
 TLI .F              1205:   Top log interval
 CS1 .IN            8.625:   Casing size
 CBD1.     8.625" @ 1206':   Casing driller 1
 CBL1.F              1205:   Casing logger 1
 BS1 .IN            7.875:   Bit size
 BSD1.F              4695:   Depth drilled with bit1
 DFT .     GFL/KCL/STAFLO:   Type fluid in hole
 DFD .                9.2:   Density
 DFV .                 45:   Viscosity
 DFPH.                  8:   pH
 DFL .                 10:   Fluid loss
 MSS .           FLOWLINE:   Source of sample
 RMS .OHMM            .51:   Rm
 MST .F                72:   Rm Meas. temp.
 RMF .OHMM            .43:   Rmf
 MFST.F                70:   Rmf Meas. temp.
 RMC .OHMM            .64:   Rmc
 MCST.F                72:   Rmc Meas. temp.
 MFSS.               MEAS:   Source Rmf.
 MCSS.               CALC:   Source Rmc.
 RMB .OHMM           .272:   Rm. at BHT
 BHT .F               135:   BHT.
 TCS .HRS               4:   Time Circ. stopped
 MRT .F               135:   Maximum recorded temp.
 LUN .               6274:   Logging unit number
 LUL .               GLTE:   Logging unit location
 ENGI.             RAUTIO:   Recorded By
 ORIG.           5" PRINT:   Origin of data
 UWI .     49025109930000:   Unique Well ID
 DICO. A2D TECHNOLOGIES, INC.:   Digitizing Company
~OTHER INFORMATION
~A    DEPT    TEND       CALD       CORR        DEN        CNC        SPR         GRR      RFOC        ILM        ILD       TENS         DT       TENR   
# ...
 2522.0000   -24.3030     9.5260     0.0380     2.4550     0.3370   -28.9950   182.3000    10.8630     8.9290     9.0390   -78.9740    94.1110   -54.2990
 2522.5000   -23.5330     9.5260     0.0340     2.4630     0.3580   -28.9490   187.7570    10.9100     8.9550     9.0950   -78.9740    94.3930   -54.1930
 2523.0000   -22.7630     9.5260     0.0220     2.4670     0.3580   -28.9500   188.2710    10.8330     8.9800     9.1510   -78.9740    94.6280   -54.0870
 2523.5000   -21.9940     9.5260     0.0090     2.4600     0.3370   -28.9530   180.2500    10.3960     9.0790     9.3180   -78.9740    94.6280   -53.9810
 2524.0000   -21.2240     9.5260    -0.0030     2.4540     0.3170   -28.9530   169.4770     9.9530     9.2060     9.5160   -78.9740    93.4260   -53.8740
 2524.5000   -20.4540     9.5260    -0.0080     2.4470     0.2980   -28.9480   158.6450    10.1730     9.3360     9.7150   -78.9740    92.1940   -53.7680
 2525.0000   -19.6850     9.5260     0.0020     2.4440     0.2770   -28.7940   148.9030    10.8350     9.4650     9.9530   -78.9740    91.2070   -53.6620
 2525.5000   -18.2580     9.5260     0.0090     2.4510     0.2790   -28.6340   145.4170    11.5950     9.5940     9.8400   -78.9740    90.6200   -53.5560
 2526.0000   -14.3500     9.5260     0.0180     2.4630     0.2860   -28.4740   143.4750    11.7420     9.3910     9.6540   -78.9740    89.8880   -53.4500
 2526.5000   -10.4420     9.5260     0.0130     2.4670     0.2800   -28.3140   141.6530    11.4730     9.1900     9.4670   -78.9740    89.1550   -53.3430
 2527.0000    -6.5340     9.5260    -0.0010     2.4570     0.2600   -28.1540   141.4080    11.2100     8.9890     9.2800   -78.9740    88.5070   -53.2370
 2527.5000    -2.6260     9.5260    -0.0150     2.4530     0.2630   -27.9930   142.4120    10.3240     8.9140     9.2120   -78.9740    88.1380   -53.1310
 2528.0000     1.0040     9.5260    -0.0020     2.4580     0.2690   -28.0030   151.2850     9.0650     8.9140     9.1540   -78.9740    87.7690   -53.0250
 2528.5000    -5.7980     9.5260     0.0280     2.4770     0.2730   -28.0620   155.7890     8.2070     8.9140     9.0970   -78.9740    87.4000   -52.9190
 2529.0000   -12.1490     9.5260     0.0560     2.4930     0.2700   -28.1230   155.5800     8.5140     8.9140     9.0390   -78.9740    87.0320   -52.8120
 2529.5000   -18.4990     9.5260     0.0490     2.4990     0.2670   -28.1830   152.7070     9.7580     8.9140     8.9960   -78.9740    86.6630   -52.7060
 2530.0000   -24.8490     9.5260     0.0390     2.4900     0.2720   -28.2440   145.8470    11.4220     8.9130     9.0600   -78.9740    86.2940   -52.6000
 2530.5000   -31.2000     9.5260     0.0140     2.4810     0.2810   -28.3050   138.3520    11.1750     8.9250     9.1210   -78.9740    85.9250   -52.4940
 2531.0000   -37.5500     9.5260    -0.0070     2.4720     0.2770   -28.3650   125.5640    10.8020     8.9700     9.1810   -78.9740    85.5570   -52.3880
 2531.5000   -30.7230     9.5260    -0.0310     2.4790     0.2630   -28.4260   115.8790    10.4290     9.0140     9.2420   -78.9740    85.5620   -52.2810
 2532.0000   -19.4330     9.5260    -0.0200     2.4940     0.2630   -28.4860   112.1780    10.0560     9.0580     9.3020   -78.9740    85.9430   -52.1750
 2532.5000    -8.1440     9.5260     0.0050     2.5020     0.2610   -28.5490   112.3410     9.6830     9.1020     9.3330   -78.9740    86.3230   -52.0690
 2533.0000     1.0040     9.5290     0.0310     2.5100     0.2590   -28.4470   111.2280     9.4190     9.1470     9.3330   -78.9740    86.4690   -51.9630
 2533.5000     1.0040     9.5330     0.0460     2.5210     0.2520   -28.2760   103.6970     9.8620     9.1910     9.3330   -78.9740    86.1770   -51.8570
 2534.0000     1.0040     9.5380     0.0340     2.5380     0.2440   -28.1040    95.7140    11.6850     9.2480     9.3330   -78.9740    82.9710   -51.7500
 2534.5000     1.0040     9.5420     0.0140     2.5440     0.2360   -27.9310    98.0910    13.4750     9.0960     9.3330   -78.9740    80.1460   -51.6440
 2535.0000     1.0040     9.5460     0.0000     2.5300     0.2320   -27.7780   104.4830    11.9800     8.8820     9.1810   -78.9740    78.3900   -51.5380
 2535.5000     1.0040     9.5500     0.0060     2.5140     0.2460   -27.9530   110.9350    10.3440     8.6680     8.9690   -78.9740    78.5310   -51.4320
 2536.0000     1.0040     9.5550     0.0160     2.5110     0.2690   -28.1340   116.1100     9.2250     8.4540     8.7570   -78.9740    82.2490   -51.3260
 2536.5000     1.0040     9.5590     0.0080     2.5150     0.2890   -28.3110   119.8290     9.0550     8.2400     8.5450   -78.9740    85.4370   -51.2190
 2537.0000     1.0040     9.5630     0.0030     2.5130     0.2980   -28.4820   120.4680     8.8850     8.0260     8.3330   -78.9740    87.9760   -51.1130
 2537.5000     1.0040     9.5670     0.0000     2.5090     0.3120   -28.7650   124.2300     8.7140     7.8120     8.1200   -78.9740    89.7990   -51.0070
 2538.0000     1.0040     9.5720    -0.0030     2.5070     0.3080   -28.7870   129.5470     8.4940     7.5980     7.9080   -78.9740    90.4960   -50.9010
 2538.5000     1.0040     9.5760     0.0230     2.5100     0.2980   -28.8150   134.5450     8.1710     7.4050     7.6960   -78.9740    91.3650   -50.7950
 2539.0000     1.0040     9.5800     0.0450     2.5160     0.2920   -28.8400   136.1020     7.8390     7.3200     7.4840   -78.9740    92.2130   -50.6880
 2539.5000    -2.2780     9.5850     0.0430     2.5220     0.2950   -28.8650   131.8650     7.9480     7.2360     7.2750   -78.9740    92.0580   -50.5820
 2540.0000    -5.7820     9.5890     0.0320     2.5240     0.2960   -28.8900   125.0710     8.0910     7.1510     7.2240   -78.9740    91.3820   -50.4760
 2540.5000    -9.2850     9.5930     0.0200     2.5210     0.2920   -28.9150   120.6100     8.2070     7.0670     7.1730   -78.9740    90.6040   -50.3700
 2541.0000   -12.7890     9.5970     0.0090     2.5150     0.2870   -28.9400   124.0960     8.1550     6.9820     7.1230   -78.9740    90.6040   -50.2640
 2541.5000   -16.2930     9.6020    -0.0020     2.5050     0.2830   -29.0480   126.6080     8.0890     6.8980     7.0720   -78.9740    90.7360   -50.1570
 2542.0000   -19.7960     9.6050    -0.0090     2.4950     0.2770   -29.2520   126.9950     8.0230     6.8270     7.0210   -78.9740    91.2430   -50.0510
 2542.5000   -23.3000     9.6070    -0.0380     2.4890     0.2690   -29.4550   126.0090     7.9570     6.8130     6.9710   -78.9740    91.7510   -49.9450
 2543.0000   -26.8040     9.6080    -0.0380     2.4890     0.2620   -29.6590   123.6880     7.8900     6.7990     6.9200   -78.9740    92.2580   -49.8390
 2543.5000   -30.3070     9.6090    -0.0180     2.4950     0.2650   -29.8620   122.2000     7.8390     6.7840     6.8690   -78.9740    92.5660   -49.7330
 2544.0000   -33.8110     9.6100     0.0020     2.5010     0.2700   -30.0660   121.8990     7.8600     6.7700     6.8070   -78.9740    92.3970   -49.6260
 2544.5000   -37.3150     9.6110    -0.0150     2.5050     0.2760   -30.2760   121.5700     7.8850     6.6500     6.7070   -78.9740    92.2280   -49.5200
 2545.0000   -39.3530     9.6120    -0.0350     2.5030     0.2730   -30.2590   119.1690     7.9100     6.5080     6.6060   -78.9740    92.0590   -49.4140
 2545.5000   -39.7660     9.6130    -0.0210     2.4990     0.2670   -30.1070   116.3990     7.9350     6.3660     6.5060   -78.9740    91.8900   -49.3080
 2546.0000   -40.1790     9.6140     0.0000     2.4930     0.2690   -29.9520   114.6350     7.9600     6.2240     6.4050   -78.9740    92.0130   -49.2020
 2546.5000   -40.5920     9.6160     0.0180     2.4800     0.2760   -29.7980   114.3880     7.9840     6.0830     6.3050   -78.9740    92.3930   -49.0950
 2547.0000   -41.0050     9.6170     0.0360     2.4630     0.2820   -29.6430   113.4800     7.3400     6.0060     6.2310   -78.9740    92.7740   -48.9890
 2547.5000   -41.4180     9.6180     0.0600     2.4500     0.2890   -29.4880   113.2650     6.7300     6.0550     6.2310   -78.9740    92.9460   -48.8830
