~VERSION INFORMATION
 VERS.                2.0:   CWLS LOG ASCII STANDARD - VERSION 2.0
 WRAP.                 NO:   ONE LINE PER DEPTH STEP
~WELL INFORMATION
#MNEM.UNIT      DATA TYPE    INFORMATION
#----------   ------------   ------------------------------
 STRT.F          190.0000:   START DEPTH
 STOP.F         2998.5000:   STOP DEPTH
 STEP.F            0.5000:   STEP LENGTH
 NULL.          -999.2500:   NO VALUE
 COMP.    FENIX & SCISSON:   COMPANY
 WELL.   FENIX "A" #52-28:   WELL
 FLD .        TEAPOT DOME:   FIELD
 LOC .      S28 T39N R78W:   LOCATION
 CNTY.            NATRONA:   COUNTY
 STAT.            WYOMING:   STATE
 CTRY. UNITED STATES OF AMERICA:   COUNTRY
 SRVC.           BIRDWELL:   SERVICE COMPANY
 DATE.        14-AUG-1977:   LOGDATE
 API .     49025104130000:   API NUMBER
~CURVE INFORMATION
#MNEM.UNIT       API CODE    CURVE DESCRIPTION
#----------   ------------   ------------------------------
 DEPT.F                  :   
 SPR .MV     05 010 01 00:   SPONTANEOUS POTENTIAL FROM RES.
 SN  .OHMM   05 040 16 00:   SHORT NORMAL 16"
 ILD .OHMM   05 120 46 00:   INDUCTION LOG DEEP
 GRD .GAPI   45 310 01 00:   GAMMA RAY FROM DENSITY LOG
 CALD.IN     45 280 60 00:   CALIPER FROM DENSITY LOG
 RHOB.G/C3   45 350 01 00:   BULK DENSITY
 CORR.G/C3   45 356 01 00:   DENSITY CORRECTION
~PARAMETER INFORMATION
#MNEM.UNIT          VALUE    DESCRIPTION
#----------   ------------   ------------------------------
 EKB .F         5026.0000:   Kelly bushing
 EGL .F         5016.0000:   Ground level
 EDF .F            0.0000:   Drilling floor
 TD  .F         3000.0000:   Total depth
 DATE.        14-AUG-1977:   Date logged
 CLNT.            A2DTECH:   Client Code
 SL  . 990' FNL & 2310' FEL:   Surface Location
 PD  .                 GL:   Permanent Datum
 EPD .F              5016:   Elevation Permanent Datum
 LMF .                 KB:   Log Measured From
 DMF .                 KB:   Drilling Measured From
 DAPD.F                10:   Feet Above Permanent Datum
 DD  .F              3000:   Depth driller
 DL  .F              3000:   Depth logger
 BLI .F              2994:   Bottom log interval
 TLI .F               214:   Top log interval
 CS1 .IN            8.625:   Casing size
 CBD1.      8.625" @ 214':   Casing driller 1
 CBL1.F               212:   Casing logger 1
 BS1 .IN            7.875:   Bit size
 BSD1.F              3000:   Depth drilled with bit1
 DFT .                KCL:   Type fluid in hole
 DFD .                8.8:   Density
 DFV .                 30:   Viscosity
 DFPH.               10.5:   pH
 DFL .               10.4:   Fluid loss
 MSS .           FLOWLINE:   Source of sample
 RMS .OHMM           0.13:   Rm
 MST .F                82:   Rm Meas. temp.
 RMF .OHMM           0.12:   Rmf
 MFST.F                72:   Rmf Meas. temp.
 RMC .OHMM           0.16:   Rmc
 MCST.F                72:   Rmc Meas. temp.
 MFSS.               MEAS:   Source Rmf.
 MCSS.               MEAS:   Source Rmc.
 TCS .HRS               4:   Time Circ. stopped
 LUN .               2958:   Logging unit number
 LUL .             CASPER:   Logging unit location
 ENGI.                LAW:   Recorded By
 WITN.         PETTINGILL:   Witnessed by
 ORIG.           5" PRINT:   Origin of data
 UWI .     49025104130000:   Unique Well ID
 DICO. A2D TECHNOLOGIES, INC.:   Digitizing Company
~OTHER INFORMATION
~A   DEPT      SPR         SN        ILD         GRD      CALD       RHOB       CORR   
# ...
 1464.0000   -27.2310     5.6840     7.1170   116.9410     9.0410     2.5680     0.0270
 1464.5000   -27.3400     5.7490     7.1900   115.1250     9.0410     2.5710     0.0310
 1465.0000   -27.4580     5.8410     7.2630   115.6120     9.0410     2.5760     0.0320
 1465.5000   -27.8010     5.8410     7.3360   116.0540     9.0410     2.5760     0.0330
 1466.0000   -28.1820     5.8390     7.3970   116.2910     9.0410     2.5750     0.0310
 1466.5000   -28.5820     5.8380     7.3520   114.1390     9.0410     2.5730     0.0260
 1467.0000   -29.0780     5.8360     7.3130   110.2450     9.0410     2.5650     0.0200
 1467.5000   -29.4730     5.8350     7.2730   109.1700     9.0410     2.5580     0.0190
 1468.0000   -29.7300     5.8330     7.2340   110.2510     9.0410     2.5580     0.0210
 1468.5000   -29.7340     5.8320     7.1950   110.9110     9.0410     2.5600     0.0170
 1469.0000   -29.3940     5.8300     7.1560   108.3350     9.0410     2.5610     0.0130
 1469.5000   -29.0480     5.8290     7.1170   109.5320     9.0410     2.5510     0.0180
 1470.0000   -28.7600     5.8270     7.0690   111.8710     9.0410     2.5540     0.0190
 1470.5000   -28.4620     5.8260     7.0900   109.9900     9.0540     2.5510     0.0180
 1471.0000   -28.2530     5.8240     7.1170   112.8160     9.1420     2.5480     0.0150
 1471.5000   -28.2930     5.8230     7.1440   116.0510     9.2030     2.5480     0.0120
 1472.0000   -28.3280     5.8210     7.1720   115.5340     9.2250     2.5510     0.0130
 1472.5000   -28.3620     5.8200     7.1990   112.9290     9.2480     2.5520     0.0140
 1473.0000   -28.3970     5.8180     7.2260   110.3530     9.2590     2.5540     0.0210
 1473.5000   -28.4310     5.8170     7.2640   108.8530     9.2610     2.5620     0.0280
 1474.0000   -28.4660     5.8150     7.2620   112.1770     9.2640     2.5720     0.0300
 1474.5000   -28.5000     5.8140     7.2580   111.9980     9.2660     2.5750     0.0300
 1475.0000   -28.5350     5.8120     7.2530   110.0320     9.2680     2.5750     0.0290
 1475.5000   -28.5690     5.8110     7.2480   109.7000     9.2700     2.5730     0.0310
 1476.0000   -28.6030     5.8090     7.2440   110.7780     9.2720     2.5720     0.0320
 1476.5000   -28.6420     5.8080     7.2390   111.5860     9.2750     2.5750     0.0340
 1477.0000   -28.8530     5.8070     7.2340   109.8760     9.2770     2.5770     0.0340
 1477.5000   -29.0860     5.8050     7.2290   109.3490     9.2780     2.5750     0.0340
 1478.0000   -29.3210     5.8040     7.2250   110.7240     9.2780     2.5810     0.0340
 1478.5000   -29.5630     5.8020     7.2200   113.2470     9.2780     2.5780     0.0340
 1479.0000   -29.6250     5.8010     7.2150   115.1950     9.2780     2.5770     0.0340
 1479.5000   -29.6290     5.7990     7.2110   113.3790     9.2780     2.5840     0.0340
 1480.0000   -29.6140     5.7980     7.2060   109.5450     9.2780     2.5860     0.0340
 1480.5000   -29.3280     5.7960     7.2010   108.8140     9.2780     2.5850     0.0310
 1481.0000   -29.0530     5.7950     7.1990   109.7530     9.2780     2.5800     0.0280
 1481.5000   -28.7800     5.7930     7.2060   112.0960     9.2780     2.5770     0.0250
 1482.0000   -28.6530     5.7920     7.2120   117.5030     9.2780     2.5740     0.0220
 1482.5000   -28.6710     5.7900     7.2180   119.5220     9.2780     2.5710     0.0200
 1483.0000   -28.6900     5.7890     7.2240   118.9210     9.2780     2.5700     0.0200
 1483.5000   -28.7090     5.7340     7.2300   115.2970     9.2780     2.5690     0.0200
 1484.0000   -28.7290     5.6690     7.2360   115.5430     9.2780     2.5680     0.0210
 1484.5000   -28.7480     5.6330     7.2420   113.7660     9.2780     2.5660     0.0200
 1485.0000   -28.7670     5.6330     7.2480   113.6470     9.2780     2.5650     0.0180
 1485.5000   -28.7870     5.6330     7.2540   114.2540     9.2780     2.5660     0.0180
 1486.0000   -28.8080     5.6330     7.2600   110.0130     9.2780     2.5690     0.0190
 1486.5000   -28.8190     5.6330     7.2640   112.2140     9.2780     2.5710     0.0210
 1487.0000   -28.6030     5.6330     7.2600   115.0190     9.2780     2.5610     0.0210
 1487.5000   -27.6950     5.6330     7.2530   115.3480     9.2780     2.5570     0.0210
 1488.0000   -27.6480     5.6330     7.2470   112.5650     9.2780     2.5600     0.0210
 1488.5000   -27.6590     5.6330     7.2400   111.3190     9.2780     2.5690     0.0270
 1489.0000   -28.0230     5.6330     7.2340   111.9440     9.2770     2.5760     0.0250
 1489.5000   -28.7290     5.6330     7.2270   112.9340     9.2850     2.5780     0.0240
 1490.0000   -30.4280     5.6330     7.2210   118.4610     9.2940     2.5800     0.0290
 1490.5000   -30.4110     5.6330     7.2140   118.3200     9.3240     2.5810     0.0250
 1491.0000   -30.4030     5.6330     7.2080   118.3570     9.3680     2.5630     0.0170
 1491.5000   -30.8540     5.6330     7.2010   121.5360     9.3960     2.5630     0.0170
 1492.0000   -31.4750     5.6330     7.1940   120.2020     9.3840     2.5670     0.0250
 1492.5000   -31.7880     5.6330     7.1880   121.8590     9.3650     2.5730     0.0260
 1493.0000   -31.7900     5.6330     7.1810   119.4580     9.3470     2.5770     0.0210
 1493.5000   -31.7920     5.6330     7.1750   115.3770     9.3280     2.5700     0.0170
 1494.0000   -31.7920     5.6330     7.1680   118.4740     9.3180     2.5620     0.0140
 1494.5000   -31.7910     5.6330     7.1620   114.2970     9.3210     2.5550     0.0170
 1495.0000   -31.7910     5.6330     7.1550   108.9150     9.3250     2.5600     0.0230
 1495.5000   -31.7910     5.6330     7.1490   108.6020     9.3280     2.5720     0.0300
 1496.0000   -31.7910     5.6330     7.1420   110.8690     9.3320     2.5810     0.0330
 1496.5000   -31.7900     5.6330     7.1340   110.0930     9.3350     2.5800     0.0260
 1497.0000   -31.7890     5.6330     7.1390   108.9940     9.3390     2.5690     0.0180
 1497.5000   -31.7990     5.6330     7.1480   108.1840     9.3420     2.5570     0.0140
 1498.0000   -32.0670     5.6330     7.1560   110.4740     9.3460     2.5530     0.0140
 1498.5000   -33.1250     5.6330     7.1650   113.2540     9.3490     2.5630     0.0210
 1499.0000   -33.1770     5.6330     7.1740   119.5440     9.3520     2.5750     0.0180
 1499.5000   -33.1670     5.6330     7.1820   119.7920     9.3560     2.5610     0.0140
 1500.0000   -33.1810     5.6330     7.1910   117.7120     9.3890     2.5550     0.0290
 1500.5000   -33.6530     5.6330     7.1990   115.6180     9.4160     2.5830     0.0340
 1501.0000   -35.5160     5.6330     7.2670   113.1860     9.3770     2.5800     0.0340
 1501.5000   -37.3000     5.6330     7.3430   114.4160     9.3520     2.5760     0.0340
 1502.0000   -37.5360     5.6330     7.4000   113.8580     9.3360     2.5740     0.0330
 1502.5000   -37.6040     5.6330     7.4080   112.9250     9.3200     2.5770     0.0280
 1503.0000   -37.6690     5.6330     7.4170   114.8600     9.3230     2.5720     0.0250
 1503.5000   -37.7370     5.6330     7.4250   112.0830     9.3310     2.5690     0.0250
 1504.0000   -37.8040     5.6330     7.4330   111.8690     9.3390     2.5760     0.0280
 1504.5000   -37.8740     5.6330     7.4420   112.9920     9.3470     2.5730     0.0290
 1505.0000   -37.9250     5.6330     7.4500   114.1400     9.3550     2.5720     0.0280
 1505.5000   -37.9730     5.6330     7.4590   109.7900     9.3630     2.5800     0.0210
 1506.0000   -38.0190     5.6330     7.4650   107.4070     9.3720     2.5740     0.0170
 1506.5000   -38.0650     5.6330     7.4150   106.8880     9.3800     2.5610     0.0180
 1507.0000   -38.0360     5.6330     7.3750   106.9780     9.3880     2.5590     0.0190
 1507.5000   -37.9040     5.6330     7.3350   109.9730     9.3970     2.5580     0.0210
 1508.0000   -36.5600     5.6330     7.2950   112.4910     9.3500     2.5570     0.0210
 1508.5000   -35.1630     5.6330     7.2640   113.0360     9.3160     2.5570     0.0210
 1509.0000   -35.0340     5.6330     7.2640   113.6580     9.3110     2.5540     0.0210
