~VERSION INFORMATION
 VERS.                2.0:   CWLS LOG ASCII STANDARD - VERSION 2.0
 WRAP.                 NO:   ONE LINE PER DEPTH STEP
~WELL INFORMATION
#MNEM.UNIT      DATA TYPE    INFORMATION
#----------   ------------   ------------------------------
 STRT.F            0.0000:   START DEPTH
 STOP.F         3982.0000:   STOP DEPTH
 STEP.F            0.5000:   STEP LENGTH
 NULL.          -999.2500:   NO VALUE
 COMP.   LAWRENCE ALLISON:   COMPANY
 WELL. LAWRENCE NPR 3 "LX" #61-10:   WELL
 FLD .                NPR:   FIELD
 LOC .      S10 T38N R78W:   LOCATION
 CNTY.            NATRONA:   COUNTY
 STAT.            WYOMING:   STATE
 CTRY. UNITED STATES OF AMERICA:   COUNTRY
 SRVC.      DRESSER ATLAS:   SERVICE COMPANY
 DATE.        14-APR-1983:   LOGDATE
 API .     49025109180000:   API NUMBER
~CURVE INFORMATION
#MNEM.UNIT       API CODE    CURVE DESCRIPTION
#----------   ------------   ------------------------------
 DEPT.F                  :   
 CALD.IN     45 280 60 00:   CALIPER FROM DENSITY LOG
 RHOB.G/C3   45 350 01 00:   BULK DENSITY
 DRHO.G/C3   45 356 01 00:   DENSITY CORRECTION
 TEND.LBS    45 635 01 00:   TENSION FROM DENSITY LOG
 CNC .DEC    42 890 03 00:   NEUTRON PORISITY SANDSTONE
 GRR .GAPI   07 310 01 00:   GAMMA RAY FROM RESISTIVITY
 SPR .MV     07 010 01 00:   SPONTANEOUS POTENTIAL
 ILD .OHMM   07 120 46 00:   DEEP INDUCTION RESISTIVITY
 ILM .OHMM   07 120 44 00:   INDUCTION LOG MEDIUM RESISTIVITY
 SFL .OHMM   07 220 01 00:   SHALLOW FOCUSED LOG RESISTIVITY
 TENS.LBS    60 635 01 00:   TENSION FROM SONIC LOG
 DT  .US/F   60 520 00 00:   DELTA TIME
 TENR.LBS    07 635 01 00:   TENSION FROM RESISTIVITY
~PARAMETER INFORMATION
#MNEM.UNIT          VALUE    DESCRIPTION
#----------   ------------   ------------------------------
 EKB .F         5164.0000:   Kelly bushing
 EGL .F         5154.0000:   Ground level
 EDF .F            0.0000:   Drilling floor
 TD  .F         3985.0000:   Total depth
 DATE.        14-APR-1983:   Date logged
 CLNT.            A2DTECH:   Client Code
 SL  . 138' FNL & 1331' FEL:   Surface Location
 PD  .                 GL:   Permanent Datum
 EPD .F              5154:   Elevation Permanent Datum
 LMF .                 KB:   Log Measured From
 DMF .                 KB:   Drilling Measured From
 DD  .F              3985:   Depth driller
 DL  .F              3948:   Depth logger
 BLI .F              3945:   Bottom log interval
 CS1 .IN            8.625:   Casing size
 CBD1.      8.625" @ 442':   Casing driller 1
 CBL1.F               453:   Casing logger 1
 BS1 .IN            7.875:   Bit size
 DFT .                KCI:   Type fluid in hole
 DFD .                8.9:   Density
 DFV .                 40:   Viscosity
 DFPH.                8.5:   pH
 DFL .                 10:   Fluid loss
 MSS .           FLOWLINE:   Source of sample
 RMS .OHMM           0.38:   Rm
 MST .F                68:   Rm Meas. temp.
 RMF .OHMM           0.30:   Rmf
 MFST.F                68:   Rmf Meas. temp.
 RMC .OHMM           0.49:   Rmc
 MCST.F                68:   Rmc Meas. temp.
 MFSS.               MEAS:   Source Rmf.
 RMB .OHMM           0.22:   Rm. at BHT
 BHT .F               122:   BHT.
 TCS .HRS               4:   Time Circ. stopped
 MRT .F               122:   Maximum recorded temp.
 LUN .               6764:   Logging unit number
 LUL .              WLSTN:   Logging unit location
 ENGI.            QUICKEL:   Recorded By
 WITN.           JENNINGS:   Witnessed by
 ORIG.           5" PRINT:   Origin of data
 UWI .     49025109180000:   Unique Well ID
 DICO. A2D TECHNOLOGIES, INC.:   Digitizing Company
 DAPD.                 10:   Feet Above Permanent Datum
 BSD1.               3985:   Depth drilled with bit1
 MCSS.               CALC:   Source Rmc.
~OTHER INFORMATION
~A    DEPT    CALD       RHOB       DRHO       TEND        CNC         GRR       SPR        ILD        ILM        SFL       TENS         DT       TENR   
# ...
 2990.0000     9.7050     2.2850     0.2760   -63.2470     0.2630   104.7410   -29.4980     3.6070     3.6970     4.0510   -83.1950    83.2670   -66.6500
 2990.5000     9.5330     2.2410     0.3030   -85.6570     0.2660   104.9630   -29.4280     3.5840     3.8000     4.2010   -82.4920    83.2940   -66.6500
 2991.0000     9.3520     2.2400     0.3020   -70.1200     0.2660   105.3260   -29.3770     3.5600     3.8440     4.5130   -81.7890    82.7150   -66.6500
 2991.5000     9.3120     2.2810     0.2440   -39.9400     0.2610   105.0460   -29.2970     3.5330     3.9460     4.6860   -81.0860    82.1370   -66.6500
 2992.0000     9.2960     2.3160     0.2440   -37.8490     0.2430   106.4600   -29.1050     3.5960     4.0480     4.5190   -80.3840    81.5580   -66.6500
 2992.5000     9.2850     2.3320     0.3320   -60.2040     0.2390   109.0370   -28.9810     3.6710     4.1250     4.0510   -79.6810    81.5610   -66.6500
 2993.0000     9.2740     2.3480     0.3580   -50.5980     0.2410   108.5370   -29.0330     3.7700     4.1040     3.9060   -78.9780    82.2990   -66.6500
 2993.5000     9.2150     2.3600     0.3650   -30.4780     0.2390   106.6560   -29.1630     3.8820     4.0880     3.9060   -78.2750    82.7350   -66.6500
 2994.0000     9.1430     2.3640     0.3630   -10.3590     0.2350   104.0860   -29.4620     3.9940     4.3970     4.4740   -77.5720    82.2340   -66.6500
 2994.5000     9.0720     2.3670     0.3410     9.7610     0.2390    98.7410   -29.7320     4.1060     4.7910     4.9950   -76.8690    81.0650   -66.6500
 2995.0000     9.0690     2.3800     0.2640    29.8800     0.2480    93.8700   -29.6890     4.2180     4.7330     5.6420   -76.1670    80.1580   -66.6500
 2995.5000     9.0690     2.4300     0.1720    43.8250     0.2480    94.0470   -29.5770     4.3170     4.5190     6.0490   -75.4640    79.0390   -66.6500
 2996.0000     9.2410     2.4860     0.1460    43.8250     0.2320   100.2980   -29.4390     4.4000     4.6100     5.7270   -74.7610    78.4270   -66.6500
 2996.5000     9.4270     2.4650     0.3100    26.4210     0.2220   107.7860   -29.1730     4.4780     4.7290     4.7290   -74.9330    78.8120   -66.6500
 2997.0000     9.6130     2.4370     0.3320     5.2420     0.2210   110.8740   -28.9480     4.3910     4.7540     4.4370   -75.2710    79.0280   -66.6500
 2997.5000     9.7920     2.4080     0.3370   -15.9360     0.2240   109.3910   -28.7290     4.3170     4.6810     4.4370   -75.6080    78.6820   -66.6500
 2998.0000     9.9300     2.3860     0.3340   -35.8570     0.2390   106.2280   -28.4150     4.1810     4.4900     4.6020   -75.9460    78.6120   -66.6500
 2998.5000    10.0640     2.3650     0.2750   -20.6320     0.2540   105.8270   -28.0530     4.0550     4.2780     4.2650   -76.2830    79.6720   -66.6500
 2999.0000    10.1970     2.3420     0.2620    -6.2610     0.2540   107.5150   -27.7930     3.9290     4.0990     4.0130   -76.6210    80.7320   -66.6500
 2999.5000    10.3300     2.3360     0.2640     3.9840     0.2540   107.0360   -27.7550     3.8030     3.8350     3.8350   -76.9580    81.7050   -66.6500
 3000.0000    10.4650     2.3390     0.2660   -18.3530     0.2510   105.7550   -27.7570     3.6640     3.8350     3.7750   -77.2960    82.6000   -68.3070
 3000.5000    10.6050     2.3310     0.2670   -45.8170     0.2510   105.4920   -27.7910     3.6290     3.8090     3.7290   -77.6330    83.2360   -70.1560
 3001.0000    10.6880     2.3050     0.2740   -49.2080     0.2550   106.5040   -28.0390     3.5900     3.7850     3.6980   -77.9700    83.5340   -72.0050
 3001.5000    10.7730     2.2800     0.2800   -52.9580     0.2550   108.1010   -28.3410     3.5510     3.7620     3.6510   -78.3080    83.8500   -73.8540
 3002.0000    10.8590     2.2570     0.2820   -56.7080     0.2540   108.3800   -28.5320     3.5010     3.7320     3.5980   -78.6450    84.2880   -75.7030
 3002.5000    10.9470     2.2580     0.2610   -60.4580     0.2270   108.8460   -28.6380     3.5690     3.7320     3.6290   -78.9830    84.7390   -76.0030
 3003.0000    10.9500     2.2940     0.2350   -64.2080     0.2380   109.1640   -28.6940     3.6610     3.8060     3.6710   -79.3200    84.4010   -74.9630
 3003.5000    10.9500     2.3290     0.2090   -67.9580     0.2470   106.7990   -28.7490     3.7530     3.8700     3.7130   -79.6580    83.2510   -73.9220
 3004.0000    10.8730     2.3650     0.2030   -71.7080     0.2570   103.7930   -28.8120     3.8460     4.0470     3.8180   -79.9950    82.3930   -72.8820
 3004.5000    10.7300     2.3820     0.2180   -75.6970     0.2590   102.4540   -28.8430     3.9380     4.1630     3.9770   -80.3330    82.0170   -71.8410
 3005.0000    10.5840     2.3780     0.2240   -67.1860     0.2560   102.9920   -28.8800     4.0510     4.1630     4.4780   -80.6700    81.6420   -70.8000
 3005.5000    10.5510     2.3740     0.1870   -58.0950     0.2520   104.8930   -28.9440     4.0310     4.1320     4.4780   -81.0080    81.2660   -69.7600
 3006.0000    10.5500     2.3690     0.1900   -45.8170     0.2500   106.4030   -28.9350     4.0060     4.1060     4.2640   -81.3450    80.9320   -68.7190
 3006.5000    10.5920     2.3650     0.2190   -52.8290     0.2500   107.2190   -28.9640     3.9810     4.0810     4.0490   -81.6830    81.3330   -67.6780
 3007.0000    10.6540     2.3400     0.2490   -61.6460     0.2500   107.9910   -28.9590     3.9560     4.0550     3.9540   -82.0200    81.9400   -66.6500
 3007.5000    10.7320     2.3090     0.2750   -50.1070     0.2500   108.0960   -28.5500     3.9410     4.0290     3.8590   -82.3580    82.6230   -67.8260
 3008.0000    10.8090     2.2890     0.2930   -38.5690     0.2420   108.6260   -28.2020     3.8950     3.9950     3.7660   -82.6950    83.1360   -68.9870
 3008.5000    10.8870     2.2960     0.3110   -35.8570     0.2250   110.6980   -28.3180     3.8580     3.9490     3.7660   -83.0330    83.2360   -70.1490
 3009.0000    10.9660     2.3130     0.3060   -37.6600     0.2190   111.5610   -28.3470     3.8200     3.9040     3.7660   -83.3700    83.0640   -71.3110
 3009.5000    11.0440     2.3310     0.2880   -48.1860     0.2240   109.6400   -28.2300     3.7820     3.8700     3.8000   -83.7080    82.6540   -72.4720
 3010.0000    11.1210     2.3490     0.2500   -58.7130     0.2290   106.8680   -28.1690     3.7440     3.8150     4.0880   -84.0450    82.2340   -73.6340
 3010.5000    11.1920     2.3510     0.2120   -69.2390     0.2330   104.5600   -28.0370     3.7070     3.7660     4.0140   -84.3830    82.2340   -74.7950
 3011.0000    11.1470     2.3610     0.2140   -70.8670     0.2360   103.7290   -27.8950     3.6640     3.7170     3.8800   -84.5660    82.6560   -75.9570
 3011.5000    11.0320     2.3710     0.2250   -58.3670     0.2410   105.6780   -27.6810     3.6050     3.6610     3.7320   -83.8760    83.2850   -74.8480
 3012.0000    10.9880     2.3690     0.3290   -45.8170     0.2460   108.6500   -27.6050     3.5380     3.6060     3.6820   -83.1870    84.3940   -71.2800
 3012.5000    11.0360     2.3610     0.3430   -50.0850     0.2510   109.0230   -28.0560     3.4710     3.5330     3.6310   -82.4970    85.0140   -67.7120
 3013.0000    11.0960     2.3540     0.3370   -71.5140     0.2560   107.1820   -28.5800     3.4040     3.4910     3.5590   -81.8080    85.1590   -64.1440
 3013.5000    11.1560     2.3510     0.2910   -65.6370     0.2610   106.0980   -28.7410     3.3370     3.4320     3.4560   -81.1180    85.3040   -60.5760
 3014.0000    11.2180     2.3490     0.2620   -53.1370     0.2630   106.1400   -28.7560     3.2700     3.3720     3.3730   -80.4290    85.4410   -56.7390
 3014.5000    11.2790     2.3480     0.2840   -40.6370     0.2580   106.4210   -28.7840     3.2250     3.3120     3.3100   -79.7390    85.6140   -56.7390
 3015.0000    11.2900     2.3530     0.3050   -51.2950     0.2500   108.0070   -28.8390     3.1580     3.2530     3.2550   -79.0500    85.7410   -56.7390
 3015.5000    11.3010     2.3750     0.2970   -76.2950     0.2500   111.3440   -28.9120     3.1060     3.1870     3.3260   -78.3600    85.7870   -56.7390
