~VERSION INFORMATION
 VERS.                2.0:   CWLS LOG ASCII STANDARD - VERSION 2.0
 WRAP.                 NO:   ONE LINE PER DEPTH STEP
~WELL INFORMATION
#MNEM.UNIT      DATA TYPE    INFORMATION
#----------   ------------   ------------------------------
 STRT.F          261.0000:   START DEPTH
 STOP.F         2875.0000:   STOP DEPTH
 STEP.F            0.5000:   STEP LENGTH
 NULL.          -999.2500:   NO VALUE
 COMP.   LAWRENCE ALLISON:   COMPANY
 WELL. LAWRENCE ALLISON "X" #85-20:   WELL
 FLD .          N.P.R. #3:   FIELD
 LOC .      S20 T39N R78W:   LOCATION
 CNTY.            NATRONA:   COUNTY
 STAT.            WYOMING:   STATE
 CTRY. UNITED STATES OF AMERICA:   COUNTRY
 SRVC.      DRESSER ATLAS:   SERVICE COMPANY
 DATE.        23-JUL-1986:   LOGDATE
 API .     49025111030000:   API NUMBER
~CURVE INFORMATION
#MNEM.UNIT       API CODE    CURVE DESCRIPTION
#----------   ------------   ------------------------------
 DEPT.F                  :   
 CORR.G/C3   45 356 01 00:   DENSITY CORRECTION
 RHOB.G/C3   45 350 01 00:   BULK DENSITY
 CNC .DEC    42 890 03 00:   NEUTRON POROSITY SANDSTONE
 GRR .GAPI   07 310 01 00:   GAMMA RAY FROM RESISTIVITY
 CALR.IN     07 280 01 00:   CALIPER FROM RESISTIVITY
 SPR .MV     07 010 01 00:   SPONTANEOUS POTENTIAL
 TENR.LBS    07 635 01 00:   TENSION FROM RESISTIVITY
 RILD.OHMM   07 120 46 00:   DEEP INDUCTION RESISTIVITY
 RILM.OHMM   07 120 44 00:   INDUCTION LOG MEDIUM RESISTIVITY
 RFOC.OHMM   07 220 04 00:   RESISTIVITY FOCUSED LOG RES.
~PARAMETER INFORMATION
#MNEM.UNIT          VALUE    DESCRIPTION
#----------   ------------   ------------------------------
 EKB .F         5007.0000:   Kelly bushing
 EGL .F         4995.0000:   Ground level
 EDF .F            0.0000:   Drilling floor
 EPD .F         4995.0000:   Permanent datum
 TD  .F         2874.0000:   Total depth
 CLNT.            A2DTECH:   Client Code
 SL  . 307' FEL & 2237' FSL:   Surface Location
 DATE.        23-JUL-1986:   Date Logged [DD-MMM-YYYY]
 DD  .F              2870:   Depth driller
 DL  .F              2874:   Depth logger
 BLI .F              2872:   Bottom log interval
 TLI .F              2205:   Top log interval
 CS1 .              8.625:   Casing size
 CBD1.      8.625" @ 261':   Casing driller 1
 CBL1.IN              261:   Casing logger 1
 BS1 .IN            7.875:   Bit size
 BSD1.F              2870:   Depth drilled with bit1
 DFT .            KCL-GEL:   Type fluid in hole
 DFD .                9.0:   Density
 DFV .                 37:   Viscosity
 MSS .           MUD TANK:   Source of sample
 RMS .OHMM          0.257:   Rm
 MST .F                89:   Rm Meas. temp.
 RMF .OHMM           0.19:   Rmf
 MFST.F                89:   Rmf Meas. temp.
 MFSS.               CALC:   Source Rmf.
 RMC .OHMM           0.32:   Rmc
 MCST.F                89:   Rmc Meas. temp.
 MCSS.               CALC:   Source Rmc.
 RMB .OHMM           0.20:   Rm. at BHT
 BHT .F               116:   BHT.
 TCS .HRS               4:   Time Circ. stopped
 MRT .F               116:   Maximum recorded temp.
 LUN .            HL 6264:   Logging unit number
 LUL .           GILLETTE:   Logging unit location
 ENGI.      P.M. FAHLSING:   Recorded By
 WITN.           JENNINGS:   Witnessed by
 ORIG.         2.5" PRINT:   Origin of data
 UWI .     49025111030000:   Unique Well ID
 DICO. A2D TECHNOLOGIES, INC.:   Digitizing Company
~OTHER INFORMATION
~A   DEPT     CORR       RHOB        CNC         GRR        CALR      SPR        TENR       RILD      RILM         RFOC 
# ...
 1266.0000  -999.2500  -999.2500  -999.2500    94.3826    10.1347   -89.3000   -66.1320     7.9296     6.6716     9.3187
 1266.5000  -999.2500  -999.2500  -999.2500    97.3323    10.1346   -89.0162   -66.3457     7.8195     6.6689     9.3597
 1267.0000  -999.2500  -999.2500  -999.2500    99.0951    10.1641   -89.0264   -66.5595     7.7801     6.6662     8.8163
 1267.5000  -999.2500  -999.2500  -999.2500   100.8578    10.1936   -88.7424   -66.7733     7.6699     6.6634     8.0082
 1268.0000  -999.2500  -999.2500  -999.2500   103.2140    10.1935   -89.0470   -66.9870     7.4982     6.6607     7.6545
 1268.5000  -999.2500  -999.2500  -999.2500   103.7923    10.2230   -89.0843   -67.2008     7.3533     6.7065     8.2248
 1269.0000  -999.2500  -999.2500  -999.2500    97.8374    10.2228   -89.3961   -67.4145     7.1925     6.7467     8.8043
 1269.5000  -999.2500  -999.2500  -999.2500    92.4785    10.2227   -89.9603   -67.6283     7.1901     6.7973     9.0459
 1270.0000  -999.2500  -999.2500  -999.2500    93.6478    10.2225   -90.3137   -67.8421     7.1876     6.8338     8.5608
 1270.5000  -999.2500  -999.2500  -999.2500    93.7616    10.2224   -90.6255   -68.0558     7.3326     6.9248     8.1020
 1271.0000  -999.2500  -999.2500  -999.2500    91.2386    10.2223   -90.8735   -68.2696     7.5349     6.9215     7.7735
 1271.5000  -999.2500  -999.2500  -999.2500    89.4405    10.2221   -90.8838   -68.4833     7.6872     7.0142     8.0966
 1272.0000  -999.2500  -999.2500  -999.2500    91.2032    10.2220   -90.8942   -68.6971     7.7902     7.1077     8.5492
 1272.5000  -999.2500  -999.2500  -999.2500    95.9333    10.2218   -90.9044   -68.9108     7.8946     7.2023     8.9045
 1273.0000  -999.2500  -999.2500  -999.2500   100.0700    10.1920   -90.6190   -69.1246     7.8918     7.1990     9.1485
 1273.5000  -999.2500  -999.2500  -999.2500   103.0196    10.1904   -90.5304   -69.3384     7.8886     7.1961     9.0211
 1274.0000  -999.2500  -999.2500  -999.2500   105.3759    10.1602   -90.3452   -69.5521     7.9943     7.0957     8.6553
 1274.5000  -999.2500  -999.2500  -999.2500   105.4174    10.1301   -90.0612   -69.7659     7.9916     6.9019     8.4188
 1275.0000  -999.2500  -999.2500  -999.2500   100.5927    10.0999   -89.9510   -69.9796     7.9889     6.8056     8.7686
 1275.5000  -999.2500  -999.2500  -999.2500    97.6077    10.0726   -89.7897   -70.1934     8.0959     6.8963     9.1355
 1276.0000  -999.2500  -999.2500  -999.2500    96.4031    10.0724   -89.6627   -70.4072     8.2044     6.9884     9.2558
 1276.5000  -999.2500  -999.2500  -999.2500    95.7919    10.0723   -89.5162   -70.6209     8.3143     7.0815     8.7384
 1277.0000  -999.2500  -999.2500  -999.2500    95.1808    10.0721   -89.3745   -70.8347     8.4257     7.2743     8.2723
 1277.5000  -999.2500  -999.2500  -999.2500    94.5697    10.0720   -89.2427   -71.0484     8.4228     7.3714     8.5409
 1278.0000  -999.2500  -999.2500  -999.2500    93.3608    10.0763   -89.2529   -71.2622     8.3059     7.3683     9.1176
 1278.5000  -999.2500  -999.2500  -999.2500    92.7409    10.1013   -89.2632   -71.4759     8.1905     7.3653     9.2401
 1279.0000  -999.2500  -999.2500  -999.2500    92.1206    10.1012   -89.5696   -71.6897     8.0768     7.1623     9.1112
 1279.5000  -999.2500  -999.2500  -999.2500    91.5005    10.1011   -89.8739   -71.9035     7.9647     6.9684     8.9622
 1280.0000  -999.2500  -999.2500  -999.2500    90.9199    10.1009   -90.1782   -72.1172     7.9620     6.8712     8.8591
 1280.5000  -999.2500  -999.2500  -999.2500    90.9505    10.1008   -90.7766   -72.3310     7.8514     6.7753     8.8296
 1281.0000  -999.2500  -999.2500  -999.2500    92.0721    10.1006   -90.7867   -72.5447     7.8488     6.7725     8.7327
 1281.5000  -999.2500  -999.2500  -999.2500    90.6014    10.1005   -90.7969   -72.7585     7.8461     6.7824     8.6989
 1282.0000  -999.2500  -999.2500  -999.2500    87.2128    10.1003   -90.5118   -72.9723     7.8435     6.8601     8.4270
 1282.5000  -999.2500  -999.2500  -999.2500    88.7092    10.1002   -90.2279   -73.1860     7.9485     6.8571     8.2594
 1283.0000  -999.2500  -999.2500  -999.2500    92.2786    10.1000   -89.9450   -73.3998     8.1657     6.8543     8.7592
 1283.5000  -999.2500  -999.2500  -999.2500    96.4421    10.0999   -89.9552   -73.6135     8.1629     6.8302     9.0837
 1284.0000  -999.2500  -999.2500  -999.2500    91.8537    10.0997   -89.9654   -73.8273     8.2723     6.7559     9.2057
 1284.5000  -999.2500  -999.2500  -999.2500    91.3531    10.0996   -89.9755   -74.0410     8.2642     6.6616     9.3294
 1285.0000  -999.2500  -999.2500  -999.2500    92.1858    10.0994   -89.6916   -74.2548     8.0440     6.6589     9.1989
 1285.5000  -999.2500  -999.2500  -999.2500    95.1533    10.0993   -89.7018   -74.4686     7.9323     6.6561     9.0190
 1286.0000  -999.2500  -999.2500  -999.2500    97.3807    10.0991   -89.4176   -74.6823     7.8222     6.6851     8.7701
 1286.5000  -999.2500  -999.2500  -999.2500    98.5589    10.0990   -89.1339   -74.8961     7.8195     6.7763     8.6456
 1287.0000  -999.2500  -999.2500  -999.2500   100.3303    10.0988   -88.8499   -75.1098     7.9244     6.8688     8.6969
 1287.5000  -999.2500  -999.2500  -999.2500   101.6815    10.0987   -88.8603   -75.3236     8.0306     7.0180     8.7538
 1288.0000  -999.2500  -999.2500  -999.2500   103.8733    10.0985   -88.8705   -75.5373     8.0483     7.0576     8.9321
 1288.5000  -999.2500  -999.2500  -999.2500   102.5281    10.0984   -88.8809   -75.7511     8.1354     7.1539     8.9291
 1289.0000  -999.2500  -999.2500  -999.2500    94.5481    10.0982   -89.1853   -75.9649     8.1323     7.2033     8.9261
 1289.5000  -999.2500  -999.2500  -999.2500    89.5380    10.0981   -89.2373   -76.1786     8.0194     7.1506     8.9230
 1290.0000  -999.2500  -999.2500  -999.2500    84.0388    10.0980   -89.5490   -76.3924     7.9080     7.0999     9.0422
 1290.5000  -999.2500  -999.2500  -999.2500    88.4848    10.0978   -89.8608   -76.6061     7.7679     7.0008     8.9163
 1291.0000  -999.2500  -999.2500  -999.2500    93.4856    10.0977   -90.1088   -76.8199     7.6899     6.9429     8.9133
 1291.5000  -999.2500  -999.2500  -999.2500    98.8537    10.0975   -90.4132   -77.0337     7.5831     6.8997     8.7892
 1292.0000  -999.2500  -999.2500  -999.2500   100.0752    10.0974   -90.4236   -77.2474     7.5804     6.8969     8.5490
 1292.5000  -999.2500  -999.2500  -999.2500    95.3609    10.0972   -90.4338   -77.4612     7.5403     6.8942     8.3153
 1293.0000  -999.2500  -999.2500  -999.2500    93.1533    10.1267   -90.4441   -77.6749     7.4726     6.9865     8.1995
 1293.5000  -999.2500  -999.2500  -999.2500    92.8130    10.1265   -90.4544   -77.8887     7.4701     6.9832     7.8670
 1294.0000  -999.2500  -999.2500  -999.2500    91.9129    10.1108   -90.4647   -78.1024     7.3663     7.0767     7.6520
 1294.5000  -999.2500  -999.2500  -999.2500    90.6993    10.0966   -90.1789   -78.3162     7.3638     7.0734     7.9700
 1295.0000  -999.2500  -999.2500  -999.2500    91.6124    10.0964   -90.1912   -78.5300     7.4085     7.0706     8.4156
 1295.5000  -999.2500  -999.2500  -999.2500    96.0624    10.0963   -90.0716   -78.7437     7.5098     7.0677     8.7654
 1296.0000  -999.2500  -999.2500  -999.2500    99.3074    10.0961   -89.9177   -78.9575     7.6125     6.9691     9.0058
 1296.5000  -999.2500  -999.2500  -999.2500    96.6407    10.0960   -89.7833   -79.1712     7.7165     6.9663     8.7594
 1297.0000  -999.2500  -999.2500  -999.2500    92.6884    10.0958   -89.6441   -79.3850     7.7637     6.8691     8.4042
 1297.5000  -999.2500  -999.2500  -999.2500    96.5582    10.0957   -89.6544   -79.5988     7.8677     6.8663     8.2872
 1298.0000  -999.2500  -999.2500  -999.2500   104.5188    10.0955   -89.3706   -79.8125     7.8649     7.2486     8.2844
 1298.5000  -999.2500  -999.2500  -999.2500   106.8750    10.0954   -89.3809   -80.0263     7.8618     7.4461     8.3958
 1299.0000  -999.2500  -999.2500  -999.2500   108.0443    10.0952   -89.3931   -80.2400     7.9671     7.5454     8.2788
