~VERSION INFORMATION
 VERS.                2.0:   CWLS LOG ASCII STANDARD - VERSION 2.0
 WRAP.                 NO:   ONE LINE PER DEPTH STEP
~WELL INFORMATION
#MNEM.UNIT      DATA TYPE    INFORMATION
#----------   ------------   ------------------------------
 STRT.F          209.5000:   START DEPTH
 STOP.F         3130.0000:   STOP DEPTH
 STEP.F            0.5000:   STEP LENGTH
 NULL.          -999.2500:   NO VALUE
 COMP. FENIX & SCISSON-U.S. NAVY:   COMPANY
 WELL.   FENIX "A" #66-29:   WELL
 FLD .              NPR 3:   FIELD
 LOC .      S29 T39N R78W:   LOCATION
 CNTY.            NATRONA:   COUNTY
 STAT.            WYOMING:   STATE
 CTRY. UNITED STATES OF AMERICA:   COUNTRY
 SRVC.       SCHLUMBERGER:   SERVICE COMPANY
 DATE.        12-JUN-1977:   LOGDATE
 API .     49025103850000:   API NUMBER
~CURVE INFORMATION
#MNEM.UNIT       API CODE    CURVE DESCRIPTION
#----------   ------------   ------------------------------
 DEPT.F                  :   
 CALD.IN     45 280 60 00:   CALIPER FROM DENSITY LOG
 GRD .GAPI   45 310 01 00:   GAMMA RAY FROM DENSITY LOG
 RHOB.G/C3   45 350 01 00:   BULK DENSITY
 CORR.G/C3   45 356 01 00:   DENSITY CORRECTION
 LL8 .OHMM   07 220 08 00:   LATEROLOG-8 RES.
 ILD .OHMM   07 120 46 00:   DEEP INDUCTION RESISTIVITY
 ILM .OHMM   07 120 44 00:   INDUCTION LOG MEDIUM RESISTIVITY
 SPR .MV     07 010 01 00:   SPONTANEOUS POTENTIAL
~PARAMETER INFORMATION
#MNEM.UNIT          VALUE    DESCRIPTION
#----------   ------------   ------------------------------
 EKB .F         5058.0000:   Kelly bushing
 EGL .F         5048.0000:   Ground level
 EDF .F            0.0000:   Drilling floor
 TD  .F         3120.0000:   Total depth
 DATE.        12-JUN-1977:   Date logged
 CLNT.            A2DTECH:   Client Code
 SL  . 1650' FSL & 1650' FEL:   Surface Location
 PD  .                 GL:   Permanent Datum
 EPD .F              5048:   Elevation Permanent Datum
 LMF .                 KB:   Log Measured From
 DMF .                 KB:   Drilling Measured From
 DAPD.F                10:   Feet Above Permanent Datum
 DD  .F              3120:   Depth driller
 DL  .F              3120:   Depth logger
 BLI .F              3120:   Bottom log interval
 TLI .F               219:   Top log interval
 CS1 .IN            8.625:   Casing size
 CBD1.      8.625" @ 225':   Casing driller 1
 CBL1.F               219:   Casing logger 1
 BS1 .IN            7.875:   Bit size
 BSD1.F              3120:   Depth drilled with bit1
 DFT .            KCL MUD:   Type fluid in hole
 DFD .                8.8:   Density
 DFV .                 32:   Viscosity
 DFPH.                7.5:   pH
 DFL .                  8:   Fluid loss
 MSS .              CIRC.:   Source of sample
 RMS .OHMM           2.01:   Rm
 MST .F                72:   Rm Meas. temp.
 RMF .OHMM            1.9:   Rmf
 MFST.F                72:   Rmf Meas. temp.
 RMC .OHMM           3.02:   Rmc
 MCST.F                72:   Rmc Meas. temp.
 MFSS.               MEAS:   Source Rmf.
 MCSS.               CALC:   Source Rmc.
 RMB .OHMM           1.21:   Rm. at BHT
 BHT .F               120:   BHT.
 TCS .HRS            1400:   Time Circ. stopped
 TLAB.HRS            1730:   Time logger at bottom
 MRT .F               120:   Maximum recorded temp.
 LUN .               7711:   Logging unit number
 LUL .               CSPR:   Logging unit location
 ENGI.             SAYLER:   Recorded By
 WITN.             RHODES:   Witnessed by
 ORIG.           5" PRINT:   Origin of data
 UWI .     49025103850000:   Unique Well ID
 DICO. A2D TECHNOLOGIES, INC.:   Digitizing Company
~OTHER INFORMATION
~A   DEPT     CALD         GRD      RHOB       CORR        LL8        ILD        ILM        SPR   
# ...
 1343.5000     8.3053   108.3597     2.5382     0.0076     7.1232     6.7555     6.5124   -53.8942
 1344.0000     8.3056   107.9669     2.5352     0.0076     7.1206     6.7530     6.5101   -53.3116
 1344.5000     8.3058   106.9828     2.5332     0.0126     7.1180     6.8127     6.5676   -53.1234
 1345.0000     8.3256   104.6163     2.5407     0.0255     7.1154     6.8122     6.6256   -52.7381
 1345.5000     8.3072   103.2369     2.5726     0.0325     7.1782     6.8631     6.6841   -52.5500
 1346.0000     8.2867   105.0161     2.5875     0.0425     7.3080     6.9144     6.7432   -52.3619
 1346.5000     8.3264   105.2161     2.5955     0.0375     7.3725     6.9661     6.8027   -52.1738
 1347.0000     8.3069   106.4032     2.5706     0.0335     7.3698     7.0182     6.8002   -51.7884
 1347.5000     8.3268   107.5903     2.5597     0.0236     7.4348     7.0707     6.7977   -51.7976
 1348.0000     8.3271   107.1980     2.5318     0.0087     7.5004     7.1236     6.7953   -52.2013
 1348.5000     8.3153   106.8057     2.5388     0.0057     7.4976     7.1766     6.7928   -52.2105
 1349.0000     8.3078   107.0056     2.5458     0.0127     7.5638     7.0437     6.7284   -52.4169
 1349.5000     8.3080   107.7979     2.5488     0.0137     7.4916     7.0432     6.8503   -52.4261
 1350.0000     8.3082   110.5657     2.5507     0.0147     7.3532     6.9465     6.7854   -53.0270
 1350.5000     8.3282   110.5667     2.5468     0.0137     7.2986     6.8512     6.7210   -53.4306
 1351.0000     8.3086   108.7938     2.5448     0.0137     7.2959     6.7809     6.7186   -53.8343
 1351.5000     8.3286   108.5979     2.5438     0.0107     7.2267     6.7161     6.6549   -54.0406
 1352.0000     8.3288   108.4030     2.5299     0.0088     7.2241     6.7755     6.6525   -54.2470
 1352.5000     8.3093   109.3928     2.5190    -0.0012     7.2215     6.8348     6.6500   -54.2562
 1353.0000     8.3095   110.3821     2.5249    -0.0012     7.2188     6.8328     6.6486   -54.4626
 1353.5000     8.3098   108.4106     2.5329     0.0028     7.2162     6.8308     6.6452   -54.6689
 1354.0000     8.3100   106.4386     2.5389     0.0028     7.2136     6.8282     6.6428   -54.4808
 1354.5000     8.3102   106.6386     2.5319    -0.0002     7.2109     6.8255     6.6413   -54.0955
 1355.0000     8.3103   109.0107     2.5245    -0.0021     7.2083     6.8228     6.6379   -53.7103
 1355.5000     8.3106   110.0005     2.5369    -0.0021     7.2720     6.8193     6.6355   -53.1277
 1356.0000     8.3306   110.5949     2.5295    -0.0031     7.3362     6.8806     6.6331   -52.5453
 1356.5000     8.3111   107.2411     2.5305    -0.0051     7.4535     6.8796     6.6306   -52.1600
 1357.0000     8.3113   106.6513     2.5449    -0.0051     7.4508     6.9169     6.6892   -52.1692
 1357.5000     8.3115   107.8386     2.5469    -0.0001     7.3803     6.9545     6.6868   -51.9811
 1358.0000     8.2920   109.4204     2.5489     0.0019     7.3104     6.9922     6.6843   -51.7931
 1358.5000     8.2922   109.2260     2.5499     0.0059     7.2412     7.0302     6.6819   -51.4079
 1359.0000     8.3122   110.2159     2.5549     0.0139     7.2386     7.0573     6.7409   -51.0227
 1359.5000     8.3124   111.2059     2.5589     0.0179     7.2359     7.0542     6.7384   -51.4262
 1360.0000     8.3126   107.8513     2.5689     0.0258     7.3148     7.0517     6.7360   -51.6326
 1360.5000     8.3128   106.0765     2.5689     0.0258     7.3132     7.0496     6.7955   -52.0362
 1361.0000     8.3130   106.4740     2.5619     0.0169     7.3898     7.1090     6.7930   -52.2425
 1361.5000     8.3131   107.0690     2.5550     0.0089     7.4671     7.1690     6.7905   -52.4489
 1362.0000     8.3135   105.2941     2.5470     0.0060     7.5453     7.2294     6.8505   -53.4440
 1362.5000     8.3137   103.7167     2.5440     0.0030     7.6243     7.2904     6.9110   -53.4532
 1363.0000     8.3139   102.7318     2.5351     0.0000     7.7041     7.3518     6.9721   -53.6613
 1363.5000     8.3142   102.7343     2.5331     0.0010     7.7793     7.4138     7.0337   -53.8677
 1364.0000     8.3144   103.1318     2.5480     0.0130     7.8480     7.4956     7.0958   -54.0740
 1364.5000     8.3146   104.3193     2.5600     0.0170     7.8451     7.4256     7.0932   -54.0831
 1365.0000     8.3148   106.6917     2.5729     0.0210     7.8423     7.3552     7.0906   -54.0923
 1365.5000     8.3348   108.6693     2.5749     0.0289     7.8394     7.3525     7.0234   -53.9042
 1366.0000     8.3350   110.0544     2.5650     0.0210     7.8365     7.2828     6.9568   -53.5191
 1366.5000     8.3550   109.2669     2.5561     0.0150     7.7623     7.2138     6.8280   -53.3311
 1367.0000     8.3552   108.2819     2.5561     0.0160     7.6186     7.1454     6.7633   -52.7487
 1367.5000     8.3554   108.0870     2.5611     0.0220     7.5463     7.0777     6.6992   -52.3636
 1368.0000     8.3556   109.0771     2.5660     0.0260     7.4067     7.0106     6.6357   -51.9784
 1368.5000     8.3559   109.6722     2.5680     0.0210     7.3364     7.0080     6.6333   -51.7904
 1369.0000     8.3758   110.8598     2.5720     0.0151     7.3327     6.9416     6.5704   -51.6025
 1369.5000     8.3563   110.0718     2.5770     0.0121     7.3986     6.9391     6.5675   -51.6098
 1370.0000     8.3762   107.3097     2.5760     0.0121     7.3959     6.9365     6.5651   -51.0294
 1370.5000     8.3567   106.7196     2.5631     0.0211     7.3257     6.9340     6.5627   -50.8414
 1371.0000     8.3767   107.1172     2.5552     0.0260     7.2563     6.9315     6.6207   -51.4420
 1371.5000     8.3572   108.8975     2.5492     0.0141     7.2536     6.9274     6.6792   -51.6483
 1372.0000     8.3574   110.4802     2.5512     0.0092     7.2510     6.9264     6.7382   -51.8547
 1372.5000     8.3576   111.4699     2.5542     0.0121     7.3824     7.0519     6.8602   -52.0610
 1373.0000     8.3776   112.6577     2.5602     0.0062     7.7255     7.1796     6.9213   -52.2673
 1373.5000     8.3972   110.6855     2.5661     0.0052     7.7937     7.3097     6.9825   -52.6707
 1374.0000     8.3780   108.5151     2.5562     0.0052     7.7909     7.3743     7.1090   -53.0741
 1374.5000     8.3782   106.5423     2.5522     0.0042     7.7881     7.3716     7.1718   -53.2804
 1375.0000     8.3662   104.7670     2.5552     0.0032     7.9291     7.4367     7.2351   -53.2895
 1375.5000     8.3589   104.5720     2.5612     0.0023     8.1471     7.6394     7.2325   -53.4958
 1376.0000     8.3593   107.1425     2.5473     0.0003     8.1441     7.4997     7.1634   -53.3078
 1376.5000     8.3594   108.5279     2.5373     0.0003     7.9934     7.3608     7.1613   -53.9083
 1377.0000     8.3596   109.3207     2.5284     0.0003     7.7030     7.2240     7.0929   -53.7204
 1377.5000     8.3796   110.1134     2.5264     0.0003     7.7710     7.2214     7.0903   -53.3353
 1378.0000     8.3798   107.5478     2.5284    -0.0017     7.7704     7.2188     7.0867   -52.9502
 1378.5000     8.3800   107.5503     2.5304    -0.0007     7.7661     7.2161     7.0205   -52.5652
 1379.0000     8.3802   108.1455     2.5344     0.0043     7.7625     7.2799     7.0180   -51.9830
 1379.5000     8.3804   108.3457     2.5364     0.0053     7.8311     7.3442     7.0164   -51.5980
 1380.0000     8.3807   107.0459     2.5404     0.0053     7.8282     7.4091     7.0129   -51.0159
 1380.5000     8.4006   105.9795     2.5494     0.0123     7.8974     7.4745     7.0103   -50.8280
 1381.0000     8.4009   109.5387     2.5643     0.0133     7.8945     7.4718     7.0077   -50.6401
 1381.5000     8.4011   112.1106     2.5603     0.0143     7.8916     7.4691     7.0696   -50.4522
 1382.0000     8.4013   112.1117     2.5623     0.0153     7.8887     7.4663     7.0671   -50.4614
 1382.5000     8.4015   107.9658     2.5544     0.0113     7.8134     7.4636     7.0645   -50.6676
 1383.0000     8.3820   107.3757     2.5524     0.0094     7.8105     7.4609     7.0619   -50.8739
 1383.5000     8.3822   107.1806     2.5534     0.0114     7.8077     7.4582     7.0593   -51.4743
