~VERSION INFORMATION
 VERS.                2.0:   CWLS LOG ASCII STANDARD - VERSION 2.0
 WRAP.                 NO:   ONE LINE PER DEPTH STEP
~WELL INFORMATION
#MNEM.UNIT      DATA TYPE    INFORMATION
#----------   ------------   ------------------------------
 STRT.F          200.0000:   START DEPTH
 STOP.F         3078.0000:   STOP DEPTH
 STEP.F            0.5000:   STEP LENGTH
 NULL.          -999.2500:   NO VALUE
 COMP.   FENIX & SCISSION:   COMPANY
 WELL. FENIX NPR 72 "A" #3-28:   WELL
 FLD .              NPR-3:   FIELD
 LOC .      S28 T39N R78W:   LOCATION
 CNTY.            NATRONA:   COUNTY
 STAT.            WYOMING:   STATE
 CTRY. UNITED STATES OF AMERICA:   COUNTRY
 SRVC.              WELEX:   SERVICE COMPANY
 DATE.        06-JUN-1977:   LOGDATE
 API .     49025103770000:   API NUMBER
~CURVE INFORMATION
#MNEM.UNIT       API CODE    CURVE DESCRIPTION
#----------   ------------   ------------------------------
 DEPT.F                  :   
 CORR.G/C3   45 356 01 00:   DENSITY CORRECTION
 RHOB.G/C3   45 350 01 00:   BULK DENSITY
 CALD.IN     45 280 60 00:   CALIPER FROM DENSITY LOG
 SPR .MV     07 010 01 00:   SPONTANEOUS POTENTIAL
 GURD.OHMM   07 220 05 00:   GUARD LOG RESISTIVITY
 ILM .OHMM   07 120 44 00:   INDUCTION LOG MEDIUM RESISTIVITY
 ILD .OHMM   07 120 46 00:   DEEP INDUCTION RESISTIVITY
 GRD .GAPI   45 310 01 00:   GAMMA RAY FROM DENSITY LOG
~PARAMETER INFORMATION
#MNEM.UNIT          VALUE    DESCRIPTION
#----------   ------------   ------------------------------
 EKB .F         5022.0000:   Kelly bushing
 EGL .F         5011.0000:   Ground level
 EDF .F            0.0000:   Drilling floor
 EPD .F         5011.0000:   Permanent datum
 TD  .F         3081.0000:   Total depth
 DATE.        06-JUN-1977:   Date logged
 CLNT.            A2DTECH:   Client Code
 SL  . 990' FNL & 990' FEL:   Surface Location
 PD  .                 GL:   Permanent Datum
 DAPD.F                11:   Feet Above Permanent Datum
 DD  .F              3041:   Depth driller
 DL  .F              3081:   Depth logger
 BLI .F              3079:   Bottom log interval
 TLI .F               200:   Top log interval
 CS1 .IN            8.625:   Casing size
 CBD1.      8.625" @ 200':   Casing driller 1
 CBL1.F               218:   Casing logger 1
 BS1 .IN            7.875:   Bit size
 BSD1.F              3041:   Depth drilled with bit1
 DFT .            KCL MUD:   Type fluid in hole
 DFD .                8.8:   Density
 DFV .                 38:   Viscosity
 DFPH.                7.5:   pH
 DFL .                5.8:   Fluid loss
 MSS .           FLOWLINE:   Source of sample
 RMS .OHMM           1.19:   Rm
 MST .F                89:   Rm Meas. temp.
 RMF .OHMM           1.05:   Rmf
 MFST.F                89:   Rmf Meas. temp.
 RMC .OHMM           2.17:   Rmc
 MCST.F                89:   Rmc Meas. temp.
 MFSS.               FANN:   Source Rmf.
 MCSS.                KIT:   Source Rmc.
 RMB .OHMM           0.98:   Rm. at BHT
 BHT .F               108:   BHT.
 TCS .HRS             2.5:   Time Circ. stopped
 MRT .F               108:   Maximum recorded temp.
 LUN .               8611:   Logging unit number
 LUL .             CASPER:   Logging unit location
 ENGI.          T. JOYNER:   Recorded By
 WITN.      W. PETTINGILL:   Witnessed by
 ORIG.           5" PRINT:   Origin of data
 UWI .     49025103770000:   Unique Well ID
 DICO. A2D TECHNOLOGIES, INC.:   Digitizing Company
~OTHER INFORMATION
~A   DEPT     CORR       RHOB         CALD      SPR       GURD        ILM        ILD         GRD  
# ...
  767.0000     0.0120     2.4470     9.5150   -50.8850    10.2510     9.1830     9.3510    95.5490
  767.5000     0.0130     2.4450     9.5200   -50.8880    10.1990     9.1200     9.7030    94.1020
  768.0000     0.0150     2.4530     9.5240   -50.8910    10.1640     8.9340     9.8910    92.5190
  768.5000     0.0160     2.4610     9.5290   -50.8940    10.5890     9.1610    10.0980    93.6310
  769.0000     0.0180     2.4700     9.5330   -50.8970    10.9770     9.5990    10.3050    95.7840
  769.5000     0.0190     2.4780     9.5380   -50.9000    11.2470    10.0650    10.5130    96.4150
  770.0000     0.0210     2.4810     9.5300   -50.9020    11.2810    10.3460    10.7320    94.8580
  770.5000     0.0210     2.4780     9.5220   -50.9050    11.3160    10.1980    10.6340    94.3540
  771.0000     0.0210     2.4740     9.5130   -50.9080    11.4060    10.0650    10.7440    95.4010
  771.5000     0.0210     2.4710     9.5040   -50.9110    11.6000    10.3400    10.9430    95.4660
  772.0000     0.0190     2.4720     9.4960   -50.9140    11.7620    10.6340    11.0310    95.3540
  772.5000     0.0170     2.4730     9.4870   -50.9170    11.6380    10.5810    11.0310    97.2300
  773.0000     0.0160     2.4680     9.4800   -50.9200    11.5310    10.5120    11.0310    99.0480
  773.5000     0.0140     2.4620     9.4800   -50.9220    11.4430    10.4410    10.8310   100.8420
  774.0000     0.0120     2.4550     9.4800   -50.9250    11.5890    10.4410    10.9160   102.6370
  774.5000     0.0100     2.4490     9.4800   -50.9280    11.7620    10.4410    11.0240   103.0440
  775.0000     0.0070     2.4430     9.4800   -50.9310    11.6910    10.4490    11.1330   102.0630
  775.5000     0.0050     2.4360     9.4800   -50.9340    11.5490    10.4910    11.0860   101.0840
  776.0000     0.0030     2.4310     9.4800   -50.9370    11.6520    10.5340    11.0310   100.0980
  776.5000     0.0020     2.4350     9.4800   -50.9400    11.7790    10.5760    11.1240    99.2190
  777.0000     0.0020     2.4410     9.4800   -50.9420    11.9070    10.6180    11.2380    99.2060
  777.5000     0.0030     2.4450     9.4800   -50.9450    12.0360    10.6650    11.3520    99.2220
  778.0000     0.0050     2.4450     9.4810   -50.9480    12.1670    10.7140    11.4660    99.4760
  778.5000     0.0060     2.4490     9.4840   -50.9510    12.2980    10.8470    11.5800    99.7210
  779.0000     0.0080     2.4530     9.4860   -50.9540    12.4290    11.0260    11.6940    99.9640
  779.5000     0.0100     2.4570     9.4890   -50.9570    12.5600    11.2060    11.8090   100.2060
  780.0000     0.0110     2.4600     9.4920   -50.9590    12.6570    11.3390    11.8700   100.4490
  780.5000     0.0130     2.4600     9.4950   -50.9620    12.5020    10.9310    11.8700   100.6920
  781.0000     0.0130     2.4600     9.4980   -50.9650    12.3140    11.0440    11.8700   100.9350
  781.5000     0.0120     2.4600     9.5010   -50.9680    12.5420    11.2150    11.8700   101.1770
  782.0000     0.0120     2.4590     9.5040   -50.9710    12.2870    11.0150    11.6650   101.4200
  782.5000     0.0110     2.4610     9.5070   -50.9740    11.8790    10.7640    11.4740   101.6630
  783.0000     0.0110     2.4660     9.5110   -50.9770    11.9250    10.5370    11.3390   101.9090
  783.5000     0.0110     2.4700     9.5140   -50.9790    11.9870    10.6750    11.3800   102.1600
  784.0000     0.0110     2.4700     9.5180   -50.9820    12.0480    10.9310    11.4170   102.2990
  784.5000     0.0110     2.4680     9.5180   -50.9850    12.0900    10.8550    11.4430   100.8320
  785.0000     0.0120     2.4690     9.5190   -50.9880    11.5390    10.7470    10.6380    99.4090
  785.5000     0.0120     2.4700     9.5190   -50.9910    11.3390    10.6400    10.2630    97.9980
  786.0000     0.0130     2.4700     9.5190   -50.9940    11.4380    10.5330    10.1540    96.5930
  786.5000     0.0140     2.4640     9.5190   -50.9970    11.5490    10.4500    10.1440    95.1870
  787.0000     0.0140     2.4600     9.5190   -50.9990    11.4670    10.5150    10.1350    94.2850
  787.5000     0.0150     2.4600     9.5190   -51.0020    11.3570    10.5790    10.1250    93.8890
  788.0000     0.0150     2.4570     9.5190   -51.0050    11.2470    10.6340    10.1150    93.5960
  788.5000     0.0140     2.4550     9.5190   -51.0080    11.1330    10.6220    10.1050    93.4020
  789.0000     0.0140     2.4550     9.5180   -51.0110    11.1680    10.6090    10.0950    94.1330
  789.5000     0.0110     2.4540     9.5180   -51.0140    11.2050    10.5960    10.0850    95.7880
  790.0000     0.0080     2.4450     9.5070   -51.0170    11.2350    10.5830    10.0750    97.4440
  790.5000     0.0050     2.4370     9.4840   -51.0190    11.2350    10.5700    10.0650    99.1630
  791.0000     0.0020     2.4290     9.4610   -51.0220    11.2350    10.5580    10.0610    99.3160
  791.5000    -0.0020     2.4300     9.4600   -51.0250    11.2350    10.5450    10.0570    98.9450
  792.0000    -0.0020     2.4330     9.4600   -51.0280    11.2350    10.5340    10.0530    98.5290
  792.5000    -0.0020     2.4360     9.4600   -51.0310    11.2360    10.5270    10.0490    99.4040
  793.0000    -0.0010     2.4370     9.4600   -51.0340    11.2010    10.5200    10.0450    99.7000
  793.5000    -0.0010     2.4350     9.4600   -51.0370    11.1660    10.5130    10.0410    98.3240
  794.0000     0.0010     2.4350     9.4630   -51.0390    11.1330    10.5060    10.0360    98.1390
  794.5000     0.0040     2.4390     9.4740   -51.0420    11.3390    10.4990    10.0320    99.1210
  795.0000     0.0060     2.4430     9.4840   -51.0450    11.2710    10.4920    10.0280   100.0930
  795.5000     0.0080     2.4460     9.4940   -51.0480    11.0310    10.4850    10.0240   101.0750
  796.0000     0.0090     2.4440     9.5050   -51.0510    11.0890    10.4780    10.0200   101.1170
  796.5000     0.0080     2.4480     9.5160   -51.0540    11.2170    10.4710    10.0160   100.2170
  797.0000     0.0070     2.4530     9.5150   -51.0560    11.3390    10.4640    10.0120    99.3200
  797.5000     0.0050     2.4530     9.5100   -51.0590    11.1760    10.4570    10.0080    98.4150
  798.0000     0.0040     2.4460     9.5050   -51.0620    11.0430    10.4500    10.0040    97.4740
  798.5000     0.0030     2.4390     9.4990   -51.0650    11.1160    10.4410    10.0000    97.6310
  799.0000     0.0020     2.4370     9.5040   -51.0680    11.2130    10.4520     9.9960    98.1670
  799.5000     0.0020     2.4340     9.5090   -51.0710    11.3390    10.4690     9.9920    98.7150
  800.0000     0.0040     2.4330     9.5140   -51.0740    11.1270    10.4860     9.9870    99.2640
  800.5000     0.0050     2.4330     9.5180   -51.0760    10.7320    10.5020     9.9830    99.8120
  801.0000     0.0060     2.4360     9.5130   -51.0810    10.8330    10.5190     9.9790   100.3540
  801.5000     0.0070     2.4380     9.5090   -51.0890    11.1330    10.5370     9.9730   100.8970
  802.0000     0.0070     2.4400     9.5040   -51.0960    11.0630    10.5370     9.9990   100.5850
  802.5000     0.0070     2.4400     9.4990   -51.1040    10.9260    10.5370    10.0650    99.3900
  803.0000     0.0070     2.4360     9.4940   -51.1120    10.8310    10.4990     9.8520    98.1970
  803.5000     0.0070     2.4310     9.4900   -51.1200    11.0520    10.4410     9.5260    96.9920
  804.0000     0.0070     2.4350     9.4850   -51.1270    11.2350    10.5090     9.7190    95.8100
  804.5000     0.0060     2.4410     9.4800   -51.1350    11.1030    10.5830     9.9300    96.4160
  805.0000     0.0060     2.4480     9.4760   -51.1430    10.8310    10.6340    10.1580    97.2700
  805.5000     0.0060     2.4510     9.4730   -51.1510    10.9270    10.4410     9.5260    98.1320
  806.0000     0.0070     2.4530     9.4700   -51.1580    11.1110    10.4730     9.6450    98.9900
  806.5000     0.0080     2.4540     9.4660   -51.1660    11.2350    10.5070     9.8700    99.5690
  807.0000     0.0090     2.4540     9.4630   -51.1740    11.0100    10.5370    10.1580    98.2660
