~VERSION INFORMATION
 VERS.                2.0:   CWLS LOG ASCII STANDARD - VERSION 2.0
 WRAP.                 NO:   ONE LINE PER DEPTH STEP
~WELL INFORMATION
#MNEM.UNIT      DATA TYPE    INFORMATION
#----------   ------------   ------------------------------
 STRT.F          199.5000:   START DEPTH
 STOP.F         2983.0000:   STOP DEPTH
 STEP.F            0.5000:   STEP LENGTH
 NULL.          -999.2500:   NO VALUE
 COMP.    FENIX & SCISSON:   COMPANY
 WELL. FENIX (UE-49) "AX" #52-29:   WELL
 FLD . U.S. NAVAL PETROLEUM RESERVE #3:   FIELD
 LOC .      S29 T39N R78W:   LOCATION
 CNTY.            NATRONA:   COUNTY
 STAT.            WYOMING:   STATE
 CTRY. UNITED STATES OF AMERICA:   COUNTRY
 SRVC.           BIRDWELL:   SERVICE COMPANY
 DATE.        07-AUG-1977:   LOGDATE
 API .     49025104090000:   API NUMBER
~CURVE INFORMATION
#MNEM.UNIT       API CODE    CURVE DESCRIPTION
#----------   ------------   ------------------------------
 DEPT.F                  :   
 GRD .GAPI   45 310 01 00:   GAMMA RAY FROM DENSITY LOG
 CALD.IN     45 280 60 00:   CALIPER FROM DENSITY LOG
 DEN .G/C3   45 350 01 00:   BULK DENSITY
 DCOR.G/C3   45 356 01 00:   DENSITY CORRECTION
 SN  .OHMM   05 040 16 00:   SHORT NORMAL 16"
 ILD .OHMM   05 120 46 00:   INDUCTION LOG DEEP RESISTIVITY
~PARAMETER INFORMATION
#MNEM.UNIT          VALUE    DESCRIPTION
#----------   ------------   ------------------------------
 EKB .F         4995.0000:   Kelly bushing
 EGL .F         4985.0000:   Ground level
 EDF .F            0.0000:   Drilling floor
 TD  .F         2973.0000:   Total depth
 DATE.         7-AUG-1977:   Date logged
 CLNT.            A2DTECH:   Client Code
 SL  . 1400' FNL & 2380' FEL:   Surface Location
 PD  .                 GL:   Permanent Datum
 EPD .F              4985:   Elevation Permanent Datum
 LMF .                 KB:   Log Measured From
 DMF .                 KB:   Drilling Measured From
 DAPD.F                10:   Feet Above Permanent Datum
 DD  .F              2972:   Depth driller
 DL  .F              2973:   Depth logger
 BLI .F              2968:   Bottom log interval
 TLI .F               216:   Top log interval
 CS1 .IN            8.625:   Casing size
 CBD1.      8.625" @ 216':   Casing driller 1
 CBL1.F               216:   Casing logger 1
 BS1 .IN            7.875:   Bit size
 BSD1.F              2972:   Depth drilled with bit1
 DFT .            GEL-KCL:   Type fluid in hole
 DFD .                8.9:   Density
 DFV .                 33:   Viscosity
 DFL .                  9:   Fluid loss
 MSS .            MUD PIT:   Source of sample
 RMS .OHMM           0.26:   Rm
 MST .F                73:   Rm Meas. temp.
 RMF .OHMM           0.26:   Rmf
 MFST.F                72:   Rmf Meas. temp.
 RMC .OHMM           0.96:   Rmc
 MCST.F                72:   Rmc Meas. temp.
 MFSS.              PRESS:   Source Rmf.
 RMB .OHMM           0.14:   Rm. at BHT
 BHT .F               130:   BHT.
 TCS .HRS               5:   Time Circ. stopped
 MRT .F               130:   Maximum recorded temp.
 LUN .               2958:   Logging unit number
 LUL .             CASPER:   Logging unit location
 ENGI.                LAW:   Recorded By
 WITN.             RHODES:   Witnessed by
 ORIG.           5" PRINT:   Origin of data
 UWI .     49025104090000:   Unique Well ID
 DICO. A2D TECHNOLOGIES, INC.:   Digitizing Company
~OTHER INFORMATION
~A   DEPT       GRD      CALD        DEN       DCOR         SN        ILD   
# ...
 1135.5000    61.2800     9.1320     2.5470     0.0150     7.3970     8.1470
 1136.0000    63.4800     9.1320     2.5530     0.0150     7.4010     8.1620
 1136.5000    61.4360     9.1320     2.5570     0.0140     7.4040     8.2250
 1137.0000    63.9580     9.1320     2.5520     0.0130     7.4080     8.2880
 1137.5000    65.9310     9.1320     2.5510     0.0150     7.4120     8.3520
 1138.0000    65.3900     9.1250     2.5530     0.0170     7.4160     8.3740
 1138.5000    61.0770     9.1090     2.5570     0.0140     7.4190     8.3430
 1139.0000    67.3250     9.0940     2.5520     0.0190     7.4230     8.3220
 1139.5000    64.6270     9.1430     2.5490     0.0170     7.4270     8.3010
 1140.0000    60.0750     9.1600     2.5550     0.0170     7.4300     8.2800
 1140.5000    60.9150     9.1390     2.5570     0.0240     7.4330     8.2580
 1141.0000    65.3790     9.1170     2.5590     0.0260     7.4170     8.2370
 1141.5000    63.3480     9.0940     2.5560     0.0280     7.4050     8.2140
 1142.0000    61.6470     9.1000     2.5620     0.0290     7.3920     8.1850
 1142.5000    64.1350     9.1080     2.5670     0.0280     7.3800     8.1560
 1143.0000    63.4280     9.0930     2.5640     0.0270     7.3670     8.1470
 1143.5000    68.6270     9.0950     2.5570     0.0240     7.3550     8.1470
 1144.0000    69.4960     9.1340     2.5620     0.0210     7.3420     8.1470
 1144.5000    63.4310     9.0810     2.5490     0.0220     7.3300     8.1470
 1145.0000    62.3570     9.0830     2.5480     0.0250     7.3170     8.1470
 1145.5000    62.2500     9.1010     2.5510     0.0280     7.3050     8.1700
 1146.0000    61.0370     9.1190     2.5650     0.0190     7.2990     8.2200
 1146.5000    61.4520     9.1330     2.5580     0.0130     7.3400     8.2690
 1147.0000    61.5140     9.1320     2.5440     0.0150     7.3680     8.3190
 1147.5000    60.1230     9.1390     2.5450     0.0170     7.3970     8.3740
 1148.0000    58.6820     9.1470     2.5590     0.0150     7.4330     8.3550
 1148.5000    61.1580     9.1550     2.5730     0.0200     7.4200     8.3330
 1149.0000    59.7770     9.1660     2.5680     0.0270     7.4000     8.3110
 1149.5000    69.7830     9.1770     2.5780     0.0240     7.3810     8.2900
 1150.0000    62.5610     9.1890     2.5720     0.0170     7.3620     8.2680
 1150.5000    64.7000     9.1930     2.5600     0.0130     7.3420     8.2470
 1151.0000    61.7930     9.1950     2.5500     0.0120     7.3230     8.2250
 1151.5000    65.3720     9.1970     2.5440     0.0140     7.2980     8.2030
 1152.0000    63.2690     9.1990     2.5480     0.0210     7.3090     8.1820
 1152.5000    63.1460     9.2020     2.5560     0.0210     7.3230     8.1600
 1153.0000    60.9310     9.2040     2.5620     0.0210     7.3380     8.1470
 1153.5000    63.5180     9.2060     2.5580     0.0210     7.3530     8.1540
 1154.0000    58.1330     9.2080     2.5620     0.0210     7.3670     8.1600
 1154.5000    62.0920     9.2100     2.5650     0.0210     7.3820     8.1650
 1155.0000    62.3660     9.2110     2.5600     0.0210     7.3960     8.1710
 1155.5000    61.3700     9.2080     2.5600     0.0210     7.4110     8.1770
 1156.0000    63.6710     9.2060     2.5620     0.0220     7.4260     8.1820
 1156.5000    59.6070     9.2030     2.5600     0.0230     7.4320     8.1880
 1157.0000    56.6750     9.2010     2.5670     0.0200     7.3660     8.1930
 1157.5000    61.1920     9.1990     2.5600     0.0170     7.3770     8.1990
 1158.0000    59.3200     9.1960     2.5510     0.0190     7.3850     8.2050
 1158.5000    64.5170     9.1940     2.5520     0.0200     7.3920     8.2100
 1159.0000    63.9000     9.1890     2.5570     0.0200     7.3990     8.2160
 1159.5000    63.2170     9.1830     2.5560     0.0170     7.4070     8.2220
 1160.0000    69.9710     9.2200     2.5550     0.0140     7.4140     8.3120
 1160.5000    65.0240     9.2500     2.5440     0.0220     7.4210     8.3730
 1161.0000    64.9390     9.2430     2.5520     0.0240     7.4290     8.3560
 1161.5000    62.2700     9.2360     2.5590     0.0190     7.4330     8.3420
 1162.0000    57.5960     9.2290     2.5600     0.0150     7.4150     8.3290
 1162.5000    58.3700     9.2220     2.5570     0.0170     7.4020     8.3160
 1163.0000    59.0670     9.2150     2.5600     0.0190     7.3890     8.3020
 1163.5000    61.5240     9.2090     2.5640     0.0120     7.3760     8.2920
 1164.0000    56.4170     9.2020     2.5540     0.0140     7.3650     8.2840
 1164.5000    58.3930     9.1950     2.5510     0.0200     7.5020     8.2760
 1165.0000    56.1130     9.2340     2.5580     0.0260     7.4940     8.2680
 1165.5000    62.2370     9.2280     2.5640     0.0310     7.4810     8.2600
 1166.0000    64.7730     9.2250     2.5670     0.0250     7.4690     8.2520
 1166.5000    61.1970     9.2230     2.5610     0.0190     7.4570     8.2430
 1167.0000    63.5220     9.2200     2.5570     0.0210     7.4440     8.2350
 1167.5000    60.9350     9.2180     2.5600     0.0220     7.4320     8.2270
 1168.0000    63.4660     9.2150     2.5620     0.0220     7.4200     8.2220
 1168.5000    64.2630     9.2130     2.5580     0.0210     7.4070     8.2220
 1169.0000    63.7380     9.2100     2.5540     0.0200     7.3950     8.2220
 1169.5000    65.7690     9.2080     2.5580     0.0200     7.3830     8.2260
 1170.0000    63.6410     9.2050     2.5570     0.0200     7.3660     8.2550
 1170.5000    67.4480     9.2030     2.5630     0.0200     7.3720     8.2830
 1171.0000    61.8430     9.2000     2.5630     0.0200     7.3840     8.3120
 1171.5000    63.8550     9.1980     2.5640     0.0200     7.3960     8.3400
 1172.0000    61.2730     9.1950     2.5600     0.0200     7.4080     8.3690
 1172.5000    63.9690     9.1930     2.5620     0.0160     7.4200     8.4040
 1173.0000    61.3800     9.2140     2.5560     0.0150     7.4310     8.4510
 1173.5000    59.5690     9.2510     2.5500     0.0180     7.4390     8.4090
 1174.0000    59.7830     9.2370     2.5530     0.0150     7.4450     8.3440
 1174.5000    59.8940     9.2190     2.5560     0.0100     7.4510     8.2800
 1175.0000    60.2410     9.2150     2.5470     0.0240     7.4580     8.2220
 1175.5000    60.5290     9.2210     2.5510     0.0370     7.4640     8.2040
 1176.0000    60.0110     9.2270     2.5710     0.0370     7.4700     8.1880
 1176.5000    64.0910     9.2320     2.5780     0.0310     7.4760     8.1730
 1177.0000    59.7930     9.2380     2.5770     0.0230     7.4830     8.1570
 1177.5000    60.9760     9.2440     2.5760     0.0200     7.4890     8.1470
 1178.0000    60.5200     9.2520     2.5770     0.0190     7.4950     8.3200
 1178.5000    61.7050     9.1940     2.5760     0.0040     7.5020     8.3990
 1179.0000    62.3290     9.1730     2.5580     0.0140     7.5320     8.4420
 1179.5000    61.4240     9.1740     2.5590     0.0200     7.5620     8.5570
 1180.0000    62.8640     9.1830     2.5580     0.0190     7.5930     8.7350
 1180.5000    60.6580     9.1930     2.5550     0.0130     7.6230     8.7660
 1181.0000    56.2000     9.2020     2.5520     0.0150     7.6400     8.7660
 1181.5000    56.8660     9.2110     2.5500     0.0140     7.6100     8.7660
 1182.0000    63.7740     9.2110     2.5550     0.0120     7.5890     8.6870
 1182.5000    61.9510     9.1830     2.5500     0.0160     7.5670     8.2970
 1183.0000    58.4940     9.1770     2.5550     0.0180     7.5460     8.3950
 1183.5000    58.0300     9.1830     2.5490     0.0200     7.5250     8.4510
 1184.0000    63.4200     9.1900     2.5520     0.0200     7.5020     8.3750
 1184.5000    64.0130     9.1960     2.5570     0.0150     7.3650     8.3250
 1185.0000    68.3180     9.2030     2.5500     0.0150     7.4050     8.2740
 1185.5000    67.4980     9.2100     2.5540     0.0160     7.4490     8.2220
 1186.0000    63.9100     9.1880     2.5520     0.0200     7.5020     8.2530
 1186.5000    62.5740     9.1530     2.5500     0.0250     7.4610     8.2860
 1187.0000    59.7650     9.1380     2.5580     0.0260     7.4080     8.3200
