~VERSION INFORMATION
 VERS.                2.0:   CWLS LOG ASCII STANDARD - VERSION 2.0
 WRAP.                 NO:   ONE LINE PER DEPTH STEP
~WELL INFORMATION
#MNEM.UNIT      DATA TYPE    INFORMATION
#----------   ------------   ------------------------------
 STRT.F            4.5000:   START DEPTH
 STOP.F         3216.0000:   STOP DEPTH
 STEP.F            0.5000:   STEP LENGTH
 NULL.          -999.2500:   NO VALUE
 COMP. LAWRENCE ALLISON & ASSCOCIATES:   COMPANY
 WELL. LAWRENCE ALLISON #38-34:   WELL
 FLD . NAVAL PET. RES. NO. 3:   FIELD
 LOC .      S34 T39N R78W:   LOCATION
 CNTY.            NATRONA:   COUNTY
 STAT.            WYOMING:   STATE
 CTRY. UNITED STATES OF AMERICA:   COUNTRY
 SRVC.      DRESSER ATLAS:   SERVICE COMPANY
 DATE.        12-OCT-1986:   LOGDATE
 API .     49025111120000:   API NUMBER
~CURVE INFORMATION
#MNEM.UNIT       API CODE    CURVE DESCRIPTION
#----------   ------------   ------------------------------
 DEPT.F                  :   
 CALD.IN     45 280 60 00:   CALIPER FROM DENSITY LOG
 RHOB.G/C3   45 350 01 00:   BULK DENSITY
 CORR.G/C3   45 356 01 00:   DENSITY CORRECTION
 CNC .DEC    42 890 01 00:   NEUTRON POROSITY
 SPR .MV     07 010 01 00:   SPONTANEOUS POTENTIAL
 TENR.LBS    06 635 01 00:   TENSION FROM RESISTIVITY
 GRR .GAPI   07 310 01 00:   GAMMA RAY FROM RESISTIVITY
 ILD .OHMM   07 120 46 00:   DEEP INDUCTION RESISTIVITY
 ILM .OHMM   07 120 44 00:   INDUCTION LOG MEDIUM RESISTIVITY
 SFL .OHMM   07 220 01 00:   SHALLOW FOCUSED LOG RESISITIVITY
~PARAMETER INFORMATION
#MNEM.UNIT          VALUE    DESCRIPTION
#----------   ------------   ------------------------------
 EKB .F         5229.5000:   Kelly bushing
 EGL .F         5217.7000:   Ground level
 TD  .F         3200.0000:   Total depth
 CLNT.            A2DTECH:   Client Code
 SL  . 1338' FWL & 132' FSL:   Surface Location
 PD  .                 GL:   Permanent Datum
 EPD .F            5217.7:   Elevation Permanent Datum
 LMF .                 KB:   Log Measured From
 DMF .                 KB:   Drilling Measured From
 DAPD.F              11.8:   Feet Above Permanent Datum
 DATE.        12-OCT-1986:   Date Logged [DD-MMM-YYYY]
 DD  .F              3200:   Depth driller
 DL  .F              3200:   Depth logger
 BLI .F              3194:   Bottom log interval
 TLI .F                 0:   Top log interval
 CS1 .IN            8.625:   Casing size
 CBD1.      8.625" @ 668':   Casing driller 1
 CBL1.F               668:   Casing logger 1
 BS1 .IN            7.875:   Bit size
 BSD1.F              3200:   Depth drilled with bit1
 DFT .        KCL POLYMER:   Type fluid in hole
 DFD .                  9:   Density
 DFV .                 36:   Viscosity
 DFPH.                9.5:   pH
 MSS .           FLOWLINE:   Source of sample
 RMS .OHMM           0.25:   Rm
 MST .F                70:   Rm Meas. temp.
 RMF .OHMM          0.191:   Rmf
 MFST.F                70:   Rmf Meas. temp.
 MFSS.               MEAS:   Source Rmf.
 RMB .OHMM          0.132:   Rm. at BHT
 BHT .F               132:   BHT.
 TCS .HRS               3:   Time Circ. stopped
 MRT .F               132:   Maximum recorded temp.
 LUN .               6274:   Logging unit number
 ENGI.             RAUTIO:   Recorded By
 ORIG.   1" 2.5" 5" PRINT:   Origin of data
 UWI .     49025111120000:   Unique Well ID
 DICO. A2D TECHNOLOGIES, INC.:   Digitizing Company
 LUL .               CLIT:   Logging unit location
 RMC .OHMM           0.31:   Rmc
 MCST.F                70:   Rmc Meas. temp.
 MCSS.               CALC:   Source Rmc.
~OTHER INFORMATION
~A    DEPT    CALD       RHOB       CORR        CNC        SPR       TENR        GRR        ILD        ILM        SFL   
# ...
 2818.5000     9.3159     2.4589     0.0017     0.2173   -72.2704   -64.7922   100.3959     8.8237     9.2208    10.6829
 2819.0000     9.3153     2.4658     0.0153     0.2122   -72.4525   -64.7561    99.2831     8.3947     9.3295    10.9600
 2819.5000     9.3147     2.4650     0.0213     0.2091   -72.6330   -64.5820    99.1142     8.1923     9.2012    10.5746
 2820.0000     9.3141     2.4604     0.0244     0.2085   -72.8191   -64.2539    98.6752     7.9623     8.4649    10.8036
 2820.5000     9.3135     2.4604     0.0243     0.2103   -73.0015   -76.4987    99.5102     7.8965     8.1194    10.8745
 2821.0000     9.3128     2.4604     0.0124     0.2125   -73.1851   -84.2500   101.3495     7.8971     8.1199    10.5769
 2821.5000     9.3122     2.4642    -0.0282     0.2158   -73.3688  -103.7500   103.4952     7.8976     8.2342    10.0050
 2822.0000     9.3116     2.4726    -0.0537     0.2194   -73.5521   -84.2500   105.6306     8.0089     8.3502     9.3333
 2822.5000     9.3110     2.4794    -0.0311     0.2207   -73.7353   -84.2500   106.4910     8.0095     8.4677     9.3092
 2823.0000     9.3105     2.4839     0.0036     0.2167   -73.9186   -64.7500   106.4875     8.1222     8.4683     9.8688
 2823.5000     9.3099     2.4862     0.0282     0.2152   -74.1019   -64.7500   103.4725     8.0105     8.4689    10.4343
 2824.0000     9.3091     2.4877     0.0218     0.2143   -74.2852   -64.7500   100.4575     8.0111     8.3524    10.4427
 2824.5000     9.3086     2.4908     0.0128     0.2140   -74.4685   -84.2500    99.2498     7.9009     8.2151     9.8708
 2825.0000     9.3080     2.4907     0.0098     0.2140   -74.6518   -84.2500    99.8493     7.7923     8.0963     9.7239
 2825.5000     9.3074     2.4907     0.0096     0.2179   -74.8350   -84.2500   101.6536     7.6852     7.9793     9.4505
 2826.0000     9.3068     2.4922     0.0159     0.2319   -75.0183   -84.2500   106.5498     7.4727     7.6482     9.0580
 2826.5000     9.3062     2.4993     0.0190     0.2313   -75.2016  -103.7500   110.1364     7.2558     7.4752     8.8335
 2827.0000     9.3056     2.5044     0.0160     0.2237   -75.3849   -84.2500   110.6809     6.9616     7.2707     8.8342
 2827.5000     9.3049     2.4983     0.0085     0.2182   -75.5681   -84.2500   110.0753     6.8609     7.1707     8.9586
 2828.0000     9.3043     2.4929    -0.0080     0.2073   -75.7516   -84.2500   110.2327     6.6892     7.0174     8.9080
 2828.5000     9.3037     2.4967    -0.0140     0.2127   -75.9345  -103.7500   111.8608     6.6898     6.8786     8.6576
 2829.0000     9.3032     2.5074     0.0000     0.2158   -76.1180   -84.2500   114.1421     6.6902     6.7840     8.2978
 2829.5000     9.3026     2.5151     0.0283     0.2170   -76.3023   -84.2500   115.7507     6.6907     6.8795     7.9531
 2830.0000     9.3020     2.5165     0.0298     0.2161   -76.4820  -103.7500   116.3855     6.8261     7.0741     7.7978
 2830.5000     9.3013     2.5203     0.0163     0.2115   -76.6719  -103.7500   114.4690     6.9768     7.2742     7.6906
 2831.0000     9.3007     2.5286    -0.0047     0.1987   -76.8286   -84.2500   108.2464     7.2281     7.5848     7.7989
 2831.5000     9.3001     2.5423    -0.0107     0.1834   -77.0457   -84.2500    91.9784     7.5621     7.9086     8.2457
 2832.0000     9.2995     2.5439    -0.0045     0.1672   -77.2277   -84.5933    86.5538     8.1324     8.4789     8.8404
 2832.5000     9.2989     2.5392    -0.0016     0.1614   -77.4193   -84.5211    84.1413     8.5984     9.0968    10.8927
 2833.0000     9.2983     2.5423     0.0000     0.1652   -77.6107   -84.4906    85.9456     8.6298     9.3475    11.2008
 2833.5000     9.3129     2.5560     0.0030     0.1708   -77.7934   -84.5965    86.5452     8.5995     9.2027    11.5205
 2834.0000     9.3274     2.5651    -0.0105     0.1672   -78.0107   -84.8851    86.5421     8.4813     9.0697    12.2553
 2834.5000     9.3268     2.5689    -0.0195     0.1681   -78.1928   -85.3545    86.5694     8.2491     8.6384    13.9964
 2835.0000     9.3262     2.5666    -0.0257     0.1793   -78.4163   -85.8409    88.9954     7.4842     7.9001    13.5071
 2835.5000     9.3256     2.5613    -0.0224     0.1967   -78.6279   -66.6321    98.8326     6.8847     7.2124     9.8205
 2836.0000     9.3250     2.5549    -0.0028     0.2218   -78.8463   -64.7500   116.5301     6.4136     6.7185     8.1200
 2836.5000     9.3244     2.5468     0.0048     0.2297   -79.0641   -64.7500   120.8844     6.0582     6.3462     7.4497
 2837.0000     9.3237     2.5429     0.0049     0.2257   -79.2312   -64.7500   127.6484     5.6556     6.0351     7.1402
 2837.5000     9.2928     2.5452     0.0230     0.2206   -79.2323   -64.7500   129.8951     5.4054     5.7415     6.7067
 2838.0000     9.2922     2.5604     0.0290     0.2139   -79.2358   -64.7500   128.5063     5.1774     5.4370     6.7018
 2838.5000     9.2764     2.5817     0.0291     0.2096   -79.2267   -64.7500   118.7594     4.9803     5.2151     7.1960
 2839.0000     9.2607     2.5786     0.0216     0.2054   -79.2172   -64.7500   117.2349     4.9330     5.1433     7.2829
 2839.5000     9.2601     2.5695     0.0201     0.2060   -79.2079   -64.7500   119.6410     4.9334     5.1437     7.1827
 2840.0000     9.2443     2.5581     0.0247     0.2205   -79.1981   -45.7868   127.4694     5.0018     5.2892     6.7944
 2840.5000     9.2589     2.5436     0.0353     0.2181   -79.1886   -59.8475   131.6833     5.1474     5.4388     6.6084
 2841.0000     9.2582     2.5375     0.0414     0.2108   -79.1790   -65.8026   134.6925     5.4944     5.6710     6.6089
 2841.5000     9.2576     2.5474     0.0414     0.2014   -79.1696   -65.7913   134.6895     5.9132     5.9131     6.8910
 2842.0000     9.2570     2.5574     0.0324     0.1846   -79.1601   -65.7251   129.2649     6.2520     6.3412     8.8526
 2842.5000     9.2564     2.5634     0.0219     0.1793   -79.1507   -46.1149   109.9849     6.7029     7.1100     9.8990
 2843.0000     9.2558     2.5633     0.0129     0.1796   -79.1412   -46.0683    96.1162     7.0869     7.7158    10.4626
 2843.5000     9.2705     2.5626    -0.0067     0.1826   -79.1318   -45.2500    98.1578     7.2874     7.8123    10.0030
 2844.0000     9.2697     2.5588    -0.0096     0.1926   -79.1223   -45.2500   101.5424     7.2879     7.5984     9.3394
 2844.5000     9.2691     2.5542     0.0055     0.2072   -79.1129   -45.2500   101.5392     7.2884     7.4940     8.8001
 2845.0000     9.2686     2.5495     0.0086     0.2215   -79.1034   -45.2500   101.8364     7.3910     7.5279     8.2800
 2845.5000     9.2680     2.5443     0.0056     0.2242   -79.0939   -64.7500   104.3133     7.6038     7.6393     7.9239
 2846.0000     9.2674     2.5480     0.0132     0.2193   -79.0845   -64.7500   105.3650     7.7071     7.8610     8.4008
 2846.5000     9.2515     2.5602     0.0364     0.2135   -79.0750   -64.7500   104.6294     7.7076     8.0893     8.9138
 2847.0000     9.2357     2.5807     0.0540     0.2117   -79.0656   -45.2500   102.1465     7.6879     8.1493     9.3015
 2847.5000     9.2200     2.5982     0.0630     0.2132   -79.0561   -64.7500   100.5923     7.4475     7.8485     9.5719
 2848.0000     9.2194     2.6167     0.0616     0.2126   -79.0467   -64.7500   100.3127     7.1332     7.1913     9.9033
 2848.5000     9.2188     2.6431     0.0661     0.2035   -79.0372   -64.7500   100.1044     6.8324     7.0923     9.9039
 2849.0000     9.2182     2.6241     0.0692     0.2059   -79.0278   -64.7500   110.5478     6.6161     7.0929     9.7678
 2849.5000     9.2175     2.6081     0.0677     0.2181   -79.0183   -64.7500   118.3762     6.6166     7.0934     9.3691
 2850.0000     9.2189     2.5814     0.0619     0.2305   -79.0089   -61.0000   121.9877     6.7098     7.0938     8.2670
 2850.5000     9.2241     2.5654     0.0603     0.2378   -78.9994   -57.2350   115.9607     6.7103     6.9963     7.0943
 2851.0000     9.2292     2.5639     0.0572     0.2357   -78.9899   -53.4700   112.3433     6.6180     6.8048     6.8048
 2851.5000     9.1994     2.5730     0.0555     0.2309   -78.9805   -49.7502   102.6921     6.5270     6.7112     8.8643
