~VERSION INFORMATION
 VERS.                2.0:   CWLS LOG ASCII STANDARD - VERSION 2.0
 WRAP.                 NO:   ONE LINE PER DEPTH STEP
~WELL INFORMATION
#MNEM.UNIT      DATA TYPE    INFORMATION
#----------   ------------   ------------------------------
 STRT.F           60.0000:   START DEPTH
 STOP.F         3758.0000:   STOP DEPTH
 STEP.F            0.5000:   STEP LENGTH
 NULL.          -999.2500:   NO VALUE
 COMP. LAWRENCE ALLISON & ASSOCIATES:   COMPANY
 WELL. LAWRENCE "MX" #72-10:   WELL
 FLD .            N P R 3:   FIELD
 LOC .      S10 T38N R78W:   LOCATION
 CNTY.            NATRONA:   COUNTY
 STAT.            WYOMING:   STATE
 CTRY. UNITED STATES OF AMERICA:   COUNTRY
 SRVC.       SCHLUMBERGER:   SERVICE COMPANY
 DATE.        03-JUL-1982:   LOGDATE
 API .     49025108910000:   API NUMBER
~CURVE INFORMATION
#MNEM.UNIT       API CODE    CURVE DESCRIPTION
#----------   ------------   ------------------------------
 DEPT.F                  :   
 GRD .GAPI   45 310 01 00:   GAMMA RAY FROM DENSITY LOG
 NPHI.DEC    42 890 03 00:   NEUTRON POROSITY SANDSTONE
 CALD.IN     45 280 60 00:   CALIPER FROM DENSITY LOG
 RHOB.G/C3   45 350 01 00:   BULK DENSITY
 DRHO.G/C3   45 356 01 00:   DENSITY CORRECTION
 TEND.LBS    45 635 01 00:   TENSION FROM DENSITY LOG
 SPR .MV     07 010 01 00:   SPONTANEOUS POTENTIAL
 SFL .OHMM   07 220 01 00:   SHALLOW FOCUSED LOG RESISTIVITY
 ILD .OHMM   07 120 46 00:   DEEP INDUCTION RESISTIVITY
 ILM .OHMM   07 120 44 00:   INDUCTION LOG MEDIUM RESISTIVITY
 TENR.LBS    07 635 01 00:   TENSION FROM RESISTIVITY
~PARAMETER INFORMATION
#MNEM.UNIT          VALUE    DESCRIPTION
#----------   ------------   ------------------------------
 EKB .F         5182.0000:   Kelly bushing
 EGL .F         5172.0000:   Ground level
 EDF .F            0.0000:   Drilling floor
 EPD .F            0.0000:   Permanent datum
 TD  .F         3770.0000:   Total depth
 DATE.        03-JUL-1982:   Date logged
 CLNT.            A2DTECH:   Client Code
 SL  . 1119' FNL & 21' FEL:   Surface Location
 PD  .                 GL:   Permanent Datum
 DD  .F              3770:   Depth driller
 DL  .F              3750:   Depth logger
 BLI .F              3744:   Bottom log interval
 CS1 .IN            9.625:   Casing size
 CBD1.      9.625" @ 473':   Casing driller 1
 CBL1.F               482:   Casing logger 1
 BS1 .IN            7.875:   Bit size
 DFT .                GEL:   Type fluid in hole
 DFD .                9.1:   Density
 DFV .                 34:   Viscosity
 DFPH.               10.5:   pH
 DFL .                 12:   Fluid loss
 MSS .            MUD PIT:   Source of sample
 RMS .OHMM           1.50:   Rm
 MST .F                84:   Rm Meas. temp.
 RMF .OHMM           1.37:   Rmf
 MFST.F                83:   Rmf Meas. temp.
 RMC .OHMM           1.20:   Rmc
 MCST.F                83:   Rmc Meas. temp.
 MFSS.               MEAS:   Source Rmf.
 RMB .OHMM              1:   Rm. at BHT
 BHT .F               130:   BHT.
 TCS .HRS            1500:   Time Circ. stopped
 MRT .F               130:   Maximum recorded temp.
 LUN .               8039:   Logging unit number
 LUL .               CSPR:   Logging unit location
 ENGI. CONOSCENTI/PIRAKIS:   Recorded By
 WITN.             STRONG:   Witnessed by
 ORIG.       2.5"5" PRINT:   Origin of data
 UWI .     49025108910000:   Unique Well ID
 DICO. A2D TECHNOLOGIES, INC.:   Digitizing Company
 DAPD.                 10:   Feet Above Permanent Datum
 BSD1.               3770:   Depth drilled with bit1
 MCSS.               CALC:   Source Rmc.
 TLI .                482:   Top log interval
 TLAB.HR             1800:   Time logger at bottom
~OTHER INFORMATION
~A   DEPT      GRD       NPHI       CALD       RHOB       DRHO       TEND        SPR        SFL        ILD        ILM       TENR   
# ...
  487.0000    97.7840     0.3290    11.7990     2.4760     0.0550   829.2270   -73.9690     9.1350   200.4870     9.3400   813.6680
  487.5000    94.6920     0.3230    11.8260     2.4870     0.0930   829.4280   -73.9690     9.3400     8.7770     8.6880   814.1590
  488.0000    92.1680     0.3270    11.8530     2.4970     0.1260   829.6300   -73.9690     8.3440     6.8170     7.9070   814.6510
  488.5000    89.0090     0.3360    11.8860     2.4520     0.1580   829.8310   -73.9680     7.5430     5.0800     7.1260   815.1430
  489.0000    89.7340     0.3640    11.8890     2.3960     0.1100   830.0330   -73.9680     6.8250     6.2660     6.3360   815.6350
  489.5000    93.0630     0.4020    11.8340     2.3360     0.0580   830.2340   -73.9690     6.6390     8.6610     5.6220   816.1260
  490.0000    93.7900     0.3880    11.7840     2.3010     0.0040   830.4360   -73.9720     6.6390    10.4580     6.0690   816.6180
  490.5000    94.6110     0.3640    11.7320     2.3890     0.0030   830.6370   -74.2780     7.3800     7.9840     6.5520   817.1100
  491.0000    94.9770     0.3350    11.6800     2.4400     0.0070   830.8390   -75.0010     7.9360     8.2160     6.9520   817.6020
  491.5000    94.1260     0.3310    11.6300     2.4640     0.0170   831.0400   -75.5600     8.1800     8.4570     7.2400   818.0930
  492.0000    93.2740     0.3210    11.5740     2.4830     0.0240   831.2420   -75.5680     8.3350     8.6990     7.5350   818.5850
  492.5000    93.8630     0.3080    11.5490     2.5000     0.0300   831.4430   -75.5890     8.4910     8.9400     7.8300   819.0770
  493.0000    95.1070     0.3070    11.5570     2.5120     0.0320   831.6440   -75.6120     8.7350     9.1810     8.1250   819.5690
  493.5000    97.0450     0.3070    11.5600     2.5130     0.0300   831.8460   -75.6330     8.9970     9.4230     8.4200   820.0610
  494.0000    99.7710     0.3070    11.5660     2.5140     0.0270   832.0470   -75.6550     9.2590     9.6860     8.5170   820.5520
  494.5000    99.5740     0.3070    11.5700     2.5150     0.0240   832.2490   -75.6770     9.3740     9.6570     8.4660   821.0440
  495.0000    97.7470     0.3050    11.5750     2.5120     0.0210   832.4500   -75.6990     9.4240     9.6180     8.4390   821.5360
  495.5000    95.2080     0.3040    11.5800     2.5070     0.0180   832.6520   -75.7210     9.4730     9.5790     8.4710   822.0280
  496.0000    94.7290     0.3020    11.5850     2.5030     0.0160   832.8530   -75.7430     9.5140     9.5390     8.4990   822.5190
  496.5000    94.2680     0.3100    11.5890     2.5000     0.0180   833.0550   -75.7650     9.4490     9.5150     8.5160   823.0110
  497.0000    93.8880     0.3120    11.5940     2.4980     0.0200   833.2560   -75.7870     9.3930     9.5150     8.5050   823.5030
  497.5000    93.4420     0.3120    11.5990     2.4960     0.0220   833.4580   -75.8090     9.3360     9.5150     8.4960   823.9950
  498.0000    93.1930     0.3080    11.6040     2.4990     0.0240   833.6590   -75.8310     9.2790     9.5140     8.4870   824.4860
  498.5000    93.8270     0.3040    11.6080     2.5120     0.0270   833.8610   -75.8520     9.2230     9.5140     8.4780   824.9780
  499.0000    94.2860     0.3030    11.6130     2.5110     0.0280   834.0620   -75.8740     9.1700     9.5140     8.4700   825.4700
  499.5000    95.0120     0.3040    11.6180     2.5040     0.0240   834.2630   -75.8970     9.1810     9.5140     8.4610   825.9620
  500.0000    94.2330     0.3040    11.6230     2.4960     0.0200   834.4650   -75.9170     9.1910     9.5060     8.4520   826.4540
  500.5000    92.4170     0.2960    11.6270     2.4970     0.0200   834.6660   -75.9070     9.2020     9.4890     8.4430   826.9450
  501.0000    90.7740     0.2940    11.6300     2.4980     0.0240   834.8680   -75.8080     9.2120     9.4720     8.4380   827.4370
  501.5000    89.1030     0.2840    11.6330     2.5010     0.0250   835.0690   -75.7120     9.2230     9.4560     8.4390   827.9290
  502.0000    87.3650     0.2810    11.6350     2.4940     0.0180   835.2710   -75.6160     9.2330     9.4380     8.4390   828.4210
  502.5000    87.0380     0.2780    11.6380     2.4800     0.0050   835.4720   -75.5200     9.2420     9.3400     8.3420   828.9120
  503.0000    88.4080     0.2770    11.6410     2.4710    -0.0030   835.6740   -75.4240     9.2550     9.2550     8.2080   829.4040
  503.5000    93.5810     0.2800    11.6430     2.4630     0.0040   835.8750   -75.3280     8.9090     9.0660     8.0710   829.8960
  504.0000    97.2300     0.2890    11.6460     2.4630     0.0100   836.0770   -75.2320     8.4580     8.8810     7.6950   830.3880
  504.5000    98.5440     0.2900    11.6490     2.4750     0.0170   836.2780   -75.1360     7.9380     8.6960     7.4310   830.8790
  505.0000    98.5470     0.2920    11.6510     2.4860     0.0240   836.4800   -75.0400     7.4780     8.5120     7.1010   831.3710
  505.5000    96.4000     0.3020    11.6540     2.4950     0.0290   836.6810   -74.9440     7.1090     8.3610     6.7710   831.5970
  506.0000    94.4780     0.3130    11.6560     2.4890     0.0230   836.8820   -74.8480     6.7400     7.9020     6.3980   831.4330
  506.5000    96.6350     0.3280    11.6600     2.4720     0.0160   837.0840   -74.7530     6.3700     7.4470     5.9810   831.2700
  507.0000    99.5910     0.3310    11.6600     2.4580     0.0080   837.2850   -74.6570     6.0010     6.6590     5.5720   831.1060
  507.5000   101.9690     0.3320    11.6670     2.4440     0.0030   837.4870   -74.5610     5.4840     5.7270     5.1640   830.9420
  508.0000   101.6170     0.3310    11.6710     2.4280     0.0020   837.6880   -74.4650     4.9070     5.0010     4.6250   830.7790
  508.5000   101.4700     0.3280    11.8130     2.4020     0.0180   837.8900   -74.3690     4.2360     4.3090     3.9310   830.6150
  509.0000    99.9440     0.3520    11.9150     2.3750     0.0540   838.0910   -74.2730     3.5650     3.6170     3.2380   830.4510
  509.5000    96.8710     0.4220    12.0650     2.3510     0.0850   838.2930   -74.1770     2.8940     2.9240     2.5440   830.2880
  510.0000    90.1860     0.4920    12.2410     2.2890     0.1320   838.4940   -74.0810     2.2230     2.6740     2.0370   830.1240
  510.5000    82.5750     0.5610    13.3580     2.2260     0.1150   838.6960   -73.9850     1.7250     2.6140     2.0780   829.9600
  511.0000    72.1860     0.6000    13.5350     2.0690     0.0540   838.8970   -73.8890     1.7890     2.6140     2.1590   829.7970
  511.5000    74.2970     0.5440    13.7560     2.0780     0.0290   839.0990   -73.7830     2.4740     2.7140     2.4080   829.6330
  512.0000    82.6320     0.4550    13.6600     2.0700    -0.0010   839.3000   -74.0550     3.3740     2.8660     3.0010   829.4690
  512.5000    92.9590     0.3540    12.7500     2.2150     0.0050   839.5010   -74.4140     4.2740     3.6620     3.5950   829.3060
  513.0000    98.9340     0.3110    11.8100     2.3280     0.0140   839.7030   -74.7590     5.2260     4.5070     4.1890   829.1420
  513.5000    98.7880     0.2950    11.6680     2.4400     0.0270   839.9040   -75.1010     6.0840     5.3530     4.7830   828.9780
  514.0000    96.7910     0.2970    11.7150     2.4790     0.0290   840.1060   -74.9110     6.2640     6.1980     5.3490   828.8150
  514.5000    93.2950     0.2990    11.7560     2.4770     0.0190   840.3070   -74.6290     6.4440     7.0440     5.7890   828.6510
  515.0000    90.2960     0.2980    11.7940     2.4730     0.0090   840.5090   -74.3680     6.6400     7.6700     6.2290   828.4870
  515.5000    89.2510     0.2970    11.8400     2.4780     0.0130   840.7100   -74.4250     6.9510     8.1330     6.5780   828.3240
  516.0000    88.4460     0.2960    11.8650     2.4890     0.0180   840.9120   -74.4890     7.2610     8.0530     6.7200   828.1600
  516.5000    87.5530     0.2920    11.8620     2.4910     0.0230   841.1130   -74.5520     7.5720     7.8600     6.8620   827.9960
  517.0000    87.1130     0.2870    11.8630     2.4850     0.0260   841.3150   -74.7320     7.8310     7.6680     7.0030   827.8330
