~VERSION INFORMATION
 VERS.                2.0:   CWLS LOG ASCII STANDARD - VERSION 2.0
 WRAP.                 NO:   ONE LINE PER DEPTH STEP
~WELL INFORMATION
#MNEM.UNIT      DATA TYPE    INFORMATION
#----------   ------------   ------------------------------
 STRT.F           46.0000:   START DEPTH
 STOP.F         2736.5000:   STOP DEPTH
 STEP.F            0.5000:   STEP LENGTH
 NULL.          -999.2500:   NO VALUE
 COMP.          INTEX OIL:   COMPANY
 WELL. INTEX NPR 3 "AX" #72-20:   WELL
 FLD .             TEAPOT:   FIELD
 LOC .      S20 T39N R78W:   LOCATION
 CNTY.            NATRONA:   COUNTY
 STAT.            WYOMING:   STATE
 CTRY. UNITED STATES OF AMERICA:   COUNTRY
 SRVC.       SCHLUMBERGER:   SERVICE COMPANY
 DATE.        11-MAY-1966:   LOGDATE
 API .     49025095110000:   API NUMBER
~CURVE INFORMATION
#MNEM.UNIT       API CODE    CURVE DESCRIPTION
#----------   ------------   ------------------------------
 DEPT.F                  :   
 SPR .MV     05 010 01 00:   SPONTANEOUS POTENTIAL FROM RES.
 ILD .OHMM   05 120 46 00:   INDUCTION LOG DEEP
 ASN .OHMM   05 041 16 00:   AMPLIFIED SHORT NORMAL 16"
 CALD.IN     45 280 60 00:   CALIPER FROM DENSITY LOG
 CORR.G/C3   45 356 01 00:   DENSITY CORRECTION
 RHOB.G/C3   45 350 01 00:   BULK DENSITY
 GRD .GAPI   45 310 01 00:   GAMMA RAY FROM DENSITY LOG
~PARAMETER INFORMATION
#MNEM.UNIT          VALUE    DESCRIPTION
#----------   ------------   ------------------------------
 EKB .F         5042.3000:   Kelly bushing
 EGL .F         5032.0000:   Ground level
 EDF .F            0.0000:   Drilling floor
 EPD .F         5032.0000:   Permanent datum
 TD  .F         2740.0000:   Total depth
 DATE.        11-MAY-1966:   Date logged
 CLNT.            A2DTECH:   Client Code
 DAPD.F              10.3:   Feet Above Permanent Datum
 DD  .F              2740:   Depth driller
 DL  .F              2737:   Depth logger
 BLI .F              2736:   Bottom log interval
 TLI .F                88:   Top log interval
 CS1 .IN            10.75:   Casing size
 CBD1.       10.75" @ 24':   Casing driller 1
 BS1 .IN            7.875:   Bit size
 BSD1.F              2740:   Depth drilled with bit1
 DFT .           OIL EMUL:   Type fluid in hole
 DFD .                9.8:   Density
 DFV .                 58:   Viscosity
 MSS .         CIRCULATED:   Source of sample
 RMS .OHMM           3.04:   Rm
 MST .F                54:   Rm Meas. temp.
 RMF .OHMM           1.95:   Rmf
 MFST.F                55:   Rmf Meas. temp.
 MFSS.                 FR:   Source Rmf.
 RMB .OHMM           1.64:   Rm. at BHT
 BHT .F               100:   BHT.
 TCS .HRS               4:   Time Circ. stopped
 MRT .F               100:   Maximum recorded temp.
 LUN .               4507:   Logging unit number
 LUL .               CSPR:   Logging unit location
 ENGI.               HAUG:   Recorded By
 WITN.             TUTTLE:   Witnessed by
 ORIG.        2" 5" PRINT:   Origin of data
 UWI .     49025095110000:   Unique Well ID
 DICO. A2D TECHNOLOGIES, INC.:   Digitizing Company
~OTHER INFORMATION
~A   DEPT      SPR        ILD        ASN       CALD       CORR       RHOB         GRD  
# ...
 1456.5000   -46.5050     5.9040     8.2230     8.5100     0.0240     2.4880   126.8730
 1457.0000   -46.4680     5.9140     8.2770     8.5010     0.0390     2.5040   132.8700
 1457.5000   -46.4320     5.9240     8.3420     8.5010     0.0540     2.5220   131.6140
 1458.0000   -46.3950     5.9330     8.3490     8.5040     0.0570     2.5160   129.5490
 1458.5000   -46.3590     5.9430     8.2660     8.5070     0.0480     2.5050   128.4960
 1459.0000   -46.3230     5.9530     8.1930     8.5090     0.0420     2.5010   129.2100
 1459.5000   -46.2820     5.9630     8.1050     8.5120     0.0390     2.5060   130.8560
 1460.0000   -46.2680     5.9740     8.0750     8.5150     0.0350     2.5100   131.4710
 1460.5000   -46.3040     5.9810     8.1530     8.5170     0.0390     2.5080   130.4590
 1461.0000   -46.3340     5.9800     8.2190     8.5200     0.0330     2.4910   127.7320
 1461.5000   -46.3680     5.9800     8.2900     8.5230     0.0250     2.4800   125.1300
 1462.0000   -46.4000     5.9800     8.3610     8.5260     0.0190     2.4770   123.4480
 1462.5000   -46.4320     5.9800     8.4060     8.5280     0.0260     2.4860   124.8860
 1463.0000   -46.4650     5.9800     8.3860     8.5310     0.0310     2.4800   128.7740
 1463.5000   -46.4970     5.9800     8.3780     8.5340     0.0210     2.4660   128.4100
 1464.0000   -46.5300     5.9800     8.3960     8.5370     0.0090     2.4600   127.0570
 1464.5000   -46.5610     5.9800     8.4160     8.5390     0.0140     2.4600   122.0900
 1465.0000   -46.5950     5.9800     8.4350     8.5390     0.0240     2.4750   121.1270
 1465.5000   -46.6270     5.9800     8.4470     8.5390     0.0330     2.4840   120.7690
 1466.0000   -46.6460     5.9810     8.4160     8.5380     0.0340     2.4710   123.0090
 1466.5000   -46.5750     5.9810     8.3880     8.5380     0.0290     2.4640   124.8640
 1467.0000   -46.5130     5.9810     8.3580     8.5370     0.0180     2.4590   127.0350
 1467.5000   -46.4460     5.9800     8.3370     8.5370     0.0160     2.4610   126.9800
 1468.0000   -46.3820     5.9830     8.3650     8.5370     0.0280     2.4670   126.8070
 1468.5000   -46.3170     5.9800     8.3880     8.5360     0.0350     2.4700   128.5870
 1469.0000   -46.2620     5.9820     8.4180     8.5360     0.0290     2.4820   128.3700
 1469.5000   -46.2630     5.9950     8.4400     8.5350     0.0340     2.4940   127.2220
 1470.0000   -46.2590     6.1690     8.4690     8.5350     0.0320     2.4790   125.7920
 1470.5000   -46.2620     6.3290     8.5080     8.5350     0.0270     2.4620   126.7200
 1471.0000   -46.2760     6.5000     8.7390     8.5340     0.0220     2.4670   128.2420
 1471.5000   -46.4740     6.6610     8.9620     8.5340     0.0220     2.4760   128.3140
 1472.0000   -46.6640     6.8320     9.1860     8.5330     0.0290     2.4940   126.0740
 1472.5000   -46.8600     6.9940     9.4190     8.5330     0.0360     2.5110   123.7700
 1473.0000   -47.0560     7.1350     9.6380     8.5330     0.0430     2.5270   121.2500
 1473.5000   -47.2480     6.9870     9.8180     8.5320     0.0400     2.5220   119.1860
 1474.0000   -47.4270     6.8340     9.4370     8.5320     0.0370     2.5060   116.3970
 1474.5000   -47.4120     6.6700     9.0370     8.5310     0.0340     2.4700   118.7570
 1475.0000   -47.3890     6.5150     8.6240     8.5310     0.0340     2.4740   123.8220
 1475.5000   -47.3600     6.3550     8.2350     8.5310     0.0510     2.4790   128.7850
 1476.0000   -47.3360     6.1980     8.0740     8.5300     0.0500     2.4780   129.9820
 1476.5000   -47.3100     6.0380     7.9230     8.5300     0.0490     2.4660   127.5760
 1477.0000   -47.2840     5.8820     7.7850     8.5290     0.0380     2.4530   125.5360
 1477.5000   -47.2580     5.7200     7.6380     8.5290     0.0250     2.4430   127.6970
 1478.0000   -47.2320     5.5660     7.6050     8.5290     0.0190     2.4390   128.9410
 1478.5000   -47.2060     5.4070     7.5770     8.5280     0.0250     2.4350   128.9420
 1479.0000   -47.1800     5.4140     7.5530     8.5280     0.0230     2.4320   130.2340
 1479.5000   -47.1540     5.4330     7.5480     8.5270     0.0180     2.4300   132.3410
 1480.0000   -47.1280     5.4570     7.5480     8.5270     0.0190     2.4470   133.2470
 1480.5000   -47.1030     5.4760     7.4900     8.5270     0.0280     2.4610   134.3130
 1481.0000   -47.0750     5.4990     7.4280     8.5260     0.0350     2.4750   135.3600
 1481.5000   -47.0430     5.5180     7.3590     8.5260     0.0330     2.4910   136.4030
 1482.0000   -46.9120     5.5420     7.3880     8.5260     0.0310     2.5040   137.4330
 1482.5000   -46.7550     5.5600     7.4230     8.5250     0.0370     2.5150   138.4140
 1483.0000   -46.5990     5.5800     7.4660     8.5250     0.0230     2.4820   138.2020
 1483.5000   -46.4440     5.4270     7.4480     8.5240     0.0200     2.4790   138.0610
 1484.0000   -46.2880     5.2310     7.4220     8.5240     0.0240     2.4730   137.3550
 1484.5000   -46.1330     5.0380     7.3940     8.5240     0.0360     2.4550   135.0820
 1485.0000   -45.9780     4.8430     7.3570     8.5230     0.0480     2.4320   129.9770
 1485.5000   -45.8200     4.6530     7.3110     8.5230     0.0620     2.4240   128.1600
 1486.0000   -45.6680     4.4610     6.9910     8.5220     0.0740     2.4300   125.8810
 1486.5000   -45.5130     4.4590     6.5790     8.5220     0.0830     2.3980   125.0400
 1487.0000   -45.5300     4.5310     6.1630     8.5220     0.0470     2.4030   125.8550
 1487.5000   -45.6120     4.5950     6.0300     8.5210     0.0270     2.4370   125.2440
 1488.0000   -45.6900     4.7510     5.9970     8.5210     0.0170     2.4430   122.6560
 1488.5000   -45.7660     4.9490     6.1900     8.5200     0.0130     2.4390   121.0080
 1489.0000   -45.8450     5.1410     6.4840     8.5200     0.0170     2.4350   124.5320
 1489.5000   -45.9210     5.3340     6.7730     8.5200     0.0210     2.4360   130.5660
 1490.0000   -45.9990     5.5300     7.0570     8.5190     0.0290     2.4560   131.3650
 1490.5000   -46.0780     5.7180     7.3480     8.5190     0.0380     2.4750   131.9650
 1491.0000   -46.1510     5.9220     7.6320     8.5180     0.0340     2.4630   131.8630
 1491.5000   -46.2410     5.9310     7.9170     8.5180     0.0360     2.4690   130.0990
 1492.0000   -46.1840     5.8280     8.0880     8.5180     0.0380     2.4750   130.0440
 1492.5000   -46.0390     5.7430     8.1820     8.5170     0.0330     2.4560   129.5530
 1493.0000   -45.9130     5.6550     8.3090     8.5170     0.0260     2.4390   126.7760
 1493.5000   -45.7830     5.5670     8.1840     8.5160     0.0190     2.4190   124.2210
 1494.0000   -45.6540     5.4800     7.8920     8.5160     0.0170     2.4150   121.3870
 1494.5000   -45.5250     5.3920     7.6350     8.5160     0.0290     2.4250   122.6990
 1495.0000   -45.3930     5.3040     7.3690     8.5150     0.0300     2.4220   125.3410
 1495.5000   -45.2710     5.2150     7.1050     8.5150     0.0250     2.4170   126.5120
 1496.0000   -45.1230     5.1310     6.8410     8.5140     0.0270     2.4330   125.6380
 1496.5000   -45.1770     5.0310     6.6860     8.5140     0.0330     2.4490   124.9820
 1497.0000   -45.3920     5.0650     6.8160     8.5140     0.0320     2.4620   126.5060
 1497.5000   -45.5810     5.2080     7.0770     8.5130     0.0280     2.4590   125.0180
 1498.0000   -45.7760     5.3330     7.3180     8.5130     0.0250     2.4570   122.7950
 1498.5000   -45.9680     5.4640     7.5650     8.5120     0.0210     2.4680   122.0600
 1499.0000   -46.1720     5.5930     7.8050     8.5120     0.0260     2.4830   123.0870
 1499.5000   -46.2670     5.7230     8.0650     8.5120     0.0380     2.4980   124.4490
 1500.0000   -46.2560     5.8530     8.1840     8.5110     0.0400     2.5090   123.9860
 1500.5000   -46.2600     5.9790     8.1890     8.5110     0.0340     2.4890   122.0360
 1501.0000   -46.2590     6.1200     8.2350     8.5100     0.0280     2.4810   121.2940
 1501.5000   -46.2590     6.1500     8.2740     8.5100     0.0330     2.4930   123.0000
