~VERSION INFORMATION
 VERS.                2.0:   CWLS LOG ASCII STANDARD - VERSION 2.0
 WRAP.                 NO:   ONE LINE PER DEPTH STEP
~WELL INFORMATION
#MNEM.UNIT      DATA TYPE    INFORMATION
#----------   ------------   ------------------------------
 STRT.F           20.0000:   START DEPTH
 STOP.F         4128.0000:   STOP DEPTH
 STEP.F            0.5000:   STEP LENGTH
 NULL.          -999.2500:   NO VALUE
 COMP. LAWRENCE-ALLISON & ASSOCIATES:   COMPANY
 WELL. LAWRENCE "X" #53-3:   WELL
 FLD .             NPR #3:   FIELD
 LOC .       S3 T38N R78W:   LOCATION
 CNTY.            NATRONA:   COUNTY
 STAT.            WYOMING:   STATE
 CTRY. UNITED STATES OF AMERICA:   COUNTRY
 SRVC.      DRESSER ATLAS:   SERVICE COMPANY
 DATE.        18-SEP-1983:   LOGDATE
 API .     49025109370000:   API NUMBER
~CURVE INFORMATION
#MNEM.UNIT       API CODE    CURVE DESCRIPTION
#----------   ------------   ------------------------------
 DEPT.F                  :   
 NPHI.DEC    42 890 03 00:   NEUTRON POROSITY SANDSTONE
 TEND.LBS    45 635 01 00:   TENSION FORM DENSITY LOG
 CORR.G/C3   45 356 01 00:   DENSITY CORRECTION
 RHOB.G/C3   45 350 01 00:   BULK DENSITY
 CALD.IN     45 280 60 00:   CALIPER FROM DENSITY LOG
 GRR .GAPI   07 310 01 00:   GAMMA RAY FROM RESISTIVITY
 TENR.LBS    06 635 01 00:   TENSION FROM RESISTIVITY
 SPR .MV     07 010 01 00:   SPONTANEOUS POTENTIAL
 RILD.OHMM   07 120 46 00:   DEEP INDUCTION RESISTIVITY
 RILM.OHMM   07 120 44 00:   INDUCTION LOG MEDIUM RESISTIVITY
 RSFL.OHMM   07 220 01 00:   SPHERICALLY FOCUSED RESISTIVITY
 TENS.LBS    60 635 01 00:   TENSION FROM SONIC
 DT  .US/F   60 520 00 00:   DELTA TIME
~PARAMETER INFORMATION
#MNEM.UNIT          VALUE    DESCRIPTION
#----------   ------------   ------------------------------
 EKB .F         5214.0000:   Kelly bushing
 EGL .F         5204.0000:   Ground level
 EDF .F            0.0000:   Drilling floor
 TD  .F         4117.0000:   Total depth
 CLNT.            A2DTECH:   Client Code
 PD  .                 GL:   Permanent Datum
 EPD .F              5204:   Elevation Permanent Datum
 LMF .                 KB:   Log Measured From
 DMF .                 KB:   Drilling Measured From
 DAPD.F                10:   Feet Above Permanent Datum
 DATE.        18-SEP-1983:   Date Logged [DD-MMM-YYYY]
 DD  .F              4117:   Depth driller
 DL  .F              4113:   Depth logger
 BLI .F              4110:   Bottom log interval
 TLI .F                 0:   Top log interval
 CS1 .IN            9.625:   Casing size
 CBD1.      9.625" @ 523':   Casing driller 1
 CBL1.F               523:   Casing logger 1
 BS1 .IN            7.875:   Bit size
 BSD1.F              4117:   Depth drilled with bit1
 DFT .            GEL KCL:   Type fluid in hole
 DFD .                9.0:   Density
 DFV .                 42:   Viscosity
 DFPH.                8.5:   pH
 DFL .                 10:   Fluid loss
 MSS .               TANK:   Source of sample
 RMS .OHMM           0.35:   Rm
 MST .F                68:   Rm Meas. temp.
 RMF .OHMM          0.266:   Rmf
 MFST.F                68:   Rmf Meas. temp.
 MFSS.               MEAS:   Source Rmf.
 RMC .OHMM          0.443:   Rmc
 MCST.F                68:   Rmc Meas. temp.
 MCSS.               CALC:   Source Rmc.
 RMB .OHMM          0.185:   Rm. at BHT
 BHT .F               130:   BHT.
 TCS .HRS               4:   Time Circ. stopped
 MRT .F               130:   Maximum recorded temp.
 LUN .               6270:   Logging unit number
 LUL .              WLSTN:   Logging unit location
 ENGI.             REEVES:   Recorded By
 WITN.             STRONG:   Witnessed by
 ORIG.           5" PRINT:   Origin of data
 UWI .     49025109370000:   Unique Well ID
 DICO. A2D TECHNOLOGIES, INC.:   Digitizing Company
~OTHER INFORMATION
~A   DEPT     NPHI       TEND       CORR       RHOB       CALD         GRR      TENR        SPR       RILD       RILM       RSFL       TENS         DT   
# ...
 4076.0000     0.1852   268.2628     0.0069     2.6322     8.1323   108.7224   172.2443   -60.1588     4.5011     4.6205     8.9947   418.4810    74.9850
 4076.5000     0.1789   271.9267     0.0099     2.6442     8.1331   109.0192   175.4696   -60.0101     4.4713     4.6202     8.8012   422.2423    74.5409
 4077.0000     0.1762   275.5656     0.0312     2.6474     8.1320   112.6595   178.6950   -60.0088     4.5360     4.7549     6.9090   429.7738    74.9221
 4077.5000     0.1870   275.4302     0.0582     2.6373     8.1281   118.1217   181.9203   -59.8601     4.6380     5.2212     6.0064   433.5174    78.9424
 4078.0000     0.2006   279.1208     0.0552     2.6314     8.1242   121.4580   185.1456   -59.7111     4.7665     5.4909     5.4297   437.2787    82.3568
 4078.5000     0.2174   282.7846     0.0477     2.6322     8.1203   118.1074   188.3709   -59.7097     4.8689     5.9006     6.6419   444.8106    83.4203
 4079.0000     0.2332   286.4253     0.0598     2.6412     8.1164   108.3738   191.8945   -59.7083     4.9736     6.0727    10.0846   448.5539    82.4369
 4079.5000     0.2261   286.3122     0.0802     2.6555     8.1125    84.0488   191.8945   -59.5596     5.1164     5.8997    11.6457   456.0942    79.2547
 4080.0000     0.2025   289.9788     0.0433     2.6655     8.1087    80.6982   191.8945   -59.4107     5.1900     5.7317    10.8349   459.8556    72.5099
 4080.5000     0.1666   289.8452     0.0252     2.6742     8.1048    84.0345   187.0117   -59.4093     5.2647     5.4889     8.4510   471.1750    69.5552
 4081.0000     0.1456   293.5090     0.0147     2.6690     8.1009    95.3191   187.0117   -59.5552     5.3033     5.3326     7.1843   474.9274    70.4671
 4081.5000     0.1372   297.1729     0.0011     2.6464     8.0970   107.1188   188.3949   -59.8480     5.1955     5.2182     6.4476   478.6799    74.2904
 4082.0000     0.1495   300.8099     0.0087     2.6254     8.0932   108.9371   190.4636   -59.8467     5.0190     5.0697     6.3509   482.4242    79.9488
 4082.5000     0.1811   300.7030     0.0269     2.6043     8.0893   108.0163   192.5323   -59.8453     4.8825     4.9254     7.0276   489.9639    81.0123
 4083.0000     0.2045   304.3937     0.0405     2.6036     8.0854   105.8663   194.6010   -59.6908     4.7829     4.8896     7.3370   489.9196    81.1661
 4083.5000     0.2087   308.0317     0.0480     2.6073     8.0815   104.0489   196.6697   -59.5476     4.8860     5.0322     7.1792   489.8842    81.1687
 4084.0000     0.2121   315.4654     0.0557     2.6111     8.0776   105.2576   198.7384   -59.2517     5.1682     5.2164     6.5346   501.2125    81.1709
 4084.5000     0.2102   319.1292     0.0617     2.6141     8.0738   105.2505   200.8078   -59.1030     5.3938     5.4144     6.5357   504.9621    81.4004
 4085.0000     0.2064   322.7664     0.0632     2.6148     8.0699   103.6981   202.8759   -58.8071     5.6631     5.7276     6.9222   504.9207    82.1658
 4085.5000     0.2043   326.4329     0.0451     2.6110     8.0660   102.1949   204.9446   -58.5108     5.8661     5.9802     7.4382   504.8853    81.7085
 4086.0000     0.2022   333.8648     0.0376     2.5975     8.0621   103.0996   206.5430   -58.2149     6.1189     6.1546     8.2260   508.6289    80.4976
 4086.5000     0.1894   348.8141     0.0489     2.5840     8.0582   103.7004   206.6077   -57.7717     6.3831     6.3340     8.4654   508.5935    79.4383
 4087.0000     0.1715   360.0462     0.0724     2.5709     8.0567   104.6403   216.9599   -57.3282     6.5659     6.5658     8.2833   516.1428    78.0986
 4087.5000     0.1682   371.2248     0.1026     2.5719     8.0752   105.2058   226.6858   -57.0322     6.7539     6.8061     8.1051   519.8864    76.4105
 4088.0000     0.1667   374.8887     0.1313     2.5697     8.0736  -999.2500   229.7087   -56.7363     6.8990     7.1062     8.4617   519.8421    75.1996
 4088.5000     0.1646   374.7551     0.1072     2.5629     8.0721  -999.2500   227.5051   -56.5809     6.8533     7.3134     8.9624   523.6034    73.6096
 4089.0000     0.1610   374.6482     0.0800     2.5606     8.0706  -999.2500   225.3015   -56.2914     6.8561     7.5266     9.0915   531.1349    72.3992
 4089.5000     0.1562   374.5413     0.0559     2.5651     8.0691  -999.2500   223.0978   -56.1427     6.9547     7.5261     9.1059   534.8875    71.6432
 4090.0000     0.1478   378.2052     0.0348     2.5674     8.0676  -999.2500   220.8942   -55.8468     7.0598     7.6420     9.6275   534.8432    71.1146
 4090.5000     0.1511   378.0715     0.0153     2.5689     8.0660  -999.2500   218.6906   -55.8454     7.3082     7.9713     9.8369   538.6046    71.5134
 4091.0000     0.1514   377.9646     0.0334     2.5689     8.0645  -999.2500   216.4664   -55.6964     7.5701     8.3228     9.3516   538.5602    71.8775
 4091.5000     0.1439   385.3992     0.0364     2.5650     8.0630  -999.2500   214.2833   -55.6950     7.9516     8.6898     8.8265   546.1006    71.9555
 4092.0000     0.1400   389.0649     0.0048     2.5576     8.0615  -999.2500   212.0797   -55.6937     8.4116     9.1384     9.6220   549.8530    71.5027
 4092.5000     0.1367   396.4709     0.0234     2.5531     8.0600  -999.2500   221.1914   -55.6919     8.7130     9.2040    11.4363   553.6055    69.0793
 4093.0000     0.1328   403.9323     0.0456     2.5478     8.0585  -999.2500   226.0742   -55.8382     8.9002     9.1372    12.3033   561.1371    67.1860
 4093.5000     0.1274   407.5694     0.0516     2.5463     8.0569  -999.2500   230.9570   -56.1313     8.9655     9.0663    12.6464   564.8896    66.0509
 4094.0000     0.1200   415.0040     0.0381     2.5503     8.0554  -999.2500   231.5177   -56.4242     8.9691     8.8126    11.5140   564.8453    65.4456
 4094.5000     0.1115   422.4386     0.0155     2.5613     8.0539  -999.2500   232.8285   -56.7170     8.7251     8.6236    10.7123   564.8099    66.4348
 4095.0000     0.1100   429.8732    -0.0071     2.5718     8.0524  -999.2500   234.1393   -56.8632     8.2541     8.3180    10.0382   568.5624    68.5597
 4095.5000     0.1163   437.3077     0.0578     2.5808     8.0509  -999.2500   235.4501   -57.0088     7.5942     7.8516     9.6818   576.1027    69.9265
 4096.0000     0.1314   444.7156     0.0955     2.5891     8.0493  -999.2500   236.7608   -57.1547     7.1843     7.5951     9.2710   579.8552    70.5444
 4096.5000  -999.2500   448.3795     0.0669     2.5861     8.0478  -999.2500   238.0716   -57.4475     6.8440     7.2817     8.7460   583.9142    71.2202
 4097.0000  -999.2500   452.0433     0.0473     2.5831     8.0463  -999.2500   239.3824   -57.4461     6.5656     6.9682     8.3792   594.9271    71.9046
 4097.5000  -999.2500   455.7072     0.0323     2.5823     8.0448  -999.2500   240.6932   -57.5920     6.2989     6.6510     8.3179   594.8799    72.7407
 4098.0000  -999.2500   463.1418     0.0127     2.5770     8.0433  -999.2500   242.0040   -57.5903     6.2132     6.4152     8.1979   587.2687    73.5774
 4098.5000  -999.2500   466.7798     0.0369     2.5733     8.0417  -999.2500   243.3148   -57.4417     6.3916     6.3687     7.7375   564.5060  -999.2500
 4099.0000  -999.2500   470.4161     0.0535     2.5725     8.0402  -999.2500   244.6255   -57.4403     6.7293     6.5074     7.3560   461.8008  -999.2500
 4099.5000  -999.2500   474.0799     0.0580     2.5748     8.0387  -999.2500   245.6055   -57.4297     7.4057     7.1057     7.8477   416.6991  -999.2500
 4100.0000  -999.2500   477.7704     0.0611     2.5845     8.0372  -999.2500   250.7438   -57.2901     7.8883     8.0041     9.6694   143.9364  -999.2500
 4100.5000  -999.2500   488.9490     0.0340     2.5943     8.0357  -999.2500   258.1964   -57.1838     8.1142    11.0080    14.9185    49.2041  -999.2500
 4101.0000  -999.2500   496.8922     0.0053     2.6210     8.0341  -999.2500   265.6491   -56.9336     8.1743    17.4550    20.2906    30.2204  -999.2500
 4101.5000  -999.2500   500.0475    -0.0218     2.6611     8.0326  -999.2500   269.4220   -56.9336     8.1195    23.4279    35.5727    26.3971  -999.2500
