~VERSION INFORMATION
 VERS.                2.0:   CWLS LOG ASCII STANDARD - VERSION 2.0
 WRAP.                 NO:   ONE LINE PER DEPTH STEP
~WELL INFORMATION
#MNEM.UNIT      DATA TYPE    INFORMATION
#----------   ------------   ------------------------------
 STRT.F          200.0000:   START DEPTH
 STOP.F         3014.0000:   STOP DEPTH
 STEP.F            0.5000:   STEP LENGTH
 NULL.          -999.2500:   NO VALUE
 COMP.    FENIX & SCISSON:   COMPANY
 WELL. FENIX NPR 3 "AX" #45-28:   WELL
 FLD .                NPR:   FIELD
 LOC .      S28 T39N R78W:   LOCATION
 CNTY.            NATRONA:   COUNTY
 STAT.            WYOMING:   STATE
 CTRY. UNITED STATES OF AMERICA:   COUNTRY
 SRVC.              WELEX:   SERVICE COMPANY
 DATE.        30-SEP-1977:   LOGDATE
 API .     49025104230000:   API NUMBER
~CURVE INFORMATION
#MNEM.UNIT       API CODE    CURVE DESCRIPTION
#----------   ------------   ------------------------------
 DEPT.F                  :   
 SPR .MV     07 010 01 00:   SPONTANEOUS POTENTIAL
 TENR.LBS    07 635 01 00:   TENSION
 SFL .OHMM   07 220 01 00:   SHALLOW FOCUSED LOG RESISTIVITY
 ILD .OHMM   07 120 46 00:   INDUCTION LOG DEEP RESISTIVITY
 ILM .OHMM   07 120 44 00:   INDUCTION LOG MEDIUM RESISTIVITY
 TEND.LBS    45 635 01 00:   TENSION FROM DENSITY LOG
 CALD.IN     45 280 60 00:   CALIPER FROM DENSITY LOG
 RHOB.G/C3   45 350 01 00:   BULK DENSITY
 CORR.G/C3   45 356 01 00:   DENSITY CORRECTION
 GRD .GAPI   45 310 01 00:   GAMMA RAY FROM DENSITY LOG
~PARAMETER INFORMATION
#MNEM.UNIT          VALUE    DESCRIPTION
#----------   ------------   ------------------------------
 EKB .F         5075.0000:   Kelly bushing
 EGL .F         5065.0000:   Ground level
 EDF .F            0.0000:   Drilling floor
 E TD.F         3008.0000:   Total depth
 DATE.        30-SEP-1977:   Date logged
 CLNT.            A2DTECH:   Client Code
 SL  . 2210' FSL & 2310' FWL:   Surface Location
 PD  .                 GL:   Permanent Datum
 EPD .F              5065:   Elevation Permanent Datum
 LMF .                 KB:   Log Measured From
 DMF .                 KB:   Drilling Measured From
 DAPD.F                10:   Feet Above Permanent Datum
 DD  .F              3005:   Depth driller
 DL  .F              3008:   Depth logger
 BLI .F              3006:   Bottom log interval
 TLI .F               200:   Top log interval
 CS1 .IN            8.625:   Casing size
 CBD1.      8.625" @ 205':   Casing driller 1
 CBL1.F               220:   Casing logger 1
 BS1 .IN            7.875:   Bit size
 BSD1.F              3005:   Depth drilled with bit1
 DFT .            KCL/MUD:   Type fluid in hole
 DFD .                9.1:   Density
 DFV .                 38:   Viscosity
 DFPH.                 11:   pH
 DFL .                6.8:   Fluid loss
 MSS .           FLOWLINE:   Source of sample
 RMS .OHMM            .31:   Rm
 MST .F                78:   Rm Meas. temp.
 RMF .OHMM            .15:   Rmf
 MFST.F                78:   Rmf Meas. temp.
 RMC .OHMM           1.02:   Rmc
 MCST.F                78:   Rmc Meas. temp.
 MFSS.               FANN:   Source Rmf.
 MCSS.                KIT:   Source Rmc.
 RMB .OHMM            .20:   Rm. at BHT
 BHT .F               117:   BHT.
 TCS .HRS               3:   Time Circ. stopped
 MRT .F               117:   Maximum recorded temp.
 LUN .               8611:   Logging unit number
 LUL .             CASPER:   Logging unit location
 ENGI.         G. BENTSEN:   Recorded By
 WITN.         HARRINGTON:   Witnessed by
 ORIG.           5" PRINT:   Origin of data
 UWI .     49025104230000:   Unique Well ID
 DICO. A2D TECHNOLOGIES, INC.:   Digitizing Company
~OTHER INFORMATION
~A   DEPT      SPR        TENR       SFL        ILD        ILM       TEND       CALD       RHOB       CORR        GRD   
# ...
 1138.0000   -62.8430   544.2280    12.1300    10.1440    10.7770   725.8870     9.9380     2.5110     0.0070    77.9810
 1138.5000   -63.0980   544.2980    12.3200    10.0330    10.6770   725.9660     9.9140     2.5100     0.0060    78.5980
 1139.0000   -63.3510   544.3680    12.1320     9.9220    10.5780   726.0440     9.8900     2.5020     0.0050    79.2300
 1139.5000   -63.6060   544.4380    11.8470     9.8110    10.4780   726.1230     9.8670     2.4950     0.0030    80.4850
 1140.0000   -63.8680   544.5080    11.5630     9.6990    10.3780   726.2010     9.8460     2.4900     0.0020    84.6010
 1140.5000   -63.7620   544.5780    11.3380     9.5880    10.2790   726.2790     9.8470     2.4930     0.0010    87.8930
 1141.0000   -63.5690   544.6480    11.6420     9.4770    10.1790   726.3580     9.8470     2.4950     0.0000    86.1780
 1141.5000   -63.3680   544.7180    11.8930     9.3400    10.0560   726.4360     9.8470     2.4880     0.0000    82.9710
 1142.0000   -63.3210   544.7880    12.2070     9.4020    10.1310   726.5150     9.8470     2.4820     0.0000    81.1220
 1142.5000   -63.3200   544.8590    11.8850     9.4830    10.2280   726.5930     9.8470     2.4830     0.0000    81.8180
 1143.0000   -63.3200   544.9290    11.3380     9.5630    10.3260   726.6710     9.8470     2.4940     0.0000    82.4800
 1143.5000   -63.3200   544.9990    11.5610     9.6430    10.4230   726.7500     9.8470     2.5030     0.0000    83.2040
 1144.0000   -63.3200   545.0690    11.8710     9.7240    10.5200   726.8280     9.8570     2.5060     0.0000    81.1020
 1144.5000   -63.3190   545.1390    12.0950     9.7820    10.4120   726.9070     9.8750     2.5000    -0.0010    78.3810
 1145.0000   -63.3370   545.2090    11.7760     9.6160    10.2780   726.9850     9.8940     2.4950    -0.0010    79.7680
 1145.5000   -63.3560   545.2790    11.5260     9.4860    10.1440   727.0630     9.9120     2.4890    -0.0010    81.1240
 1146.0000   -63.3760   545.3490    11.2770     9.3560    10.0100   727.1420     9.9300     2.4860    -0.0010    79.8180
 1146.5000   -63.3960   545.4190    11.0280     9.2270     9.8760   727.2200     9.9490     2.4890    -0.0010    78.4360
 1147.0000   -63.4150   545.4890    10.7270     9.0970     9.7420   727.2990     9.9670     2.4840    -0.0010    78.8060
 1147.5000   -63.4350   545.5590    10.8580     8.9680     9.6080   727.3770     9.9850     2.4790    -0.0010    80.7570
 1148.0000   -63.4540   545.6300    11.1060     8.8380     9.4740   727.4550    10.0040     2.4770    -0.0010    85.8240
 1148.5000   -63.4740   545.7000    11.0450     8.7080     9.3400   727.5340    10.0220     2.4820    -0.0010    88.7840
 1149.0000   -63.4940   545.7700    10.8020     8.5170     9.1700   727.6120    10.0410     2.4880     0.0000    86.6550
 1149.5000   -63.5120   545.8400    10.5600     8.5840     9.2490   727.6910    10.0390     2.4950     0.0020    84.6970
 1150.0000   -63.5830   545.9100    10.2440     8.7120     9.3990   727.7690    10.0290     2.4950     0.0030    83.6300
 1150.5000   -63.6720   545.9800    10.3550     8.8390     9.5500   727.8470    10.0190     2.4910     0.0040    84.6590
 1151.0000   -63.7620   546.0500    10.5140     8.9670     9.7000   727.9260    10.0090     2.5040     0.0060    84.8420
 1151.5000   -63.8510   546.1200    10.6990     9.0950     9.8510   728.0040     9.9990     2.5190     0.0060    84.6270
 1152.0000   -63.9350   546.1900    10.9510     9.2220    10.0020   728.0830     9.9890     2.5120     0.0040    85.7660
 1152.5000   -64.0060   546.2600    11.2040     9.3500    10.1520   728.1610     9.9790     2.4990     0.0020    87.4840
 1153.0000   -64.0760   546.3300    11.4560     9.4780    10.3030   728.2390     9.9690     2.4870    -0.0010    82.9470
 1153.5000   -64.1190   546.4010    11.7090     9.6060    10.4530   728.3180     9.9670     2.4890    -0.0030    79.1450
 1154.0000   -64.1290   546.4710    11.9610     9.7330    10.6040   728.3960     9.9700     2.4920    -0.0030    78.4330
 1154.5000   -64.1390   546.5410    12.2070     9.8610    10.7190   728.4750     9.9720     2.4930    -0.0010    78.8300
 1155.0000   -64.1490   546.6110    12.1350     9.9890    10.8270   728.5530     9.9750     2.4940     0.0000    77.5860
 1155.5000   -64.1580   546.6810    12.0590    10.1160    10.9360   728.6320     9.9770     2.5030     0.0010    76.2590
 1156.0000   -64.1680   546.7510    11.9720    10.2440    11.0440   728.7100     9.9800     2.5130     0.0030    79.0390
 1156.5000   -64.1780   546.8210    11.8850    10.1610    11.1310   728.7880     9.9820     2.5130     0.0040    81.2870
 1157.0000   -64.1870   546.8910    11.7990    10.0790    11.0040   728.8670     9.9850     2.5120     0.0040    82.5070
 1157.5000   -64.1970   546.9610    11.7120     9.9970    10.8980   728.9450     9.9870     2.5100     0.0040    80.4230
 1158.0000   -64.2070   547.0310    11.6250     9.9150    10.7920   729.0240     9.9890     2.5060     0.0040    79.1060
 1158.5000   -64.2160   547.1010    11.5380     9.8330    10.6870   729.1020     9.9920     2.4940     0.0040    80.3470
 1159.0000   -64.2260   547.1720    11.4520     9.7510    10.5810   729.1800     9.9940     2.4850     0.0040    81.9920
 1159.5000   -64.2360   547.2560    11.3650     9.6680    10.4750   729.2590     9.9970     2.4830     0.0040    82.3740
 1160.0000   -64.2450   547.3450    11.2780     9.5860    10.3690   729.3370     9.9990     2.4830     0.0040    81.2550
 1160.5000   -64.2550   547.4340    11.1920     9.5040    10.2630   729.4160    10.0020     2.4840     0.0030    80.1760
 1161.0000   -64.2650   547.5230    11.1050     9.4220    10.1490   729.4940    10.0040     2.4910     0.0030    79.9440
 1161.5000   -64.2740   547.6120    11.0160     9.3400    10.0660   729.5720    10.0050     2.4960     0.0030    82.7460
 1162.0000   -64.2840   547.7000    10.9130     9.2580     9.9760   729.6510    10.0030     2.4890     0.0030    85.1600
 1162.5000   -64.2940   547.7890    10.8090     9.1760     9.8860   729.7290    10.0010     2.4820     0.0030    83.0470
 1163.0000   -64.3030   547.8780    10.7050     9.0940     9.7960   729.8080     9.9980     2.4810     0.0030    80.8650
 1163.5000   -64.3130   547.9670    10.6010     9.0120     9.7060   729.8860     9.9960     2.4860     0.0020    78.7160
 1164.0000   -64.3230   548.0560    10.4980     8.9300     9.6160   729.9640     9.9940     2.4950     0.0020    76.5780
 1164.5000   -64.3320   548.1450    10.3380     8.8940     9.5260   730.0430     9.9920     2.5050     0.0020    75.8180
 1165.0000   -64.3420   548.2340    10.4520     8.8650     9.4740   730.1210     9.9890     2.5020     0.0020    76.8600
 1165.5000   -64.3520   548.3230    10.6980     8.8370     9.4280   730.2000     9.9870     2.5000     0.0020    77.8890
 1166.0000   -64.3620   548.4120    10.9440     8.8080     9.3820   730.2780     9.9850     2.5010     0.0020    78.9200
 1166.5000   -64.3720   548.5010    11.1310     8.7790     9.3360   730.3560     9.9820     2.5060     0.0020    79.7400
 1167.0000   -64.3810   548.5900    11.0170     8.7510     9.2900   730.4350     9.9800     2.5070     0.0010    79.5970
 1167.5000   -64.3910   548.6790    10.9250     8.7220     9.2440   730.5130     9.9780     2.5080     0.0010    79.4660
 1168.0000   -64.4010   548.7680    10.8330     8.6930     9.1980   730.5920     9.9750     2.5060     0.0010    79.3060
 1168.5000   -64.4110   548.8560    10.7410     8.6640     9.1520   730.6700     9.9730     2.5030     0.0010    80.4600
 1169.0000   -64.4200   548.9450    10.6500     8.6360     9.1050   730.7480     9.9710     2.5000     0.0010    81.8090
 1169.5000   -64.4300   549.0340    10.5580     8.6070     9.0590   730.8270     9.9690     2.4980     0.0010    83.1980
 1170.0000   -64.4400   549.1230    10.4660     8.5780     9.0130   730.9050     9.9660     2.4940     0.0000    82.9570
 1170.5000   -64.4500   549.2120    10.3740     8.5500     8.9670   730.9840     9.9500     2.4890     0.0000    81.7980
 1171.0000   -64.4590   549.3010    10.2820     8.5210     8.9190   731.0620     9.9340     2.4840     0.0000    80.6570
