~VERSION INFORMATION
 VERS.                2.0:   CWLS LOG ASCII STANDARD - VERSION 2.0
 WRAP.                 NO:   ONE LINE PER DEPTH STEP
~WELL INFORMATION
#MNEM.UNIT      DATA TYPE    INFORMATION
#----------   ------------   ------------------------------
 STRT.F          600.0000:   START DEPTH
 STOP.F         3201.0000:   STOP DEPTH
 STEP.F            0.5000:   STEP LENGTH
 NULL.          -999.2500:   NO VALUE
 COMP.    FENIX & SCISSON:   COMPANY
 WELL. FENIX & SCISSON 38 "AX" #3-34:   WELL
 FLD .              NPR 3:   FIELD
 LOC .      S34 T39N R78W:   LOCATION
 CNTY.            NATRONA:   COUNTY
 STAT.            WYOMING:   STATE
 CTRY. UNITED STATES OF AMERICA:   COUNTRY
 SRVC.              WELEX:   SERVICE COMPANY
 DATE.        16-SEP-1980:   LOGDATE
 API .     49025108560000:   API NUMBER
~CURVE INFORMATION
#MNEM.UNIT       API CODE    CURVE DESCRIPTION
#----------   ------------   ------------------------------
 DEPT.F                  :   
 CORR.G/C3   45 356 01 00:   DENSITY CORRECTION
 GRD .GAPI   45 310 01 00:   GAMMA RAY FROM DENSITY LOG
 RHOB.G/C3   45 350 01 00:   BULK DENSITY
 TEND.LBS    45 635 01 00:   TENSION FORM DENSITY LOG
 CALD.IN     45 280 60 00:   CALIPER FROM DENSITY LOG
 SPR .MV     07 010 01 00:   SPONTANEOUS POTENTIAL FROM RES.
 ILD .OHMM   07 120 46 00:   DEEP INDUCTION RESISTIVITY
 ILM .OHMM   07 120 44 00:   INDUCTION LOG MEDIUM RESISTIVITY
 GURD.OHMM   07 220 05 00:   GUARD LOG RESISTIVITY
~PARAMETER INFORMATION
#MNEM.UNIT          VALUE    DESCRIPTION
#----------   ------------   ------------------------------
 EKB .F         5205.0000:   Kelly bushing
 EGL .F         5195.0000:   Ground level
 TD  .F         3202.0000:   Total depth
 CLNT.            A2DTECH:   Client Code
 SL  . 582' FSL & 1600' FWL:   Surface Location
 PD  .                 GL:   Permanent Datum
 EPD .F              5195:   Elevation Permanent Datum
 LMF .                 KB:   Log Measured From
 DMF .                 KB:   Drilling Measured From
 DAPD.F                10:   Feet Above Permanent Datum
 DATE.        16-SEP-1980:   Date Logged [DD-MMM-YYYY]
 DD  .F              3200:   Depth driller
 DL  .F              3203:   Depth logger
 BLI .F              3201:   Bottom log interval
 TLI .F               600:   Top log interval
 CS1 .IN            8.625:   Casing size
 CBD1.      8.625" @ 580':   Casing driller 1
 CBL1.F               600:   Casing logger 1
 BS1 .IN            7.875:   Bit size
 BSD1.F              3200:   Depth drilled with bit1
 DFT .          DISPERSED:   Type fluid in hole
 DFD .                8.8:   Density
 DFV .                 40:   Viscosity
 DFPH.                 11:   pH
 DFL .                  8:   Fluid loss
 MSS .           FLOWLINE:   Source of sample
 RMS .OHMM           1.33:   Rm
 MST .F                65:   Rm Meas. temp.
 RMF .OHMM           1.15:   Rmf
 MFST.F                65:   Rmf Meas. temp.
 MFSS.               MEAS:   Source Rmf.
 RMC .OHMM           1.50:   Rmc
 MCST.F                65:   Rmc Meas. temp.
 MCSS.               MEAS:   Source Rmc.
 RMB .OHMM            .75:   Rm. at BHT
 BHT .F               115:   BHT.
 TCS .HRS               8:   Time Circ. stopped
 MRT .F               115:   Maximum recorded temp.
 LUN .               1892:   Logging unit number
 LUL .             CASPER:   Logging unit location
 ENGI.    PERIMMER / REIN:   Recorded By
 WITN.              FIVAS:   Witnessed by
 ORIG.         2.5" PRINT:   Origin of data
 UWI .     49025108560000:   Unique Well ID
 DICO. A2D TECHNOLOGIES, INC.:   Digitizing Company
~OTHER INFORMATION
~A   DEPT       CORR       GRD        RHOB      TEND       CALD       SPR          ILD        ILM       GURD 
# ...
  782.5000     0.0783    44.1128     2.5401   542.1687    11.6964   -38.1702     6.1141     5.9610     6.1633
  783.0000     0.0783    43.6489     2.5340   542.1687    11.5943   -37.8886     6.2252     5.9553     6.2087
  783.5000     0.0813    45.0719     2.5276   542.1687    11.6097   -37.9093     6.2757     5.9506     6.2027
  784.0000     0.0813    46.1496     2.5235   542.1687    11.6825   -37.6265     6.2700     5.8642     6.1978
  784.5000     0.0843    47.3892     2.5298   542.1687    11.7188   -37.3437     6.0944     5.7789     6.1930
  785.0000     0.0813    47.3803     2.5341   542.1687    11.6811   -37.3645     6.0062     5.7582     6.1867
  785.5000     0.0813    46.7108     2.5356   522.8433    11.5906   -37.3840     5.8380     5.6116     6.0863
  786.0000     0.0813    46.6960     2.5280   512.0482    11.6898   -37.4036     5.7438     5.5720     5.9875
  786.5000     0.0813    46.6811     2.5265   512.0482    11.7987   -37.1254     5.6698     5.5244     5.8400
  787.0000     0.0813    46.2171     2.5340   512.0482    11.6875   -37.1439     5.6655     5.5970     5.7549
  787.5000     0.0823    46.3136     2.5339   512.0482    11.5739   -36.8611     5.6612     5.5927     5.7493
  788.0000     0.0843    48.1977     2.5310   512.0482    11.5569   -36.8795     5.7358     5.5883     5.7448
  788.5000     0.0843    48.8672     2.5365   512.0482    11.7656   -36.5967     5.7309     5.5837     5.8203
  789.0000     0.0843    47.2905     2.5400   512.0482    11.5853   -36.9187     5.8067     5.5957     5.8158
  789.5000     0.0843    47.0336     2.5423   512.0482    11.5546   -37.3524     5.8025     5.6530     5.8923
  790.0000     0.0813    47.9169     2.5575   512.0482    11.6168   -37.5602     5.8792     5.6475     5.9698
  790.5000     0.0778    50.1476     2.5385   512.0482    11.7927   -37.5833     5.8745     5.6419     5.9643
  791.0000     0.0657    49.6836     2.5189   512.0482    11.7919   -37.9029     5.8700     5.6375     5.9593
  791.5000     0.0563    47.8317     2.5098   512.0482    11.7386   -38.5237     5.8655     5.6331     5.9877
  792.0000     0.0542    45.9880     2.4971   512.0482    11.6259   -38.8434     5.8603     5.5513     6.0317
  792.5000     0.0542    46.0462     2.4798   512.0482    11.5500   -38.8629     5.6961     5.5467     5.9445
  793.0000     0.0572    46.2036     2.4712   542.1687    11.6990   -38.8825     5.6138     5.5249     5.9394
  793.5000     0.0663    46.0127     2.4715   542.1687    11.6983   -39.2033     5.6097     5.4614     5.8461
  794.0000     0.0843    44.1978     2.4828   542.1687    11.6377   -39.2229     5.6054     5.4568     5.7677
  794.5000     0.0873    43.2847     2.4708   542.1687    11.6370   -39.2459     5.6012     5.3765     5.6836
  795.0000     0.0779    45.5154     2.4617   542.1687    11.6771   -38.9631     5.5969     5.3723     5.6789
  795.5000     0.0723    45.0514     2.4602   512.0482    11.7731   -38.9816     5.5926     5.2942     5.6742
  796.0000     0.0745    43.2036     2.4587   542.1687    11.8567   -38.3976     5.5877     5.2901     5.6688
  796.5000     0.0888    42.7761     2.4757   542.1687    11.7978   -38.0783     5.5837     5.2857     5.6643
  797.0000     0.1024    44.3847     2.4930   542.1687    11.7529   -37.7591     5.6577     5.2813     5.7388
  797.5000     0.0964    44.7979     2.5136   542.1687    11.7522   -37.1386     5.6534     5.3039     5.7342
  798.0000     0.0843    42.2066     2.5148   542.1687    11.7814   -36.9699     5.7282     5.3461     5.8239
  798.5000     0.0723    41.3620     2.4918   542.1687    11.8106   -36.6883     5.7464     5.3409     5.6435
  799.0000     0.0633    42.2453     2.4857   542.1687    11.8997   -36.7101     5.7998     5.3367     5.7201
  799.5000     0.0649    44.9250     2.4827   542.1687    11.8559   -37.0298     5.7713     5.3325     5.7491
  800.0000     0.0813    44.4611     2.5218   511.9629    11.7373   -37.0482     5.6755     5.3286     5.8464
  800.5000     0.0813    44.4504     2.5323   511.6918    11.6579   -36.8536     5.6284     5.3243     5.8026
  801.0000     0.0783    44.8917     2.5203   511.4207    11.7769   -36.7811     5.6249     5.3950     5.7025
  801.5000     0.0753    47.1287     2.5278   511.1446    11.7163   -37.2093     5.6214     5.3915     5.6986
  802.0000     0.0725    47.1198     2.5220   510.8434    11.6856   -37.5642     5.6179     5.4631     5.6163
  802.5000     0.0663    47.6534     2.5110   510.4841    11.6849   -37.7444     5.6137     5.4769     5.6117
  803.0000     0.0633    48.5913     2.5037   510.2410    11.6841   -37.7615     5.6104     5.5581     5.6080
  803.5000     0.0572    50.3600     2.5052   509.9154    11.7257   -37.7786     5.6071     5.6047     5.6044
  804.0000     0.0572    49.4790     2.5082   509.6310    11.7725   -37.7956     5.6038     5.6008     5.6007
  804.5000     0.0574    43.9296     2.5157   509.3373    11.7416   -37.8133     5.6004     5.6744     5.5970
  805.0000     0.0638    45.2684     2.5235   509.0362    11.7110   -37.8313     5.6099     5.6707     5.6714
  805.5000     0.0735    46.6078     2.5298   508.7350    11.7403   -37.5456     5.6719     5.7460     5.6671
  806.0000     0.0904    45.7005     2.5307   508.4337    11.7096   -37.5663     5.7476     5.7422     5.6632
  806.5000     0.0904    44.7261     2.5271   508.1326    11.7104   -37.5843     5.7434     5.7382     5.6593
  807.0000     0.0904    43.8038     2.5239   507.7826    11.7871   -37.6053     5.8192     5.7342     5.6547
  807.5000     0.0994    44.1392     2.5187   507.5301    11.8871   -37.3193     5.8969     5.7302     5.7302
  808.0000     0.1024    45.7545     2.5081   507.2138    11.8563   -37.0361     5.8123     5.7263     5.7261
  808.5000     0.1054    48.1370     2.5021   506.9278    11.8555   -36.7529     5.7290     5.7215     5.7224
  809.0000     0.1184    51.0343     2.4811   506.6265    11.8546   -36.4688     5.7255     5.7178     5.8793
  809.5000     0.1332    51.9252     2.4732   506.3253    11.8840   -36.4879     5.7392     5.7141     5.8978
  810.0000     0.1355    51.9155     2.4467   506.0241    11.9131   -36.5060     5.8795     5.7103     5.9859
  810.5000     0.1060    51.0087     2.4404   505.7229    11.9723   -36.6702     5.9572     5.7065     6.0753
  811.0000     0.0900    49.6302     2.4491   505.3653    11.9416   -36.8468     5.9535     5.7025     6.1421
  811.5000     0.0783    49.1235     2.4436   505.0809    11.8738   -36.8638     5.8674     5.6202     6.0227
  812.0000     0.0633    47.8395     2.4118   534.9171    11.8504   -36.8809     5.7833     5.5864     5.9360
  812.5000     0.0542    49.1782     2.4043   534.6327    12.0092   -36.8979     5.7004     5.5352     5.8505
  813.0000     0.0391    47.4013     2.4103   534.3373    11.9195   -37.2169     5.6970     5.5307     5.7661
  813.5000     0.0440    44.6659     2.4569   534.0362    11.7283   -37.2349     5.7054     5.6047     5.7813
  814.0000     0.0618    43.7592     2.4826   533.7350    11.7575   -37.2530     5.7907     5.6789     5.9205
  814.5000     0.0663    42.8525     2.4874   533.4338    11.8764   -37.2711     5.8467     5.7540     5.9982
  815.0000     0.0663    42.8440     2.4934   533.1326    11.9057   -37.4548     5.8832     5.8304     5.9109
  815.5000     0.0633    43.3069     2.4975   532.7842    11.8151   -37.6113     5.9202     5.8409     5.9070
  816.0000     0.0633    42.7665     2.4879   532.4998    11.6946   -37.6283     5.9161     5.9040     5.8219
  816.5000     0.0663    41.9202     2.4863   532.2155    11.6995   -37.6454     5.9126     5.8994     5.8181
  817.0000     0.0693    43.1227     2.4930   531.9277    11.8005   -37.6624     5.9091     5.8953     5.8954
  817.5000     0.0753    44.8017     2.4990   531.6265    11.8721   -37.3783     5.9056     5.8905     5.8912
  818.0000     0.0759    46.1886     2.5020   531.3253    11.6916   -37.3976     5.9845     5.8866     5.9698
  818.5000     0.0783    48.1693     2.5050   527.2256    11.8404   -37.1112     5.9804     5.8828     6.0854
