~VERSION INFORMATION
 VERS.                2.0:   CWLS LOG ASCII STANDARD - VERSION 2.0
 WRAP.                 NO:   ONE LINE PER DEPTH STEP
~WELL INFORMATION
#MNEM.UNIT      DATA TYPE    INFORMATION
#----------   ------------   ------------------------------
 STRT.F           10.0000:   START DEPTH
 STOP.F         3234.0000:   STOP DEPTH
 STEP.F            0.5000:   STEP LENGTH
 NULL.          -999.2500:   NO VALUE
 COMP. LAWRENCE ALLISON & ASSOSCIATES:   COMPANY
 WELL. 		  38-X-10:   WELL
 FLD .             NPR #3:   FIELD
 LOC .      S10 T38N R78W:   LOCATION
 CNTY.            NATRONA:   COUNTY
 STAT.            WYOMING:   STATE
 CTRY. UNITED STATES OF AMERICA:   COUNTRY
 SRVC.      DRESSER ATLAS:   SERVICE COMPANY
 DATE.        02-AUG-1986:   LOGDATE
 API .       490251120600:   API NUMBER
~CURVE INFORMATION
#MNEM.UNIT       API CODE    CURVE DESCRIPTION
#----------   ------------   ------------------------------
 DEPT.F                  :   
 GRR .GAPI   07 310 01 00:   GAMMA RAY FROM RESISTIVITY
 SPR .MV     07 010 01 00:   SPONTANEOUS POTENTIAL
 TENR.LBS    07 635 01 00:   TENSION FROM RESISTIVITY
 RILM.OHMM   07 120 44 00:   RESISTIVITY INDUCTION LOG MEDIUM
 CNC .DEC    42 890 03 00:   NEUTRON POROSITY SANDSTONE
 CALD.IN     45 280 60 00:   CALIPER FROM DENSITY LOG
 GRD .GAPI   45 310 01 00:   GAMMA RAY FROM DENSITY LOG
 RHOB.G/C3   45 350 01 00:   BULK DENSITY
 TEND.LBS    45 635 01 00:   TENSION FORM DENSITY LOG
 CORR.G/C3   45 356 01 00:   DENSITY CORRECTION
 RILD.OHMM   07 120 46 00:   RESISTIVITY INDUCTION LOG DEEP
 RFOC.OHMM   07 220 04 00:   RESISTIVITY FOCUSED
~PARAMETER INFORMATION
#MNEM.UNIT          VALUE    DESCRIPTION
#----------   ------------   ------------------------------
 EKB .F         5224.0000:   Kelly bushing
 EGL .F         5212.0000:   Ground level
 EDF .F            0.0000:   Drilling floor
 TD  .F         3231.0000:   Total depth
 CLNT.            A2DTECH:   Client Code
 SL  . 296' FSL & 1435' FWL:   Surface Location
 PD  .                 GL:   Permanent Datum
 EPD .F              5212:   Elevation Permanent Datum
 LMF .                 KB:   Log Measured From
 DMF .                 KB:   Drilling Measured From
 DAPD.F                12:   Feet Above Permanent Datum
 DATE.        02-AUG-1986:   Date Logged [DD-MMM-YYYY]
 DD  .F              3230:   Depth driller
 DL  .F              3231:   Depth logger
 BLI .F              3229:   Bottom log interval
 TLI .F                11:   Top log interval
 CS1 .IN            8.625:   Casing size
 CBD1.      8.625" @ 626':   Casing driller 1
 CBL1.F               626:   Casing logger 1
 BS1 .IN            7.875:   Bit size
 BSD1.F              3230:   Depth drilled with bit1
 DFT .            KCL-GEL:   Type fluid in hole
 DFD .                  9:   Density
 DFV .                 36:   Viscosity
 DFPH.               10.5:   pH
 DFL .                 12:   Fluid loss
 MSS .           FLOWLINE:   Source of sample
 RMS .OHMM          0.263:   Rm
 MST .F               100:   Rm Meas. temp.
 RMF .OHMM          0.197:   Rmf
 MFST.F               100:   Rmf Meas. temp.
 MFSS.               MEAS:   Source Rmf.
 RMC .OHMM          0.329:   Rmc
 MCST.F               100:   Rmc Meas. temp.
 MCSS.               CALC:   Source Rmc.
 RMB .OHMM          0.193:   Rm. at BHT
 BHT .F               136:   BHT.
 TCS .HRS               5:   Time Circ. stopped
 MRT .F               136:   Maximum recorded temp.
 LUN .            HL-6274:   Logging unit number
 LUL .           GILLETTE:   Logging unit location
 ENGI.            PANASUK:   Recorded By
 WITN.             STRONG:   Witnessed by
 ORIG.        2" 5" PRINT:   Origin of data
 UWI .       490251120600:   Unique Well ID
 DICO. A2D TECHNOLOGIES, INC.:   Digitizing Company
~OTHER INFORMATION
~A   DEPT       GRR       SPR       TENR       RILM        CNC       CALD        GRD       RHOB       TEND       CORR       RILD       RFOC   
# ...
 2726.0000    78.3269    -7.4364   -53.6254    11.6604     0.1901     9.6048    79.5650     2.4247    -5.4353     0.0077    16.6260    14.7635
 2726.5000    80.4452    -7.7455   -46.0725    11.2501     0.1895     9.6194    81.0891     2.4233   -13.0398    -0.0013    15.8340    15.3008
 2727.0000    81.6551    -8.5101   -46.0725    10.9522     0.1919     9.6188    80.7951     2.4214   -20.6443     0.0018    15.5063    15.6062
 2727.5000    79.2273    -9.1220   -46.0725    10.9522     0.1986     9.6181    78.9859     2.4105   -28.2488     0.0079    15.9448    14.7571
 2728.0000    77.3617   -10.0369   -46.0725    10.9522     0.1986     9.6175    78.3866     2.4007   -35.8533    -0.0027    16.1687    13.9546
 2728.5000    78.0086   -10.6488   -46.0725    11.1058     0.1980     9.6170    79.6100     2.4075   -35.9277    -0.0059    16.1687    13.3811
 2729.0000    79.5208   -11.4122   -46.9304    11.3402     0.1998     9.6163    82.3462     2.4166   -43.5322     0.0202    16.1687    13.3743
 2729.5000    81.9422   -11.8887   -53.6254    11.8327     0.2022     9.6243    85.6886     2.4265   -36.0764     0.0310    16.2818    13.9701
 2730.0000    85.5756   -12.4859   -61.1782    12.5011     0.1998     9.6454    89.6370     2.4340   -21.0720     0.0021    16.3958    14.9538
 2730.5000    91.6333   -13.0978   -61.1782    12.3283     0.1976     9.6600    92.6763     2.4318    -6.0861    -0.0240    16.5105    15.6996
 2731.0000    93.7516   -13.4067   -46.0725    12.4144     0.1985     9.6594    92.6853     2.4174     8.8998    -0.0387    16.8595    16.2082
 2731.5000    90.4146   -12.5034   -30.9668    12.5884     0.1982     9.6588    89.9670     2.4038    31.3972    -0.0236    18.0769    16.2813
 2732.0000    87.0784   -11.2971    -7.2051    13.0343     0.1936     9.6429    86.3396     2.4107    46.3830    -0.0022    19.2476    12.7315
 2732.5000    85.5603   -10.0712    14.3505    13.8771     0.1866     9.6423    85.1365     2.4258    38.7786    -0.0006    20.3517    14.4315
 2733.0000    84.0423    -8.5829    14.3505    14.8776     0.1789     9.6417    84.2364     2.4508    38.7042    -0.0187    21.2211    16.1325
 2733.5000    82.8272    -7.3767     6.7976    15.5122     0.1654     9.6412    83.3322     2.4788    30.9801    -0.0414    21.8293    19.2018
 2734.0000    81.6121    -6.3219    -0.7553    15.5383     0.1602     9.6559    81.8302     2.4985    15.4579    -0.0429    21.9739    23.5015
 2734.5000    80.7002    -5.4186    -0.7553    14.6678     0.1633     9.6551    80.6271     2.4880     0.8283    -0.0307    21.6697    25.7278
 2735.0000    83.4238    -4.6669    -0.7553    14.0717     0.1703     9.6697    84.5758     2.4554     0.7530    -0.0079    21.6697    19.3277
 2735.5000    84.9361    -4.0624    -8.3082    13.4024     0.1825     9.6691    84.5848     2.4320     0.6631    -0.0018    21.6697    16.0091
 2736.0000    86.1453    -3.4679   -15.8610    12.6764     0.2033     9.6685    86.7169     2.4169    -6.9413     0.0029    21.5191    14.3173
 2736.5000    87.9605    -3.3207   -15.8610    11.9065     0.2142     9.6678    90.3623     2.4108   -22.0760    -0.0001    20.4872    14.2164
 2737.0000    91.0407    -3.1750   -23.4139    11.2615     0.2063     9.6520    92.7955     2.4079    -7.0901     0.0166    17.7027    14.7182
 2737.5000    93.1055    -3.4853   -23.4139    10.5042     0.1974     9.6514    91.2894     2.4045   -14.6946     0.0197    15.5063    14.8192
 2738.0000    91.2844    -3.7942   -23.4139     9.9935     0.1940     9.6509    86.7529     2.3981   -22.2991     0.0107    14.3455    13.4883
 2738.5000    84.9179    -3.8000   -30.9668     9.6623     0.1971     9.6503    81.3074     2.3966   -29.8946    -0.0120    14.1626    12.7969
 2739.0000    80.3695    -3.4809   -38.5196     9.4626     0.1920     9.6497    78.2861     2.3989   -37.5081    -0.0210    14.2617    13.2496
 2739.5000    77.9424    -2.9040   -46.0725     9.3970     0.1869     9.6491    77.3837     2.3967   -37.5824    -0.0255    14.4620    13.1553
 2740.0000    80.4246    -2.3038   -46.0725     9.7298     0.1946     9.6636    81.9404     2.3929   -37.6568    -0.0300    14.8710    12.8813
 2740.5000    81.8759    -2.0051   -38.5196    10.0745     0.2034     9.7084    82.5533     2.3922   -22.6709    -0.0254    15.1853    13.0604
 2741.0000    81.5693    -1.4064   -30.9668    10.5219     0.2043     9.7381    80.7441     2.3929   -22.7453    -0.0143    15.5193    13.5332
 2741.5000    82.4754    -1.1092   -30.9668    10.8763     0.2006     9.8132    81.0584     2.3922   -30.3498     0.0118    15.9448    14.2952
 2742.0000    83.0793    -0.6605   -46.0725    10.8008     0.1957     9.8581    82.5825     2.3915   -30.4242     0.0218    16.2818    14.8004
 2742.5000    81.8636    -0.9708   -53.6254    10.7259     0.1908     9.8880    82.8923     2.3892   -38.0287     0.0097    16.6260    14.5935
 2743.0000    80.6343    -1.7342   -61.1782    10.7259     0.1847     9.9025    80.7801     2.3892   -45.6332    -0.0008    16.9774    13.8965
 2743.5000    79.4328    -2.9521   -68.7311    11.1058     0.1829     9.9321    79.2762     2.3946   -45.7078    -0.0008    17.2158    13.2327
 2744.0000    80.0359    -4.4731   -68.7311    11.5795     0.1883     9.9467    78.6791     2.4044   -38.2518    -0.0007    17.5895    13.5332
 2744.5000    82.7603    -5.6910   -68.7311    11.8239     0.1957     9.9474    80.8093     2.4128   -30.7960     0.0039    17.9513    14.6872
 2745.0000    83.6664    -6.7674   -61.1782    11.9897     0.1960     9.9756    84.7577     2.4196   -32.1385     0.0115    17.8266    15.3126
 2745.5000    84.5727    -7.8254   -46.0725    12.0734     0.1947     9.9903    85.6758     2.4197   -46.0236     0.0161    17.8266    15.9646
 2746.0000    84.5611    -8.5888   -46.0725    12.2427     0.1953    10.0049    83.2498     2.4090   -53.6281     0.0147    18.3307    15.8516
 2746.5000    81.2327    -8.7461   -68.7311    12.2427     0.1962    10.0195    79.5831     2.4060   -53.7025     0.0087    18.7182    14.8854
 2747.0000    77.2904    -8.2974   -76.2840    12.3317     0.1938    10.0642    75.9774     2.4092   -61.2884     0.0027    19.1190    14.0681
 2747.5000    74.5603    -7.8487   -76.2840    12.4144     0.1931    10.0636    74.1967     2.4177   -46.3211     0.0042    19.5178    13.4033
 2748.0000    76.6786    -7.2484   -76.2840    12.5011     0.1943    10.0933    75.2729     2.4269   -38.8467     0.0134    19.7919    13.5897
 2748.5000    80.6150    -6.3466   -76.2840    12.5884     0.1946    10.1230    81.1866     2.4349   -38.9397     0.0210    18.7182    14.1683
 2749.0000    83.9510    -5.7464   -76.2840    12.5884     0.1943    10.1830    85.1350     2.4410   -54.0743     0.0211    18.2034    14.7716
 2749.5000    86.6691    -4.8431   -76.2840    12.5884     0.1934    10.2126    86.0531     2.4470   -54.1487     0.0181    17.9513    15.4006
 2750.0000    86.3639    -4.3930   -83.8429    12.6764     0.1934    10.2388    85.7568     2.4509   -52.6714     0.0152    18.3306    14.8708
 2750.5000    85.4451    -3.7648   -68.6465    12.6754     0.1952    10.2873    86.4100     2.4599   -43.3547     0.0106    18.2021    15.5051
 2751.0000    89.0727    -3.6393   -61.0212    12.7633     0.1930    10.2717    88.4979     2.4675   -24.2589     0.0122    18.2008    16.2795
 2751.5000    92.1950    -4.0956   -38.2900    12.7622     0.1991    10.2865    91.5341     2.4743    -1.7227     0.0329    18.0729    17.0926
 2752.0000    93.2977    -4.7032   -30.6647    12.7614     0.1978    10.2860    90.9338     2.4773   -24.4034     0.0622    18.1984    17.5748
 2752.5000    91.1656    -5.3107   -31.8479    12.6718     0.1954    10.3007    88.8184     2.4796   -47.0660     0.0502    18.3245    15.8285
 2753.0000    89.6417    -5.7667   -68.2658    12.6710     0.1947    10.3155    88.8242     2.4796   -46.9852     0.0229    18.0693    16.1618
 2753.5000    89.6330    -6.2665   -75.7644    12.5822     0.1975    10.3302    90.0436     2.4827   -32.1682     0.0063    17.5711    16.5023
