~VERSION INFORMATION
 VERS.                2.0:   CWLS LOG ASCII STANDARD - VERSION 2.0
 WRAP.                 NO:   ONE LINE PER DEPTH STEP
~WELL INFORMATION
#MNEM.UNIT      DATA TYPE    INFORMATION
#----------   ------------   ------------------------------
 STRT.F          150.0000:   START DEPTH
 STOP.F         2929.0000:   STOP DEPTH
 STEP.F            0.5000:   STEP LENGTH
 NULL.          -999.2500:   NO VALUE
 COMP.    FENIX & SCISSON:   COMPANY
 WELL.    FENIX AX #12-28:   WELL
 FLD .        TEAPOT DOME:   FIELD
 LOC .      S28 T39N R78W:   LOCATION
 CNTY.            NATRONA:   COUNTY
 STAT.            WYOMING:   STATE
 CTRY. UNITED STATES OF AMERICA:   COUNTRY
 SRVC.           BIRDWELL:   SERVICE COMPANY
 DATE.        06-JUN-1978:   LOGDATE
 API .     49025106420000:   API NUMBER
~CURVE INFORMATION
#MNEM.UNIT       API CODE    CURVE DESCRIPTION
#----------   ------------   ------------------------------
 DEPT.F                  :   
 SPR .MV     05 010 01 00:   SPONTANEOUS POTENTIAL
 SN  .OHMM   05 040 16 00:   SHORT NORMAL 16"
 ILD .OHMM   05 120 46 00:   INDUCTION LOG DEEP RESISTIVITY
 RHOB.G/C3   45 350 01 00:   BULK DENSITY
 CORR.G/C3   45 356 01 00:   DENSITY CORRECTION
 GRD .GAPI   45 310 01 00:   GAMMA RAY FROM DENSITY LOG
 CALD.IN     45 280 60 00:   CALIPER FROM DENSITY LOG
~PARAMETER INFORMATION
#MNEM.UNIT          VALUE    DESCRIPTION
#----------   ------------   ------------------------------
 EKB .F         5000.0000:   Kelly bushing
 EGL .F         4990.0000:   Ground level
 EDF .F            0.0000:   Drilling floor
 EPD .F         5005.0000:   Permanent datum
 TD  .F         2911.0000:   Total depth
 DATE.        06-JUN-1978:   Date logged
 CLNT.            A2DTECH:   Client Code
 SL  . 1250' FNL & 225' FWL:   Surface Location
 PD  .                 GL:   Permanent Datum
 LMF .                 KB:   Log Measured From
 DMF .                 KB:   Drilling Measured From
 DAPD.F                10:   Feet Above Permanent Datum
 DD  .F              2911:   Depth driller
 DL  .F              2912:   Depth logger
 BLI .F              2906:   Bottom log interval
 TLI .F               200:   Top log interval
 CS1 .IN            8.625:   Casing size
 CBD1.      8.625" @ 225':   Casing driller 1
 CBL1.F               225:   Casing logger 1
 BS1 .IN            7.875:   Bit size
 BSD1.F              2911:   Depth drilled with bit1
 DFT .       OIL BASE MUD:   Type fluid in hole
 DFD .                9.2:   Density
 DFV .                 35:   Viscosity
 DFPH.               10.5:   pH
 DFL .                  2:   Fluid loss
 TCS .HRS             3.5:   Time Circ. stopped
 LUN .               2958:   Logging unit number
 LUL .               CASP:   Logging unit location
 ENGI.            POINTER:   Recorded By
 WITN.           MCGINLEY:   Witnessed by
 ORIG.           5" PRINT:   Origin of data
 UWI .     49025106420000:   Unique Well ID
 DICO. A2D TECHNOLOGIES, INC.:   Digitizing Company
~OTHER INFORMATION
~A   DEPT      SPR         SN        ILD       RHOB       CORR         GRD      CALD   
# ...
  923.5000   -33.9830     6.6610     5.8850     2.5170     0.0210    88.5470    10.2050
  924.0000   -33.6680     6.7680     5.9060     2.5120     0.0190    90.3960    10.2040
  924.5000   -33.5420     6.8380     5.9280     2.5070     0.0190    90.9670    10.2030
  925.0000   -34.0280     6.8650     5.9500     2.5070     0.0180    90.9670    10.2010
  925.5000   -34.5000     6.8920     5.9720     2.5100     0.0180    89.9440    10.2000
  926.0000   -34.8650     6.9200     5.9940     2.5080     0.0180    88.9370    10.1990
  926.5000   -34.8310     6.9470     6.0300     2.5080     0.0170    87.9320    10.1980
  927.0000   -34.4970     6.9740     6.0700     2.5130     0.0170    86.9540    10.1970
  927.5000   -34.1560     7.0020     6.1100     2.5130     0.0180    86.8210    10.1960
  928.0000   -34.2650     7.0290     6.1510     2.5110     0.0240    87.2140    10.1950
  928.5000   -34.6490     7.0560     6.1910     2.5160     0.0290    87.6280    10.2160
  929.0000   -35.0310     7.0840     6.2310     2.5130     0.0350    86.9090    10.2210
  929.5000   -35.4120     7.1110     6.2720     2.5120     0.0370    85.3520    10.2270
  930.0000   -35.2030     7.1380     6.3120     2.5160     0.0470    83.9410    10.2340
  930.5000   -34.3840     7.1860     6.3520     2.5210     0.0480    85.4650    10.2400
  931.0000   -33.9010     7.2410     6.3930     2.5230     0.0480    85.7640    10.2460
  931.5000   -34.1980     7.2970     6.4330     2.5220     0.0470    85.4100    10.2530
  932.0000   -34.5990     7.3530     6.4750     2.5170     0.0510    85.0370    10.2590
  932.5000   -35.1620     7.4090     6.5190     2.5130     0.0550    84.5990    10.2650
  933.0000   -35.0000     7.4640     6.5620     2.5080     0.0570    84.8580    10.2710
  933.5000   -34.8750     7.5200     6.6060     2.5060     0.0570    84.8050    10.2780
  934.0000   -34.0960     7.5760     6.6520     2.5050     0.0570    83.5880    10.2840
  934.5000   -33.8590     7.6310     6.7040     2.5030     0.0570    82.4000    10.2900
  935.0000   -34.3240     7.6870     6.7550     2.5010     0.0570    81.5970    10.2930
  935.5000   -34.8130     7.7430     6.8070     2.5010     0.0520    82.2940    10.2940
  936.0000   -35.4090     7.7980     6.8580     2.5020     0.0460    82.2530    10.2950
  936.5000   -34.8730     7.8540     6.9090     2.5020     0.0450    81.5950    10.2970
  937.0000   -34.2980     7.9100     6.9560     2.5040     0.0450    82.7880    10.2980
  937.5000   -33.9290     7.9660     6.9820     2.5070     0.0440    82.1160    10.2990
  938.0000   -34.5720     8.0210     7.0070     2.5100     0.0390    81.3210    10.3000
  938.5000   -35.2030     8.0770     7.0320     2.5080     0.0330    81.5220    10.3010
  939.0000   -35.5330     8.1290     7.0580     2.5060     0.0280    81.7780    10.3020
  939.5000   -35.7180     8.1420     7.0810     2.4980     0.0280    82.0420    10.3030
  940.0000   -35.6980     8.1540     7.1000     2.4890     0.0280    81.5430    10.3040
  940.5000   -35.4620     8.1660     7.1170     2.4810     0.0290    80.8410    10.3050
  941.0000   -35.2310     8.1780     7.1350     2.4810     0.0290    80.1840    10.3060
  941.5000   -35.4520     8.1900     7.1530     2.4810     0.0300    79.5240    10.3070
  942.0000   -35.7080     8.2020     7.1700     2.4800     0.0310    78.8650    10.3080
  942.5000   -35.6340     8.2140     7.1880     2.4800     0.0310    78.2010    10.3090
  943.0000   -35.3400     8.2260     7.2050     2.4840     0.0310    77.9850    10.3100
  943.5000   -35.0420     8.2380     7.2230     2.4900     0.0320    78.0720    10.3110
  944.0000   -34.7280     8.2500     7.2410     2.4950     0.0320    78.2070    10.3120
  944.5000   -34.4720     8.2620     7.2580     2.5000     0.0320    78.6220    10.3130
  945.0000   -35.3990     8.2740     7.2760     2.5050     0.0320    79.0270    10.3140
  945.5000   -35.4170     8.3150     7.2930     2.5090     0.0330    79.4190    10.3150
  946.0000   -35.3020     8.3840     7.3110     2.5030     0.0330    79.3410    10.3160
  946.5000   -34.8970     8.4520     7.3290     2.4970     0.0290    78.1320    10.3170
  947.0000   -34.5030     8.5210     7.3470     2.4950     0.0250    77.2400    10.3180
  947.5000   -34.3600     8.5900     7.3620     2.4950     0.0220    78.0710    10.3190
  948.0000   -34.2790     8.6580     7.3780     2.4960     0.0190    78.5110    10.3200
  948.5000   -34.6640     8.7270     7.3940     2.4970     0.0180    77.2810    10.3210
  949.0000   -35.6770     8.7950     7.4090     2.4980     0.0180    76.1190    10.3220
  949.5000   -35.6750     8.9160     7.4250     2.4990     0.0170    76.0260    10.3230
  950.0000   -35.5150     9.0790     7.4410     2.5000     0.0170    76.1080    10.3240
  950.5000   -35.3520     9.0790     7.4570     2.5000     0.0160    76.3170    10.3250
  951.0000   -35.1830     8.9220     7.4720     2.5030     0.0160    76.5470    10.3260
  951.5000   -35.0410     8.7500     7.4830     2.5080     0.0150    76.5440    10.3280
  952.0000   -36.1000     8.5790     7.4350     2.5140     0.0150    76.7330    10.3290
  952.5000   -36.5340     8.4340     7.3990     2.5150     0.0180    77.9390    10.3300
  953.0000   -36.3890     8.4340     7.3630     2.5150     0.0210    79.1430    10.3310
  953.5000   -35.4200     8.4340     7.3270     2.5140     0.0250    80.2510    10.3320
  954.0000   -34.9270     8.4340     7.2910     2.5130     0.0240    79.7920    10.3340
  954.5000   -35.0320     8.4340     7.2550     2.5100     0.0230    79.2710    10.3380
  955.0000   -35.5390     8.4340     7.2190     2.5070     0.0210    79.3080    10.3430
  955.5000   -36.0340     8.4340     7.2130     2.5010     0.0200    79.5890    10.3470
  956.0000   -36.2800     8.4340     7.2130     2.4910     0.0190    79.9480    10.3510
  956.5000   -35.6840     8.4340     7.2120     2.4850     0.0200    79.4860    10.3560
  957.0000   -35.1100     8.4340     7.2130     2.4890     0.0260    78.6600    10.3600
  957.5000   -34.9520     8.4340     7.2130     2.4950     0.0340    77.9800    10.3640
  958.0000   -35.2020     8.4340     7.2130     2.4980     0.0410    78.5370    10.3690
  958.5000   -35.4480     8.4340     7.2130     2.4990     0.0430    79.8900    10.3730
  959.0000   -35.5560     8.4340     7.2130     2.4920     0.0440    81.2830    10.3770
  959.5000   -35.3420     8.4340     7.2130     2.4850     0.0460    82.1110    10.3810
  960.0000   -35.1430     8.4340     7.2130     2.4790     0.0470    80.9240    10.3860
  960.5000   -34.9480     8.4340     7.2130     2.5010     0.0490    79.5730    10.3910
  961.0000   -35.1290     8.4340     7.2130     2.4860     0.0380    78.2070    10.3630
  961.5000   -35.9110     8.4340     7.2130     2.4710     0.0240    77.9170    10.3220
  962.0000   -36.6880     8.4340     7.2130     2.4720     0.0150    78.6170    10.3120
  962.5000   -36.6830     8.4340     7.2120     2.4790     0.0170    78.0190    10.3110
  963.0000   -36.3810     8.4340     7.2130     2.4880     0.0180    76.7050    10.3100
  963.5000   -35.8780     8.4340     7.2050     2.4960     0.0210    77.0770    10.3100
  964.0000   -35.7040     8.4340     7.1920     2.5020     0.0260    77.4940    10.3090
  964.5000   -35.8810     8.4290     7.1790     2.5030     0.0290    76.3130    10.3080
  965.0000   -36.0570     8.4070     7.1660     2.5010     0.0230    74.8030    10.3070
  965.5000   -36.1560     8.3860     7.1530     2.4950     0.0190    74.4210    10.3060
  966.0000   -35.7550     8.3640     7.1410     2.4880     0.0180    74.2400    10.3060
  966.5000   -35.3540     8.3420     7.1280     2.4930     0.0180    74.0710    10.3050
  967.0000   -35.0400     8.3210     7.1150     2.4990     0.0170    74.2500    10.3040
  967.5000   -35.2440     8.2990     7.1020     2.4920     0.0210    75.6990    10.3030
  968.0000   -35.4370     8.2750     7.0890     2.4850     0.0250    77.9880    10.3030
  968.5000   -35.6300     8.2370     7.0710     2.4800     0.0270    79.0570    10.3020
