~VERSION INFORMATION
 VERS.                2.0:   CWLS LOG ASCII STANDARD - VERSION 2.0
 WRAP.                 NO:   ONE LINE PER DEPTH STEP
~WELL INFORMATION
#MNEM.UNIT      DATA TYPE    INFORMATION
#----------   ------------   ------------------------------
 STRT.F           11.0000:   START DEPTH
 STOP.F         4154.0000:   STOP DEPTH
 STEP.F            0.5000:   STEP LENGTH
 NULL.          -999.2500:   NO VALUE
 COMP.   LAWRENCE ALLISON:   COMPANY
 WELL. ALLISON NPR 3 "LX" #14-22:   WELL
 FLD .                NPR:   FIELD
 LOC .      S22 T38N R78W:   LOCATION
 CNTY.            NATRONA:   COUNTY
 STAT.            WYOMING:   STATE
 CTRY. UNITED STATES OF AMERICA:   COUNTRY
 SRVC.       DRESER ATLAS:   SERVICE COMPANY
 DATE.        14-APR-1985:   LOGDATE
 API .     49025110230000:   API NUMBER
~CURVE INFORMATION
#MNEM.UNIT       API CODE    CURVE DESCRIPTION
#----------   ------------   ------------------------------
 DEPT.F                  :   
 TEND.LBS    45 635 01 00:   TENSION FROM DENSITY LOG
 RHOB.G/C3   45 350 01 00:   BULK DENSITY
 DRHO.G/C3   45 356 01 00:   DENSITY CORRECTION
 CALD.IN     45 280 60 00:   CALIPER FROM DENSITY LOG
 NPHI.DEC    42 890 03 00:   NEUTRON POROSITY SANDSTONE
 TENR.LBS    07 635 01 00:   TENSION FROM RESISTIVITY
 SPR .MV     07 010 01 00:   SPONTANEOUS POTENTIAL
 GRR .GAPI   07 310 01 00:   GAMMA RAY FROM RESISTIVITY
 RFOC.OHMM   07 220 01 00:   RESISTIVITY FOCUSED LOG RES.
 RILD.OHMM   07 120 46 00:   DEEP INDUCTION RESISTIVITY
 RILM.OHMM   07 120 44 00:   INDUCTION LOG MEDIUM RESISTIVITY
~PARAMETER INFORMATION
#MNEM.UNIT          VALUE    DESCRIPTION
#----------   ------------   ------------------------------
 EKB .F         5230.4000:   Kelly bushing
 EGL .F         5220.4000:   Ground level
 EDF .F            0.0000:   Drilling floor
 TD  .F         4150.0000:   Total depth
 DATE.        14-APR-1985:   Date logged
 CLNT.            A2DTECH:   Client Code
 SL  . 905' FNL & 824' FWL:   Surface Location
 PD  .                 GL:   Permanent Datum
 EPD .F            5220.4:   Elevation Permanent Datum
 LMF .                 KB:   Log Measured From
 DMF .                 KB:   Drilling Measured From
 DAPD.F                10:   Feet Above Permanent Datum
 DD  .F              4150:   Depth driller
 DL  .F              4140:   Depth logger
 BLI .F              4138:   Bottom log interval
 CS1 .IN            8.625:   Casing size
 CBD1.      8.625" @ 738':   Casing driller 1
 CBL1.F               738:   Casing logger 1
 BS1 .IN            7.875:   Bit size
 BSD1.F              4150:   Depth drilled with bit1
 DFT .            KCL/GEL:   Type fluid in hole
 DFD .                9.1:   Density
 DFV .                 48:   Viscosity
 DFPH.                8.5:   pH
 DFL .                 10:   Fluid loss
 MSS .           FLOWLINE:   Source of sample
 RMS .OHMM            .35:   Rm
 MST .F                62:   Rm Meas. temp.
 RMF .OHMM            .26:   Rmf
 MFST.F                62:   Rmf Meas. temp.
 RMC .OHMM            .43:   Rmc
 MCST.F                62:   Rmc Meas. temp.
 MFSS.               CALC:   Source Rmf.
 MCSS.               CALC:   Source Rmc.
 RMB .OHMM            .16:   Rm. at BHT
 BHT .F               140:   BHT.
 TCS .HRS               6:   Time Circ. stopped
 MRT .F               140:   Maximum recorded temp.
 LUN .               6274:   Logging unit number
 LUL .               GLTE:   Logging unit location
 ENGI.               MACK:   Recorded By
 WITN.             STRONG:   Witnessed by
 ORIG.           5" PRINT:   Origin of data
 UWI .     49025110230000:   Unique Well ID
 DICO. A2D TECHNOLOGIES, INC.:   Digitizing Company
~OTHER INFORMATION
~A   DEPT     TEND       RHOB       DRHO       CALD       NPHI       TENR        SPR        GRR       RFOC       RILD       RILM   
# ...
 1627.5000  -999.2500  -999.2500  -999.2500  -999.2500  -999.2500   -84.8350   -68.9740    91.7310     7.1590     7.2540     7.3850
 1628.0000  -999.2500  -999.2500  -999.2500  -999.2500  -999.2500   -84.8350   -68.9630    91.4690     7.3220     7.2540     7.4260
 1628.5000  -999.2500  -999.2500  -999.2500  -999.2500  -999.2500   -84.8350   -68.9520    92.9040     7.4850     7.2540     7.4580
 1629.0000  -999.2500  -999.2500  -999.2500  -999.2500  -999.2500   -84.8350   -68.9420    94.1680     7.6480     7.2540     7.4410
 1629.5000  -999.2500  -999.2500  -999.2500  -999.2500  -999.2500   -84.8350   -68.9310    93.4900     7.8110     7.2540     7.4250
 1630.0000  -999.2500  -999.2500  -999.2500  -999.2500  -999.2500   -84.8350   -68.9200    92.8500     8.0280     7.2540     7.4090
 1630.5000  -999.2500  -999.2500  -999.2500  -999.2500  -999.2500   -84.8350   -68.9100    92.2130     7.8420     7.2540     7.3930
 1631.0000  -999.2500  -999.2500  -999.2500  -999.2500  -999.2500   -84.8350   -68.8990    91.2320     7.3890     7.2560     7.3770
 1631.5000  -999.2500  -999.2500  -999.2500  -999.2500  -999.2500   -84.8350   -68.8880    89.7220     7.4430     7.2020     7.3610
 1632.0000  -999.2500  -999.2500  -999.2500  -999.2500  -999.2500   -84.8350   -68.8780    89.4280     7.5230     7.0560     7.3450
 1632.5000  -999.2500  -999.2500  -999.2500  -999.2500  -999.2500   -84.8350   -68.8670    91.6340     7.5960     7.1020     7.3290
 1633.0000  -999.2500  -999.2500  -999.2500  -999.2500  -999.2500   -84.8350   -68.8560    93.7700     7.5760     7.1680     7.3130
 1633.5000  -999.2500  -999.2500  -999.2500  -999.2500  -999.2500   -84.8350   -68.8450    95.4570     7.5470     7.1880     7.2970
 1634.0000  -999.2500  -999.2500  -999.2500  -999.2500  -999.2500   -84.8350   -68.8340    94.6100     7.5180     7.1340     7.2810
 1634.5000  -999.2500  -999.2500  -999.2500  -999.2500  -999.2500   -84.8350   -68.8260    92.7920     7.4890     7.0930     7.2650
 1635.0000  -999.2500  -999.2500  -999.2500  -999.2500  -999.2500   -84.8350   -68.8670    91.6910     7.4580     7.0440     7.2270
 1635.5000  -999.2500  -999.2500  -999.2500  -999.2500  -999.2500   -84.8350   -68.9070    93.3950     7.3220     6.9360     7.1400
 1636.0000  -999.2500  -999.2500  -999.2500  -999.2500  -999.2500   -84.8350   -68.9480    96.5380     7.1220     6.8290     7.0540
 1636.5000  -999.2500  -999.2500  -999.2500  -999.2500  -999.2500   -84.8350   -68.9890    99.7220     7.0560     6.8010     6.9270
 1637.0000  -999.2500  -999.2500  -999.2500  -999.2500  -999.2500   -84.8350   -69.0170   101.1490     7.1260     6.7960     6.9340
 1637.5000  -999.2500  -999.2500  -999.2500  -999.2500  -999.2500   -84.8350   -68.8570   101.6750     7.1790     6.7900     6.9470
 1638.0000  -999.2500  -999.2500  -999.2500  -999.2500  -999.2500   -84.8350   -68.7010   102.1420     7.2310     6.7850     6.9600
 1638.5000  -999.2500  -999.2500  -999.2500  -999.2500  -999.2500   -87.1280   -68.6430    99.9460     7.2540     6.7800     6.9730
 1639.0000  -999.2500  -999.2500  -999.2500  -999.2500  -999.2500   -89.5250   -68.7850    97.7830     7.1660     6.7750     6.9910
 1639.5000  -999.2500  -999.2500  -999.2500  -999.2500  -999.2500   -91.9230   -68.9290    98.5670     7.1430     6.7690     6.9810
 1640.0000  -999.2500  -999.2500  -999.2500  -999.2500  -999.2500   -94.3210   -69.0720    97.8900     7.1200     6.7640     6.9620
 1640.5000  -999.2500  -999.2500  -999.2500  -999.2500  -999.2500   -87.5130   -69.2160    97.0920     7.0970     6.7590     6.9430
 1641.0000  -999.2500  -999.2500  -999.2500  -999.2500  -999.2500   -74.8250   -69.3600    97.7810     7.0750     6.7530     6.9240
 1641.5000  -999.2500  -999.2500  -999.2500  -999.2500  -999.2500   -70.9590   -69.4480    98.4510     7.0560     6.7480     6.9050
 1642.0000  -999.2500  -999.2500  -999.2500  -999.2500  -999.2500   -78.7060   -69.4930    97.7240     7.1350     6.7430     6.8860
 1642.5000  -999.2500  -999.2500  -999.2500  -999.2500  -999.2500   -84.6200   -69.5380    95.2350     7.1880     6.7320     6.8670
 1643.0000  -999.2500  -999.2500  -999.2500  -999.2500  -999.2500   -83.5930   -69.5930    93.8570     7.1550     6.7000     6.8480
 1643.5000  -999.2500  -999.2500  -999.2500  -999.2500  -999.2500   -82.5650   -69.7940    95.8340     7.1270     6.6680     6.8290
 1644.0000  -999.2500  -999.2500  -999.2500  -999.2500  -999.2500   -81.5380   -69.5240    97.1260     7.1000     6.6360     6.8100
 1644.5000  -999.2500  -999.2500  -999.2500  -999.2500  -999.2500   -80.5100   -69.1470    95.8170     7.0720     6.6040     6.7910
 1645.0000  -999.2500  -999.2500  -999.2500  -999.2500  -999.2500   -79.4830   -68.7670    95.3730     7.0450     6.5720     6.7720
 1645.5000  -999.2500  -999.2500  -999.2500  -999.2500  -999.2500   -78.4550   -68.3890    95.5810     7.0180     6.5550     6.7530
 1646.0000  -999.2500  -999.2500  -999.2500  -999.2500  -999.2500   -77.4270   -68.0350    98.3610     6.9920     6.5930     6.7380
 1646.5000  -999.2500  -999.2500  -999.2500  -999.2500  -999.2500   -76.4000   -68.0260   101.1040     6.9920     6.6520     6.8040
 1647.0000  -999.2500  -999.2500  -999.2500  -999.2500  -999.2500   -75.3720   -68.0270   101.0470     7.0390     6.7120     6.8560
 1647.5000  -999.2500  -999.2500  -999.2500  -999.2500  -999.2500   -73.3550   -68.0270    99.3540     7.0770     6.7710     6.9080
 1648.0000  -999.2500  -999.2500  -999.2500  -999.2500  -999.2500   -70.2080   -68.0320    97.6450     7.1140     6.8310     6.9600
 1648.5000  -999.2500  -999.2500  -999.2500  -999.2500  -999.2500   -67.0610   -68.1430    97.2240     7.1520     6.8900     7.0120
 1649.0000  -999.2500  -999.2500  -999.2500  -999.2500  -999.2500   -64.8150   -68.2520    96.9330     7.1900     6.9500     7.0640
 1649.5000  -999.2500  -999.2500  -999.2500  -999.2500  -999.2500   -79.1710   -68.3610    96.6340     7.2280     6.9920     7.1160
 1650.0000  -999.2500  -999.2500  -999.2500  -999.2500  -999.2500   -85.4700   -68.4690    96.8270     7.2540     6.8820     7.0360
 1650.5000  -999.2500  -999.2500  -999.2500  -999.2500  -999.2500   -91.7700   -68.5780    97.6530     7.2150     6.8410     7.0060
 1651.0000  -999.2500  -999.2500  -999.2500  -999.2500  -999.2500   -87.8010   -68.6860    98.2780     7.1840     6.8000     6.9760
 1651.5000  -999.2500  -999.2500  -999.2500  -999.2500  -999.2500   -74.0420   -68.7890    98.4910     7.1540     6.7590     6.9470
 1652.0000  -999.2500  -999.2500  -999.2500  -999.2500  -999.2500   -64.8150   -69.1870    97.7580     7.1220     6.7180     6.9170
 1652.5000  -999.2500  -999.2500  -999.2500  -999.2500  -999.2500   -70.0420   -69.6200    96.1670     7.1160     6.6770     6.8870
 1653.0000  -999.2500  -999.2500  -999.2500  -999.2500  -999.2500   -75.6480   -69.6230    94.5650     7.0990     6.6350     6.8580
 1653.5000  -999.2500  -999.2500  -999.2500  -999.2500  -999.2500   -81.2530   -69.6220    94.3030     7.0810     6.5940     6.8280
 1654.0000  -999.2500  -999.2500  -999.2500  -999.2500  -999.2500   -86.8590   -69.6220    95.4840     7.0640     6.5530     6.7980
 1654.5000  -999.2500  -999.2500  -999.2500  -999.2500  -999.2500   -92.4650   -69.6210    98.5050     7.0470     6.4940     6.7690
 1655.0000  -999.2500  -999.2500  -999.2500  -999.2500  -999.2500   -93.3930   -69.6020    99.3180     7.0300     6.5190     6.7380
 1655.5000  -999.2500  -999.2500  -999.2500  -999.2500  -999.2500   -90.8710   -69.5820   100.0650     7.0120     6.5630     6.6770
 1656.0000  -999.2500  -999.2500  -999.2500  -999.2500  -999.2500   -88.3480   -69.5610    99.6850     6.9920     6.6060     6.7630
 1656.5000  -999.2500  -999.2500  -999.2500  -999.2500  -999.2500   -85.8260   -69.5410    96.2910     7.0560     6.6760     6.8510
 1657.0000  -999.2500  -999.2500  -999.2500  -999.2500  -999.2500   -84.8350   -69.5200    92.3380     7.1360     6.7760     6.9380
 1657.5000  -999.2500  -999.2500  -999.2500  -999.2500  -999.2500   -84.8350   -69.5000    89.9590     7.2160     6.8770     7.0260
