~VERSION INFORMATION
 VERS.                2.0:   CWLS LOG ASCII STANDARD - VERSION 2.0
 WRAP.                 NO:   ONE LINE PER DEPTH STEP
~WELL INFORMATION
#MNEM.UNIT      DATA TYPE    INFORMATION
#----------   ------------   ------------------------------
 STRT.F            5.0000:   START DEPTH
 STOP.F         5604.0000:   STOP DEPTH
 STEP.F            0.5000:   STEP LENGTH
 NULL.          -999.2500:   NO VALUE
 COMP.   LAWRENCE ALLISON:   COMPANY
 WELL. LAWRENCE 62 TPX #10-10:   WELL
 FLD .           NPR NO 3:   FIELD
 LOC .      S10 T38N R78W:   LOCATION
 CNTY.            NATRONA:   COUNTY
 STAT.            WYOMING:   STATE
 CTRY. UNITED STATES OF AMERICA:   COUNTRY
 SRVC.      DRESSER ATLAS:   SERVICE COMPANY
 DATE.        08-NOV-1985:   LOGDATE
 API .     49025110490000:   API NUMBER
~CURVE INFORMATION
#MNEM.UNIT       API CODE    CURVE DESCRIPTION
#----------   ------------   ------------------------------
 DEPT.F                  :   
 TEND.LBS    45 635 01 00:   TENSION FORM DENSITY LOG
 CNC .DEC    42 890 03 00:   NEUTRON POROSITY SANDSTONE
 CORR.G/C3   45 356 01 00:   DENSITY CORRECTION
 RHOB.G/C3   45 350 01 00:   BULK DENSITY
 TENR.LBS    11 635 01 00:   TENSION FROM RESISTIVITY
 GRR .GAPI   11 310 01 00:   GAMMA RAY FROM RESISTIVITY
 SPR .MV     11 010 01 00:   SPONTANEOUS POTENTIAL FROM RES.
 CALR.IN     11 280 01 00:   CALIPER FROM RESISTIVITY
 RD  .OHMM   11 220 10 00:   RESISTIVITY DEEP
 RS  .OHMM   11 220 09 00:   RESISTIVITY SHALLOW
 RMLL.OHMM   11 270 04 00:   MICRO LATEROLOG
 TENS.LBS    60 635 01 00:   TENSION FROM SONIC
 DT  .US/F   60 520 00 00:   DELTA TIME
~PARAMETER INFORMATION
#MNEM.UNIT          VALUE    DESCRIPTION
#----------   ------------   ------------------------------
 EKB .F         5167.0000:   Kelly bushing
 EGL .F         5155.0000:   Ground level
 EDF .F            0.0000:   Drilling floor
 TD  .F         5600.0000:   Total depth
 CLNT.            A2DTECH:   Client Code
 PD  .                 GL:   Permanent Datum
 EPD .F              5155:   Elevation Permanent Datum
 LMF .                 KB:   Log Measured From
 DMF .                 KB:   Drilling Measured From
 DAPD.F                12:   Feet Above Permanent Datum
 DATE.        08-NOV-1985:   Date Logged [DD-MMM-YYYY]
 DD  .F              5600:   Depth driller
 DL  .F              5600:   Depth logger
 BLI .F              5597:   Bottom log interval
 TLI .F               467:   Top log interval
 CS1 .IN            9.625:   Casing size
 CBD1.      9.625" @ 467':   Casing driller 1
 CBL1.F               465:   Casing logger 1
 BS1 .IN             8.75:   Bit size
 BSD1.F              5600:   Depth drilled with bit1
 DFT .        KCL POLYMER:   Type fluid in hole
 DFD .                9.2:   Density
 DFV .                 38:   Viscosity
 DFPH.                8.5:   pH
 DFL .                8.6:   Fluid loss
 MSS .           FLOWLINE:   Source of sample
 RMS .OHMM           0.28:   Rm
 MST .F                75:   Rm Meas. temp.
 RMF .OHMM           0.21:   Rmf
 MFST.F                75:   Rmf Meas. temp.
 MFSS.               CALC:   Source Rmf.
 RMC .OHMM           0.35:   Rmc
 MCST.F                75:   Rmc Meas. temp.
 MCSS.               CALC:   Source Rmc.
 RMB .OHMM           0.13:   Rm. at BHT
 BHT .F               168:   BHT.
 TCS .HRS               7:   Time Circ. stopped
 MRT .F               168:   Maximum recorded temp.
 LUN .               6274:   Logging unit number
 LUL .               GLTE:   Logging unit location
 ENGI.               MACK:   Recorded By
 WITN.             STRONG:   Witnessed by
 ORIG.      2.5" 5" PRINT:   Origin of data
 UWI .     49025110490000:   Unique Well ID
 DICO. A2D TECHNOLOGIES, INC.:   Digitizing Company
~OTHER INFORMATION
~A  DEPTH     TEND        CNC       CORR       RHOB       TENR        GRR        SPR       CALR         RD         RS       RMLL       TENS         DT
# ...
 4217.0000   -18.2750     0.1636     0.0257     2.4934   -68.9322    55.0765   -58.6227     9.9903    15.1287    12.8867    12.7784   -75.3054    70.5307
 4217.5000   -25.0871     0.1683     0.0227     2.4860   -62.0270    51.7765   -58.6077     9.9774    15.4586    13.0913    13.1470   -75.2134    70.7591
 4218.0000   -17.5438     0.1745     0.0163     2.4743   -70.3023    48.1735   -58.4430     9.9625    15.6866    13.3561    13.2477   -75.1398    70.9123
 4218.5000   -17.1100     0.1691     0.0042     2.4640   -70.9866    46.0856   -58.2783     9.9528    16.1402    13.4574    13.1630   -75.0662    70.9904
 4219.0000   -16.7556     0.1609    -0.0079     2.4552   -71.6717    44.3008   -58.1136     9.9405    16.4921    13.6689    13.0811   -74.9925    70.9181
 4219.5000    -1.7809     0.1524    -0.0311     2.4464   -64.6212    43.7198   -57.9489     9.9282    16.8518    13.8529    12.9099   -74.9190    70.8460
 4220.0000    -1.4265     0.1453    -0.0486     2.4463   -65.4768    46.7918   -57.9339     9.9140    17.1002    14.1528    12.8296   -74.8454    70.6987
 4220.5000    -1.0721     0.1435    -0.0546     2.4508   -66.1618    48.3403   -57.9189     9.9037    17.4731    14.3593    13.1107   -67.2868    70.5515
 4221.0000    -0.7173     0.1447    -0.0564     2.4643   -66.8462    47.4562   -57.9039     9.8914    17.6082    14.5688    13.4889   -59.7282    70.4793
 4221.5000    -0.3629     0.1589    -0.0475     2.4731   -67.5312    46.5805   -58.0386     9.8791    17.8678    14.7909    14.6698   -59.6546    70.3243
 4222.0000     0.0001     0.1597     0.0000     2.4792   -75.7806    47.5313   -58.1737     9.8819    18.1313    15.0051    15.0930   -59.5808    70.1847
 4222.5000    -1.2229     0.1500     0.0403     2.4885   -76.4649    48.1707   -58.4581     9.8695    18.5266    15.2158    14.8954   -59.5060    70.4138
 4223.0000   -13.9192     0.1418     0.0461     2.4965   -84.7143    48.5071   -59.0419     9.8723    19.0624    15.4378    14.3977   -59.4311    70.1162
 4223.5000   -13.5233     0.1364     0.0344     2.5071   -85.3986    48.2374   -59.7749     9.8756    19.6136    15.6723    16.0986   -59.3418    69.5933
 4224.0000   -13.1579     0.1266    -0.0066     2.5180   -70.9551    41.3011   -60.6581     9.8929    20.1808    16.4613    18.8959   -51.7832    69.1455
 4224.5000   -12.7924     0.1239    -0.0212     2.5275   -63.9046    42.5466   -61.3922     9.9253    19.5079    18.3986    20.6931   -51.7096    68.6225
 4225.0000   -12.4269     0.1266    -0.0215     2.5426   -57.0246    45.0042   -62.1251     9.9580    18.3415    19.5885    21.5836   -51.6360    68.0995
 4225.5000   -26.6813     0.1482    -0.0066     2.5593   -50.1454    47.4618   -62.5592     9.9831    16.0893    18.0366    20.4365   -51.5624    67.7268
 4226.0000   -26.3158     0.1890     0.0329     2.5932   -58.5653    50.8285   -62.6946     9.9934    13.9193    15.0721    19.0804   -58.9922    67.5788
 4226.5000   -25.8796     0.1955     0.0813     2.5932   -59.2503    62.0740   -62.8293    10.0111    12.2102    11.9155    17.4475   -66.4037    69.9116
 4227.0000   -25.5252     0.2008     0.0644     2.5903   -67.4997    70.5922   -62.9670    10.0288    11.0888    10.2369    13.9846   -73.8151    71.5675
 4227.5000   -25.1704     0.2072     0.0426     2.5874   -75.7483    77.8983   -62.9483    10.0165     9.7949     9.6908    10.4579   -81.2265    73.7492
 4228.0000   -24.8160     0.2025     0.0366     2.5859   -83.9977    77.6202   -62.9333    10.0042     9.3379     9.3020     9.2997   -81.1345    75.5553
 4228.5000   -24.4612     0.1943     0.0305     2.5844   -76.9472    76.1468   -62.9183    10.0069     9.5415     9.4377    10.3282   -81.0609    75.4832
 4229.0000    -9.4869     0.1825     0.0245     2.5844   -70.0672    74.6650   -62.9033    10.0097     9.9546    10.2626    11.1547   -73.5023    74.9602
 4229.5000    -9.1325     0.1731     0.0172     2.5785   -63.1880    72.8802   -62.8883    10.0273    10.7519    11.2371    11.9641   -73.4282    74.2095
 4230.0000    -8.7720     0.1613    -0.0037     2.5694   -64.0436    71.3984   -62.7235    10.0301    11.4358    12.0510    13.4706   -65.8682    72.9976
 4230.5000    -8.4065     0.1529    -0.0007     2.5573   -64.7286    68.7045   -62.4091    10.0477    12.9242    13.6607    15.7020   -58.3084    71.7389
 4231.0000    -8.0411     0.1443     0.0051     2.5431   -65.4137    62.0712   -62.0947    10.0505    15.6578    16.4819    17.0766   -50.7345    70.2336
 4231.5000    -7.6756     0.1374     0.0051     2.5263   -65.9606    56.3469   -61.7803    10.0532    17.8484    18.5544    19.9053   -50.6609    68.6645
 4232.0000    -7.3101     0.1348     0.0081     2.5076   -66.6417    47.8955   -61.6156    10.0559    20.0663    19.7609    21.2021   -50.5873    67.7659
 4232.5000    -6.9446     0.1355     0.0110     2.5066   -67.3222    48.2319   -61.4509    10.0586    21.1630    19.5010    21.5132   -43.0287    67.5427
 4233.0000    -0.6959     0.1366     0.0081     2.5193   -60.4169    47.9622   -61.7353    10.0612    21.7750    19.2416    21.0849   -42.9550    67.7718
 4233.5000     8.4066     0.1358     0.0051     2.5264   -61.1193    47.3895   -61.8737    10.0484    22.2660    19.1207    20.3804   -42.8815    67.3240
 4234.0000     8.7721     0.1336    -0.0007     2.5235   -61.8003    44.9986   -62.3041    10.0367    22.5924    19.5377    20.8234   -42.8079    67.1766
 4234.5000     9.2104     0.1288    -0.0096     2.5190   -62.4813    41.3956   -62.5922    10.0395    23.0700    20.0994    21.5731   -42.7343    67.1044
 4235.0000     9.5648     0.1234    -0.0127     2.5169   -63.1618    42.3381   -63.1723    10.0422    23.0876    20.9660    20.9950   -35.1796    67.2577
 4235.5000     9.9196     0.1193    -0.0183     2.5184   -56.2765    43.2805   -63.6064    10.0393    23.2743    21.5688    22.0548   -35.1020    67.3358
 4236.0000    10.2740     0.1225    -0.0054     2.5272   -56.9615    44.5260   -64.0442    10.0324    23.7733    21.8801    23.4917   -35.0285    67.0321
 4236.5000    -4.0204     0.1343    -0.0007     2.5374   -50.0816    45.7715   -64.7740    10.0196    23.7914    19.1957    23.8470   -34.9549    66.7407
 4237.0000    -3.6367     0.1455     0.0022     2.5492   -43.2023    47.0170   -65.3578    10.0230    23.1526    15.7105    22.2547   -34.8802    67.2703
 4237.5000    -3.2823     0.1585     0.0022     2.5580   -43.8874    49.7776   -65.7918    10.0255    21.4735    13.2196    19.9311   -42.2927    68.3473
 4238.0000    -2.9239     0.1779     0.0009     2.5624   -44.5718    59.5079   -66.2259    10.0282    12.9526    11.3573    14.2973   -49.7042    69.9407
 4238.5000    -2.5584     0.1709    -0.0007     2.5639   -45.2568    64.9958   -66.6600    10.0459    12.7839    10.6772    13.0737   -57.1156    71.7117
 4239.0000    -2.1929     0.1644    -0.0023     2.5609   -45.9418    68.9686   -67.0941    10.0488    12.6174    10.6085    12.8132   -64.5086    73.4427
 4239.5000    -1.8274     0.1585    -0.0066     2.5595   -46.6262    70.2141   -67.5282    10.0663    12.2817    10.9911    12.8223   -64.4351    74.3473
 4240.0000    -1.4620     0.1532     0.0139     2.5580   -47.3112    71.4595   -67.6629    10.0690    11.8722    11.3071    11.8773   -56.8764    74.0497
 4240.5000    -1.0965     0.1545     0.0227     2.5635   -47.9956    70.2808   -67.8014    10.0717    11.6364    11.7131    12.6633   -56.8028    73.2262
 4241.0000   -10.8898     0.1569     0.0227     2.5741   -48.6806    68.4960   -67.9323    10.0749    11.4851    11.8840    13.8677   -49.2626    72.4779
 4241.5000   -14.9854     0.1622     0.0227     2.5837   -49.3657    63.3778   -67.9173    10.0771    11.0254    11.4077    14.5677   -71.6257    71.7236
 4242.0000   -14.6199     0.1709     0.0198     2.5924   -50.0500    59.1687   -67.9023    10.0798    10.2945    10.6506    14.6793   -79.0555    71.2749
 4242.5000   -14.2544     0.1813     0.0081     2.5954   -50.7351    61.9294   -68.0407    10.0828     9.6790     9.8333    14.1889   -56.5084    71.3186
