~VERSION INFORMATION
 VERS.                2.0:   CWLS LOG ASCII STANDARD - VERSION 2.0
 WRAP.                 NO:   ONE LINE PER DEPTH STEP
~WELL INFORMATION
#MNEM.UNIT      DATA TYPE    INFORMATION
#----------   ------------   ------------------------------
 STRT.F           12.0000:   START DEPTH
 STOP.F          900.0000:   STOP DEPTH
 STEP.F            0.5000:   STEP LENGTH
 NULL.          -999.2500:   NO VALUE
 COMP. FLUOR DANIEL - NPSOR:   COMPANY
 WELL. FLUOR NPR "X" #82-34:   WELL
 FLD .              NPR 3:   FIELD
 LOC .      S34 T39N R78W:   LOCATION
 CNTY.            NATRONA:   COUNTY
 STAT.            WYOMING:   STATE
 CTRY. UNITED STATES OF AMERICA:   COUNTRY
 SRVC.      WESTERN ATLAS:   SERVICE COMPANY
 DATE.        06-SEP-1994:   LOGDATE
 API .     49025226350000:   API NUMBER
~CURVE INFORMATION
#MNEM.UNIT       API CODE    CURVE DESCRIPTION
#----------   ------------   ------------------------------
 DEPT.F                  :   
 RILD.OHMM   07 120 46 00:   INDUCTION LOG DEEP RESISTIVITY
 TENR.LBS    07 635 01 00:   TENSION
 RILM.OHMM   07 120 44 00:   INDUCTION LOG MEDIUM RESISTIVITY
 GRR .GAPI   07 310 01 00:   GAMMA RAY FROM RESISTIVITY
~PARAMETER INFORMATION
#MNEM.UNIT          VALUE    DESCRIPTION
#----------   ------------   ------------------------------
 EKB .F         5084.0000:   Kelly bushing
 EGL .F         5074.0000:   Ground level
 EDF .F         5083.0000:   Drilling floor
 EPD .F            0.0000:   Permanent datum
 TD  .F          918.0000:   Total depth
 DATE.        06-SEP-1994:   Date logged
 CLNT.            A2DTECH:   Client Code
 SL  . 990' FNL & 330' FEL:   Surface Location
 PD  .                 GL:   Permanent Datum
 DAPD.F                10:   Feet Above Permanent Datum
 DD  .F               918:   Depth driller
 DL  .F               807:   Depth logger
 BLI .F               889:   Bottom log interval
 CS1 .IN            9.625:   Casing size
 CBD1.       9.625" @ 54':   Casing driller 1
 CBL1.F                54:   Casing logger 1
 BS1 .IN             8.75:   Bit size
 BSD1.F               918:   Depth drilled with bit1
 DFT .                AIR:   Type fluid in hole
 LUN .            HL-6321:   Logging unit number
 LUL .       ROCK SPRINGS:   Logging unit location
 ENGI.           VERCIMAK:   Recorded By
 WITN.          G. STRONG:   Witnessed by
 ORIG.           5" PRINT:   Origin of data
 UWI .     49025226350000:   Unique Well ID
 DICO. A2D TECHNOLOGIES, INC.:   Digitizing Company
~OTHER INFORMATION
~A   DEPT     RILD       TENR       RILM         GRR  
# ...
  742.0000    13.0400    25.1610    13.8410    81.8200
  742.5000    12.9100    25.3510    13.4720    84.4670
  743.0000    12.8990    25.5410    13.3760    88.3690
  743.5000    12.8890    25.7310    13.3650    90.6220
  744.0000    12.8790    25.9210    13.3540    88.9980
  744.5000    12.8680    26.1110    13.3430    87.5290
  745.0000    12.8580    26.3010    13.3320    85.8390
  745.5000    12.8480    26.4910    13.3210    84.9860
  746.0000    12.8370    26.6810    13.3100    85.9250
  746.5000    12.8270    26.8710    13.2980    85.7390
  747.0000    12.8170    27.0610    13.2870    83.7270
  747.5000    12.8060    27.2520    13.2760    81.7460
  748.0000    12.7960    27.4420    13.2650    81.3100
  748.5000    12.7850    27.6320    13.2540    80.8060
  749.0000    12.7750    27.8220    13.2430    80.5100
  749.5000    12.7650    28.0120    13.2320    80.2800
  750.0000    12.7540    28.2020    13.2200    82.7860
  750.5000    12.7430    28.3920    13.2090    85.2720
  751.0000    12.7340    28.5820    13.1980    82.8650
  751.5000    12.7210    28.7720    13.1840    81.5400
  752.0000    12.7130    28.9620    13.1760    80.8060
  752.5000    12.7030    29.1520    13.1660    80.0600
  753.0000    12.6870    29.3420    13.1480    79.2940
  753.5000    12.8210    29.5320    13.3310    78.3880
  754.0000    13.1000    29.7220    13.7130    80.0580
  754.5000    13.3800    29.9120    14.0960    82.7680
  755.0000    13.6600    30.1020    14.4780    85.2740
  755.5000    13.9390    30.2920    14.8600    88.1070
  756.0000    14.2190    30.4820    15.2430    86.3070
  756.5000    14.4990    30.6730    15.6250    82.4500
  757.0000    14.7780    30.8630    15.7170    81.3240
  757.5000    15.1660    31.0530    15.4390    80.3600
  758.0000    15.1660    31.2430    15.4390    79.3360
  758.5000    15.0270    31.4330    15.4390    78.4320
  759.0000    14.7950    31.6230    15.2570    76.8560
  759.5000    14.5630    31.8130    15.0310    78.7680
  760.0000    14.3310    32.0030    14.8050    82.5770
  760.5000    14.0980    32.1930    14.5790    85.5790
  761.0000    13.8660    32.3830    14.3530    87.3900
  761.5000    13.6340    32.5730    14.1270    87.0860
  762.0000    13.4010    32.7630    13.9010    85.2400
  762.5000    13.1690    32.9530    13.6750    84.3890
  763.0000    12.9370    33.1430    13.4490    85.5460
  763.5000    12.6870    33.3330    13.2740    86.2220
  764.0000    12.5930    33.5230    13.1180    86.9610
  764.5000    12.4910    33.7130    12.9630    84.4470
  765.0000    12.3890    33.9040    12.8070    82.9540
  765.5000    12.2870    34.0940    12.6520    85.4320
  766.0000    12.1850    34.2840    12.4970    89.2790
  766.5000    12.0830    34.4740    12.3410    88.2210
  767.0000    11.9810    34.6640    12.1860    87.0970
  767.5000    11.8800    34.8540    12.0310    87.0220
  768.0000    11.7780    35.0440    11.8750    89.2240
  768.5000    11.6760    35.2340    11.7200    91.5010
  769.0000    11.5740    35.4240    11.6040    89.0610
  769.5000    11.4210    35.6140    11.6040    86.0750
  770.0000    11.4630    35.8040    11.8750    82.5900
  770.5000    11.6960    35.9940    12.2780    81.6840
  771.0000    11.9290    36.1840    12.6820    84.7810
  771.5000    12.1610    36.3740    13.0850    87.6180
  772.0000    12.3940    36.5640    13.4890    85.9560
  772.5000    12.6270    36.7540    13.8930    84.1400
  773.0000    12.6870    36.9440    14.2960    82.0140
  773.5000    12.6870    37.1340    14.6340    80.0240
  774.0000    12.4620    37.3250    14.0450    75.5130
  774.5000    12.3490    37.5150    13.5380    76.1000
  775.0000    12.1540    37.7050    13.0310    80.4340
  775.5000    11.9590    37.8950    12.5240    84.6580
  776.0000    11.7640    38.0850    12.0170    87.8270
  776.5000    11.5700    38.2750    11.5100    88.1240
  777.0000    11.3750    38.4650    11.0020    88.5170
  777.5000    11.1800    38.6550    10.4250    88.8130
  778.0000    10.9990    38.8450    10.4710    89.1700
  778.5000    10.9330    39.0350    10.5680    89.4800
  779.0000    10.8720    39.2250    10.6660    89.7720
  779.5000    10.8110    39.4150    10.7640    90.2890
  780.0000    10.7500    39.6050    10.8610    88.7250
  780.5000    10.6890    39.7950    10.9590    86.3370
  781.0000    10.6280    39.9850    11.0560    84.8540
  781.5000    10.6030    40.1750    11.1970    85.1230
  782.0000    10.5890    40.3650    11.1790    85.5230
  782.5000    10.5750    40.5560    11.1480    85.1280
  783.0000    10.5610    40.7460    11.1170    83.9140
  783.5000    10.5470    40.9360    11.0860    85.2740
  784.0000    10.5330    41.1260    11.0550    88.0140
  784.5000    10.5200    41.3160    11.0240    90.1690
  785.0000    10.5060    41.5060    10.9930    89.1350
  785.5000    10.4920    41.6960    10.9620    87.8290
  786.0000    10.4780    41.8860    10.9310    86.3050
  786.5000    10.4640    42.0760    10.9000    87.3690
  787.0000    10.4500    42.2660    10.8700    89.4180
  787.5000    10.4360    42.4560    10.8390    91.6160
  788.0000    10.4230    42.6460    10.8080    94.0760
  788.5000    10.4090    42.8360    10.7770    97.0430
  789.0000    10.3950    43.0260    10.7460    96.8230
  789.5000    10.3810    43.2160    10.7150    96.3740
  790.0000    10.3670    43.4060    10.6840    95.7600
  790.5000    10.3530    43.5960    10.6530    95.3100
  791.0000    10.3400    43.7860    10.6220    94.7290
  791.5000    10.3260    43.9770    10.5910    93.9820
  792.0000    10.3120    44.1670    10.5600    90.1900
  792.5000    10.2980    44.3570    10.5290    85.0870
  793.0000    10.2840    44.5470    10.4980    85.3430
  793.5000    10.2700    44.7370    10.4670    86.5210
  794.0000    10.2560    44.9270    10.4360    87.9470
  794.5000    10.2410    45.1170    10.4020    88.6950
  795.0000    10.1990    45.3070    10.3680    88.4730
  795.5000    10.1510    45.4970    10.3340    88.3710
  796.0000    10.1020    45.6870    10.2990    88.2390
  796.5000    10.0540    45.8770    10.2650    88.0880
  797.0000    10.0060    46.0670    10.2300    88.0120
  797.5000     9.9570    46.2570    10.1960    87.3440
  798.0000     9.9090    46.4470    10.1620    85.6630
  798.5000     9.8610    46.6370    10.1270    84.0750
  799.0000     9.8120    46.8270    10.0930    84.3000
  799.5000     9.7640    47.0170    10.0580    87.9510
  800.0000     9.7160    47.2080    10.0240    91.0610
  800.5000     9.6670    47.3980     9.9890    94.5920
  801.0000     9.6190    47.5880     9.9550    95.1270
  801.5000     9.5470    47.7780     9.9210    93.6910
  802.0000     9.5580    47.9680     9.8820    92.4330
  802.5000     9.6480    48.1580     9.9780    91.4670
  803.0000     9.7380    48.3480    10.0900    90.6870
  803.5000     9.8270    48.5380    10.2010    90.0310
  804.0000     9.9170    48.7280    10.3130    88.9000
  804.5000    10.0060    48.9180    10.4250    87.9440
  805.0000    10.0960    49.1080    10.5360    86.2330
  805.5000    10.1860    49.2980    10.6480    85.6990
  806.0000    10.5110    49.4880    10.7590    88.3250
  806.5000    11.2110    49.6780    11.3690    90.1620
  807.0000    11.9120    49.8680    12.3130    89.5550
  807.5000    12.6120    50.0580    13.2570    84.7170
  808.0000    13.3120    50.2480    14.2010    78.5370
  808.5000    14.0120    50.3500    15.1450    72.3640
  809.0000    14.7130    50.2100    16.0890    68.2890
  809.5000    15.4130    50.0700    17.4940    69.8500
  810.0000    16.1130    49.9300    17.3980    71.1300
  810.5000    16.5820    49.7900    17.2100    72.5570
  811.0000    16.5240    49.6500    17.0220    73.9560
  811.5000    16.4160    49.5100    16.8340    75.3450
  812.0000    16.3090    49.3700    16.6460    76.8160
  812.5000    16.2010    49.2300    16.4580    77.1100
  813.0000    16.0940    49.0900    16.2700    74.9230
  813.5000    15.9860    48.9500    16.0820    72.8360
  814.0000    15.8790    48.8100    15.8940    70.6700
  814.5000    15.7710    48.6700    15.7170    68.5050
