~VERSION INFORMATION
 VERS.                2.0:   CWLS LOG ASCII STANDARD - VERSION 2.0
 WRAP.                 NO:   ONE LINE PER DEPTH STEP
~WELL INFORMATION
#MNEM.UNIT      DATA TYPE    INFORMATION
#----------   ------------   ------------------------------
 STRT.F         2185.0000:   START DEPTH
 STOP.F         5688.0000:   STOP DEPTH
 STEP.F            0.5000:   STEP LENGTH
 NULL.          -999.2500:   NO VALUE
 COMP.       FLUOR DANIEL:   COMPANY
 WELL.   FLUOR "X" #53-10:   WELL
 FLD .           N.P.R #3:   FIELD
 LOC .      S10 T38N R78W:   LOCATION
 CNTY.            NATRONA:   COUNTY
 STAT.            WYOMING:   STATE
 CTRY. UNITED STATES OF AMERICA:   COUNTRY
 SRVC.      WESTERN ATLAS:   SERVICE COMPANY
 DATE.        23-MAR-1997:   LOGDATE
 API .     49025228470000:   API NUMBER
~CURVE INFORMATION
#MNEM.UNIT       API CODE    CURVE DESCRIPTION
#----------   ------------   ------------------------------
 DEPT.F                  :   
 CNC .DEC    42 890 03 00:   NEUTRON POROSITY SANDSTONE
 TEND.LBS    45 635 01 00:   TENSION FORM DENSITY LOG
 GRD .GAPI   45 310 01 00:   GAMMA RAY FROM DENSITY LOG
 CALD.IN     45 280 60 00:   CALIPER FROM DENSITY LOG
 ZDEN.G/C3   45 350 01 00:   BULK DENSITY
 ZCOR.G/C3   45 356 01 00:   DENSITY CORRECTION
 PE  .B/E    45 358 01 00:   PHOTOELECTRIC FACTOR
 R4SL.OHMM   07 000 00 00:   RESISTIVITY DEL 4
 R2SL.OHMM   07 000 00 00:   RESISTIVITY DEL 2
~PARAMETER INFORMATION
#MNEM.UNIT          VALUE    DESCRIPTION
#----------   ------------   ------------------------------
 EKB .F         5182.0000:   Kelly bushing
 EGL .F         5172.0000:   Ground level
 EDF .F         5181.0000:   Drilling floor
 EPD .F         5172.0000:   Permanent datum
 TD  .F         5690.0000:   Total depth
 CLNT.            A2DTECH:   Client Code
 SL  . 1183' FNL & 2118' FEL:   Surface Location
 PD  .                 GL:   Permanent Datum
 LMF .                 KB:   Log Measured From
 DMF .                 KB:   Drilling Measured From
 DAPD.F                10:   Feet Above Permanent Datum
 DATE.        23-MAR-1997:   Date Logged [DD-MMM-YYYY]
 DD  .F              5690:   Depth driller
 DL  .F              5688:   Depth logger
 BLI .F              5648:   Bottom log interval
 TLI .F              2200:   Top log interval
 CS1 .IN            9.625:   Casing size
 CBD1.      9.625" @ 446':   Casing driller 1
 CBL1.F               452:   Casing logger 1
 BS1 .IN             8.75:   Bit size
 BSD1.F              5690:   Depth drilled with bit1
 DFT .           GEL CHEM:   Type fluid in hole
 DFD .                9.8:   Density
 DFV .                 66:   Viscosity
 DFPH.                8.5:   pH
 DFL .                8.4:   Fluid loss
 MSS .              CIRC.:   Source of sample
 RMS .OHMM            1.1:   Rm
 MST .F                73:   Rm Meas. temp.
 RMF .OHMM           0.87:   Rmf
 MFST.F                73:   Rmf Meas. temp.
 MFSS.               CALC:   Source Rmf.
 RMC .OHMM           1.35:   Rmc
 MCST.F                73:   Rmc Meas. temp.
 MCSS.               CALC:   Source Rmc.
 RMB .OHMM           0.46:   Rm. at BHT
 BHT .F               174:   BHT.
 TCS .HRS               5:   Time Circ. stopped
 MRT .F               174:   Maximum recorded temp.
 LUN .            HL 6530:   Logging unit number
 LUL .          CASPER WY:   Logging unit location
 ENGI.           BROWNLOW:   Recorded By
 WITN.              HARDY:   Witnessed by
 ORIG.     2.5", 5" PRINT:   Origin of data
 UWI .     49025228470000:   Unique Well ID
 DICO. A2D TECHNOLOGIES, INC.:   Digitizing Company
~OTHER INFORMATION
~A  DEPTH      CNC       TEND        GRD       CALD       ZDEN       ZCOR         PE       R4SL       R2SL
# ...
 4010.0000     0.1095    -9.3362    33.1330     9.0664     2.4784     0.0596     3.1567  -999.2500  -999.2500
 4010.5000     0.1008   -16.7551    30.4367     9.0666     2.4942     0.0625     3.1563  -999.2500  -999.2500
 4011.0000     0.0986   -16.6636    30.1505     9.0668     2.5271     0.0506     3.1711  -999.2500  -999.2500
 4011.5000     0.1004   -24.0658    30.8268     9.0670     2.5563     0.0371     3.1708  -999.2500  -999.2500
 4012.0000     0.1206   -31.4649    36.2810     9.0824     2.5900     0.0326     3.1705  -999.2500  -999.2500
 4012.5000     0.1401   -31.3901    55.1986     9.0826     2.6057     0.0356     3.1702  -999.2500  -999.2500
 4013.0000     0.1551   -31.3154    64.5507     9.0828     2.6102     0.0371     3.1698  -999.2500  -999.2500
 4013.5000     0.1672   -31.2269    69.3847     9.0830     2.6110     0.0371     3.1695  -999.2500  -999.2500
 4014.0000     0.1744   -38.6459    71.5079     9.0833     2.6102     0.0386     3.1692  -999.2500  -999.2500
 4014.5000     0.1840   -38.5543    71.8239     9.0835     2.6102     0.0371     3.1539  -999.2500  -999.2500
 4015.0000     0.1894   -31.0073    71.8387     9.0837     2.6110     0.0371     3.1385  -999.2500  -999.2500
 4015.5000     0.1972   -15.9864    72.1547     9.0840     2.6133     0.0386     3.1232  -999.2500  -999.2500
 4016.0000     0.2058    -8.4394    71.5671     9.0842     2.6163     0.0431     3.1078  -999.2500  -999.2500
 4016.5000     0.2080    -8.3661    73.9915     9.0844     2.6230     0.0491     3.0925  -999.2500  -999.2500
 4017.0000     0.1954    -8.2929    77.6207     9.0544     2.6260     0.0566     3.0771  -999.2500  -999.2500
 4017.5000     0.1759    -8.2197    80.0596     9.0547     2.6350     0.0640     3.0618  -999.2500  -999.2500
 4018.0000     0.1218   -15.6203    82.1687     9.0398     2.6612     0.0700     3.2271  -999.2500  -999.2500
 4018.5000     0.0851   -15.5456    80.1725     9.0401     2.7001     0.0551     4.1454  -999.2500  -999.2500
 4019.0000     0.0608   -30.4216    71.0570     9.0403     2.7166     0.0296     5.0789  -999.2500  -999.2500
 4019.5000     0.0491   -37.8222    59.6260     9.0556     2.7181     0.0146     5.3196  -999.2500  -999.2500
 4020.0000     0.0473   -37.7307    51.2070     9.0520     2.6882     0.0131     5.0181  -999.2500  -999.2500
 4020.5000     0.0482   -37.6575    44.2941     9.0410     2.6493     0.0238     3.2407  -999.2500  -999.2500
 4021.0000     0.0554   -30.1104    40.9956     9.0412     2.6276     0.0311     3.2249  -999.2500  -999.2500
 4021.5000     0.0632   -30.0372    38.2996     9.0414     2.6201     0.0326     3.2870  -999.2500  -999.2500
 4022.0000     0.0650   -29.9640    37.1095     9.0416     2.6254     0.0371     3.3775  -999.2500  -999.2500
 4022.5000     0.0552   -29.8908    37.7267     9.0419     2.6307     0.0431     3.4503  -999.2500  -999.2500
 4023.0000     0.0500   -29.8176    35.6330     9.0421     2.6306     0.0401     3.4651  -999.2500  -999.2500
 4023.5000     0.0482   -22.2705    32.0334     9.0423     2.6291     0.0341     3.4647  -999.2500  -999.2500
 4024.0000     0.0482   -14.7235    30.5338     9.0426     2.6291     0.0311     3.5247  -999.2500  -999.2500
 4024.5000     0.0512   -14.6487    29.6266     9.0428     2.6314     0.0281     3.5997  -999.2500  -999.2500
 4025.0000     0.0632   -22.0509    30.0202     9.0430     2.6291     0.0281     3.6897  -999.2500  -999.2500
 4025.5000     0.0768   -29.4515    32.0962     9.0432     2.6171     0.0266     3.7046  -999.2500  -999.2500
 4026.0000     0.0938   -29.3600    35.1230     9.0434     2.5925     0.0266     3.6289  -999.2500  -999.2500
 4026.5000     0.0974   -29.2868    37.2462     9.0437     2.5775     0.0251     3.4479  -999.2500  -999.2500
 4027.0000     0.0983   -29.2136    35.7550     9.0439     2.5685     0.0266     3.2819  -999.2500  -999.2500
 4027.5000     0.0980   -29.1404    34.2637     9.0442     2.5640     0.0296     3.2816  -999.2500  -999.2500
 4028.0000     0.0980   -21.5933    33.3712     9.0443     2.5648     0.0311     3.2964  -999.2500  -999.2500
 4028.5000     0.0983   -21.5201    32.4823     9.0597     2.5678     0.0311     3.2960  -999.2500  -999.2500
 4029.0000     0.0974   -28.9238    34.6092     9.0599     2.5693     0.0311     3.3109  -999.2500  -999.2500
 4029.5000     0.0974   -28.8475    35.8288     9.0601     2.5656     0.0311     3.2804  -999.2500  -999.2500
 4030.0000     0.0983   -28.7743    36.4460     9.0603     2.5611     0.0296     3.2198  -999.2500  -999.2500
 4030.5000     0.1014   -28.0742    37.3645     9.0606     2.5626     0.0296     3.2045  -999.2500  -999.2500
 4031.0000     0.1071   -21.1510    38.3095     9.0608     2.5663     0.0296     3.1891  -999.2500  -999.2500
 4031.5000     0.1119   -13.5887    39.5522     9.0610     2.5641     0.0281     3.1888  -999.2500  -999.2500
 4032.0000     0.1155   -21.0076    41.6293     9.0612     2.5574     0.0281     3.1735  -999.2500  -999.2500
 4032.5000     0.1227   -20.9161    43.4513     9.0615     2.5514     0.0281     3.1732  -999.2500  -999.2500
 4033.0000     0.1369   -28.3350    46.4781     9.0617     2.5491     0.0266     3.1880  -999.2500  -999.2500
 4033.5000     0.1471   -28.2435    51.6134     9.0620     2.5566     0.0221     3.2027  -999.2500  -999.2500
 4034.0000     0.1825   -28.1703    66.6884     9.0923     2.5701     0.0261     3.2175  -999.2500  -999.2500
 4034.5000     0.2098   -28.0971    79.3538     9.0473     2.5843     0.0401     3.2323  -999.2500  -999.2500
 4035.0000     0.1927   -28.0238    84.7903     9.0475     2.5949     0.0551     3.2621  -999.2500  -999.2500
 4035.5000     0.1720   -27.9506    84.5038     9.0478     2.5986     0.0625     3.2768  -999.2500  -999.2500
 4036.0000     0.1648   -35.3513    83.0126     9.0480     2.5971     0.0700     3.2765  -999.2500  -999.2500
 4036.5000     0.1675   -35.2765    80.3165     9.0482     2.5896     0.0745     3.2913  -999.2500  -999.2500
 4037.0000     0.1864   -35.2018    81.5415     9.0484     2.5769     0.0536     3.2909  -999.2500  -999.2500
 4037.5000     0.2253   -35.1133    90.3119     9.0486     2.5627     0.0371     3.2907  -999.2500  -999.2500
 4038.0000     0.2705   -27.5663   111.1059     9.0489     2.5485     0.0521     3.2753  -999.2500  -999.2500
 4038.5000     0.2754   -27.4931   117.7287     9.0491     2.5335     0.0689     3.2148  -999.2500  -999.2500
 4039.0000     0.2742   -27.4199   118.9483     9.0493     2.5328     0.0790     3.1994  -999.2500  -999.2500
 4039.5000     0.2705   -27.3466   119.5655     9.0496     2.5463     0.0655     3.2018  -999.2500  -999.2500
 4040.0000     0.2708   -27.2734   119.8815     9.0498     2.5597     0.0431     3.4246  -999.2500  -999.2500
 4040.5000     0.2742   -27.2002   120.4987     9.0469     2.5657     0.0326     3.5900  -999.2500  -999.2500
 4041.0000     0.2782   -27.1270   120.5135     9.0201     2.5687     0.0326     3.6650  -999.2500  -999.2500
 4041.5000     0.2838   -29.9912   117.5162     9.0052     2.5717     0.0401     3.7099  -999.2500  -999.2500
 4042.0000     0.2841   -34.4544   112.7117     9.0054     2.5732     0.0491     3.7398  -999.2500  -999.2500
 4042.5000     0.2820   -34.3797   111.8228     9.0208     2.5716     0.0566     3.3931  -999.2500  -999.2500
 4043.0000     0.2772   -34.3049   110.6328     9.0361     2.5688     0.0571     3.1367  -999.2500  -999.2500
 4043.5000     0.2687   -34.2165   107.0283     9.0514     2.5673     0.0431     3.1967  -999.2500  -999.2500
 4044.0000     0.2597   -34.1432   101.5065     9.0516     2.5688     0.0266     3.6030  -999.2500  -999.2500
 4044.5000     0.2543   -34.0700    94.8258     9.0518     2.5665     0.0251     3.7533  -999.2500  -999.2500
 4045.0000     0.2507   -33.9968    90.5149     9.0520     2.5650     0.0373     3.7380  -999.2500  -999.2500
 4045.5000     0.2428   -26.4498    89.6223     9.0523     2.5695     0.0461     3.7527  -999.2500  -999.2500
 4046.0000     0.2230   -18.9027    89.3396     9.0525     2.5830     0.0476     3.7524  -999.2500  -999.2500
