~VERSION INFORMATION
 VERS.                2.0:   CWLS LOG ASCII STANDARD - VERSION 2.0
 WRAP.                 NO:   ONE LINE PER DEPTH STEP
~WELL INFORMATION
#MNEM.UNIT      DATA TYPE    INFORMATION
#----------   ------------   ------------------------------
 STRT.F         1053.5000:   START DEPTH
 STOP.F         3062.0000:   STOP DEPTH
 STEP.F            0.5000:   STEP LENGTH
 NULL.          -999.2500:   NO VALUE
 COMP.    FENIX & SCISSON:   COMPANY
 WELL.  FENIX "A" #301-11:   WELL
 FLD .              NPR-3:   FIELD
 LOC .      S11 T38N R78W:   LOCATION
 CNTY.            NATRONA:   COUNTY
 STAT.            WYOMING:   STATE
 CTRY. UNITED STATES OF AMERICA:   COUNTRY
 SRVC.      NL MCCULLOUGH:   SERVICE COMPANY
 DATE.        13-OCT-1977:   LOGDATE
 API .     49025104410000:   API NUMBER
~CURVE INFORMATION
#MNEM.UNIT       API CODE    CURVE DESCRIPTION
#----------   ------------   ------------------------------
 DEPT.F                  :   
 GR  .GAPI   35 310 01 00:   GAMMA RAY
 NEUT.NAPI   35 330 01 00:   NEUTRON
~PARAMETER INFORMATION
#MNEM.UNIT          VALUE    DESCRIPTION
#----------   ------------   ------------------------------
 EDF .F         5165.0000:   Drilling floor
 TD  .F         3097.0000:   Total depth
 CLNT.            A2DTECH:   Client Code
 PD  .                 DF:   Permanent Datum
 EPD .F              5165:   Elevation Permanent Datum
 LMF .                 GL:   Log Measured From
 DMF .                 DF:   Drilling Measured From
 DATE.        13-OCT-1977:   Date Logged [DD-MMM-YYYY]
 DD  .F              3097:   Depth driller
 BLI .F              3060:   Bottom log interval
 TLI .F              1060:   Top log interval
 BSD1.F              3097:   Depth drilled with bit1
 DFT .              WATER:   Type fluid in hole
 ENGI.            MUNDELL:   Recorded By
 ORIG.           5" PRINT:   Origin of data
 UWI .     49025104410000:   Unique Well ID
 DICO. A2D TECHNOLOGIES, INC.:   Digitizing Company
~OTHER INFORMATION
~A  DEPT         GR      NEUT   
# ...
 2511.5000    80.2160   114.3895
 2512.0000    77.0848   114.3679
 2512.5000    75.6750   102.8234
 2513.0000    75.0479    64.1310
 2513.5000    76.4544    45.7070
 2514.0000    80.0734    41.2242
 2514.5000    81.3019    43.4333
 2515.0000    84.7430    55.6800
 2515.5000    92.7222    93.0209
 2516.0000    98.9800   129.2892
 2516.5000    99.2918   131.4501
 2517.0000    98.9769   134.7798
 2517.5000    98.8189   134.7529
 2518.0000    99.4433   139.7502
 2518.5000    98.1896   150.3239
 2519.0000    99.1270   154.7635
 2519.5000   100.2208   163.6643
 2520.0000   101.4712   162.4524
 2520.5000   103.8169   161.3906
 2521.0000   106.1626   168.0554
 2521.5000   106.3176   170.2699
 2522.0000   103.8120   165.7817
 2522.5000   104.4364   162.4142
 2523.0000   106.4692   166.8539
 2523.5000   107.5630   177.9853
 2524.0000   111.0042   175.7277
 2524.5000   111.1592   177.3791
 2525.0000   111.6271   187.9528
 2525.5000   113.4093   190.1619
 2526.0000   115.0666   206.8698
 2526.5000   114.4388   228.0389
 2527.0000   113.8114   228.0170
 2527.5000   113.6534   223.5291
 2528.0000   115.5297   217.3734
 2528.5000   116.4670   209.5448
 2529.0000   116.3090   212.3115
 2529.5000   115.2118   231.2499
 2530.0000   112.0806   271.9367
 2530.5000   111.9226   284.7411
 2531.0000   112.7035   273.7348
 2531.5000   113.3283   263.5019
 2532.0000   112.7005   255.1156
 2532.5000   113.9508   238.9222
 2533.0000   116.2965   207.6723
 2533.5000   115.6687   200.4013
 2534.0000   116.2935   199.8221
 2534.5000   117.0740   199.8000
 2535.0000   119.2633   200.8889
 2535.5000   118.9488   204.2132
 2536.0000   116.2871   205.3123
 2536.5000   115.8161   204.7331
 2537.0000   115.6577   211.9610
 2537.5000   115.5001   201.8963
 2538.0000   113.3075   174.8730
 2538.5000   110.8022   156.1206
 2539.0000   111.2702   138.2542
 2539.5000   111.2896   115.3691
 2540.0000   109.5458   109.2134
 2540.5000   109.5651   110.3071
 2541.0000   108.2906   128.6879
 2541.5000   104.8464   188.4587
 2542.0000    99.5245   234.3870
 2542.5000    95.9239   266.3571
 2543.0000    94.3575   264.6626
 2543.5000    96.8597   264.6410
 2544.0000    98.1309   269.6383
 2544.5000    98.8906   265.1555
 2545.0000    99.5150   253.9810
 2545.5000   103.5821   260.6512
 2546.0000   106.2408   258.3936
 2546.5000   106.2392   226.0284
 2547.0000   106.2377   217.0845
 2547.5000   106.2362   201.4487
 2548.0000   105.6087   186.9283
 2548.5000   105.9202   188.0220
 2549.0000   102.6322   202.6002
 2549.5000   102.4746   204.1507
 2550.0000   104.0375   202.4508
 2550.5000   104.8184   212.4669
 2551.0000   104.9734   231.9631
 2551.5000   104.5024   248.1133
 2552.0000   104.9703   270.4426
 2552.5000   104.3425   276.0083
 2553.0000   104.1849   271.3647
 2553.5000   104.6528   270.4103
 2554.0000   102.4602   246.9755
 2554.5000   100.5809   236.9271
 2555.0000    99.9534   241.3775
 2555.5000   102.3409   245.8279
 2556.0000   103.7060   244.7018
 2556.5000   102.4522   244.1334
 2557.0000   104.2598   246.9081
 2557.5000   104.2598   255.2621
 2558.0000   104.8943   264.7313
 2558.5000   110.8887   269.1844
 2559.0000   114.5269   265.8250
 2559.5000   115.3047   256.8919
 2560.0000   113.4379   239.0363
 2560.5000   110.6378   244.5994
 2561.0000   109.7045   247.9345
 2561.5000   109.8600   249.5966
 2562.0000   110.4823   249.0282
 2562.5000   106.3598   246.7868
 2563.0000   103.3265   246.2184
 2563.5000   100.3708   232.7293
 2564.0000   101.7709   223.1548
 2564.5000   104.2598   219.4162
 2565.0000   104.5710   213.2713
 2565.5000   103.6376   212.1452
 2566.0000   103.9569   212.1344
 2566.5000   104.8821   211.0083
 2567.0000   107.0599   206.5363
 2567.5000   108.3589   203.7373
 2568.0000   108.6716   210.9760
 2568.5000   108.6731   209.8472
 2569.0000   109.2972   213.1823
 2569.5000   111.3210   218.7480
 2570.0000   111.4777   222.0831
 2570.5000   111.0125   208.6888
 2571.0000   111.0144   201.9860
 2571.5000   108.9936   199.7421
 2572.0000   105.1674   197.5007
 2572.5000   104.1742   193.5864
 2573.0000   105.2650   190.7874
 2573.5000   105.2665   189.6613
 2574.0000   105.5791   186.3046
 2574.5000   110.5586   172.8426
 2575.0000   111.8045   166.6716
 2575.5000   109.1615   166.1942
 2576.0000   109.1634   161.7222
 2576.5000   107.4537   156.1349
 2577.0000   106.8326   153.8936
 2577.5000   108.3901   129.9039
 2578.0000   108.3544   129.3119
 2578.5000   111.6599   141.1724
 2579.0000   109.9502   165.5584
 2579.5000   111.9740   181.1617
 2580.0000   109.4869   185.0572
 2580.5000   107.7768   179.4672
 2581.0000   109.0232   181.6870
 2581.5000   109.9581   183.9070
 2582.0000   110.2707   176.0888
 2582.5000   110.1170   176.0755
 2583.0000   109.6518   166.0270
 2583.5000   108.8755   158.2092
 2584.0000   108.4103   140.9113
 2584.5000   108.4118   138.1123
 2585.0000   108.5689   136.4285
 2585.5000   108.1037   134.7447
 2586.0000   107.4830   134.1737
 2586.5000   107.7956   132.4899
 2587.0000   105.9307   129.1333
 2587.5000   102.8210   138.0448
 2588.0000   102.6666   157.5518
 2588.5000   103.6018   163.6751
 2589.0000   104.4140   171.4714
 2589.5000   103.4496   188.0117
 2590.0000   101.2733   236.6921
 2590.5000   100.0303   251.7378
 2591.0000   101.5871   258.4188
 2591.5000    98.9444   257.2927
 2592.0000    99.2570   233.8607
 2592.5000   101.0113   224.9275
 2593.0000   101.4382   221.5706
 2593.5000   101.5953   221.5574
 2594.0000   102.5302   211.5089
 2594.5000   104.3984   200.3451
 2595.0000   106.1111   195.8732
 2595.5000   107.5202   190.2859
 2596.0000   107.1532   191.9481
 2596.5000   107.5160   199.3285
 2597.0000   108.7620   220.3639
 2597.5000   111.7191   214.7766
 2598.0000   109.6983   213.6532
 2598.5000   110.0110   225.9080
 2599.0000   109.8569   219.7631
 2599.5000   109.3917   215.2911
 2600.0000   108.1491   214.7227
 2600.5000   107.8391   169.3351
 2601.0000   108.7740   153.3571
 2601.5000   105.9754   143.3086
 2602.0000   107.5329   138.8393
 2602.5000   108.1566   139.9438
 2603.0000   106.2918   138.2601
 2603.5000   105.3595   138.8044
 2604.0000   105.5170   136.5626
 2604.5000   108.4741   141.0106
 2605.0000   107.8534   151.0402
 2605.5000   104.7437   143.7773
 2606.0000   103.5007   133.1711
 2606.5000   108.1694   123.1227
 2607.0000   107.5486   118.6507
 2607.5000   107.0831   117.5245
 2608.0000   105.3738   117.5111
 2608.5000   104.1308   120.8463
 2609.0000   105.0657   133.1037
 2609.5000   107.2822   136.4389
 2610.0000   107.5576   140.8893
 2610.5000   107.2480   135.3020
 2611.0000   108.4944   127.4796
 2611.5000   110.0515   127.6329
 2612.0000   110.6752   131.3661
 2612.5000   109.3412   131.4943
 2613.0000   107.3711   132.0465
 2613.5000   105.3488   131.4821
 2614.0000   105.0377   123.1120
 2614.5000   105.6599    96.2085
 2615.0000   110.9490    91.8716
 2615.5000   112.3503    96.8850
 2616.0000   113.2186   105.2457
 2616.5000   116.8603   103.0084
 2617.0000   110.9490    91.8500
 2617.5000   109.0822    82.3646
 2618.0000   109.3934    65.6072
 2618.5000   110.4823    70.6418
 2619.0000   111.1045    72.3108
 2619.5000   111.8823    72.8630
 2620.0000   113.4379    73.9729
 2620.5000   116.5491    77.8697
 2621.0000   113.2824   129.1680
 2621.5000   113.1268   133.0887
 2622.0000   113.1268   139.1721
 2622.5000   111.2601   162.6095
 2623.0000   109.9992   173.1994
 2623.5000   110.0156   177.6566
 2624.0000   111.4156   165.9392
 2624.5000   111.7268   165.3761
 2625.0000   111.2601   156.4484
 2625.5000   111.1045   153.7458
 2626.0000   112.9713   138.0339
 2626.5000   111.8688   145.2779
 2627.0000   111.7268   154.7525
 2627.5000   111.5712   150.8436
 2628.0000   110.9490   143.0311
 2628.5000   108.7711   136.3340
 2629.0000   107.3711   136.4636
 2629.5000   107.0599   150.2630
 2630.0000   106.5725   151.9320
 2630.5000   104.5710   151.9252
 2631.0000   103.1709   158.6116
 2631.5000    99.7486   190.9499
 2632.0000    98.5041   198.7516
 2632.5000    98.8152   198.5804
