~VERSION INFORMATION
 VERS.                2.0:   CWLS LOG ASCII STANDARD - VERSION 2.0
 WRAP.                 NO:   ONE LINE PER DEPTH STEP
~WELL INFORMATION
#MNEM.UNIT      DATA TYPE    INFORMATION
#----------   ------------   ------------------------------
 STRT.F          590.0000:   START DEPTH
 STOP.F         3123.0000:   STOP DEPTH
 STEP.F            0.5000:   STEP LENGTH
 NULL.          -999.2500:   NO VALUE
 COMP.         U. S. NAVY:   COMPANY
 WELL. U.S. NPR 3 "A" #402-33:   WELL
 FLD .             TEAPOT:   FIELD
 LOC .      S33 T39N R78W:   LOCATION
 CNTY.            NATRONA:   COUNTY
 STAT.            WYOMING:   STATE
 CTRY. UNITED STATES OF AMERICA:   COUNTRY
 SRVC.         MCCULLOUGH:   SERVICE COMPANY
 DATE.        23-OCT-1967:   LOGDATE
 API .     49025104460000:   API NUMBER
~CURVE INFORMATION
#MNEM.UNIT       API CODE    CURVE DESCRIPTION
#----------   ------------   ------------------------------
 DEPT.F                  :   
 GRN .GAPI   35 310 01 00:   GAMMA RAY FROM NEUTRON
 NEUT.NAPI   35 330 01 00:   NEUTRON
~PARAMETER INFORMATION
#MNEM.UNIT          VALUE    DESCRIPTION
#----------   ------------   ------------------------------
 EKB .F            0.0000:   Kelly bushing
 EGL .F         5160.5000:   Ground level
 EDF .F         5162.0000:   Drilling floor
 TD  .F         3123.5000:   Total depth
 CLNT.            A2DTECH:   Client Code
 PD  .                 GL:   Permanent Datum
 EPD .F            5160.5:   Elevation Permanent Datum
 LMF .                 DF:   Log Measured From
 DMF .                 DF:   Drilling Measured From
 DAPD.F               1.5:   Feet Above Permanent Datum
 DATE.        23-OCT-1967:   Date Logged [DD-MMM-YYYY]
 DL  .F            3123.5:   Depth logger
 BLI .F              3122:   Bottom log interval
 TLI .F               600:   Top log interval
 CS1 .IN           5.1875:   Casing size
 DFT .              WATER:   Type fluid in hole
 TCS .HRS             4.5:   Time Circ. stopped
 ENGI.         COWLTHORPE:   Recorded By
 WITN.           THOMASON:   Witnessed by
 ORIG.         2.5" PRINT:   Origin of data
 UWI .     49025104460000:   Unique Well ID
 DICO. A2D TECHNOLOGIES, INC.:   Digitizing Company
 LUN .               1498:   Logging unit number
~OTHER INFORMATION
~A   DEPT       GRN      NEUT   
# ...
 1562.0000    30.5862   355.9740
 1562.5000    32.4253   336.2114
 1563.0000    31.3841   318.9191
 1563.5000    32.3063   249.7500
 1564.0000    32.5204   331.2708
 1564.5000    32.7503   341.1521
 1565.0000    32.1284   341.2350
 1565.5000    30.1327   348.7023
 1566.0000    29.3062   364.1755
 1566.5000    29.1929   370.7960
 1567.0000    28.1180   354.7242
 1567.5000    28.4287   348.5630
 1568.0000    30.7696   359.7296
 1568.5000    34.9395   368.3257
 1569.0000    35.9827   340.0658
 1569.5000    35.7753   333.1397
 1570.0000    33.6919   331.2708
 1570.5000    34.1098   341.5461
 1571.0000    33.9024   361.5429
 1571.5000    33.2780   370.7960
 1572.0000    34.9467   360.7171
 1572.5000    34.7393   344.7746
 1573.0000    32.4475   335.7501
 1573.5000    31.6147   348.2164
 1574.0000    34.3255   334.2022
 1574.5000    33.0759   335.7525
 1575.0000    33.2854   355.9740
 1575.5000    34.9539   351.6129
 1576.0000    35.5803   361.8040
 1576.5000    35.7897   352.0952
 1577.0000    33.2895   345.6328
 1577.5000    33.2853   355.9740
 1578.0000    32.3797   365.1630
 1578.5000    32.8235   338.6818
 1579.0000    36.0596   355.9740
 1579.5000    37.3251   371.1914
 1580.0000    38.2982   338.6818
 1580.5000    35.9711   348.5630
 1581.0000    31.6302   355.9740
 1581.5000    31.2991   383.1476
 1582.0000    29.0644   378.2070
 1582.5000    27.4645   355.9740
 1583.0000    30.6253   338.6818
 1583.5000    34.2252   328.8004
 1584.0000    35.7248   318.9191
 1584.5000    36.4316   311.5081
 1585.0000    34.9735   309.0378
 1585.5000    36.1184   306.5675
 1586.0000    37.0977   307.0289
 1586.5000    38.0679   354.0456
 1587.0000    39.5109   378.2070
 1587.5000    40.6068   370.3800
 1588.0000    40.1993   328.5368
 1588.5000    39.0445   323.8598
 1589.0000    39.0515   330.3180
 1589.5000    39.7959   349.4349
 1590.0000    34.6508   338.6818
 1590.5000    31.0738   345.0138
 1591.0000    36.4455   368.3257
 1591.5000    37.6972   362.0504
 1592.0000    35.6138   329.3933
 1592.5000    34.1557   333.6178
 1593.0000    33.3230   360.1726
 1593.5000    32.9070   346.3209
 1594.0000    33.7419   315.4939
 1594.5000    39.9962   324.4271
 1595.0000    40.2959   328.8004
 1595.5000    37.9138   335.9966
 1596.0000    35.8305   347.0809
 1596.5000    34.5809   351.6472
 1597.0000    35.8325   337.3801
 1597.5000    39.1686   335.1002
 1598.0000    37.5021   343.9847
 1598.5000    35.8356   353.5037
 1599.0000    34.5860   328.8004
 1599.5000    36.8799   325.2756
 1600.0000    38.7569   378.2070
 1600.5000    34.5438   365.8553
 1601.0000    35.4241   336.2114
 1601.5000    37.0926   306.5675
 1602.0000    37.1519   313.9785
 1602.5000    34.1765   323.9823
 1603.0000    34.3860   273.3669
 1603.5000    33.7617   309.3348
 1604.0000    31.2615   344.4771
 1604.5000    30.5926   342.7324
 1605.0000    35.4324   316.6938
 1605.5000    34.5996   345.2516
 1606.0000    33.7669   348.8570
 1606.5000    32.9342   325.0457
 1607.0000    32.1015   313.7478
 1607.5000    31.2687   311.8756
 1608.0000    30.6444   333.1492
 1608.5000    30.4370   348.9795
 1609.0000    32.5225   337.7681
 1609.5000    32.7485   346.5582
 1610.0000    33.5667   294.7059
 1610.5000    33.5678   305.7289
 1611.0000    33.7773   340.8713
 1611.5000    36.2796   359.0078
 1612.0000    36.2806   356.5620
 1612.5000    35.4479   368.9432
 1613.0000    31.0606   359.0052
 1613.5000    31.7375   312.9159
 1614.0000    33.1582   306.7666
 1614.5000    34.4541   318.4417
 1615.0000    35.9115   307.3074
 1615.5000    37.1216   316.1832
 1616.0000    36.0554   330.9082
 1616.5000    31.5486   337.0266
 1617.0000    30.0128   338.1217
 1617.5000    30.0944   331.7241
 1618.0000    32.9581   317.3381
 1618.5000    33.6512   329.7191
 1619.0000    34.7359   339.6250
 1619.5000    35.6708   349.5308
 1620.0000    32.1284   334.7333
 1620.5000    34.3028   312.5249
 1621.0000    34.4233   315.0197
 1621.5000    34.2159   329.8661
 1622.0000    35.9903   369.4159
 1622.5000    36.3024   352.1481
 1623.0000    36.0950   324.9990
 1623.5000    37.9720   339.8455
 1624.0000    35.2633   349.7513
 1624.5000    40.1253   334.9538
 1625.0000    37.5582   389.3255
 1625.5000    37.7678   394.6587
 1626.0000    36.0097   367.1415
 1626.5000    35.0351   374.5770
 1627.0000    34.0188   382.0125
 1627.5000    35.3541   389.4480
 1628.0000    34.8143   372.1802
 1628.5000    34.7611   357.3827
 1629.0000    38.0752   394.4621
 1629.5000    38.7044   389.5460
 1630.0000    38.1387   369.8079
 1630.5000    35.8188   355.0104
 1631.0000    34.7555   373.2374
 1631.5000    35.3847   401.9956
 1632.0000    35.0548   399.3853
 1632.5000    34.5586   394.4290
 1633.0000    35.0931   386.2607
 1633.5000    35.7251   372.1628
 1634.0000    35.7596   370.0038
 1634.5000    34.4155   366.4470
 1635.0000    34.1608   347.8199
 1635.5000    35.4960   368.9697
 1636.0000    33.8295   372.5722
 1636.5000    33.5469   367.9883
 1637.0000    34.4569   306.2536
 1637.5000    34.0411   288.6546
 1638.0000    33.8335   335.2863
 1638.5000    31.1250   367.0183
 1639.0000    30.2921   386.5576
 1639.5000    31.1271   380.4066
 1640.0000    33.8378   347.2455
 1640.5000    36.3401   340.6784
 1641.0000    37.3834   366.8131
 1641.5000    37.1760   393.9257
 1642.0000    34.0504   377.3169
 1642.5000    30.5080   386.2769
 1643.0000    30.5090   378.4389
 1643.5000    31.3438   355.6529
 1644.0000    34.6799   355.8429
 1644.5000    37.1822   348.2098
 1645.0000    38.0170   364.3713
 1645.5000    33.2239   371.8502
 1646.0000    31.3266   362.3599
 1646.5000    31.1416   341.2261
 1647.0000    29.6835   369.4959
 1647.5000    30.3099   353.1820
 1648.0000    29.4771   348.9617
 1648.5000    27.6022   355.6968
 1649.0000    31.3552   333.6962
 1649.5000    32.2010   332.8516
 1650.0000    29.6897   390.5627
 1650.5000    29.6994   394.6178
 1651.0000    30.3171   380.7304
 1651.5000    29.0426   368.4033
 1652.0000    27.5431   355.7415
 1652.5000    25.0257   335.7170
 1653.0000    23.8596   341.3032
 1653.5000    25.1171   358.6199
 1654.0000    30.6875   356.1741
 1654.5000    30.8747   336.4360
 1655.0000    31.1593   351.2824
 1655.5000    35.5376   346.3663
 1656.0000    35.5387   336.1793
 1656.5000    38.0410   380.9999
 1657.0000    38.8758   385.9650
 1657.5000    38.0430   410.6928
 1658.0000    35.1259   373.6624
 1658.5000    37.0029   368.1253
 1659.0000    34.0858   344.0675
 1659.5000    34.5037   324.3293
 1660.0000    34.0879   373.7604
 1660.5000    33.4636   376.3381
 1661.0000    32.8393   386.2441
 1661.5000    33.6741   380.7495
 1662.0000    34.7173   339.7736
 1662.5000    35.7606   322.0060
 1663.0000    34.7056   347.2289
 1663.5000    32.8445   351.6989
 1664.0000    34.7796   340.5253
 1664.5000    36.5984   327.0447
 1665.0000    34.6957   336.1315
 1665.5000    34.3077   351.7969
 1666.0000    34.5172   341.9402
 1666.5000    33.9457   353.4541
 1667.0000    31.9678   365.9545
 1667.5000    33.0612   379.0685
 1668.0000    33.8403   361.1451
 1668.5000    35.6645   351.9851
 1669.0000    36.6078   318.6245
 1669.5000    35.3332   377.5365
 1670.0000    34.5254   418.7162
 1670.5000    35.2409   403.6749
 1671.0000    36.0812   366.8884
 1671.5000    36.4045   369.3832
 1672.0000    35.3608   356.5669
 1672.5000    33.6969   347.2044
 1673.0000    35.1819   359.9953
 1673.5000    35.7833   384.9265
 1674.0000    33.7807   400.3084
 1674.5000    33.2841   385.7999
 1675.0000    33.7717   352.2686
 1675.5000    34.9624   331.2541
 1676.0000    35.3716   350.6686
 1676.5000    34.3835   369.6349
 1677.0000    32.2946   365.7893
 1677.5000    32.9153   362.2734
 1678.0000    32.1494   367.2436
 1678.5000    30.2882   387.0307
 1679.0000    28.8914   379.6443
 1679.5000    29.2593   337.6732
 1680.0000    26.2646   342.6384
 1680.5000    28.4863   346.5694
 1681.0000    28.6094   298.2215
 1681.5000    29.3438   332.8305
 1682.0000    31.2155   337.9555
 1682.5000    29.8547   332.8753
 1683.0000    31.0481   372.4293
