~VERSION INFORMATION
 VERS.                2.0:   CWLS LOG ASCII STANDARD - VERSION 2.0
 WRAP.                 NO:   ONE LINE PER DEPTH STEP
~WELL INFORMATION
#MNEM.UNIT      DATA TYPE    INFORMATION
#----------   ------------   ------------------------------
 STRT.F          629.0000:   START DEPTH
 STOP.F         4090.0000:   STOP DEPTH
 STEP.F            0.5000:   STEP LENGTH
 NULL.          -999.2500:   NO VALUE
 COMP. LAWRENCE ALLISON & ASSOCIATES:   COMPANY
 WELL. LAWRENCE NPR 3 "SHX" #36-10:   WELL
 FLD .      NPR - WILDCAT:   FIELD
 LOC .      S10 T38N R78W:   LOCATION
 CNTY.            NATRONA:   COUNTY
 STAT.            WYOMING:   STATE
 CTRY. UNITED STATES OF AMERICA:   COUNTRY
 SRVC.      DRESSER ATLAS:   SERVICE COMPANY
 DATE.        24-DEC-1981:   LOGDATE
 API .     49025108310000:   API NUMBER
~CURVE INFORMATION
#MNEM.UNIT       API CODE    CURVE DESCRIPTION
#----------   ------------   ------------------------------
 DEPT.F                  :   
 DT  .US/F   60 520 00 00:   DELTA TIME
 TENS.LBS    60 635 01 00:   TENSION FROM SONIC
 GRR .GAPI   07 310 01 00:   GAMMA RAY FROM RESISTIVITY
 SPR .MV     07 010 01 00:   SPONTANEOUS POTENTIAL
 RFOC.OHMM   07 220 04 00:   RESISTIVITY FOCUSED LOG RES.
 RILM.OHMM   07 120 44 00:   INDUCTION LOG MEDIUM RESISTIVITY
 RILD.OHMM   07 120 46 00:   DEEP INDUCTION RESISTIVITY
 TENR.LBS    07 635 01 00:   TENSION FROM RESISTIVITY
 NPHI.DEC    42 890 03 00:   NEUTRON POROSITY SANDSTONE
 RHOB.G/C3   45 350 01 00:   BULK DENSITY
 CORR.G/C3   45 356 01 00:   DENSITY CORRECTION
 TEND.LBS    45 635 01 00:   TENSION FROM DENSITY LOG
 CALD.IN     45 280 60 00:   CALIPER FROM DENSITY LOG
~PARAMETER INFORMATION
#MNEM.UNIT          VALUE    DESCRIPTION
#----------   ------------   ------------------------------
 EKB .F         5234.0000:   Kelly bushing
 EGL .F         5224.0000:   Ground level
 EDF .F         5233.0000:   Drilling floor
 EPD .F            0.0000:   Permanent datum
 TD  .F         4100.0000:   Total depth
 DATE.        24-DEC-1981:   Date logged
 CLNT.            A2DTECH:   Client Code
 SL  . 1798' FSL & 1455' FWL:   Surface Location
 PD  .                 GL:   Permanent Datum
 DAPD.F                10:   Feet Above Permanent Datum
 DD  .F              4100:   Depth driller
 DL  .F              4082:   Depth logger
 BLI .F              4074:   Bottom log interval
 TLI .F              2300:   Top log interval
 CS1 .IN            9.625:   Casing size
 CBD1.      9.625" @ 650':   Casing driller 1
 BS1 .IN            7.875:   Bit size
 BSD1.F              4100:   Depth drilled with bit1
 DFT .            KCL/GEL:   Type fluid in hole
 DFD .                9.1:   Density
 DFV .                 60:   Viscosity
 DFPH.                  8:   pH
 DFL .                 12:   Fluid loss
 MSS .           FLOWLINE:   Source of sample
 RMS .OHMM           .536:   Rm
 RMF .OHMM           .402:   Rmf
 RMC .OHMM            067:   Rmc
 MFSS.               CALC:   Source Rmf.
 MCSS.               CALC:   Source Rmc.
 RMB .OHMM            .35:   Rm. at BHT
 BHT .F               135:   BHT.
 TCS .HRS               6:   Time Circ. stopped
 MRT .F               141:   Maximum recorded temp.
 LUL .               GLT1:   Logging unit location
 UWI .     49025108310000:   Unique Well ID
 DICO. A2D TECHNOLOGIES, INC.:   Digitizing Company
~OTHER INFORMATION
~A   DEPT       DT       TENS         GRR       SPR       RFOC       RILM       RILD       TENR       NPHI       RHOB       CORR       TEND       CALD   
# ...
 4061.0000    69.2790   446.6830    69.0700   -35.2990    20.0890    18.0770    21.1970   202.8590     0.1340     2.4710     0.0530   331.5740     7.7630
 4061.5000    68.5530   452.4080  -999.2500   -35.7240    22.7720    19.2050    22.8570   205.0980     0.1110     2.4870     0.0330   341.8710     7.7630
 4062.0000    66.0800   458.1330  -999.2500   -36.1470    39.3020    20.3330    24.5160   207.3360     0.0890     2.5230     0.0110   352.1670     7.7630
 4062.5000    62.7210   463.8580  -999.2500   -36.5720    68.4120    21.1800    25.6530   209.5750     0.0800     2.5590     0.0040   356.7070     7.7630
 4063.0000    59.3620   469.5830  -999.2500   -37.0080    76.8450    19.8280    24.7760   211.8140     0.0910     2.5950     0.0040   360.1690     7.7630
 4063.5000    57.8120   475.3080  -999.2500   -37.1830    60.3610    18.4750    23.0970   214.0520     0.1150     2.6230     0.0160   363.6310     7.7630
 4064.0000    58.5670   481.0320  -999.2500   -37.2770    42.1320    17.1230    21.4190   216.2910     0.1550     2.6410     0.0300   367.0920     7.7630
 4064.5000    60.9990   486.7570  -999.2500   -37.2210    23.9030    15.7710    19.7410   218.5300     0.1780     2.6510     0.0410   370.5540     7.7630
 4065.0000    63.4310   492.4820  -999.2500   -37.0100    17.1480    14.4190    18.0620   220.7680  -999.2500     2.6570     0.0550   373.7520     7.7630
 4065.5000    65.7760   498.2070  -999.2500   -36.8000    15.7370    13.0660    16.3840   223.0070  -999.2500     2.6500     0.0690   386.8460     7.7630
 4066.0000    66.5770   503.9320  -999.2500   -36.5890    14.8870    12.5910    14.7060   225.2450  -999.2500     2.6380     0.0800   399.0140     7.7630
 4066.5000    67.3770   509.6570  -999.2500   -36.3780    13.8260    12.5570    13.4540   227.4840  -999.2500     2.6220     0.0670   411.1820     7.7630
 4067.0000    68.4780   515.3820  -999.2500   -36.1670    13.4540    12.5230    13.1110   229.7230  -999.2500     2.6190     0.0560   423.3500     7.7630
 4067.5000    69.5630   521.1070  -999.2500   -35.9560    15.7120    12.4980    12.5840   231.9610  -999.2500     2.6200     0.0600   435.5180     7.7630
 4068.0000    71.8500   522.0950  -999.2500   -35.7450    17.5220    12.2100    12.0250   234.2000  -999.2500     2.6330     0.0670   447.6870     7.7630
 4068.5000    74.8710   519.3180  -999.2500   -35.5340    19.3330    10.9670    11.4610   239.8390  -999.2500     2.6460     0.0740   454.1390     7.7620
 4069.0000    77.8920   699.2070  -999.2500   -35.3230    20.7510     9.7440    10.8980   250.0660  -999.2500     2.6600     0.0820   455.8700     7.7520
 4069.5000    80.9910   858.7190  -999.2500   -35.1120    16.6320     9.8110    10.3340   260.2930  -999.2500     2.6660     0.0860   457.6010     7.7420
 4070.0000    78.5370  1003.8490  -999.2500   -34.9010    12.5740     9.9210     9.7700   270.5210  -999.2500     2.6540     0.0780   459.3320     7.7320
 4070.5000    76.0170  1057.7920  -999.2500   -34.6900     8.4850    10.0310     9.2070   280.7480  -999.2500     2.6400     0.0700   461.0630     7.7230
 4071.0000    73.4980  1042.8250  -999.2500   -34.4790     8.4070    10.1410     8.6430   290.9750  -999.2500     2.6360     0.0620   462.7930     7.7130
 4071.5000    70.8810   948.8870  -999.2500   -34.2070     9.6810    10.2510     8.4070   301.2020  -999.2500     2.6360     0.0530   463.5730     7.7030
 4072.0000    69.4420   793.6780  -999.2500   -33.6650    12.6190    10.6330     8.4070   305.9410  -999.2500     2.6340     0.0450   463.5730     7.6930
 4072.5000    67.9460   697.8030  -999.2500   -33.1190    14.4760    11.2160     8.4070   306.6120  -999.2500     2.6290     0.0480   473.5530     7.6840
 4073.0000    67.2530   625.8760  -999.2500   -32.5750    14.3940    11.7990     8.9010   307.2840  -999.2500     2.6240     0.0700   494.6110     7.6830
 4073.5000    67.1830   471.6090  -999.2500   -32.0420    14.3510    12.3810     9.4130   307.9550  -999.2500     2.6190     0.0820   516.4340     7.6830
 4074.0000    67.1130   309.4710  -999.2500   -31.0370    14.4820    12.9640     9.9260   308.6260  -999.2500     2.6140     0.0800   538.2570     7.6830
 4074.5000    67.0440   147.3330  -999.2500   -29.8900    14.8900    13.5470    10.4390   309.2970  -999.2500     2.6100     0.0680   560.0810     7.6830
 4075.0000    66.9740   -24.7750  -999.2500   -28.7190    15.1670    13.8320    10.8830   309.9690  -999.2500     2.6050     0.0570   573.3530     7.6830
 4075.5000    66.9050   -71.5960  -999.2500   -28.6290    15.1670    13.9600    10.9840   310.6400  -999.2500     2.6050     0.0670   583.3330     7.6830
 4076.0000    66.8350   -82.9060  -999.2500   -28.5990    12.8010    12.8410    11.0860   311.3110  -999.2500     2.7200     0.0630   485.3760     7.6830
 4076.5000    66.7650   -80.2800  -999.2500   -28.5640    11.0080    11.9940    11.0860   311.9830  -999.2500     2.8640     0.3200   322.7490  -999.2500
 4077.0000    66.6960   -77.6540  -999.2500   -28.5280    10.1100    11.1470    11.0860   312.6540  -999.2500     2.9500     0.4060   160.1210  -999.2500
 4077.5000    66.5220   -74.8250  -999.2500   -28.4930    10.8110    10.2990  -999.2500   313.3250  -999.2500     2.9540     0.4280    -2.5070  -999.2500
 4078.0000    65.6370  -123.7140  -999.2500   -28.7840    11.4520    10.1100  -999.2500   313.9960  -999.2500  -999.2500  -999.2500  -165.1340  -999.2500
 4078.5000    63.3300  -176.7210  -999.2500   -29.4280    12.0450    10.0170  -999.2500   314.6680  -999.2500  -999.2500  -999.2500  -225.0500  -999.2500
 4079.0000    62.6010  -229.7280  -999.2500   -30.0700    12.0450     9.9250  -999.2500   315.3390  -999.2500  -999.2500  -999.2500  -225.0500  -999.2500
 4079.5000    62.6570  -244.9950  -999.2500   -30.7150    11.8750  -999.2500  -999.2500   324.9680  -999.2500  -999.2500  -999.2500  -999.2500  -999.2500
 4080.0000    62.6730  -244.9950  -999.2500   -31.3610    11.6290  -999.2500  -999.2500   339.1610  -999.2500  -999.2500  -999.2500  -999.2500  -999.2500
 4080.5000    62.6730  -244.9950  -999.2500   -32.0000    14.2150  -999.2500  -999.2500   353.3530  -999.2500  -999.2500  -999.2500  -999.2500  -999.2500
 4081.0000    62.6730  -244.9950  -999.2500  -999.2500    18.2410  -999.2500  -999.2500   354.4940  -999.2500  -999.2500  -999.2500  -999.2500  -999.2500
 4081.5000  -999.2500  -999.2500  -999.2500  -999.2500    22.2670  -999.2500  -999.2500   368.4030  -999.2500  -999.2500  -999.2500  -999.2500  -999.2500
 4082.0000  -999.2500  -999.2500  -999.2500  -999.2500    22.9660  -999.2500  -999.2500   382.3120  -999.2500  -999.2500  -999.2500  -999.2500  -999.2500
 4082.5000  -999.2500  -999.2500  -999.2500  -999.2500    17.1450  -999.2500  -999.2500   396.2210  -999.2500  -999.2500  -999.2500  -999.2500  -999.2500
 4083.0000  -999.2500  -999.2500  -999.2500  -999.2500    11.3970  -999.2500  -999.2500   410.1300  -999.2500  -999.2500  -999.2500  -999.2500  -999.2500
 4083.5000  -999.2500  -999.2500  -999.2500  -999.2500  -999.2500  -999.2500  -999.2500   415.6660  -999.2500  -999.2500  -999.2500  -999.2500  -999.2500
 4084.0000  -999.2500  -999.2500  -999.2500  -999.2500  -999.2500  -999.2500  -999.2500   397.6480  -999.2500  -999.2500  -999.2500  -999.2500  -999.2500
 4084.5000  -999.2500  -999.2500  -999.2500  -999.2500  -999.2500  -999.2500  -999.2500   303.5270  -999.2500  -999.2500  -999.2500  -999.2500  -999.2500
 4085.0000  -999.2500  -999.2500  -999.2500  -999.2500  -999.2500  -999.2500  -999.2500   209.4070  -999.2500  -999.2500  -999.2500  -999.2500  -999.2500
 4085.5000  -999.2500  -999.2500  -999.2500  -999.2500  -999.2500  -999.2500  -999.2500   115.2860  -999.2500  -999.2500  -999.2500  -999.2500  -999.2500
 4086.0000  -999.2500  -999.2500  -999.2500  -999.2500  -999.2500  -999.2500  -999.2500    57.1070  -999.2500  -999.2500  -999.2500  -999.2500  -999.2500
 4086.5000  -999.2500  -999.2500  -999.2500  -999.2500  -999.2500  -999.2500  -999.2500    62.0750  -999.2500  -999.2500  -999.2500  -999.2500  -999.2500
