~VERSION INFORMATION
 VERS.                2.0:   CWLS LOG ASCII STANDARD - VERSION 2.0
 WRAP.                 NO:   ONE LINE PER DEPTH STEP
~WELL INFORMATION
#MNEM.UNIT      DATA TYPE    INFORMATION
#----------   ------------   ------------------------------
 STRT.F           85.5000:   START DEPTH
 STOP.F         3267.0000:   STOP DEPTH
 STEP.F            0.5000:   STEP LENGTH
 NULL.          -999.2500:   NO VALUE
 COMP. LAWRENCE ALLISON & ASSOCIATES:   COMPANY
 WELL. LAWRENCE "X" #78-33:   WELL
 FLD .           N P R #3:   FIELD
 LOC .      S33 T39N R78W:   LOCATION
 CNTY.            NATRONA:   COUNTY
 STAT.            WYOMING:   STATE
 CTRY. UNITED STATES OF AMERICA:   COUNTRY
 SRVC.      DRESSER ATLAS:   SERVICE COMPANY
 DATE.        04-FEB-1986:   LOGDATE
 API .     49025110630000:   API NUMBER
~CURVE INFORMATION
#MNEM.UNIT       API CODE    CURVE DESCRIPTION
#----------   ------------   ------------------------------
 DEPT.F                  :   
 CNC .DEC    42 890 03 00:   NEUTRON PORISITY SANDSTONE
 DEN .G/C3   45 350 01 00:   BULK DENSITY
 DCOR.G/C3   45 356 01 00:   DENSITY CORRECTION
 TEND.LBS    45 635 01 00:   TENSION FROM DENSITY LOG
 GRR .GAPI   07 310 01 00:   GAMMA RAY FROM RESISTIVITY
 CALR.IN     07 280 01 00:   CALIPER FROM RESISTIVITY
 RILM.OHMM   07 120 44 00:   INDUCTION LOG MEDIUM RESISTIVITY
 RILD.OHMM   07 120 46 00:   DEEP INDUCTION RESISTIVITY
 RFOC.OHMM   07 220 04 00:   RESISTIVITY FOCUSED LOG RES.
 TENR.LBS    07 635 01 00:   TENSION FROM RESISTIVITY
 DT  .US/F   60 520 00 00:   DELTA TIME
 TENS.LBS    60 635 01 00:   TENSION FROM SONIC
 SPR .MV     07 010 01 00:   SPONTANEOUS POTENTIAL
~PARAMETER INFORMATION
#MNEM.UNIT          VALUE    DESCRIPTION
#----------   ------------   ------------------------------
 EKB .F            0.0000:   Kelly bushing
 EGL .F         5150.0000:   Ground level
 EDF .F         5161.0000:   Drilling floor
 TD  .F         3260.0000:   Total depth
 DATE.        04-FEB-1986:   Date logged
 CLNT.            A2DTECH:   Client Code
 SL  . 1200' FEL & 650' FEL:   Surface Location
 PD  .                 GL:   Permanent Datum
 DD  .F              3260:   Depth driller
 DL  .F              3260:   Depth logger
 BLI .F              3258:   Bottom log interval
 CS1 .IN            8.625:   Casing size
 CBD1.      8.625" @ 566':   Casing driller 1
 CBL1.F               566:   Casing logger 1
 BS1 .IN            7.875:   Bit size
 DFT .        POLYMER-KCL:   Type fluid in hole
 DFD .                9.0:   Density
 DFV .                 36:   Viscosity
 DFPH.                8.5:   pH
 DFL .                 14:   Fluid loss
 MSS .           FLOWLINE:   Source of sample
 RMS .OHMM          0.367:   Rm
 MST .F                65:   Rm Meas. temp.
 RMF .OHMM          0.275:   Rmf
 MFST.F                65:   Rmf Meas. temp.
 RMC .OHMM          0.459:   Rmc
 MCST.F                65:   Rmc Meas. temp.
 MFSS.               CALC:   Source Rmf.
 RMB .OHMM          0.227:   Rm. at BHT
 BHT .F               105:   BHT.
 TCS .HRS               6:   Time Circ. stopped
 MRT .F               105:   Maximum recorded temp.
 LUN .               6274:   Logging unit number
 LUL .           GILLETTE:   Logging unit location
 ENGI.             MILLER:   Recorded By
 WITN.             STRONG:   Witnessed by
 ORIG.           5" PRINT:   Origin of data
 UWI .     49025110630000:   Unique Well ID
 DICO. A2D TECHNOLOGIES, INC.:   Digitizing Company
 DAPD.                 11:   Feet Above Permanent Datum
 BSD1.               3260:   Depth drilled with bit1
 MCSS.               CALC:   Source Rmc.
 EPD .F              5150:   Elevation Permanent Datum
 LMF .                 KB:   Log Measured From
 DMF .                 KB:   Drilling Measured From
 TLI .                566:   Top log interval
~OTHER INFORMATION
~A   DEPT      CNC        DEN       DCOR       TEND         GRR      CALR       RILM       RILD       RFOC       TENR         DT       TENS        SPR   
# ...
 1619.5000  -999.2500  -999.2500  -999.2500  -999.2500    94.1770     9.9930     7.1290     7.8530     8.4530   -45.0000  -999.2500  -999.2500   -79.0080
 1620.0000  -999.2500  -999.2500  -999.2500  -999.2500    93.9310    10.0230     7.1110     7.9990     8.3760   -44.2340  -999.2500  -999.2500   -78.8880
 1620.5000  -999.2500  -999.2500  -999.2500  -999.2500    92.5270    10.0440     7.0960     7.8960     8.2020   -43.4590  -999.2500  -999.2500   -78.8600
 1621.0000  -999.2500  -999.2500  -999.2500  -999.2500    93.5880    10.0470     7.0120     7.7650     7.9260   -42.6840  -999.2500  -999.2500   -78.5860
 1621.5000  -999.2500  -999.2500  -999.2500  -999.2500    96.5130    10.0450     6.9410     7.6330     8.0020   -41.9090  -999.2500  -999.2500   -78.6740
 1622.0000  -999.2500  -999.2500  -999.2500  -999.2500    97.7910    10.0460     6.8700     7.5010     8.1020   -41.1340  -999.2500  -999.2500   -79.0490
 1622.5000  -999.2500  -999.2500  -999.2500  -999.2500    95.9920    10.0460     6.7980     7.3700     8.1190   -40.3590  -999.2500  -999.2500   -79.1540
 1623.0000  -999.2500  -999.2500  -999.2500  -999.2500    93.7340    10.0450     6.7270     7.2380     8.0730   -39.5840  -999.2500  -999.2500   -79.0190
 1623.5000  -999.2500  -999.2500  -999.2500  -999.2500    93.8710    10.0460     6.6550     7.0960     7.8920   -38.8090  -999.2500  -999.2500   -78.5970
 1624.0000  -999.2500  -999.2500  -999.2500  -999.2500    96.6870    10.0450     6.5920     7.0450     7.7330   -38.0340  -999.2500  -999.2500   -78.4310
 1624.5000  -999.2500  -999.2500  -999.2500  -999.2500    98.5220    10.0380     6.5370     6.9890     7.5740   -37.2590  -999.2500  -999.2500   -78.7780
 1625.0000  -999.2500  -999.2500  -999.2500  -999.2500    97.5010    10.0310     6.4870     6.9340     7.4310   -36.4840  -999.2500  -999.2500   -78.9580
 1625.5000  -999.2500  -999.2500  -999.2500  -999.2500    95.4800    10.0230     6.4380     6.8780     7.3840   -35.7090  -999.2500  -999.2500   -79.0380
 1626.0000  -999.2500  -999.2500  -999.2500  -999.2500    94.6480    10.0140     6.3130     6.8220     7.3630   -35.0000  -999.2500  -999.2500   -79.1930
 1626.5000  -999.2500  -999.2500  -999.2500  -999.2500    96.2510    10.0090     6.1240     6.7670     7.7100   -37.0690  -999.2500  -999.2500   -79.3390
 1627.0000  -999.2500  -999.2500  -999.2500  -999.2500    98.1360     9.9960     6.1060     6.7150     7.7380   -38.9770  -999.2500  -999.2500   -79.3990
 1627.5000  -999.2500  -999.2500  -999.2500  -999.2500   100.0490     9.9970     6.0900     6.7870     7.4940   -40.8850  -999.2500  -999.2500   -79.1390
 1628.0000  -999.2500  -999.2500  -999.2500  -999.2500   101.7710     9.9800     6.0740     6.7990     7.2490   -42.7920  -999.2500  -999.2500   -78.8350
 1628.5000  -999.2500  -999.2500  -999.2500  -999.2500   101.8260     9.9130     6.1470     6.8110     6.9670   -45.0000  -999.2500  -999.2500   -78.6530
 1629.0000  -999.2500  -999.2500  -999.2500  -999.2500    99.7480     9.8350     6.2680     6.8230     7.0250   -42.7610  -999.2500  -999.2500   -78.5340
 1629.5000  -999.2500  -999.2500  -999.2500  -999.2500    94.3540     9.7740     6.3890     6.8350     7.0940   -40.1040  -999.2500  -999.2500   -78.4990
 1630.0000  -999.2500  -999.2500  -999.2500  -999.2500    90.7240     9.7600     6.5100     6.8400     7.1620   -37.4460  -999.2500  -999.2500   -78.4200
 1630.5000  -999.2500  -999.2500  -999.2500  -999.2500    91.4670     9.7660     6.6320     6.9160     7.2420   -34.7890  -999.2500  -999.2500   -78.3600
 1631.0000  -999.2500  -999.2500  -999.2500  -999.2500    92.0450     9.7580     6.7770     6.9910     7.3200   -32.1320  -999.2500  -999.2500   -78.2930
 1631.5000  -999.2500  -999.2500  -999.2500  -999.2500    91.8650     9.7580     6.7340     7.0660     7.3990   -29.4750  -999.2500  -999.2500   -78.2270
 1632.0000  -999.2500  -999.2500  -999.2500  -999.2500    91.8020     9.7550     6.6800     7.0830     7.7220   -26.8180  -999.2500  -999.2500   -78.5200
 1632.5000  -999.2500  -999.2500  -999.2500  -999.2500    92.8300     9.7510     6.6260     7.0600     7.9110   -24.1610  -999.2500  -999.2500   -79.0160
 1633.0000  -999.2500  -999.2500  -999.2500  -999.2500    95.1870     9.7500     6.5660     7.0370     7.8850   -21.5040  -999.2500  -999.2500   -79.2920
 1633.5000  -999.2500  -999.2500  -999.2500  -999.2500    95.9220     9.7420     6.4980     7.0140     7.8530   -18.8460  -999.2500  -999.2500   -79.3530
 1634.0000  -999.2500  -999.2500  -999.2500  -999.2500    94.2160     9.7300     6.4130     6.9910     7.6380   -16.1890  -999.2500  -999.2500   -79.2310
 1634.5000  -999.2500  -999.2500  -999.2500  -999.2500    90.8130     9.7170     6.4030     6.9670     7.3570   -17.6520  -999.2500  -999.2500   -79.2200
 1635.0000  -999.2500  -999.2500  -999.2500  -999.2500    88.4880     9.7040     6.3890     6.9460     7.2070   -22.4520  -999.2500  -999.2500   -79.2320
 1635.5000  -999.2500  -999.2500  -999.2500  -999.2500    91.2160     9.6940     6.3760     6.9250     7.1690   -27.2520  -999.2500  -999.2500   -78.8130
 1636.0000  -999.2500  -999.2500  -999.2500  -999.2500    93.1660     9.6810     6.3630     6.9040     7.1300   -32.0520  -999.2500  -999.2500   -78.2550
 1636.5000  -999.2500  -999.2500  -999.2500  -999.2500    89.6010     9.6690     6.3420     6.8820     7.0960   -36.8520  -999.2500  -999.2500   -77.9570
 1637.0000  -999.2500  -999.2500  -999.2500  -999.2500    86.0500     9.6710     6.3030     6.8610     7.2510   -41.6520  -999.2500  -999.2500   -78.0660
 1637.5000  -999.2500  -999.2500  -999.2500  -999.2500    84.8110     9.6780     6.2650     6.8390     7.4310   -45.0000  -999.2500  -999.2500   -78.3190
 1638.0000  -999.2500  -999.2500  -999.2500  -999.2500    86.7410     9.6830     6.2380     6.8180     7.3840   -39.3000  -999.2500  -999.2500   -78.6850
 1638.5000  -999.2500  -999.2500  -999.2500  -999.2500    90.5970     9.6870     6.2190     6.7970     7.3170   -34.9240  -999.2500  -999.2500   -79.1740
 1639.0000  -999.2500  -999.2500  -999.2500  -999.2500    92.6870     9.6830     6.2050     6.7770     7.3330   -30.5470  -999.2500  -999.2500   -79.1320
 1639.5000  -999.2500  -999.2500  -999.2500  -999.2500    94.4480     9.6760     6.1910     6.7550     7.3890   -26.1710  -999.2500  -999.2500   -79.0080
 1640.0000  -999.2500  -999.2500  -999.2500  -999.2500    94.1010     9.6730     6.1810     6.7300     7.4310   -21.7940  -999.2500  -999.2500   -79.2880
 1640.5000  -999.2500  -999.2500  -999.2500  -999.2500    91.2670     9.6670     6.1710     6.7060     7.1770   -17.4180  -999.2500  -999.2500   -79.5130
 1641.0000  -999.2500  -999.2500  -999.2500  -999.2500    91.8200     9.6530     6.1640     6.6810     6.9750   -17.3790  -999.2500  -999.2500   -79.6790
 1641.5000  -999.2500  -999.2500  -999.2500  -999.2500    96.4670     9.6400     6.1570     6.6560     6.9660   -22.6930  -999.2500  -999.2500   -79.7770
 1642.0000  -999.2500  -999.2500  -999.2500  -999.2500    99.9830     9.6290     6.1500     6.6310     7.0650   -28.0070  -999.2500  -999.2500   -79.5970
 1642.5000  -999.2500  -999.2500  -999.2500  -999.2500    98.6320     9.6200     6.1430     6.6070     7.1620   -33.3210  -999.2500  -999.2500   -79.1940
 1643.0000  -999.2500  -999.2500  -999.2500  -999.2500    95.0290     9.6130     6.1350     6.6000     7.0670   -38.6360  -999.2500  -999.2500   -78.8050
 1643.5000  -999.2500  -999.2500  -999.2500  -999.2500    92.9770     9.6050     6.1280     6.6190     7.1310   -45.0000  -999.2500  -999.2500   -78.4480
 1644.0000  -999.2500  -999.2500  -999.2500  -999.2500    93.7510     9.5970     6.1370     6.6370     7.2960   -39.6930  -999.2500  -999.2500   -78.3040
 1644.5000  -999.2500  -999.2500  -999.2500  -999.2500    95.2090     9.5890     6.1700     6.6560     7.2500   -33.0800  -999.2500  -999.2500   -78.4500
 1645.0000  -999.2500  -999.2500  -999.2500  -999.2500    94.2920     9.5810     6.2040     6.6750     7.0600   -25.0000  -999.2500  -999.2500   -78.6320
