~VERSION INFORMATION
 VERS.                2.0:   CWLS LOG ASCII STANDARD - VERSION 2.0
 WRAP.                 NO:   ONE LINE PER DEPTH STEP
~WELL INFORMATION
#MNEM.UNIT      DATA TYPE    INFORMATION
#----------   ------------   ------------------------------
 STRT.F           31.5000:   START DEPTH
 STOP.F         4204.0000:   STOP DEPTH
 STEP.F            0.5000:   STEP LENGTH
 NULL.          -999.2500:   NO VALUE
 COMP.   LAWRENCE ALLISON:   COMPANY
 WELL. LAWRENCE 3 "X" #32-10:   WELL
 FLD .                NPR:   FIELD
 LOC .      S10 T38N R78W:   LOCATION
 CNTY.            NATRONA:   COUNTY
 STAT.            WYOMING:   STATE
 CTRY. UNITED STATES OF AMERICA:   COUNTRY
 SRVC.      DRESSER ATLAS:   SERVICE COMPANY
 DATE.        05-NOV-1983:   LOGDATE
 API .     49025109460000:   API NUMBER
~CURVE INFORMATION
#MNEM.UNIT       API CODE    CURVE DESCRIPTION
#----------   ------------   ------------------------------
 DEPT.F                  :   
 CALD.IN     45 280 60 00:   CALIPER FROM DENSITY LOG
 CNC .DEC    42 890 01 00:   NEUTRON POROSITY LIMESTONE
 CORR.G/C3   45 356 01 00:   DENSITY CORRECTION
 TEND.LBS    45 635 01 00:   TENSION FORM DENSITY LOG
 RHOB.G/C3   45 350 01 00:   BULK DENSITY
 DT  .US/F   60 520 00 00:   DELTA TIME
 TENS.LBS    60 635 01 00:   TENSION FROM SONIC
 GRR .GAPI   07 310 01 00:   GAMMA RAY FROM RESISTIVITY
 TENR.LBS    06 635 01 00:   TENSION FROM RESISTIVITY
 RFOC.OHMM   07 220 04 00:   RESISTIVITY FOCUSED LOG RES.
 RILM.OHMM   07 120 44 00:   INDUCTION LOG MEDIUM RESISTIVITY
 RILD.OHMM   07 120 46 00:   DEEP INDUCTION RESISTIVITY
 SPR .MV     07 010 01 00:   SPONTANEOUS POTENTIAL
~PARAMETER INFORMATION
#MNEM.UNIT          VALUE    DESCRIPTION
#----------   ------------   ------------------------------
 EKB .F         5237.0000:   Kelly bushing
 EGL .F         5227.0000:   Ground level
 TD  .F         4202.0000:   Total depth
 CLNT.            A2DTECH:   Client Code
 SL  . 1871' FWL & 1152' FNL:   Surface Location
 PD  .                 GL:   Permanent Datum
 EPD .F              5227:   Elevation Permanent Datum
 LMF .                 KB:   Log Measured From
 DMF .                 KB:   Drilling Measured From
 DAPD.F                10:   Feet Above Permanent Datum
 DATE.        05-NOV-1983:   Date Logged [DD-MMM-YYYY]
 DD  .F              4200:   Depth driller
 DL  .F              4202:   Depth logger
 BLI .F              4200:   Bottom log interval
 TLI .F                30:   Top log interval
 CS1 .IN            8.625:   Casing size
 CBD1.      8.625" @ 545':   Casing driller 1
 CBL1.F               545:   Casing logger 1
 BS1 .IN            7.875:   Bit size
 BSD1.F              4200:   Depth drilled with bit1
 DFT .            GEL KCL:   Type fluid in hole
 DFD .                8.9:   Density
 DFV .                 42:   Viscosity
 DFPH.                8.5:   pH
 DFL .               12.4:   Fluid loss
 MSS .           FLOWLINE:   Source of sample
 RMS .OHMM           0.43:   Rm
 MST .F                97:   Rm Meas. temp.
 RMF .OHMM           0.42:   Rmf
 MFST.F                74:   Rmf Meas. temp.
 MFSS.               MEAS:   Source Rmf.
 RMC .OHMM           0.53:   Rmc
 MCST.F                97:   Rmc Meas. temp.
 MCSS.               CALC:   Source Rmc.
 RMB .OHMM           0.32:   Rm. at BHT
 BHT .F               131:   BHT.
 TCS .HRS               3:   Time Circ. stopped
 MRT .F               131:   Maximum recorded temp.
 LUN .               6307:   Logging unit number
 LUL .               GLTE:   Logging unit location
 ENGI.            DEYOUNG:   Recorded By
 WITN.             STRONG:   Witnessed by
 ORIG.        2" 5" PRINT:   Origin of data
 UWI .     49025109460000:   Unique Well ID
 DICO. A2D TECHNOLOGIES, INC.:   Digitizing Company
~OTHER INFORMATION
~A   DEPT     CALD        CNC       CORR       TEND       RHOB         DT       TENS         GRR      TENR       RFOC       RILM       RILD        SPR   
# ...
 1045.5000    10.0084     0.2953     0.0022   -28.2897     2.4979  -999.2500  -999.2500   101.9545   -37.6865     9.5815     8.8964     8.8441   -38.6546
 1046.0000    10.0090     0.2915     0.0145   -28.3821     2.4949  -999.2500  -999.2500   100.5696   -37.4785     9.8556     8.8961     8.8438   -38.9779
 1046.5000    10.0096     0.2982     0.0237   -28.4892     2.4934  -999.2500  -999.2500   102.0462   -37.2783    10.0664     8.8333     8.7814   -39.0000
 1047.0000    10.0102     0.2989     0.0299   -28.5775     2.4911  -999.2500  -999.2500   102.7697   -37.0625     9.5163     8.8956     8.8432   -39.0221
 1047.5000    10.0108     0.2979     0.0237   -28.6657     2.4887  -999.2500  -999.2500   101.3848   -36.8501     9.3838     8.8952     8.8429   -38.8931
 1048.0000    10.0114     0.2928    -0.0008   -25.6703     2.4857  -999.2500  -999.2500    97.7409   -36.5945     9.3846     8.9578     8.9052   -38.4639
 1048.5000    10.0120     0.2862    -0.0116   -22.6789     2.4857  -999.2500  -999.2500    96.9584   -36.3865     9.6531     8.9575     8.9048   -37.7112
 1049.0000    10.0126     0.2795    -0.0162   -19.6855     2.4896  -999.2500  -999.2500    98.2843   -36.1785     9.8597     9.0205     8.9356   -36.6778
 1049.5000    10.0132     0.2761    -0.0115   -16.6921     2.4973  -999.2500  -999.2500    97.4944   -35.9705     9.9300     9.0202     8.9673   -36.1206
 1050.0000    10.0137     0.2720    -0.0253   -16.8024     2.5042  -999.2500  -999.2500    97.0205   -35.5001     9.7806     9.0198     8.9670   -35.9921
 1050.5000    10.0143     0.2843    -0.0315   -16.8907     2.5058  -999.2500  -999.2500    99.0016   -33.5609     9.5622     9.0195     8.9666   -35.7186
 1051.0000    10.0149     0.2760    -0.0253   -16.9800     2.5037  -999.2500  -999.2500   100.6802   -31.6216     9.3228     9.0366     8.9663   -35.5845
 1051.5000    10.0155     0.2717    -0.0114   -17.2371     2.4980  -999.2500  -999.2500   101.1540   -29.6823     9.2579     9.0827     9.0295   -35.6104
 1052.0000    10.0161     0.2717     0.0009   -17.6383     2.4873  -999.2500  -999.2500   102.3808   -27.7430     9.3357     9.0823     9.0292   -35.4507
 1052.5000    10.0167     0.2733    -0.0021   -18.0394     2.4727  -999.2500  -999.2500   106.4690   -27.0519     9.3905     9.0820     9.0288   -35.1276
 1053.0000    10.0173     0.2760    -0.0083   -18.4405     2.4704  -999.2500  -999.2500   109.3524   -27.1635     9.4957     9.0817     9.0285   -34.4980
 1053.5000    10.0179     0.2751    -0.0005   -18.8416     2.4704  -999.2500  -999.2500   106.5240   -27.2528     9.6195     9.0814     9.0282   -34.4812
 1054.0000    10.0182     0.2720    -0.0005   -19.2427     2.4720  -999.2500  -999.2500    99.1610   -27.3421     9.6606     9.0810     9.0279   -35.0562
 1054.5000    10.0190     0.2710    -0.0036   -19.6438     2.4774  -999.2500  -999.2500    95.2618   -27.4314     9.6612     9.0170     8.9641   -35.9379
 1055.0000    10.0208     0.2710    -0.0020   -20.0449     2.4858  -999.2500  -999.2500    97.3977   -27.5229     9.6619     9.0166     8.9638   -36.5183
 1055.5000    10.0227     0.2692    -0.0081   -20.4461     2.4920  -999.2500  -999.2500    98.9202   -30.6904     9.6361     9.0164     8.9635   -36.9537
 1056.0000    10.0245     0.2677    -0.0235   -20.8472     2.4835  -999.2500  -999.2500    97.4417   -30.7797     9.5193     9.0160     8.9632   -37.3781
 1056.5000    10.0263     0.2673    -0.0188   -18.0125     2.4757  -999.2500  -999.2500    98.2167   -33.9271     9.4230     9.0157     8.9629   -37.8079
 1057.0000    10.0282     0.2673    -0.0157   -18.1010     2.4805  -999.2500  -999.2500    99.5941   -37.0745     9.3305     9.0154     8.9626   -38.5390
 1057.5000    10.0300     0.2681    -0.0326   -18.1896     2.4897  -999.2500  -999.2500   100.5197   -37.1638     9.2009     9.0151     8.9622   -38.6676
 1058.0000    10.0318     0.2704    -0.0110   -15.1743     2.4951  -999.2500  -999.2500   100.5422   -40.3058     9.2015     8.9980     8.9619   -38.7963
 1058.5000    10.0337     0.2735    -0.0093   -15.2851     2.4974  -999.2500  -999.2500    99.9612   -40.4004     9.2021     8.9512     8.8986   -38.6182
 1059.0000    10.0355     0.2769    -0.0094   -15.3775     2.4966  -999.2500  -999.2500    99.5369   -40.4897     9.1382     8.9508     8.8983   -38.7524
 1059.5000    10.0373     0.2796    -0.0033   -15.4842     2.4944  -999.2500  -999.2500    99.1071   -40.5810     9.1389     8.9449     8.8980   -38.7249
 1060.0000    10.0391     0.2784    -0.0001   -15.5727     2.4936  -999.2500  -999.2500    98.8224   -40.6906     9.1395     8.8874     8.8535   -38.2512
 1060.5000    10.0410     0.2769     0.0030   -18.7365     2.4928  -999.2500  -999.2500    99.7535   -37.6995     9.1402     8.8625     8.8348   -37.3256
 1061.0000    10.0428     0.2790     0.0091   -18.8315     2.4929  -999.2500  -999.2500   101.1309   -34.7307     9.1409     8.8243     8.7724   -36.2494
 1061.5000    10.0446     0.2836     0.0061   -21.0408     2.4945  -999.2500  -999.2500   103.7131   -31.7842     9.1416     8.7808     8.7544   -35.4718
 1062.0000    10.0465     0.2899    -0.0127   -22.1124     2.5060  -999.2500  -999.2500   105.8435   -31.8735     9.1422     8.7002     8.7100   -35.3012
 1062.5000    10.0483     0.2935     0.0061   -22.1880     2.5206  -999.2500  -999.2500   103.0422   -30.8110     8.8268     8.6388     8.6485   -35.1239
 1063.0000    10.0501     0.2932     0.0246   -22.2804     2.5360  -999.2500  -999.2500    98.3629   -28.9908     8.4625     8.5176     8.4671   -35.1019
 1063.5000    10.0520     0.2910     0.0477   -22.3854     2.5437  -999.2500  -999.2500    98.9873   -29.0832     8.2863     8.3391     8.4073   -35.2361
 1064.0000    10.0538     0.2861     0.0539   -22.4665     2.5476  -999.2500  -999.2500   103.6779   -29.1743     8.1709     8.2803     8.2310   -35.2086
 1064.5000    10.0556     0.2765     0.0508   -22.5578     2.5468  -999.2500  -999.2500   105.8083   -29.2841     8.1716     8.1641     8.1728   -35.1867
 1065.0000    10.0575     0.2676     0.0493   -22.6657     2.5437  -999.2500  -999.2500   104.0231   -29.3734     8.2299     8.0496     8.0580   -35.1647
 1065.5000    10.0587     0.2645     0.0263   -22.7543     2.5399  -999.2500  -999.2500   100.5812   -29.4627     8.3471     8.0493     8.0011   -35.2937
 1066.0000    10.0590     0.2639     0.0140   -22.8428     2.5384  -999.2500  -999.2500    97.5912   -29.5520     8.4066     7.9598     7.9426   -35.2711
 1066.5000    10.0598     0.2664     0.0187   -26.0130     2.5407  -999.2500  -999.2500    96.5424   -32.6994     8.4072     7.8804     7.8884   -35.3946
 1067.0000    10.0607     0.2763     0.0218   -26.1016     2.5319  -999.2500  -999.2500    99.0462   -32.7887     8.4079     7.8248     7.7776   -35.8245
 1067.5000    10.0615     0.2842     0.0249   -20.0268     2.5130  -999.2500  -999.2500   100.9704   -32.8780     8.4084     7.8245     7.7774   -35.9531
 1068.0000    10.0624     0.2888     0.0251   -20.1233     2.5030  -999.2500  -999.2500    97.3834   -32.9672     8.4090     7.7693     7.7224   -36.3885
 1068.5000    10.0632     0.2891     0.0265   -20.2186     2.4968  -999.2500  -999.2500    95.8939   -33.0581     8.4096     7.6602     7.6679   -36.6677
 1069.0000    10.0640     0.2879    -0.0134   -20.3082     2.4914  -999.2500  -999.2500    99.0840   -33.1682     8.3512     7.6062     7.5602   -36.6403
 1069.5000    10.0649     0.2848    -0.0395   -20.4031     2.4876  -999.2500  -999.2500   104.0759   -33.2416     8.3518     7.5525     7.5599   -36.6183
 1070.0000    10.0657     0.2802    -0.0564   -20.4931     2.4853  -999.2500  -999.2500   106.9593   -33.3333     8.2938     7.4834     7.5065   -36.7470
 1070.5000    10.0666     0.2768    -0.0671   -20.5875     2.4838  -999.2500  -999.2500   108.0355   -33.4360     8.2944     7.3940     7.3978   -37.1938
 1071.0000    10.0674     0.2774    -0.0313   -20.6780     2.4830  -999.2500  -999.2500   107.3045   -36.5834     8.2368     7.3937     7.3488   -37.6067
