~VERSION INFORMATION
 VERS.                2.0:   CWLS LOG ASCII STANDARD - VERSION 2.0
 WRAP.                 NO:   ONE LINE PER DEPTH STEP
~WELL INFORMATION
#MNEM.UNIT      DATA TYPE    INFORMATION
#----------   ------------   ------------------------------
 STRT.F          198.0000:   START DEPTH
 STOP.F         3140.0000:   STOP DEPTH
 STEP.F            0.5000:   STEP LENGTH
 NULL.          -999.2500:   NO VALUE
 COMP.    FENIX & SCISSON:   COMPANY
 WELL. FENIX NPR 3 "AX" #43-34:   WELL
 FLD .                NPR:   FIELD
 LOC .      S34 T39N R78W:   LOCATION
 CNTY.            NATRONA:   COUNTY
 STAT.            WYOMING:   STATE
 CTRY. UNITED STATES OF AMERICA:   COUNTRY
 SRVC.              WELEX:   SERVICE COMPANY
 DATE.        02-JUL-1977:   LOGDATE
 API .     49025103890000:   API NUMBER
~CURVE INFORMATION
#MNEM.UNIT       API CODE    CURVE DESCRIPTION
#----------   ------------   ------------------------------
 DEPT.F                  :   
 CALD.IN     45 280 60 00:   CALIPER FROM DENSITY LOG
 GRD .GAPI   45 310 01 00:   GAMMA RAY FROM DENSITY LOG
 RHOB.G/C3   45 350 01 00:   BULK DENSITY
 CORR.G/C3   45 356 01 00:   DENSITY CORRECTION
 SPR .MV     07 010 01 00:   SPONTANEOUS POTENTIAL
 SFLU.OHMM   07 220 01 00:   SPHERICALLY FOCUSED LOG UNAVERAGED RESISTIVITY
 ILD .OHMM   07 120 46 00:   DEEP INDUCTION RESISTIVITY
 ILM .OHMM   07 120 44 00:   INDUCTION LOG MEDIUM RESISTIVITY
~PARAMETER INFORMATION
#MNEM.UNIT          VALUE    DESCRIPTION
#----------   ------------   ------------------------------
 EKB .F         5118.0000:   Kelly bushing
 EGL .F         5108.0000:   Ground level
 TD  .F         3145.0000:   Total depth
 DATE.        02-JUL-1977:   Date logged
 CLNT.            A2DTECH:   Client Code
 SL  . 1650' FNL & 2310' FWL:   Surface Location
 PD  .                 GL:   Permanent Datum
 EPD .F              5108:   Elevation Permanent Datum
 LMF .                 KB:   Log Measured From
 DMF .                 KB:   Drilling Measured From
 DAPD.F                10:   Feet Above Permanent Datum
 DD  .F              3145:   Depth driller
 DL  .F              3143:   Depth logger
 BLI .F              3141:   Bottom log interval
 TLI .F               200:   Top log interval
 CS1 .IN            8.625:   Casing size
 CBD1.      8.625" @ 203':   Casing driller 1
 CBL1.F               224:   Casing logger 1
 BS1 .IN            7.875:   Bit size
 BSD1.F              3145:   Depth drilled with bit1
 DFT .            KCL/MUD:   Type fluid in hole
 DFD .                  9:   Density
 DFV .                 34:   Viscosity
 DFPH.                7.5:   pH
 DFL .                9.2:   Fluid loss
 MSS .           FLOWLINE:   Source of sample
 RMS .OHMM            .18:   Rm
 MST .F                75:   Rm Meas. temp.
 RMF .OHMM            .16:   Rmf
 MFST.F                75:   Rmf Meas. temp.
 RMC .OHMM            .30:   Rmc
 MCST.F                75:   Rmc Meas. temp.
 MFSS.               FANN:   Source Rmf.
 MCSS.                KIT:   Source Rmc.
 RMB .OHMM            .11:   Rm. at BHT
 BHT .F               118:   BHT.
 TCS .HRS            3.75:   Time Circ. stopped
 MRT .F               118:   Maximum recorded temp.
 LUN .               8766:   Logging unit number
 LUL .             CASPER:   Logging unit location
 ENGI.          T. JOYNER:   Recorded By
 WITN.     W. PETTNG/GILL:   Witnessed by
 ORIG.           5" PRINT:   Origin of data
 UWI .     49025103890000:   Unique Well ID
 DICO. A2D TECHNOLOGIES, INC.:   Digitizing Company
~OTHER INFORMATION
~A   DEPT     CALD         GRD        RHOB     CORR        SPR       SFLU        ILD        ILM   
  198.0000  -999.2500    98.0444     2.0364  -999.2500  -999.2500  -999.2500  -999.2500  -999.2500
  198.5000     8.9395    98.0419     2.0388  -999.2500  -999.2500  -999.2500  -999.2500  -999.2500
  199.0000     8.9141    98.0413     2.0264  -999.2500  -999.2500  -999.2500  -999.2500  -999.2500
  199.5000     8.9095   100.7972     2.0234  -999.2500  -999.2500  -999.2500  -999.2500  -999.2500
  200.0000     8.9072   100.4070     2.0196  -999.2500  -999.2500  -999.2500  -999.2500  -999.2500
  200.5000     8.9023   101.1793     2.0208  -999.2500  -999.2500  -999.2500  -999.2500  -999.2500
  201.0000     8.9059   102.3872     2.0259    -0.6314  -999.2500  -999.2500  -999.2500  -999.2500
  201.5000     8.9061   105.1579     2.0299    -0.6393  -999.2500  -999.2500  -999.2500  -999.2500
  202.0000     8.9064   104.7651     2.0279    -0.6154  -999.2500  -999.2500  -999.2500  -999.2500
  202.5000     8.9066   103.9805     2.0439    -0.6233  -999.2500  -999.2500  -999.2500  -999.2500
  203.0000     8.9069   102.0158     2.0459    -0.6233  -999.2500  -999.2500  -999.2500  -999.2500
  203.5000     8.9071   103.2077     2.0459    -0.6233  -999.2500  -999.2500  -999.2500  -999.2500
  204.0000     8.9074   103.2138     2.0419    -0.6233  -999.2500  -999.2500  -999.2500  -999.2500
  204.5000     8.9076   105.5860     2.0380    -0.6232  -999.2500  -999.2500  -999.2500  -999.2500
  205.0000     8.9079   105.1967     2.0380    -0.6351  -999.2500  -999.2500  -999.2500  -999.2500
  205.5000     8.9082   104.8074     2.0360    -0.6351  -999.2500  -999.2500  -999.2500  -999.2500
  206.0000     8.9084   104.4181     2.0360    -0.6351  -999.2500  -999.2500  -999.2500  -999.2500
  206.5000     8.9087   103.6322     2.0500    -0.6231  -999.2500  -999.2500  -999.2500  -999.2500
  207.0000     8.9089   102.8474     2.0679    -0.6111  -999.2500  -999.2500  -999.2500  -999.2500
  207.5000     8.9092   101.6743     2.0759    -0.5991  -999.2500  -999.2500  -999.2500  -999.2500
  208.0000     8.9094    98.9125     2.0759    -0.5872  -999.2500  -999.2500  -999.2500  -999.2500
  208.5000     8.9097    96.9413     2.0899    -0.5792  -999.2500  -999.2500  -999.2500  -999.2500
  209.0000     8.9099    89.0367     2.0979    -0.5791  -999.2500  -999.2500  -999.2500  -999.2500
  209.5000     8.9102    93.3943     2.1019    -0.5791  -999.2500  -999.2500  -999.2500  -999.2500
  210.0000     8.9105    94.9818     2.1039    -0.5791  -999.2500  -999.2500  -999.2500  -999.2500
  210.5000     8.9107    93.4059     2.1039    -0.5751  -999.2500  -999.2500  -999.2500  -999.2500
  211.0000     8.9110    93.4117     2.1039    -0.5750  -999.2500  -999.2500  -999.2500  -999.2500
  211.5000     8.9112    92.2312     2.1099    -0.5750  -999.2500  -999.2500  -999.2500  -999.2500
  212.0000     8.9115    92.2358     2.1139    -0.5750  -999.2500  -999.2500  -999.2500  -999.2500
  212.5000     8.9117    92.6382     2.1126    -0.5749  -999.2500  -999.2500  -999.2500  -999.2500
  213.0000     8.9120    93.4350     2.1113    -0.5829  -999.2500  -999.2500  -999.2500  -999.2500
  213.5000     8.9122    94.2318     2.1100    -0.5828  -999.2500  -999.2500  -999.2500  -999.2500
  214.0000     8.9125    94.6308     2.1051    -0.5828  -999.2500  -999.2500  -999.2500  -999.2500
  214.5000     8.9128    95.8278     2.1020    -0.5828  -999.2500  -999.2500  -999.2500  -999.2500
  215.0000     8.9130    96.6211     2.1100    -0.5828  -999.2500  -999.2500  -999.2500  -999.2500
  215.5000     8.9133    97.0202     2.1160    -0.5867  -999.2500  -999.2500  -999.2500  -999.2500
  216.0000     8.9135    97.8207     2.1100    -0.5986  -999.2500  -999.2500  -999.2500  -999.2500
  216.5000     8.9138    99.0132     2.1001    -0.6106  -999.2500  -999.2500  -999.2500  -999.2500
  217.0000     8.9140   100.6013     2.0882    -0.6145  -999.2500  -999.2500  -999.2500  -999.2500
  217.5000     8.9142   101.7939     2.0882    -0.6145  -999.2500  -999.2500  -999.2500  -999.2500
  218.0000     8.9145   101.4043     2.0882    -0.5986  -999.2500  -999.2500  -999.2500  -999.2500
  218.5000     8.9148   101.8058     2.0982    -0.5905  -999.2500  -999.2500  -999.2500  -999.2500
  219.0000     8.9150   102.9985     2.1161    -0.5825  -999.2500  -999.2500  -999.2500  -999.2500
  219.5000     8.9153   102.6089     2.1281    -0.5785  -999.2500  -999.2500  -999.2500  -999.2500
  220.0000     8.9155   103.0105     2.1430    -0.5705  -999.2500  -999.2500  -999.2500  -999.2500
  220.5000     8.9158   103.4121     2.1540    -0.5545  -999.2500  -999.2500  -999.2500  -999.2500
  221.0000     8.9160   106.5854     2.1600    -0.5107  -999.2500  -999.2500  -999.2500  -999.2500
  221.5000     8.9163   106.5878     2.1670    -0.5107  -999.2500  -999.2500  -999.2500  -999.2500
  222.0000     8.9165   107.7795     2.1720    -0.4867  -999.2500  -999.2500  -999.2500  -999.2500
  222.5000     8.9168   109.3681     2.1919    -0.4309  -999.2500  -999.2500  -999.2500  -999.2500
  223.0000     8.9171   111.3536     2.2079    -0.4150    -1.0265  -999.2500  -999.2500  -999.2500
  223.5000     8.9173   112.5448     2.2557    -0.3519    -4.3288  -999.2500  -999.2500  -999.2500
  224.0000     8.9374   113.3947     2.3015    -0.2888    -7.6310  -999.2500  -999.2500  -999.2500
  224.5000     8.9772   114.1374     2.3553    -0.2257   -10.9333  -999.2500  -999.2500  -999.2500
  225.0000     9.0170   115.7250     2.4175    -0.1359   -14.2355  -999.2500  -999.2500  -999.2500
  225.5000     9.0370   116.5239     2.4918    -0.0308   -17.3571     4.7746  -999.2500  -999.2500
  226.0000     9.0373   117.3203     2.5088     0.0514   -19.7493     5.2248  -999.2500    32.2052
  226.5000     9.0375   117.7261     2.4719     0.0514   -21.3374     5.7534  -999.2500     5.0621
  227.0000     9.0378   117.7286     2.4620     0.0447   -22.9284     6.1634     0.3946     4.7244
  227.5000     9.0380   117.7362     2.4650     0.0395   -24.9160     6.5123     0.3483     4.9242
  228.0000     9.0382   117.3468     2.4650     0.0355   -25.7118     6.8810     0.3341     5.0621
  228.5000     9.0385   114.5873     2.4640     0.0356   -27.4948     7.2706     0.3341     5.4993
  229.0000     9.0387   113.0106     2.4650     0.0396   -28.1762     7.4735     0.3892     5.8116
  229.5000     9.0391   112.2254     2.4651     0.0396   -28.8575     7.2706     0.6873     6.1417
  230.0000     9.0393   112.2316     2.4651     0.0397   -30.0733     7.2706     1.7410     6.4904
  230.5000     9.0395   113.0292     2.4651     0.0437   -30.4644     7.4735     4.0016     6.8590
  231.0000     9.0398   112.2439     2.4651     0.0437   -30.8583     7.6822     4.9960     7.3493
  231.5000     9.0401   112.2501     2.4691     0.0437   -31.6515     9.4443     5.9008     7.7667
  232.0000     9.0405   112.6508     2.4691     0.0438   -32.8415    12.6105     6.5933     8.0952
  232.5000     9.0407   113.8456     2.4691     0.0438   -33.2355    13.1422     6.9695     8.0952
  233.0000     9.0409   114.2464     2.4711     0.0438   -33.6270    10.6901     7.6801     7.9842
  233.5000     9.0412   115.0442     2.4741     0.0438   -34.0210     8.4594     8.2317     7.6602
  234.0000     9.0414   116.2391     2.4751     0.0439   -34.8119     8.0061     7.8962     7.4515
  234.5000     9.0417   116.2441     2.4781     0.0519   -35.2060     7.6822     7.7874     7.3493
  235.0000     9.0420   116.6475     2.4801     0.0519   -35.1980     7.5771     7.3671     7.4515
  235.5000     9.0422   117.0471     2.4831     0.0519   -35.5922     7.5771     7.0668     7.3493
  236.0000     9.0425   117.0547     2.4831     0.0520   -35.9837     7.5771     6.9695     7.2485
  236.5000     9.0427   117.4606     2.4802     0.0520   -35.9784     7.5771     6.6854     7.2485
  237.0000     9.0430   117.4644     2.4752     0.0520   -36.7695     7.5771     6.5933     7.2485
  237.5000     9.0433   119.0541     2.4722     0.0520   -37.1638     7.5771     6.5933     7.2485
  238.0000     9.0435   120.2467     2.4633     0.0521   -37.1587     7.5771     6.5933     7.2485
