~VERSION INFORMATION
 VERS.               2.10:   CWLS LOG ASCII STANDARD - VERSION 2.10
 WRAP.                 NO:   ONE LINE PER DEPTH STEP
~WELL INFORMATION
#MNEM.UNIT      DATA TYPE    INFORMATION
#----------   ------------   ------------------------------
 STRT.F         2399.3489:   START DEPTH
 STOP.F         5518.8403:   STOP DEPTH
 STEP.F            0.5000:   STEP LENGTH
 NULL.          -999.2500:   NO VALUE
 COMP. Fluor Daniel (NPOSR), Inc.:   COMPANY
 WELL.        43-2 TPX 10:   WELL
 FLD .           N.P.R. 3:   FIELD
 LOC . 10-38N-78W-NATRONA-WY:   LOCATION
 STAT.                 WY:   STATE
 COUN.            Natrona:   COUNTY
 SRVC.      Western Atlas:   SERVICE COMPANY
 DATE.                   :   LOGDATE
 APIN.         4902522843:   API NUMBER
~CURVE INFORMATION
#MNEM.UNIT       API CODE    CURVE DESCRIPTION
#----------   ------------   ------------------------------
 DEPT.F                  :
 DPHI.none   42 890 03 00:   Den. Porosity, Ss [%]
 NPHI.none   42 890 03 00:   Neu. Porosity, Ss [%]
 GR  .gAPI   42 310 00 00:   Gamma Ray
 RHOB.gm/cc  42 350 01 00:   Bulk Density
~PARAMETER INFORMATION
#MNEM.UNIT          VALUE    DESCRIPTION
#----------   ------------   ------------------------------
 EKB .F         5209.0000:   Kelly bushing
 EGL .F         5199.0000:   Ground level
 EDF .F         5208.0000:   Drilling floor
 EPD .F           10.0000:   Permanent datum
 TD  .F         3150.0000:   Total depth
 NRUN.             1.0000:   Number of Runs
#--RUN 1---   ------------   The following are for Run 1---
 RUN .             1.0000:   Run 1
 DATE.mm/dd/yyyy 02/13/1997:   Date Logged
 DD  .ft             5540:   Depth Driller
 DL  .ft             5541:   Depth Logger
 BLI .ft             5535:   Bottom Log Interval
 TLI .ft             2400:   Top Log Interval
 CSS .inch          9.625:   Casing Size
 CTD1.ft              439:   Casing Driller 1
 CTL1.ft              436:   Casing Logger 1
 BS  .inch           8.75:   Bit Size
 DFT .           Gel/Chem:   Type Fluid In Hole
 DFD .lb/gal          9.6:   Mud Weight
 DFV .sec              50:   Viscosity
 DFPH.                9.5:   pH
 DFL .cc              8.0:   Fluid Loss
 WSS .               tank:   Source Of Sample
 RM  .ohmm            .68:   Rm
 EMT .F                94:   Rm Meas. Temp.
 RMF .ohmm            .51:   Rmf
 MFT .F                94:   Rmf Meas. Temp.
 RMC .ohmm            .95:   Rmc
 MCST.F                94:   Rmc Meas. Temp.
 MFSS.              calc.:   Source Rmf.
 MCSS.              calc.:   Source Rmc.
 RMB .ohmm            .38:   Rm. At BHT
 BHT .F               168:   BHT.
 TCS .hh:mm         6 hrs:   Time Circ. Stopped
 MRT .F               168:   Maximum Recorded Temp.
 LUL .          Rk. Spgs.:   Logging Unit Location
 ENGI.               Rall:   Recorded By
 WITN.      Lebeau/ Hardy:   Witnessed By
 DGBY.              Burke:   Digitized By
~OTHER INFORMATION
# Rho M=2.65, Rho F=1.0
# CNCF=Sandstone
# Cement Volume Based on 7" casing
~A  DEPTH     DPHI       NPHI         GR       RHOB
# ...
 4224.3490    42.9287    22.9026    95.9626     2.6024
 4224.8490    43.0830    22.8310    97.4788     2.6009
 4225.3490    42.8029    22.6208    96.2529     2.6048
 4225.8490    42.3366    22.4336    92.8564     2.6126
 4226.3490    41.8669    22.5256    91.0103     2.6204
 4226.8490    41.5850    21.4706    91.3348     2.6259
 4227.3490    41.4339    21.0355    92.5895     2.6267
 4227.8490    41.4951    20.9416    90.4333     2.6252
 4228.3490    41.6186    21.7766    89.8273     2.6260
 4228.8490    41.6175    22.7358    92.0339     2.6253
 4229.3490    41.7408    23.3673    95.2110     2.6099
 4229.8490    43.0370    24.3403    97.3161     2.5983
 4230.3490    44.5560    25.0244    97.3305     2.5615
 4230.8490    46.0750    25.2090    96.1046     2.5302
 4231.3490    47.5940    26.1779    95.1887     2.5001
 4231.8490    49.1131    27.5921    93.9628     2.4794
 4232.3490    50.6683    27.4979    91.4966     2.4428
 4232.8490    52.2729    26.2882    89.6505     2.4173
 4233.3490    54.0224    25.4817    89.0444     2.4239
 4233.8490    53.8043    27.3081    89.3692     2.4506
 4234.3490    51.6810    28.1744    90.7156     2.4888
 4234.8490    49.1581    28.6379    94.0527     2.5283
 4235.3490    46.6351    28.6056    96.8578     2.5562
 4235.8490    44.7705    28.1617    99.0427     2.5726
 4236.3490    44.4595    27.7661    97.8168     2.5633
 4236.8490    45.3894    26.8353    92.8699     2.4999
 4237.3490    48.7094    26.6172    91.9505     2.4326
 4237.8490    52.5834    28.3941    92.2785     2.3783
 4238.3490    56.7755  -999.2500    91.9828     2.3660
 4238.8490    57.3021   -48.7307    90.1367     2.3684
 4239.3490    57.0220   -48.2136    87.3219     2.3855
 4239.8490    56.3074   -49.3616    85.7747     2.3784
 4240.3490    57.8271   -49.7656    84.9074     2.3370
 4240.8490    59.4937   -49.7979    86.7858     2.2872
 4241.3490    61.4071   -49.2415    88.0405     2.2981
 4241.8490    62.0488   -48.1893    86.8146     2.3168
 4242.3490    60.7540   -46.2076    86.8290     2.3401
 4242.8490    59.1100   -45.8261    89.0832     2.3535
 4243.3490    58.1013   -46.1173    91.8734     2.3332
 4243.8490    59.0948   -46.1158    93.0772     2.3270
 4244.3490    59.1546   -45.3456    92.7816     2.3587
 4244.8490    57.4933   -44.0289    92.4823     2.3990
 4245.3490    54.6037   -42.0234    93.4305     2.4395
 4245.8490    52.8115   -40.1132    92.8247     2.4465
 4246.3490    52.3860   -39.7426    91.9088     2.4443
 4246.8490    52.4472   -39.8369    91.6126     2.4335
 4247.3490    52.9656   -42.2442    90.6971     2.4234
 4247.8490    53.6479   -44.3536    89.7814     2.4126
 4248.3490    54.3301   -46.4630    89.7963     2.4096
 4248.8490    54.9573   -48.1665    91.6743     2.4042
 4249.3490    55.2668   -47.8970    93.2390     2.3807
 4249.8490    56.6198   -45.1982    93.5635     2.3537
 4250.3490    58.1127   -42.3558    92.6476     2.3269
 4250.8490    59.7637   -43.6893    89.8713     2.3277
 4251.3490    59.5146   -43.9698    87.7152     2.3170
 4251.8490    59.9482   -43.2465    86.4892     2.2856
 4252.3490    62.9002   -43.0115    85.8835     2.2230
 4252.8490    66.0115   -43.3850    85.2777     2.1846
 4253.3490    68.1691   -43.0764    85.2925     2.1901
 4253.8490    68.0130   -42.2411    86.2403     2.1909
 4254.3490    67.9191   -41.8703    88.4252     2.1794
 4254.8490    69.1907   -44.0863    89.6799     2.1469
 4255.3490    -8.3277   -45.6557    89.6943     2.1097
 4255.8490    -7.3048   -46.2744    88.7748     2.1183
 4256.3490    -9.6640   -46.3683    88.4791     2.1625
 4256.8490    68.1630   -44.9446    89.1173     2.2044
 4257.3490    66.6724   -43.9854    89.7518     2.2138
 4257.8490    66.6097   -43.9244    90.0763     2.1958
 4258.3490    68.2223   -44.2978    90.7111     2.1215
 4258.8490  -999.2500   -44.1610    91.0359     2.0472
 4259.3490  -999.2500   -45.3228    89.8129  -999.2500
 4259.8490  -999.2500   -46.2103    90.4439     4.0025
 4260.3490     1.8421   -48.2358    88.9079     3.9670
 4260.8490   -10.0443   -49.3987    88.9258  -999.2500
 4261.3490    25.3951  -999.2500    89.5604  -999.2500
 4261.8490    18.1723  -999.2500    88.6445  -999.2500
 4262.3490    10.9494  -999.2500    79.2245     2.5830
 4262.8490     3.8545  -999.2500    71.0977     2.5908
 4263.3490     3.5433    19.0872    65.4330     2.5939
 4263.8490     3.5424    17.9650    65.4474     2.5940
 4264.3490     3.2313    16.8427    66.3920     2.5948
 4264.8490     2.6098    15.7204    64.8560     2.6057
 4265.3490     2.0504    14.5981    64.8707     2.6158
 4265.8490     1.4599    13.8067    66.4388     2.6236
 4266.3490     0.8954    13.3313    67.6899     2.6322
 4266.8490     0.6462    12.3799    67.3942     2.6370
 4267.3490     0.7124    11.9138    68.0323     2.6385
 4267.8490     0.7736    11.8196    70.2172     2.6362
 4268.3490     0.9900    12.0042    70.5417     2.6324
 4268.8490     1.2994    12.6226    69.9359     2.6224
 4269.3490     2.2296    13.4269    70.5704     2.6100
 4269.8490     2.7873    14.5410    73.3755     2.5992
 4270.3490     3.5002    14.9735    75.2686     2.5923
 4270.8490     3.6855    14.4377    75.9832     2.5931
 4271.3490     3.4982    13.9648    80.5540     2.5947
 4271.8490     3.7457    13.8229    84.2894     2.5894
 4272.3490     3.9002    13.5118    87.0944     2.5871
 4272.8490     3.8991    13.1697    86.4887     2.5879
 4273.3490     3.5879    12.2699    83.7123     2.5918
 4273.8490     2.6872    10.6575    80.6260     2.6058
 4274.3490     2.0657     9.1999    78.1597     2.6152
 4274.8490     2.1890     7.9903    78.7943     2.6075
 4275.3490     2.6295     7.5552    78.4824     2.6029
 4275.8490     2.7769     7.3031    74.3687     2.6030
 4276.3490     2.0621     7.3355    71.7056     2.6120
 4276.8490     1.7509     8.0158    76.3748     2.6208
 4277.3490     1.6882     9.1609    84.2859     2.6178
 4277.8490     2.8353     9.6554    96.4358     2.6101
 4278.3490     3.2069    11.0794   108.5856     2.5970
 4278.8490     3.4895    11.2950   118.9224     2.5939
 4279.3490     3.0500    11.3612   118.9671     2.6009
 4279.8490     2.5809    11.1685   120.8045     2.6087
 4280.3490     2.8309    11.1700   123.2995     2.6072
 4280.8490     3.8541    11.3208   118.0426     2.5931
 4281.3490     4.9704    10.7615   114.3360     2.5756
 4281.8490     5.3421    10.2645   101.6372     2.5640
 4282.3490     4.9687    10.0773   100.7178     2.5656
 4282.8490     4.3472    10.0144   104.1466     2.5750
 4283.3490     3.9429    10.1987   108.8122     2.5866
 4283.8490     3.7246    10.4143   107.8936     2.5890
 4284.3490     4.5933    10.6299    96.7686     2.5542
 4284.8490     5.6214    10.5356    74.7504     2.5426
 4285.3490     6.5461    10.6984    70.7338     2.5396
 4285.8490     6.6696    11.1383    68.5776     2.5397
 4286.3490     6.4823    11.5849    65.4912     2.5436
 4286.8490     6.4193    11.5836    59.9242     2.5459
 4287.3490     7.0632    11.6136    55.5939     2.5390
 4287.8490     7.8449    12.0458    55.9219     2.5274
 4288.3490     8.4958    12.4473    56.2464     2.5182
 4288.8490     8.5262    12.8178    55.9507     2.5120
 4289.3490     8.2458    12.7236    55.6550     2.5113
 4289.8490     8.0277    12.4425    54.3794     2.5160
 4290.3490     7.7476    12.1633    54.1334     2.5209
 4290.8490     7.3744    12.4096    53.2175     2.5293
 4291.3490     7.2180    12.6872    53.2355     2.5324
 4291.8490     7.3492    13.0267    54.4902     2.5271
 4292.3490     7.5890    13.0877    56.0550     2.5256
 4292.8490     7.2466    12.8382    57.3097     2.5279
 4293.3490     7.0596    12.3102    59.1845     2.5334
 4293.8490     7.2139    12.1230    59.8190     2.5350
 4294.3490     7.1820    11.9668    59.8335     2.5343
 4294.8490     6.9329    12.0400    60.5488     2.5368
 4295.3490     6.4045    12.6704    64.5169     2.5449
 4295.8490     5.3932    13.0164    67.3220     2.5600
 4296.3490     4.5098    12.5811    69.5069     2.5732
 4296.8490     4.3227    12.1460    70.7616     2.5802
