~VERSION INFORMATION
 VERS.               2.10:   CWLS LOG ASCII STANDARD - VERSION 2.10
 WRAP.                 NO:   ONE LINE PER DEPTH STEP
~WELL INFORMATION
#MNEM.UNIT      DATA TYPE    INFORMATION
#----------   ------------   ------------------------------
 STRT.F         2399.3489:   START DEPTH
 STOP.F         5518.8403:   STOP DEPTH
 STEP.F            0.5000:   STEP LENGTH
 NULL.          -999.2500:   NO VALUE
 COMP. Fluor Daniel (NPOSR), Inc.:   COMPANY
 WELL.        43-2 TPX 10:   WELL
 FLD .           N.P.R. 3:   FIELD
 LOC . 10-38N-78W-NATRONA-WY:   LOCATION
 STAT.                 WY:   STATE
 COUN.            Natrona:   COUNTY
 SRVC.      Western Atlas:   SERVICE COMPANY
 DATE.                   :   LOGDATE
 APIN.         4902522843:   API NUMBER
~CURVE INFORMATION
#MNEM.UNIT       API CODE    CURVE DESCRIPTION
#----------   ------------   ------------------------------
 DEPT.F                  :
 DPHI.none   42 890 03 00:   Den. Porosity, Ss [%]
 NPHI.none   42 890 03 00:   Neu. Porosity, Ss [%]
 GR  .gAPI   42 310 00 00:   Gamma Ray
 RHOB.gm/cc  42 350 01 00:   Bulk Density
~PARAMETER INFORMATION
#MNEM.UNIT          VALUE    DESCRIPTION
#----------   ------------   ------------------------------
 EKB .F         5209.0000:   Kelly bushing
 EGL .F         5199.0000:   Ground level
 EDF .F         5208.0000:   Drilling floor
 EPD .F           10.0000:   Permanent datum
 TD  .F         3150.0000:   Total depth
 NRUN.             1.0000:   Number of Runs
#--RUN 1---   ------------   The following are for Run 1---
 RUN .             1.0000:   Run 1
 DATE.mm/dd/yyyy 02/13/1997:   Date Logged
 DD  .ft             5540:   Depth Driller
 DL  .ft             5541:   Depth Logger
 BLI .ft             5535:   Bottom Log Interval
 TLI .ft             2400:   Top Log Interval
 CSS .inch          9.625:   Casing Size
 CTD1.ft              439:   Casing Driller 1
 CTL1.ft              436:   Casing Logger 1
 BS  .inch           8.75:   Bit Size
 DFT .           Gel/Chem:   Type Fluid In Hole
 DFD .lb/gal          9.6:   Mud Weight
 DFV .sec              50:   Viscosity
 DFPH.                9.5:   pH
 DFL .cc              8.0:   Fluid Loss
 WSS .               tank:   Source Of Sample
 RM  .ohmm            .68:   Rm
 EMT .F                94:   Rm Meas. Temp.
 RMF .ohmm            .51:   Rmf
 MFT .F                94:   Rmf Meas. Temp.
 RMC .ohmm            .95:   Rmc
 MCST.F                94:   Rmc Meas. Temp.
 MFSS.              calc.:   Source Rmf.
 MCSS.              calc.:   Source Rmc.
 RMB .ohmm            .38:   Rm. At BHT
 BHT .F               168:   BHT.
 TCS .hh:mm         6 hrs:   Time Circ. Stopped
 MRT .F               168:   Maximum Recorded Temp.
 LUL .          Rk. Spgs.:   Logging Unit Location
 ENGI.               Rall:   Recorded By
 WITN.      Lebeau/ Hardy:   Witnessed By
 DGBY.              Burke:   Digitized By
~OTHER INFORMATION
# Rho M=2.65, Rho F=1.0
# CNCF=Sandstone
# Cement Volume Based on 7" casing
~A  DEPTH     DPHI       NPHI         GR       RHOB
# ...
 4662.3490    -1.9551    15.8213    95.6576     2.6806
 4662.8490    -1.8619    16.7831   102.1753     2.6767
 4663.3490    -1.7687    17.9265   108.0728     2.6774
 4663.8490    -1.7688    18.3905   110.5595     2.6782
 4664.3490    -1.8958    18.5447   113.9933     2.6797
 4664.8490    -2.0175    18.5751   116.4975     2.6812
 4665.3490    -2.0797    18.2334   117.4009     2.6834
 4665.8490    -2.1419    17.5510   110.8025     2.6857
 4666.3490    -2.2352    15.1200    97.3994     2.6864
 4666.8490    -2.2974    14.6319    88.2868     2.6887
 4667.3490    -2.2974    15.2557    90.7589     2.6895
 4667.8490    -2.2974    17.1450    97.3948     2.6886
 4668.3490    -2.2353    19.4581   106.2553     2.6870
 4668.8490    -1.6414    21.6980   115.1158     2.6761
 4669.3490    -1.1748    21.8522   120.5511     2.6676
 4669.8490    -1.0544    22.0373   120.8657     2.6675
 4670.3490    -1.2409    22.9440   120.2516     2.6690
 4670.8490    -1.0855    23.9647   125.8406     2.6681
 4671.3490    -0.8991    24.7925   130.4978     2.6635
 4671.8490    -0.7437    24.6988   134.5349     2.6604
 4672.3490    -0.8059    24.3882   134.6210     2.6658
 4672.8490    -1.1168    23.6453   132.9966     2.6711
 4673.3490    -1.4898    22.0076   133.0028     2.6757
 4673.8490    -1.6141    20.3698   131.3146     2.6726
 4674.3490    -1.1764    18.7320   122.4737     2.6594
 4674.8490     0.1263    17.0942   113.8154     2.6415
 4675.3490     0.3127    15.4565   103.2171     2.6446
 4675.8490     0.0951    13.8187    90.5544     2.6493
 4676.3490    -0.0603    12.1809    84.9790     2.6515
 4676.8490     0.1261    10.5431    82.8146     2.6483
 4677.3490     0.2193     9.4773    80.3400     2.6475
 4677.8490     0.2541     9.1977    76.0050     2.6482
 4678.3490     0.4057     9.1040    74.4606     2.6435
 4678.8490     0.7165     9.1032    73.8465     2.6381
 4679.3490     0.6854     9.1335    71.9921     2.6356
 4679.8490     0.0637     9.5103    69.8276     2.6442
 4680.3490    -0.3873     9.9192    72.0381     2.6599
 4680.8490    -0.9994    10.8389    76.1818     2.6705
 4681.3490    -0.9808    11.7329    80.0799     2.6649
 4681.8490    -0.4531    11.5462    80.3945     2.6571
 4682.3490    -0.0297    10.8948    71.7199     2.6494
 4682.8490    -0.5270    10.7391    69.8655     2.6509
 4683.3490    -0.3397    11.1102    74.8328     2.6539
 4683.8490    -0.1742    11.7911    82.0951     2.6515
 4684.3490    -0.0299    13.1868    89.0358     2.6523
 4684.8490    -0.3096    14.6195    95.9764     2.6553
 4685.3490    -0.2164    16.0522   103.3999     2.6551
 4685.8490     0.1876    17.4890   107.1430     2.6483
 4686.3490     0.3119    17.1320   108.6676     2.6436
 4686.8490     0.4672    15.7145   100.6132     2.6381
 4687.3490     0.7469    14.8529    97.5184     2.6365
 4687.8490     0.8090    14.7594   100.3152     2.6365
 4688.3490     0.1874    15.6260   105.9026     2.6457
 4688.8490    -0.1545    16.3689   111.1800     2.6526
 4689.3490    -0.5586    16.4922   114.5954     2.6572
 4689.8490    -0.4965    15.9775   108.7115     2.6580
 4690.3490    -0.4654    14.5476    98.3446     2.6564
 4690.8490    -0.4033    12.9885    85.4688     2.6555
 4691.3490     0.1250    12.5850    83.6144     2.6509
 4691.8490     0.2182    12.4913    84.2406     2.6462
 4692.3490     0.1249    12.2737    84.5568     2.6461
 4692.8490     0.0627    12.2419    83.6326     2.6484
 4693.3490     0.0938    12.5086    83.0183     2.6484
 4693.8490     0.0005    13.0148    83.9548     2.6499
 4694.3490    -0.0928    13.4168    86.7983     2.6552
 4694.8490    -0.3415    13.5400    91.2349     2.6528
 4695.3490     0.3726    13.6324    92.6551     2.6402
 4695.8490     1.2435    13.5075    91.1123     2.6280
 4696.3490     1.6475    12.7012    86.7773     2.6233
 4696.8490     1.3678    11.5850    83.0624     2.6248
 4697.3490     1.0258    11.3984    77.4871     2.6310
 4697.8490     1.0569    11.1489    75.3226     2.6348
 4698.3490     0.7460    10.8003    74.7070     2.6378
 4698.8490     0.4974    10.2805    75.9549     2.6455
 4699.3490     0.0001    10.0938    77.2012     2.6501
 4699.8490     0.1243    10.0621    75.5984     2.6485
 4700.3490    -0.3075    10.0805    73.8051     2.6514
 4700.8490    -0.7998    10.1018    73.5092     2.6646
 4701.3490    -0.9860    10.2137    72.5903     2.6669
 4701.8490    -0.7682    10.4605    70.7411     2.6614
 4702.3490    -0.4260    10.8932    71.3726     2.6521
 4702.8490     0.3512    11.6667    78.5991     2.6381
 4703.3490     0.5730    13.1926    88.5832     2.6366
 4703.8490     0.0099    15.7433    98.5674     2.6466
 4704.3490    -0.5863    17.9840   106.4641     2.6575
 4704.8490    -1.1395    18.6645   108.0883     2.6692
 4705.3490    -1.2636    19.3141   111.1344     2.6659
 4705.8490    -0.2377    20.0760   113.9364     2.6566
 4706.3490     0.4153    21.3256   123.2501     2.6442
 4706.8490     0.7264    20.7048   124.1916     2.6341
 4707.3490     0.8199    19.9361   121.4123     2.6317
 4707.8490     0.4782    18.4412   115.1674     2.6356
 4708.3490     0.0123    16.9464   106.6872     2.6487
 4708.8490    -0.3109    15.8670    98.1915     2.6541
 4709.3490    -0.4533    15.6490   100.0633     2.6564
 4709.8490    -0.4530    16.0817   102.2451     2.6541
 4710.3490    -0.5460    16.1756   102.2565     2.6556
 4710.8490    -0.7944    16.4510   101.9577     2.6602
 4711.3490    -1.1360    16.9457   104.8212     2.6664
 4711.8490    -1.1669    17.1924   109.4251     2.6679
 4712.3490    -0.7625    17.3155   110.9868     2.6610
 4712.8490    -0.7619    17.2212   110.6853     2.6594
 4713.3490    -1.2692    16.3735   108.2188     2.6648
 4713.8490    -1.6319    15.0920   103.2689     2.6756
 4714.3490    -1.9735    13.8105    96.5816     2.6802
 4714.8490    -1.6935    12.5289    86.4690     2.6751
 4715.3490    -0.9163    11.2474    77.8785     2.6655
 4715.8490    -0.6673    10.4290    75.7193     2.6600
 4716.3490    -0.5117    10.7687    76.0407     2.6569
 4716.8490    -0.4803    10.9845    78.2226     2.6569
 4717.3490    -0.6666    11.5411    80.7145     2.6576
 4717.8490    -0.9184    12.1287    81.3460     2.6623
 4718.3490    -0.9768    12.7473    82.5977     2.6631
 4718.8490    -0.7900    13.7147    88.3390     2.6614
 4719.3490    -0.7277    14.8957    95.6136     2.6599
 4719.8490    -0.9138    16.1353   102.8883     2.6616
 4720.3490    -1.2554    18.1028   110.1629     2.6676
 4720.8490    -1.3485    18.9073   117.4405     2.6706
 4721.3490    -1.3792    19.0611   120.4965     2.6729
 4721.8490    -1.6280    18.1615   119.8901     2.6752
 4722.3490    -1.8484    17.0357   113.3808     2.6776
 4722.8490    -1.6270    15.7887   101.9472     2.6698
 4723.3490    -1.1916    14.5418    95.4290     2.6612
 4723.8490    -0.8805    13.6597    95.1274     2.6597
 4724.3490    -0.7249    13.2915    95.4517     2.6573
 4724.8490    -0.6003    13.4761    94.8428     2.6565
 4725.3490    -0.5379    13.5992    92.9937     2.6588
 4725.8490    -0.7862    13.4120    93.3151     2.6665
 4726.3490    -1.5641    13.0701    96.7373     2.6750
 4726.8490    -2.1957    12.4059    96.7749     2.6835
 4727.3490    -2.5259    10.8370    91.5122     2.6889
 4727.8490    -2.4013    10.4021    81.6393     2.6866
 4728.3490    -1.8474    10.5249    74.1480     2.6726
 4728.8490    -1.1281    10.9576    76.0198     2.6649
 4729.3490    -0.8776    11.7931    81.7077     2.6641
 4729.8490    -1.0016    12.7957    87.9816     2.6664
 4730.3490    -1.0014    14.1455    94.2556     2.6656
 4730.8490    -0.9696    15.1049   100.2540     2.6648
 4731.3490    -0.9387    15.4756   101.1927     2.6648
 4731.8490    -0.9073    16.0632    98.1061     2.6624
 4732.3490    -0.7516    17.2705    99.0477     2.6601
 4732.8490    -0.7513    17.9228   103.4001     2.6600
 4733.3490    -0.7511    18.0119   108.0626     2.6600
 4733.8490    -0.7819    16.9571   111.4868     2.6631
 4734.3490    -0.9681    15.8715   112.7368     2.6657
 4734.8490    -1.3719    15.3747   107.1693     2.6754
