~Version Information
 VERS.                2.00:   CWLS log ASCII Standard -VERSION 2.00
 WRAP.                  NO:   One line per frame
~Well Information Block
#MNEM.UNIT              Data                Description
#--------- -------------------------------  -------------------------------
 STRT.F                          430.0000:   Starting Depth
 STOP.F                         5565.5000:   Ending Depth
 STEP.F                            0.5000:   Level Spacing
 NULL.                          -999.2500:   Absent Value
 COMP.     FLUOR DANIEL (NPOSR), INC.    :   Company
 WELL.     43-2 X 10                     :   Well
 FLD .                                   :   Field
 LOC .                                   :   Location
 CNTY.                                   :   County
 STAT.                                   :   State
 SRVC.                                   :   Service Company
 LIC .                                   :   License Number
 DATE.                                   :   Log Date
 API .                                   :   API Number
~Curve Information Block
#MNEM.UNIT       API Codes    Curve Description
#---------    -------------   -------------------------------
 DEPT.F        0   1  0  1:   Depth
 GR  .API      0 310  1  1:   Gamma ray counts
 CALX.         0   0  0  1:   N/A
 RS  .OHMM     0 220  9  1:   Logarithmic Resistivity from ES, IS
 RD  .OHMM     0 220 10  1:   Logarithmic Resistivity from ED, ID
 TEN .LBF      0 635 99  1:   Differential Tension
 ZDEN.G/C3     0 350  1  1:   ZDL Bulk Density
 PORZ.PU       0 890 99  1:   Porosity from ZDEN
 ZCOR.G/C3     0 356 99  1:   ZDL Correction
 PE  .BARN     0 995 99  1:   Photo Electric cross section
 CNCF.PU       0 995 99  1:   CNC corrected to Field Normalized transform
#  Curve Data
~A   DEPT        GR          CALX        RS          RD          TEN         ZDEN        PORZ        ZCOR        PE          CNCF
# ...
  3480.0000    138.8813      8.9953     10.5284     10.3171    -59.4266      2.3861     15.9929      0.0208      2.4541     30.5412
  3480.5000    140.0670      8.9898     10.4139     10.2651    -68.3689      2.3842     16.1077      0.0103      2.4328     28.9503
  3481.0000    137.0638      8.9867     10.4174     10.3073    -90.3046      2.3853     16.0453      0.0070      2.4024     28.2000
  3481.5000    135.6351      8.9887     10.2316     10.1280    -94.5810      2.3885     15.8511      0.0168      2.3859     28.4072
  3482.0000    138.3720      8.9919      9.7039      9.6003    -63.1179      2.3901     15.7486      0.0302      2.3583     29.2370
  3482.5000    141.4858      8.9922      8.9886      8.8542     -4.7774      2.3845     16.0908      0.0386      2.3338     29.5451
  3483.0000    143.0857      8.9900      8.3788      8.1375     46.1980      2.3728     16.8029      0.0417      2.3350     28.7919
  3483.5000    142.4906      8.9876      8.1401      7.7412     44.6295      2.3692     17.0162      0.0439      2.3395     27.9270
  3484.0000    135.8153      8.9873      8.7040      8.1803     -2.3382      2.3911     15.6901      0.0411      2.3421     26.4809
  3484.5000    121.2199      8.9919     10.5367      9.8839    -46.2084      2.4364     12.9477      0.0285      2.4058     24.0515
  3485.0000    104.8108      9.0044     13.1358     12.3017    -73.2134      2.4730     10.7281      0.0207      2.4518     22.0145
  3485.5000     95.1758      9.0256     15.5716     14.5800    -72.1046      2.4766     10.5062      0.0271      2.4743     21.4254
  3486.0000     95.0511      9.0528     17.0150     15.8901    -31.2505      2.4619     11.4007      0.0342      2.5033     21.9289
  3486.5000    101.6842      9.0832     16.3264     15.0441    -12.0373      2.4473     12.2873      0.0329      2.5385     23.1436
  3487.0000    117.3059      9.1111     12.9343     11.6235    -29.1004      2.4145     14.2733      0.0398      2.5590     25.1714
  3487.5000    146.7564      9.1540      8.3268      7.2591    -16.3963      2.3394     18.8259      0.0611      2.5739     28.4612
  3488.0000    180.3172      9.2897      4.6893      3.9860     10.1355      2.2494     24.2806      0.0941      2.6849     32.4561
  3488.5000    197.7501      9.5221      2.8746      2.4461      0.6058      2.1997     27.2889      0.1371      2.7782     36.2500
  3489.0000    192.9237      9.6312      2.5335      2.2401    -21.2110      2.2202     26.0457      0.1499      2.7296     38.1866
  3489.5000    174.8413      9.4506      3.2489      3.0324    -45.5156      2.2924     21.6746      0.1111      2.7951     35.6628
  3490.0000    154.3085      9.1623      5.1904      4.9911    -73.8243      2.3672     17.1393      0.0591      2.6632     30.3169
  3490.5000    137.9389      9.0108      8.0417      7.6654    -60.1285      2.4131     14.3567      0.0400      2.5846     27.1777
  3491.0000    127.7935      8.9905     10.4358      9.6974    -18.6719      2.4215     13.8472      0.0309      2.6234     26.5908
  3491.5000    124.4644      8.9922     11.4701     10.4007     -8.4696      2.4128     14.3770      0.0180      2.6442     27.0704
  3492.0000    130.0052      8.9922     11.5182     10.2830     -7.9600      2.4016     15.0528      0.0159      2.7122     27.8734
  3492.5000    141.9718      8.9907     11.1146      9.8713     -0.7978      2.3930     15.5733      0.0242      2.7819     29.3810
  3493.0000    150.8887      8.9885     10.4955      9.3942    -20.9716      2.3894     15.7942      0.0336      2.7899     30.5356
  3493.5000    153.7162      8.9872      9.9719      9.1088    -33.5792      2.3917     15.6552      0.0350      2.6875     30.1898
  3494.0000    154.6622      8.9877      9.7263      9.0847     -0.6205      2.3952     15.4402      0.0305      2.5423     29.7057
  3494.5000    155.8027      8.9876      9.6398      9.1335     19.6531      2.3947     15.4735      0.0276      2.5479     30.0731
  3495.0000    155.7380      8.9873      9.5074      9.0412     16.9160      2.3897     15.7728      0.0255      2.5510     30.9208
  3495.5000    156.5614      8.9887      9.1527      8.6535     24.1597      2.3837     16.1391      0.0219      2.5133     30.8577
  3496.0000    160.2283      8.9904      8.5739      8.0192     23.3316      2.3806     16.3300      0.0272      2.4852     30.1869
  3496.5000    165.0270      8.9891      8.0680      7.4769     21.2954      2.3844     16.0969      0.0434      2.4869     30.4534
  3497.0000    166.2574      8.9869      7.9641      7.3575     25.2678      2.3950     15.4527      0.0513      2.4769     30.1480
  3497.5000    162.2796      8.9880      8.4310      7.8179     -4.7514      2.4062     14.7773      0.0384      2.4547     28.0184
  3498.0000    157.5277      8.9927      9.5205      8.8591    -50.9724      2.4133     14.3478      0.0252      2.5516     26.4379
  3498.5000    154.6005      8.9979     10.8539     10.0660    -61.9001      2.4173     14.1003      0.0295      2.6619     26.0695
  3499.0000    153.0405      9.0042     11.8093     10.8835    -53.9184      2.4191     13.9934      0.0367      2.6695     25.7879
  3499.5000    154.4996      9.0116     12.1378     11.1364    -46.5965      2.4184     14.0339      0.0323      2.6959     25.6705
  3500.0000    160.0785      9.0163     12.0038     10.9814    -29.1293      2.4186     14.0239      0.0292      2.7142     26.0451
  3500.5000    166.8058      9.0164     11.6970     10.6706     -2.7764      2.4230     13.7598      0.0371      2.7005     26.2627
  3501.0000    170.4169      9.0155     11.4913     10.4504     15.3807      2.4303     13.3141      0.0427      2.6770     26.1475
  3501.5000    169.8041      9.0164     11.5289     10.4367     10.2037      2.4381     12.8447      0.0360      2.6449     26.1291
  3502.0000    167.2121      9.0184     11.9351     10.7452    -16.3691      2.4464     12.3367      0.0299      2.5501     26.3559
  3502.5000    166.1808      9.0188     12.7673     11.4256    -50.5895      2.4521     11.9920      0.0308      2.4128     26.0583
  3503.0000    165.9155      9.0175     13.4287     11.8978    -75.2486      2.4477     12.2625      0.0289      2.3732     25.2161
  3503.5000    165.3773      9.0161     13.0972     11.4544    -83.2486      2.4326     13.1740      0.0303      2.3810     24.9767
  3504.0000    165.0411      9.0183     11.9281     10.3163    -82.1011      2.4180     14.0576      0.0514      2.3569     25.8263
  3504.5000    165.7648      9.0229     10.7569      9.2602    -68.5802      2.4123     14.4042      0.0682      2.3307     26.5202
  3505.0000    168.8618      9.0243     10.1974      8.8076    -33.6643      2.4140     14.3008      0.0577      2.3246     26.0623
  3505.5000    172.5281      9.0223     10.4141      9.0454     -3.4113      2.4199     13.9467      0.0373      2.3215     25.2578
  3506.0000    171.0815      9.0209     11.1023      9.6531     -9.8052      2.4298     13.3434      0.0305      2.3139     25.2898
  3506.5000    164.3720      9.0205     11.6893     10.1262    -40.0103      2.4401     12.7190      0.0299      2.3116     25.6873
  3507.0000    159.3210      9.0195     12.0275     10.3699    -63.7664      2.4438     12.4956      0.0302      2.3132     25.7675
  3507.5000    157.3928      9.0178     12.3000     10.5765    -74.7398      2.4421     12.6019      0.0318      2.3135     25.9705
  3508.0000    154.6805      9.0164     12.4529     10.7354    -86.8559      2.4386     12.8128      0.0365      2.3118     26.3308
  3508.5000    152.1205      9.0162     12.2700     10.6469   -101.0225      2.4228     13.7692      0.0391      2.3286     26.0833
  3509.0000    154.0822      9.0152     11.8337     10.3276   -107.3765      2.3913     15.6805      0.0409      2.3464     25.6432
  3509.5000    157.5670      9.0137     11.5029     10.0712   -107.0790      2.3642     17.3228      0.0561      2.3666     25.6094
  3510.0000    155.4136      9.0125     11.8389     10.4244    -93.1893      2.3606     17.5394      0.0714      2.3855     25.3155
