~VERSION INFORMATION
 VERS.               2.10:   CWLS LOG ASCII STANDARD - VERSION 2.10
 WRAP.                 NO:   ONE LINE PER DEPTH STEP
~WELL INFORMATION
#MNEM.UNIT      DATA TYPE    INFORMATION
#----------   ------------   ------------------------------
 STRT.F         2399.3489:   START DEPTH
 STOP.F         5518.8403:   STOP DEPTH
 STEP.F            0.5000:   STEP LENGTH
 NULL.          -999.2500:   NO VALUE
 COMP. Fluor Daniel (NPOSR), Inc.:   COMPANY
 WELL.        43-2 TPX 10:   WELL
 FLD .           N.P.R. 3:   FIELD
 LOC . 10-38N-78W-NATRONA-WY:   LOCATION
 STAT.                 WY:   STATE
 COUN.            Natrona:   COUNTY
 SRVC.      Western Atlas:   SERVICE COMPANY
 DATE.                   :   LOGDATE
 APIN.         4902522843:   API NUMBER
~CURVE INFORMATION
#MNEM.UNIT       API CODE    CURVE DESCRIPTION
#----------   ------------   ------------------------------
 DEPT.F                  :
 DPHI.none   42 890 03 00:   Den. Porosity, Ss [%]
 NPHI.none   42 890 03 00:   Neu. Porosity, Ss [%]
 GR  .gAPI   42 310 00 00:   Gamma Ray
 RHOB.gm/cc  42 350 01 00:   Bulk Density
~PARAMETER INFORMATION
#MNEM.UNIT          VALUE    DESCRIPTION
#----------   ------------   ------------------------------
 EKB .F         5209.0000:   Kelly bushing
 EGL .F         5199.0000:   Ground level
 EDF .F         5208.0000:   Drilling floor
 EPD .F           10.0000:   Permanent datum
 TD  .F         3150.0000:   Total depth
 NRUN.             1.0000:   Number of Runs
#--RUN 1---   ------------   The following are for Run 1---
 RUN .             1.0000:   Run 1
 DATE.mm/dd/yyyy 02/13/1997:   Date Logged
 DD  .ft             5540:   Depth Driller
 DL  .ft             5541:   Depth Logger
 BLI .ft             5535:   Bottom Log Interval
 TLI .ft             2400:   Top Log Interval
 CSS .inch          9.625:   Casing Size
 CTD1.ft              439:   Casing Driller 1
 CTL1.ft              436:   Casing Logger 1
 BS  .inch           8.75:   Bit Size
 DFT .           Gel/Chem:   Type Fluid In Hole
 DFD .lb/gal          9.6:   Mud Weight
 DFV .sec              50:   Viscosity
 DFPH.                9.5:   pH
 DFL .cc              8.0:   Fluid Loss
 WSS .               tank:   Source Of Sample
 RM  .ohmm            .68:   Rm
 EMT .F                94:   Rm Meas. Temp.
 RMF .ohmm            .51:   Rmf
 MFT .F                94:   Rmf Meas. Temp.
 RMC .ohmm            .95:   Rmc
 MCST.F                94:   Rmc Meas. Temp.
 MFSS.              calc.:   Source Rmf.
 MCSS.              calc.:   Source Rmc.
 RMB .ohmm            .38:   Rm. At BHT
 BHT .F               168:   BHT.
 TCS .hh:mm         6 hrs:   Time Circ. Stopped
 MRT .F               168:   Maximum Recorded Temp.
 LUL .          Rk. Spgs.:   Logging Unit Location
 ENGI.               Rall:   Recorded By
 WITN.      Lebeau/ Hardy:   Witnessed By
 DGBY.              Burke:   Digitized By
~OTHER INFORMATION
# Rho M=2.65, Rho F=1.0
# CNCF=Sandstone
# Cement Volume Based on 7" casing
~A  DEPTH     DPHI       NPHI         GR       RHOB
# ...
 3640.3490    21.7048    23.2057    78.6736     2.3821
 3640.8490    25.7057    28.6685   101.9612     2.3017
 3641.3490   -46.5693  -999.2500   122.1628     2.2177
 3641.8490  -999.2500   -36.4838   123.3746     2.1337
 3642.3490  -999.2500   -46.7113   121.2124     2.1063
 3642.8490    22.7435    27.6824   111.9722     2.2424
 3643.3490     7.9869    24.2951   100.5590     2.3617
 3643.8490     7.1805    21.8357    90.3307     2.4809
 3644.3490     7.3985    21.3404    86.5116     2.5324
 3644.8490     7.4920    21.0043    81.8672     2.5270
 3645.3490     7.3996    20.8803    78.7733     2.5271
 3645.8490     6.9657    21.4055    78.1582     2.5271
 3646.3490     6.4077    22.6416    83.4720     2.5341
 3646.8490     5.7946    23.3832   102.0188     2.5441
 3647.3490     4.9505    23.7848   120.5657     2.5612
 3647.8490     5.3855    23.6298   139.5826     2.5690
 3648.3490    11.6032    23.5985   142.6938     2.5682
 3648.8490    20.0957    25.7548   136.9423     2.3874
 3649.3490  -999.2500    29.9038   125.7097     2.2031
 3649.8490  -999.2500  -999.2500   114.4770     4.0005
 3650.3490   -21.6093   -31.8588   101.4788     3.6798
 3650.8490   -20.3172   -39.7910    91.5632     3.6457
 3651.3490   -22.4639   -47.5044    89.3995     3.6597
 3651.8490   -24.6106    30.0258    87.2357     3.7451
 3652.3490   -24.7963    27.1795    85.6905     3.7511
 3652.8490   -22.6507   -49.9131    84.1486     3.6977
 3653.3490   -20.6749   -37.9913    81.6748     3.6799
 3653.8490   -21.3260   -27.7243    79.2010     3.6776
 3654.3490   -23.8390   -22.1861    77.0101     3.6931
 3654.8490   -27.5622   -25.2174    75.4381     3.7326
 3655.3490   -33.5699   -28.1220    73.9518     3.7938
 3655.8490   -39.7246   -26.6661    73.0267     3.9154
 3656.3490   -39.6895   -25.0278    74.2756     2.0139
 3656.8490   -34.7155   -25.1530    76.4529  -999.2500
 3657.3490   -29.7415   -26.7458    77.7001     3.9109
 3657.8490   -24.7675   -28.3386    76.7766     3.7861
 3658.3490   -19.7934   -30.5662    75.8529     3.6700
 3658.8490   -24.1454   -31.1229    78.3407     3.6816
 3659.3490   -30.8953   -31.5869    84.5517     3.7822
 3659.8490   -36.7419   -31.0396    87.7175     3.8843
 3660.3490   -31.9527   -29.7291    89.5256     3.9195
 3660.8490   -27.7287   -28.4187    87.0518     3.8275
 3661.3490   -23.5048   -26.7970    85.1982     3.7394
 3661.8490   -19.2808   -25.8700    83.3428     3.6500
 3662.3490   -17.0337   -27.5796    83.6614     3.6167
 3662.8490   -17.9987   -30.6604    85.5287     3.6152
 3663.3490   -20.7382   -33.7411    87.7061     3.6345
 3663.8490   -23.9330   -36.8219    90.5036     3.6556
 3664.3490   -27.1278   -37.8655    90.5585     3.7564
 3664.8490   -29.9091   -36.2028    88.3380     3.8236
 3665.3490   -28.9774   -34.0671    85.8729     3.8203
 3665.8490   -28.6045   -31.9314    83.7109     3.8063
 3666.3490   -29.3177   -31.0044    83.0958     3.8089
 3666.8490   -29.9067   -31.7158    83.1044     3.8260
 3667.3490   -28.6027   -31.4997    82.7994     3.8229
 3667.8490   -26.4073   -30.7891    82.4962     3.7726
 3668.3490   -23.7339   -30.7275    83.4349     3.7191
 3668.8490   -24.0392   -30.6043    84.3720     3.7261
 3669.3490   -25.1558   -30.7942    84.9989     3.7447
 3669.8490   -25.2175   -30.2575    85.9360     3.7502
 3670.3490   -25.6202   -28.9374    85.9428     3.7592
 3670.8490   -29.4242   -27.4527    85.3295     3.8136
 3671.3490   -42.0969   -29.3696    86.5783     3.8955
 3671.8490   -45.7677   -30.3677    90.9262     3.9773
 3672.3490   -50.0089   -35.7370    96.5144     2.0678
 3672.8490  -999.2500   -41.1063    98.3817     2.1453
 3673.3490    22.3316   -44.4869    99.6289     2.2178
 3673.8490    14.6267   -46.0637    98.0853     2.3215
 3674.3490    13.2673   -47.4013    95.9216     2.4405
 3674.8490    13.6402   -48.7228    96.8586     2.4273
 3675.3490    10.4646   -48.3522    98.4158     2.4312
 3675.8490     7.4129   -49.4037   100.2389     2.4769
 3676.3490     5.4807    28.0923   102.6566     2.5505
 3676.8490     5.6054    26.7935   105.0743     2.5622
 3677.3490     6.3818    26.9489   107.4921     2.5449
 3677.8490     7.8408    27.6375   109.9098     2.5314
 3678.3490    10.7592    29.8527   112.7220     2.4935
 3678.8490    15.5096   -47.7008   114.2792     2.4174
 3679.3490    20.2599   -44.6521   108.0845     2.3414
 3679.8490    25.0103   -42.5440   104.6805     2.2654
 3680.3490    24.4281   -42.2660   103.1369     2.2160
 3680.8490    21.7091   -43.1938   102.5235     2.2455
 3681.3490    18.9900   -45.8217   103.7944     2.2943
 3681.8490  -999.2500   -47.2439   105.9886     2.3413
 3682.3490  -999.2500   -47.1437   107.8170     2.3703
 3682.8490  -999.2500   -45.4827   108.4440     2.2538
 3683.3490  -999.2500   -38.3481   105.0400     2.0826
 3683.8490  -999.2500   -32.3912    98.2251     3.9585
 3684.3490  -999.2500   -34.2972    93.2707     3.7616
 3684.8490   -62.4727   -35.8086    89.5566     3.5647
 3685.3490   -90.0557   -42.7959    86.4626     3.7063
 3685.8490    26.2654   -49.9361    86.1591     4.0001
 3686.3490    11.8770  -999.2500    87.0964     2.2197
 3686.8490     4.4378    20.6660    89.9387     2.5687
 3687.3490     4.3297    20.1092    95.1193     2.5796
 3687.8490     4.0044    20.1707   102.9325     2.5788
 3688.3490     3.9740    20.6958   107.2804     2.5819
 3688.8490     4.1298    21.3756   107.2873     2.5843
 3689.3490     4.8441    24.5282   106.6722     2.5820
 3689.8490     6.2018    26.4754   109.7815     2.5719
 3690.3490     8.9356    26.2895   112.2690     2.5626
 3690.8490    11.6695    25.9492   113.2060     2.5164
 3691.3490    14.2181    27.6697   113.2128     2.4630
 3691.8490    14.0945  -999.2500   111.9794     2.4225
 3692.3490    13.3193   -43.2636   111.3493     2.4155
 3692.8490    12.6061   -44.2532   111.0628     2.4256
 3693.3490    12.8766   -44.4081   111.9998     2.4434
 3693.8490    17.5337   -44.2230   109.8378     2.4481
 3694.3490    21.8903   -42.7737   103.0229     2.3966
 3694.8490    26.1639   -40.7921   100.2390     2.3173
 3695.3490    26.8216   -41.5038    99.3139     2.2380
 3695.8490    24.6220   -43.3658    99.6325     2.2080
 3696.3490    21.8887   -45.6262   100.8796     2.2700
 3696.8490    25.3526   -46.9143   101.5066     2.2894
 3697.3490    28.9664   -45.8734   101.2034     2.2537
 3697.8490   -45.5358   -42.7533   100.2602     2.1752
 3698.3490   -47.2509   -39.6332    96.3271     2.0857
 3698.8490   -47.2280   -36.5131    93.1635     2.0834
 3699.3490   -44.2802   -33.2530    92.8586     2.1106
 3699.8490   -40.6565   -34.5792    93.4872     2.0943
 3700.3490   -37.2221   -35.9676    94.7321     2.0269
 3700.8490   -45.7851   -34.2270    94.1165     3.9920
 3701.3490  -999.2500   -31.0384    91.2980     3.9594
 3701.8490  -999.2500   -27.8498    89.7386  -999.2500
 3702.3490    25.6596   -28.2006    88.8588  -999.2500
 3702.8490    29.9956   -30.9001    90.4148     2.2492
 3703.3490   -47.5272   -33.5996    90.7295     2.1494
 3703.8490   -41.7675   -34.6472    90.1127  -999.2500
 3704.3490   -36.0078   -34.7094    89.4971     3.8523
 3704.8490   -30.2480   -35.3330    89.8129     3.7644
 3705.3490   -28.4341   -35.9156    91.0577     3.8008
 3705.8490   -35.3189   -31.4029    93.2328     3.9139
 3706.3490   -41.9244   -31.0323    95.4192     2.0185
 3706.8490   -40.9617   -30.8781    96.6529     2.0174
 3707.3490   -40.6818   -30.8474    95.1080     2.0000
 3707.8490   -42.2018   -33.3517    93.8722     2.0217
 3708.3490   -42.7598   -34.5576    93.2555     2.0387
 3708.8490   -42.6041   -35.2071    94.8116     2.0341
 3709.3490   -42.4795   -34.0946    95.4363     2.0341
 3709.8490   -41.5433   -33.8476    93.8904     2.0249
 3710.3490   -39.4148   -33.7553    92.3446  -999.2500
 3710.8490   -37.2863   -33.5393    90.4886     3.9466
 3711.3490   -35.1578   -34.8648    91.4234     3.8912
 3711.8490   -33.0428   -38.4549    92.7448     3.8945
 3712.3490   -47.0759   -39.2590    95.5742  -999.2500
 3712.8490  -999.2500   -41.5268    99.1901  -999.2500
