~VERSION INFORMATION
 VERS.               2.10:   CWLS LOG ASCII STANDARD - VERSION 2.10
 WRAP.                 NO:   ONE LINE PER DEPTH STEP
~WELL INFORMATION
#MNEM.UNIT      DATA TYPE    INFORMATION
#----------   ------------   ------------------------------
 STRT.F         2399.3489:   START DEPTH
 STOP.F         5518.8403:   STOP DEPTH
 STEP.F            0.5000:   STEP LENGTH
 NULL.          -999.2500:   NO VALUE
 COMP. Fluor Daniel (NPOSR), Inc.:   COMPANY
 WELL.        43-2 TPX 10:   WELL
 FLD .           N.P.R. 3:   FIELD
 LOC . 10-38N-78W-NATRONA-WY:   LOCATION
 STAT.                 WY:   STATE
 COUN.            Natrona:   COUNTY
 SRVC.      Western Atlas:   SERVICE COMPANY
 DATE.                   :   LOGDATE
 APIN.         4902522843:   API NUMBER
~CURVE INFORMATION
#MNEM.UNIT       API CODE    CURVE DESCRIPTION
#----------   ------------   ------------------------------
 DEPT.F                  :
 DPHI.none   42 890 03 00:   Den. Porosity, Ss [%]
 NPHI.none   42 890 03 00:   Neu. Porosity, Ss [%]
 GR  .gAPI   42 310 00 00:   Gamma Ray
 RHOB.gm/cc  42 350 01 00:   Bulk Density
~PARAMETER INFORMATION
#MNEM.UNIT          VALUE    DESCRIPTION
#----------   ------------   ------------------------------
 EKB .F         5209.0000:   Kelly bushing
 EGL .F         5199.0000:   Ground level
 EDF .F         5208.0000:   Drilling floor
 EPD .F           10.0000:   Permanent datum
 TD  .F         3150.0000:   Total depth
 NRUN.             1.0000:   Number of Runs
#--RUN 1---   ------------   The following are for Run 1---
 RUN .             1.0000:   Run 1
 DATE.mm/dd/yyyy 02/13/1997:   Date Logged
 DD  .ft             5540:   Depth Driller
 DL  .ft             5541:   Depth Logger
 BLI .ft             5535:   Bottom Log Interval
 TLI .ft             2400:   Top Log Interval
 CSS .inch          9.625:   Casing Size
 CTD1.ft              439:   Casing Driller 1
 CTL1.ft              436:   Casing Logger 1
 BS  .inch           8.75:   Bit Size
 DFT .           Gel/Chem:   Type Fluid In Hole
 DFD .lb/gal          9.6:   Mud Weight
 DFV .sec              50:   Viscosity
 DFPH.                9.5:   pH
 DFL .cc              8.0:   Fluid Loss
 WSS .               tank:   Source Of Sample
 RM  .ohmm            .68:   Rm
 EMT .F                94:   Rm Meas. Temp.
 RMF .ohmm            .51:   Rmf
 MFT .F                94:   Rmf Meas. Temp.
 RMC .ohmm            .95:   Rmc
 MCST.F                94:   Rmc Meas. Temp.
 MFSS.              calc.:   Source Rmf.
 MCSS.              calc.:   Source Rmc.
 RMB .ohmm            .38:   Rm. At BHT
 BHT .F               168:   BHT.
 TCS .hh:mm         6 hrs:   Time Circ. Stopped
 MRT .F               168:   Maximum Recorded Temp.
 LUL .          Rk. Spgs.:   Logging Unit Location
 ENGI.               Rall:   Recorded By
 WITN.      Lebeau/ Hardy:   Witnessed By
 DGBY.              Burke:   Digitized By
~OTHER INFORMATION
# Rho M=2.65, Rho F=1.0
# CNCF=Sandstone
# Cement Volume Based on 7" casing
~A  DEPTH     DPHI       NPHI         GR       RHOB
# ...
 5027.3490    65.2346     3.2820    16.5316     2.8903
 5027.8490    64.3547     2.9044    14.4117     2.9081
 5028.3490    63.5419     2.7896    13.4868     2.9174
 5028.8490    62.9927     3.2519    13.4921     2.9274
 5029.3490    62.8049     3.7456    16.2881     2.9344
 5029.8490    62.9590     4.0535    18.4639     2.9282
 5030.3490    63.0513     4.0205    19.3994     2.9258
 5030.8490    62.2416     4.0805    19.4047     2.9390
 5031.3490    60.5620     4.5742    18.1628     2.9676
 5031.8490    60.8094     5.2539    17.8649     2.9723
 5032.3490    63.1716     7.2811    35.2358     2.9568
 5032.8490  -999.2500     9.9199    40.8081     2.8917
 5033.3490    -8.1196    12.6216    55.3280     2.8250
 5033.8490    -5.4897    13.5496    69.8480     2.7515
 5034.3490    -5.1180    12.4627    84.2496     2.7336
 5034.8490    -4.8707    11.6861    85.4952     2.7282
 5035.3490    -4.5923    11.4672    85.1891     2.7228
 5035.8490    -4.0652    11.4652    85.8158     2.7197
 5036.3490    -3.4705    11.4632    86.4400     2.7129
 5036.8490    -2.9960    11.4303    83.6559     2.6972
 5037.3490    -2.7948    11.4283    82.7309     2.6941
 5037.8490    -3.7599    11.2679    82.4261     2.6979
 5038.3490    -4.2584    11.2379    82.4327     2.7127
 5038.8490    -4.6638    11.3909    82.7481     2.7219
 5039.3490    -4.7583    11.6058    83.0634     2.7250
 5039.8490    -4.5109    11.7277    82.7573     2.7204
 5040.3490    -4.5079    11.8497    83.0740     2.7219
 5040.8490    -5.8500    11.9716    83.3894     2.7333
 5041.3490    -6.4107    11.9077    82.7745     2.7498
 5041.8490    -6.4120    11.8127    81.2294     2.7544
 5042.3490    -6.2582    11.8101    81.2680     2.7552
 5042.8490    -4.9230    11.9396    81.8601     2.7474
 5043.3490    -4.2716    12.2822    80.9351     2.7319
 5043.8490    -3.7757    12.7648    80.3203     2.7203
 5044.3490    -3.6523    12.9797    79.7067     2.7087
 5044.8490    -3.7472    13.0402    79.7120     2.7087
 5045.3490    -3.9038    13.1306    80.6475     2.7110
 5045.8490    -3.9051    13.2526    81.5830     2.7117
 5046.3490    -3.8114    13.4055    84.6891     2.7086
 5046.8490    -3.4114    13.5894    87.5463     2.7032
 5047.3490    -3.0702    13.5874    89.6609     2.6962
 5047.8490    -3.0714    13.5544    88.1171     2.6954
 5048.3490    -3.3214    13.6496    87.1908     2.7001
 5048.8490    -3.8821    13.8908    87.5075     2.7086
 5049.3490    -4.2564    14.0133    87.2014     2.7171
 5049.8490    -4.5374    14.0728    85.0374     2.7226
 5050.3490    -4.6630    14.3186    83.1823     2.7256
 5050.8490    -4.5710    14.8434    82.8706     2.7225
 5051.3490    -4.4462    15.5883    86.6574     2.7209
 5051.8490    -4.2267    15.8311    88.7808     2.7194
 5052.3490    -4.2955    15.6427    89.7163     2.7201
 5052.8490    -4.2035    15.5172    91.2720     2.7193
 5053.3490    -3.9873    15.7007    93.1377     2.7147
 5053.8490    -4.0818    15.8846    93.1430     2.7131
 5054.3490    -4.3006    16.1924    92.5268     2.7202
 5054.8490    -4.3641    16.2529    92.5334     2.7216
 5055.3490    -4.0235    16.2194    94.3992     2.7116
 5055.8490    -3.2474    15.9076    95.3347     2.7053
 5056.3490    -2.7208    15.5935    94.4111     2.6937
 5056.8490    -2.7221    15.4388    94.4163     2.6929
 5057.3490    -2.8166    15.6533    96.5922     2.6945
 5057.8490    -2.9120    16.8597   100.9385     2.6960
 5058.3490    -2.9436    17.6633   102.4942     2.6983
 5058.8490    -2.9451    18.9006   102.8082     2.6960
 5059.3490    -2.9775    18.6198   100.9544     2.6960
 5059.8490    -3.0096    17.6263    96.3838     2.6960
 5060.3490    -2.7936    17.0047    91.6398     2.6929
 5060.8490    -2.7324    16.9683    87.4714     2.6929
 5061.3490    -2.7340    17.2176    86.4019     2.6928
 5061.8490    -2.6110    18.5444    87.9588     2.6921
 5062.3490    -2.1772    19.6959    91.9951     2.6835
 5062.8490    -1.7106    20.8474    95.4113     2.6735
 5063.3490    -1.2628    21.6708    97.8972     2.6703
 5063.8490    -1.0000    21.6378   100.0730     2.6665
 5064.3490    -1.2192    20.6953   100.4050     2.6734
 5064.8490    -1.6245    19.6127   100.0836     2.6757
 5065.3490    -1.7190    18.5301    99.3131     2.6750
 5065.8490    -1.7203    17.4475    94.2040     2.6765
 5066.3490    -1.7838    16.3649    89.6320     2.6796
 5066.8490    -2.0026    15.1190    84.0885     2.6834
 5067.3490    -2.2525    14.7452    78.7164     2.6889
 5067.8490    -2.5352    15.7153    78.4103     2.6928
 5068.3490    -2.6903    17.3417    79.9672     2.6935
 5068.8490    -2.4743    18.9680    81.8330     2.6904
 5069.3490    -2.3202    19.6944    83.0786     2.6888
 5069.8490    -2.2279    19.7858    84.0141     2.6873
 5070.3490    -2.2606    18.6989    83.7093     2.6865
 5070.8490    -3.3497    16.7203    82.7317     2.6965
 5071.3490    -5.9241    12.8174    66.5698     2.7260
 5071.8490    -9.0491     8.9145    47.0733     2.7974
 5072.3490    63.8728     5.0117    27.5767     2.8770
 5072.8490    62.1928     2.2984    12.7293     2.9359
 5073.3490    62.1608     1.8936     9.3237     2.9420
 5073.8490    62.4078     1.8607     9.6391     2.9374
 5074.3490    62.9660     1.9516     9.3343     2.9335
 5074.8490    63.5270     2.2285     9.0064     2.9288
 5075.3490    64.1130     3.2235    10.6065     2.9203
 5075.8490    67.7970     5.1272    12.8971     2.9071
 5076.3490  -999.2500     7.6227    18.1841     2.8600
 5076.8490    -6.2983    10.1182    35.5355     2.7710
 5077.3490    -3.6156    11.7611    53.7079     2.7080
 5077.8490    -4.2847    10.4509    55.5737     2.7328
 5078.3490   -10.1139     8.1353    41.6067     2.7877
 5078.8490  -999.2500     5.6513    21.1665     2.8438
 5079.3490    64.2890     4.8752    18.9999     2.9055
 5079.8490    66.1515     5.8071    27.7078     2.8916
 5080.3490    68.7309     8.5234    37.0298     2.8575
 5080.8490  -999.2500    11.2397    46.3519     2.8381
 5081.3490    -8.1017    13.9560    55.6739     2.8069
 5081.8490    -5.8151    16.6724    64.9960     2.7533
 5082.3490    -3.3793    18.3768    74.3181     2.7211
 5082.8490    -1.5166    18.5598    81.3647     2.6777
 5083.3490    -1.0516    18.7084    85.0909     2.6692
 5083.8490    -1.0218    18.3651    86.0264     2.6653
 5084.3490    -1.3029    16.6835    85.0958     2.6699
 5084.8490    -1.8443    14.0631    82.1988     2.6777
 5085.3490    -3.2638    11.4428    68.4850     2.6963
 5085.8490    -5.3858     8.8225    52.0840     2.7281
 5086.3490   -10.1350     6.2021    36.5611     2.7825
 5086.8490  -999.2500     3.5818    23.3764     2.8429
 5087.3490    61.8751     2.3634    12.5763     2.9034
 5087.8490    59.7911     1.9587    11.0299     2.9696
 5088.3490    59.0439     1.9527    10.4162     2.9882
 5088.8490    59.7886     2.7603    10.4235     2.9921
 5089.3490    62.5809     3.9772    13.9441     2.9564
 5089.8490    66.2235     8.4657    23.0840     2.9185
 5090.3490  -999.2500    12.9542    32.7094     2.8546
 5090.8490    -8.5215    17.4428    42.3347     2.7907
 5091.3490    -3.7457    21.5880    51.9601     2.7078
 5091.8490    -3.1875    22.3296    61.5854     2.6985
 5092.3490    -2.8780    21.3671    68.7883     2.6907
 5092.8490    -2.2831    20.8384    70.3110     2.6845
 5093.3490    -1.6254    19.8759    69.0747     2.6775
 5093.8490    -1.5454    18.0637    69.7014     2.6744
 5094.3490    -3.7537    14.7431    66.9160     2.6938
 5094.8490    -6.4698    11.4225    60.3482     2.7314
 5095.3490    68.7533     8.5276    44.5370     2.7789
 5095.8490    69.7466     8.3092    25.6924     2.8316
 5096.3490    -9.6640     9.2363    23.8359     2.8347
 5096.8490    -6.6285    11.3430    30.9743     2.7699
 5097.3490    -5.7504    14.0152    36.8711     2.7394
 5097.8490    -5.4723    16.6873    43.3880     2.7347
 5098.3490    -2.3763    19.1292    43.0832     2.6810
 5098.8490     0.9694    19.2651    42.1581     2.6245
 5099.3490     4.3152    19.2936    42.1635     2.5679
 5099.8490     7.6609    19.1676    42.8475     2.5173
