~VERSION INFORMATION
 VERS.               2.10:   CWLS LOG ASCII STANDARD - VERSION 2.10
 WRAP.                 NO:   ONE LINE PER DEPTH STEP
~WELL INFORMATION
#MNEM.UNIT      DATA TYPE    INFORMATION
#----------   ------------   ------------------------------
 STRT.F         2400.0405:   START DEPTH
 STOP.F         5534.6855:   STOP DEPTH
 STEP.F            0.5000:   STEP LENGTH
 NULL.          -999.2500:   NO VALUE
 COMP. Fluor Daniel (NPOSR), Inc.:   COMPANY
 WELL.         43-2TPX-10:   WELL
 FLD .           N.P.R. 3:   FIELD
 LOC . 10-38N-78W-NATRONA-WY:   LOCATION
 STAT.                 WY:   STATE
 COUN.            Natrona:   COUNTY
 SRVC.      Western Atlas:   SERVICE COMPANY
 DATE.                   :   LOGDATE
 APIN.         4902522843:   API NUMBER
~CURVE INFORMATION
#MNEM.UNIT       API CODE    CURVE DESCRIPTION
#----------   ------------   ------------------------------
 DEPT.F                  :
 LLD .ohm.m  11 220 04 00:   Dual Laterolog, Deep
 LLS .ohmm   11 220 06 00:   Dual Laterolog, shallow
 GR  .GAPI   06 310 01 00:   Gamma Ray
 SP  .mV     06 010 01 00:   Spontaneous Potential
~PARAMETER INFORMATION
#MNEM.UNIT          VALUE    DESCRIPTION
#----------   ------------   ------------------------------
 EKB .F         5209.0000:   Kelly bushing
 EGL .F         5199.0000:   Ground level
 EDF .F         5208.0000:   Drilling floor
 EPD .F           10.0000:   Permanent datum
 TD  .F         5230.0000:   Total depth
 NRUN.             1.0000:   Number of Runs
#--RUN 1---   ------------   The following are for Run 1---
 RUN .             1.0000:   Run 1
 DATE.mm/dd/yyyy 02/13/1997:   Date Logged
 DD  .ft             5540:   Depth Driller
 DL  .ft             5541:   Depth Logger
 BLI .ft             5535:   Bottom Log Interval
 TLI .ft             2400:   Top Log Interval
 CSS .inch          9.625:   Casing Size
 CTD1.ft              439:   Casing Driller 1
 CTL1.ft              436:   Casing Logger 1
 BS  .inch           8.75:   Bit Size
 DFT .          Gel/ Chem:   Type Fluid In Hole
 DFD .lb/gal          9.6:   Mud Weight
 DFV .sec              50:   Viscosity
 DFPH.                9.5:   pH
 DFL .cc                8:   Fluid Loss
 WSS .               tank:   Source Of Sample
 RM  .ohmm            .68:   Rm
 EMT .F                94:   Rm Meas. Temp.
 RMF .ohmm            .51:   Rmf
 MFT .F                94:   Rmf Meas. Temp.
 RMC .ohmm            .95:   Rmc
 MCST.F                94:   Rmc Meas. Temp.
 MFSS.              calc.:   Source Rmf.
 MCSS.              calc.:   Source Rmc.
 RMB .ohmm            .38:   Rm. At BHT
 BHT .F               168:   BHT.
 TCS .hh:mm         6 hrs:   Time Circ. Stopped
 MRT .F               168:   Maximum Recorded Temp.
 LUL .          Rk. Spgs.:   Logging Unit Location
 ENGI.               Rall:   Recorded By
 WITN.      Lebeau/ Hardy:   Witnessed By
 DGBY.              Burke:   Digitized By
~OTHER INFORMATION
# RIG FUEL PUMP CAUSING SPURRIOUS ANOMILIES ON S.P.
~A  DEPTH      LLD        LLS         GR         SP
# ...
 4006.0410    16.6944    17.5909    62.5222    68.2375
 4006.5410    15.7722    15.2913    65.3343    68.0783
 4007.0410    13.5772    14.2598    66.2804    68.5419
 4007.5410    11.7716    13.1123    66.7592    69.1611
 4008.0410    11.4431    12.5762    70.3524    68.8470
 4008.5410    11.6143    12.4634    71.6061    68.3634
 4009.0410    12.0426    12.8230    68.2006    68.0628
 4009.5410    12.2216    12.9169    67.8991    67.9050
 4010.0410    11.8518    12.1288    69.7813    68.0576
 4010.5410    10.9356    10.8277    73.8376    68.2102
 4011.0410     9.0694     9.4176    79.4491    68.2065
 4011.5410     7.2031     8.0076    84.7871    68.3598
 4012.0410     6.3411     6.8734    88.1848    68.3561
 4012.5410     6.0766     6.7789    89.1307    68.1976
 4013.0410     6.0798     6.8290    87.8990    67.8753
 4013.5410     6.3040     7.0751    88.2330    66.4239
 4014.0410     6.7357     7.6457    89.1693    63.0429
 4014.5410     8.0083     8.5576    89.1848    58.4276
 4015.0410     8.5263     9.1189    87.0203    60.5767
 4015.5410     9.0975     9.5138    83.9848    66.7792
 4016.0410     9.5689     9.7931    80.4355    67.5538
 4016.5410     9.7808    10.1411    77.4152    68.1730
 4017.0410     9.7850    10.2867    75.8524    68.6366
 4017.5410     9.6501     9.3414    75.5744    68.6336
 4018.0410     7.8448     8.1451    78.0787    68.4751
 4018.5410     6.4418     6.9489    83.6902    68.0056
 4019.0410     5.0107     5.7526    85.5692    67.3806
 4019.5410     3.5495     4.5564    84.6488    67.3776
 4020.0410     3.2812     3.6946    82.1732    67.8617
 4020.5410     3.2139     3.5431    79.3866    68.3048
 4021.0410     3.7371     3.7489    79.0878    68.1456
 4021.5410     4.0740     4.0798    78.7899    68.1427
 4022.0410     4.3159     4.5369    79.1140    67.8287
 4022.5410     4.2865     4.5999    82.2147    67.8257
 4023.0410     4.0212     4.2592    88.7160    68.4448
 4023.5410     3.9375     4.2007    93.1510    68.4645
 4024.0410     3.9675     4.2317    91.6085    68.2834
 4024.5410     4.2944     4.5092    90.6878    68.4458
 4025.0410     4.4245     4.6717    91.3230    69.0551
 4025.5410     4.5517     4.4487    91.6468    68.8959
 4026.0410     4.2090     4.3266    89.7965    68.8929
 4026.5410     4.0050     4.1784    90.4313    68.8900
 4027.0410     3.7838     3.9764    91.9992    68.7315
 4027.5410     3.6782     3.8971    91.3899    68.7285
 4028.0410     3.6535     3.8708    88.2922    69.3476
 4028.5410     3.7348     4.0106    86.7498    68.7226
 4029.0410     3.7903     4.2436    87.3846    68.7197
 4029.5410     3.9945     4.4275    88.3305    68.5611
 4030.0410     4.2239     4.4287    88.3432    68.7137
 4030.5410     4.3480     4.3681    85.0080    68.7100
 4031.0410     4.2880     4.4001    81.8126    68.7071
 4031.5410     4.4786     4.5337    78.6171    68.7041
 4032.0410     4.8823     4.9029    77.5088    68.8574
 4032.5410     5.4769     5.5143    78.5068    68.0761
 4033.0410     5.9706     5.8347    86.2466    68.0732
 4033.5410     6.2352     6.0449    88.4367    68.2258
 4034.0410     6.1402     5.9622    88.4494    68.2228
 4034.5410     5.5617     5.1458    83.4855    68.2197
 4035.0410     4.9704     4.9002    77.2774    68.3724
 4035.5410     4.3791     4.6337    76.6649    68.5250
 4036.0410     4.0575     4.3805    79.1691    68.2102
 4036.5410     3.6554     3.9870    81.9813    68.3635
 4037.0410     3.6305     3.6779    83.5699    68.6716
 4037.5410     3.7113     3.8918    84.8067    69.2900
 4038.0410     4.1041     4.2353    84.5110    69.4427
 4038.5410     4.2251     4.3572    82.0354    69.2841
 4039.0410     4.0204     4.2376    79.8709    69.1163
 4039.5410     3.6387     3.6574    79.2584    68.6560
 4040.0410     3.3616     3.2694    79.5853    68.8087
 4040.5410     3.2017     3.2474    80.2202    68.9612
 4041.0410     3.2496     3.3213    81.7881    68.9575
 4041.5410     3.3211     3.5105    82.7340    68.9546
 4042.0410     3.3229     3.5860    84.0116    68.9516
 4042.5410     3.3244     3.4634    84.9373    68.7931
 4043.0410     3.3017     3.4643    84.0196    68.1681
 4043.5410     3.3994     3.4897    82.4739    67.5431
 4044.0410     3.4253     3.5902    82.4899    67.3845
 4044.5410     3.3769     3.3949    82.5026    67.3809
 4045.0410     3.0736     3.2102    81.8933    67.5334
 4045.5410     2.9937     3.1663    81.2807    67.6868
 4046.0410     3.0168     3.1639    81.2967    67.5275
 4046.5410     3.1959     3.1682    81.3094    67.3691
 4047.0410     3.3138     3.2824    81.3224    67.2106
 4047.5410     3.4115     3.4247    80.6618    67.2076
 4048.0410     3.5121     3.5481    78.8625    67.2047
 4048.5410     3.5898     3.6502    79.1863    67.3606
 4049.0410     3.6431     3.6512    80.4432    67.5098
 4049.5410     3.6447     3.6266    82.3222    67.6624
 4050.0410     3.6992     3.6276    82.6460    67.6587
 4050.5410     3.8083     3.8144    81.1035    67.6557
 4051.0410     4.0344     3.9770    78.6279    67.6528
 4051.5410     3.9788     3.9226    78.0078    67.8061
 4052.0410     3.8955     3.8146    79.3166    67.8024
 4052.5410     3.8418     3.8160    82.7618    67.6439
 4053.0410     3.9839     3.8710    85.5250    67.6485
 4053.5410     4.1014     3.9545    85.8456    67.6379
 4054.0410     4.1623     4.1259    84.3063    67.4794
 4054.5410     4.2549     4.2447    83.6938    67.3210
 4055.0410     4.4118     4.2798    84.6429    67.7846
 4055.5410     4.7073     4.5353    84.0303    67.9372
 4056.0410     4.8809     4.8212    83.1131    67.7780
 4056.5410     5.0248     4.8907    83.1259    67.3085
 4057.0410     4.9911     4.8575    83.4499    66.8389
 4057.5410     5.0652     4.8591    83.4630    66.5249
 4058.0410     5.2898     4.9990    82.8563    66.6775
 4058.5410     5.6906     5.2524    77.2671    66.9856
 4059.0410     5.6471     5.4036    77.9008    67.2937
 4059.5410     5.4262     5.2914    80.0941    67.6010
 4060.0410     5.1006     4.9513    84.4614    67.2870
 4060.5410     4.7751     4.6014    86.0297    67.1285
 4061.0410     4.4669     4.3511    86.6674    66.8145
 4061.5410     4.5009     4.3216    87.3022    67.2782
 4062.0410     4.7342     4.5730    88.5591    67.2752
 4062.5410     5.0153     4.8387    87.6387    67.4278
 4063.0410     5.2417     5.1923    86.0963    67.4217
 4063.5410     5.5551     5.4173    85.4837    67.2662
 4064.0410     5.7538     5.6521    85.8107    67.1071
 4064.5410     5.5540     5.6935    89.5560    67.1042
 4065.0410     5.0574     5.3400    92.6791    66.7902
 4065.5410     4.0947     4.4427    93.0032    66.7872
 4066.0410     3.2747     3.5454    92.3936    66.6287
 4066.5410     3.2292     3.4265    90.5433    66.4703
 4067.0410     3.7818     3.8471    88.0677    66.6228
 4067.5410     4.5289     4.1732    86.2110    66.7754
 4068.0410     4.9025     4.8254    86.8490    66.7640
 4068.5410     4.8995     4.7874    88.7280    66.7693
 4069.0410     4.7298     4.5270    89.3596    66.7663
 4069.5410     4.5330     4.3719    88.1314    66.7633
 4070.0410     4.3133     4.2816    88.1441    66.7602
 4070.5410     4.1635     4.2528    90.0539    66.7571
 4071.0410     4.1653     4.3145    89.1059    66.5987
 4071.5410     4.2881     4.5652    85.6972    66.7512
 4072.0410     4.6451     5.3791    81.0443    66.9038
 4072.5410     5.5678     6.4232    80.1240    67.0564
 4073.0410     6.9800     7.4672    79.8257    67.3644
 4073.5410     8.6412     8.5113    76.1059    66.8942
 4074.0410     9.5789     9.4926    71.8647    66.8912
 4074.5410     9.4477     9.3627    66.4912    67.1993
 4075.0410     8.4292     8.7914    67.1261    67.0408
 4075.5410     7.5715     7.4856    70.8382    67.0379
 4076.0410     6.6253     5.4942    75.2107    66.5683
 4076.5410     5.6790     4.6105    79.5832    66.7209
 4077.0410     4.7328     4.0639    84.5964    66.8735
 4077.5410     3.6049     3.8972    85.5391    67.1816
 4078.0410     3.5804     3.8170    80.3710    67.1779
 4078.5410     3.9598     3.9824    73.4680    67.1749
