~Version Information
 VERS.                2.00:   CWLS log ASCII Standard -VERSION 2.00
 WRAP.                  NO:   One line per frame
~Well Information Block
#MNEM.UNIT              Data                Description
#--------- -------------------------------  -------------------------------
 STRT.F                          430.0000:   Starting Depth
 STOP.F                         5565.5000:   Ending Depth
 STEP.F                            0.5000:   Level Spacing
 NULL.                          -999.2500:   Absent Value
 COMP.     FLUOR DANIEL (NPOSR), INC.    :   Company
 WELL.     43-2 X 10                     :   Well
 FLD .                                   :   Field
 LOC .                                   :   Location
 CNTY.                                   :   County
 STAT.                                   :   State
 SRVC.                                   :   Service Company
 LIC .                                   :   License Number
 DATE.                                   :   Log Date
 API .                                   :   API Number
~Curve Information Block
#MNEM.UNIT       API Codes    Curve Description
#---------    -------------   -------------------------------
 DEPT.F        0   1  0  1:   Depth
 GR  .API      0 310  1  1:   Gamma ray counts
 CALX.         0   0  0  1:   N/A
 RS  .OHMM     0 220  9  1:   Logarithmic Resistivity from ES, IS
 RD  .OHMM     0 220 10  1:   Logarithmic Resistivity from ED, ID
 TEN .LBF      0 635 99  1:   Differential Tension
 ZDEN.G/C3     0 350  1  1:   ZDL Bulk Density
 PORZ.PU       0 890 99  1:   Porosity from ZDEN
 ZCOR.G/C3     0 356 99  1:   ZDL Correction
 PE  .BARN     0 995 99  1:   Photo Electric cross section
 CNCF.PU       0 995 99  1:   CNC corrected to Field Normalized transform
#  Curve Data
~A   DEPT        GR          CALX        RS          RD          TEN         ZDEN        PORZ        ZCOR        PE          CNCF
# ...
  2778.5000    128.6573     10.4812      5.6078      5.3731     -8.1220      2.4062     14.7782      0.0006      2.7705     33.6433
  2779.0000    126.9794     10.5186      5.4953      5.2645    -18.2013      2.3924     15.6139     -0.0273      2.7691     34.2472
  2779.5000    128.5068     10.5698      5.3187      5.0830    -31.7294      2.3883     15.8626     -0.0141      2.7870     32.8276
  2780.0000    130.0154     10.5287      5.1805      4.9424    -30.3611      2.4095     14.5730      0.0244      2.8175     31.7458
  2780.5000    128.6550     10.4762      5.1762      4.9487    -18.4986      2.4450     12.4226      0.0422      2.8400     31.8906
  2781.0000    127.3594     10.5751      5.3032      5.0858    -14.3869      2.4690     10.9686      0.0423      2.8554     31.8495
  2781.5000    129.1511     10.7375      5.4769      5.2516    -11.3512      2.4746     10.6331      0.0515      2.8209     31.3808
  2782.0000    130.3165     10.7769      5.5945      5.3530      2.4697      2.4720     10.7902      0.0573      2.6015     31.7541
  2782.5000    127.6384     10.6877      5.6321      5.3948     12.1931      2.4711     10.8432      0.0530      2.3439     33.1887
  2783.0000    124.7608     10.4917      5.6722      5.4507      5.0401      2.4744     10.6396      0.0448      2.2899     33.7609
  2783.5000    124.2870     10.2012      5.7633      5.5485     -1.3860      2.4811     10.2393      0.0278      2.3569     32.2169
  2784.0000    125.2014      9.9454      5.9047      5.6898      6.6811      2.4854      9.9735      0.0090      2.4171     30.3439
  2784.5000    125.5459      9.8430      6.0570      5.8389     -3.4046      2.4894      9.7324      0.0086      2.4800     29.8603
  2785.0000    124.3939      9.8376      6.1369      5.9068    -45.6199      2.4949      9.4004      0.0210      2.5619     30.1234
  2785.5000    123.4934      9.8459      6.1175      5.8804    -40.1418      2.4991      9.1427      0.0287      2.6508     30.2579
  2786.0000    124.3607      9.8491      6.1006      5.8763     31.8628      2.5001      9.0835      0.0297      2.7083     30.5565
  2786.5000    122.8625      9.8380      6.1569      5.9503     73.9278      2.4985      9.1842      0.0275      2.7165     30.8657
  2787.0000    119.4123      9.8171      6.2346      6.0305     67.0697      2.4965      9.3016      0.0257      2.6757     30.8935
  2787.5000    118.4268      9.8471      6.2641      6.0440     65.7115      2.4896      9.7184      0.0345      2.6649     30.6985
  2788.0000    119.6742      9.9698      6.2311      5.9855     51.4651      2.4677     11.0498      0.0498      2.6121     30.3623
  2788.5000    119.2498     10.1220      6.1780      5.9094      2.2111      2.4392     12.7728      0.0711      2.5996     29.6208
  2789.0000    117.8978     10.2093      6.2178      5.9404    -31.8751      2.4298     13.3431      0.0866      2.6447     28.3226
  2789.5000    118.3551     10.1804      6.4397      6.1482    -25.1496      2.4514     12.0368      0.0763      2.6401     27.0823
  2790.0000    120.9321     10.0924      6.6882      6.3461     -5.0004      2.4898      9.7119      0.0491      2.6311     26.8361
  2790.5000    124.0611     10.1552      6.7066      6.3014    -15.9045      2.5244      7.6133      0.0379      2.6241     27.2365
  2791.0000    126.3818     10.4429      6.4884      6.0576    -61.1072      2.5422      6.5305      0.0454      2.6106     27.5605
  2791.5000    126.3547     10.6930      6.1823      5.7680    -69.6571      2.5410      6.6085      0.0473      2.5911     28.4767
  2792.0000    125.0463     10.6510      5.8595      5.4864    -16.9525      2.5251      7.5687      0.0562      2.5793     30.7140
  2792.5000    124.9123     10.4272      5.5951      5.2728     11.1034      2.4987      9.1678      0.0775      2.5847     32.4074
  2793.0000    126.1617     10.2416      5.4720      5.1948     -7.9656      2.4710     10.8461      0.0923      2.6037     32.0357
  2793.5000    126.7045     10.1366      5.4892      5.2574    -12.0543      2.4587     11.5965      0.0910      2.6091     30.8655
  2794.0000    125.9300     10.0472      5.5956      5.4143    -19.5152      2.4709     10.8574      0.0759      2.5965     29.6601
  2794.5000    124.4474      9.9753      5.7579      5.6159    -53.4181      2.4997      9.1096      0.0596      2.5967     29.1575
  2795.0000    123.8681      9.9424      5.9682      5.8523    -60.4318      2.5326      7.1134      0.0567      2.6192     29.3293
  2795.5000    123.6224      9.9080      6.2039      6.1112    -35.9548      2.5629      5.2765      0.0676      2.6400     28.9013
  2796.0000    123.3041      9.8546      6.3812      6.3096    -15.9017      2.5768      4.4380      0.0846      2.6497     27.5084
  2796.5000    123.1428      9.8572      6.4702      6.4149    -10.5185      2.5612      5.3789      0.1199      2.6719     26.1404
  2797.0000    124.0780      9.9490      6.5112      6.4655    -34.4138      2.5309      7.2209      0.1418      2.7066     24.8646
  2797.5000    124.6089     10.0556      6.5219      6.4903    -59.9784      2.5178      8.0145      0.1133      2.7329     24.2523
  2798.0000    123.2672     10.1088      6.5449      6.5500    -36.0425      2.5294      7.3092      0.0606      2.7444     25.0980
  2798.5000    120.4266     10.1178      6.6096      6.6672     -6.4681      2.5380      6.7906      0.0359      2.7346     26.3566
  2799.0000    117.2457     10.1134      6.6360      6.7399    -22.7346      2.5136      8.2663      0.0278      2.7227     25.8944
  2799.5000    114.7910     10.1130      6.5765      6.7130    -52.8428      2.4566     11.7210      0.0523      2.7230     24.7287
  2800.0000    113.8353     10.1117      6.5079      6.6782    -64.7504      2.3999     15.1548      0.1378      2.7238     25.3689
  2800.5000    113.4417     10.0985      6.5307      6.7483    -64.4227      2.3844     16.0942      0.1967      2.7173     27.0894
  2801.0000    113.4302     10.0860      6.6668      6.9277    -58.1981      2.4207     13.8968      0.1687      2.6943     27.5257
  2801.5000    114.9412     10.1122      6.8330      7.0963    -46.7367      2.4761     10.5372      0.1031      2.6959     26.6649
  2802.0000    116.6702     10.2095      6.8910      7.0958    -24.8194      2.5132      8.2911      0.0687      2.7498     25.6636
  2802.5000    117.2981     10.3726      6.7668      6.8840      7.9128      2.5311      7.2056      0.0473      2.6664     24.9142
  2803.0000    118.3540     10.5485      6.5245      6.5760     16.8948      2.5418      6.5577      0.0340      2.4626     25.0969
  2803.5000    119.4003     10.6856      6.2594      6.2882    -17.9452      2.5310      7.2130      0.0316      2.4764     26.0312
  2804.0000    118.8968     10.7582      6.0062      6.0386    -52.7660      2.4999      9.0971      0.0273      2.4612     26.7818
  2804.5000    119.6389     10.7748      5.7599      5.8001    -74.5467      2.4692     10.9570      0.0172      2.4781     27.3049
  2805.0000    123.6501     10.8043      5.4468      5.4733   -113.2592      2.4319     13.2160     -0.0134      2.5055     28.1242
  2805.5000    129.3970     10.9125      4.8374      4.8227   -105.3616      2.3542     17.9283     -0.0543      2.5492     29.0972
  2806.0000    135.7881     11.1326      3.9068      3.8586     -8.6398      2.2538     24.0146     -0.0482      2.5440     31.2357
  2806.5000    144.0375     11.3671      3.0356      2.9829     57.5182      2.2688     23.1036      0.0579      2.6272     34.6802
  2807.0000    150.0378     11.4349      2.6009      2.5751     28.1993      2.3660     17.2104      0.2123      2.7376     35.4580
  2807.5000    147.7048     11.3471      2.6710      2.6985    -23.7878      2.4322     13.1985      0.2827      2.7778     30.6739
  2808.0000    137.0208     11.1123      3.1270      3.2374    -51.0953      2.4469     12.3093      0.2204      2.7894     25.9338
  2808.5000    124.9877     10.6975      3.9396      4.1621    -33.6181      2.4482     12.2288      0.0936      2.6605     24.0228
