~Version Information
 VERS.                2.00:   CWLS log ASCII Standard -VERSION 2.00
 WRAP.                  NO:   One line per frame
~Well Information Block
#MNEM.UNIT              Data                Description
#--------- -------------------------------  -------------------------------
 STRT.F                          430.0000:   Starting Depth
 STOP.F                         5565.5000:   Ending Depth
 STEP.F                            0.5000:   Level Spacing
 NULL.                          -999.2500:   Absent Value
 COMP.     FLUOR DANIEL (NPOSR), INC.    :   Company
 WELL.     43-2 X 10                     :   Well
 FLD .                                   :   Field
 LOC .                                   :   Location
 CNTY.                                   :   County
 STAT.                                   :   State
 SRVC.                                   :   Service Company
 LIC .                                   :   License Number
 DATE.                                   :   Log Date
 API .                                   :   API Number
~Curve Information Block
#MNEM.UNIT       API Codes    Curve Description
#---------    -------------   -------------------------------
 DEPT.F        0   1  0  1:   Depth
 GR  .API      0 310  1  1:   Gamma ray counts
 CALX.         0   0  0  1:   N/A
 RS  .OHMM     0 220  9  1:   Logarithmic Resistivity from ES, IS
 RD  .OHMM     0 220 10  1:   Logarithmic Resistivity from ED, ID
 TEN .LBF      0 635 99  1:   Differential Tension
 ZDEN.G/C3     0 350  1  1:   ZDL Bulk Density
 PORZ.PU       0 890 99  1:   Porosity from ZDEN
 ZCOR.G/C3     0 356 99  1:   ZDL Correction
 PE  .BARN     0 995 99  1:   Photo Electric cross section
 CNCF.PU       0 995 99  1:   CNC corrected to Field Normalized transform
#  Curve Data
~A   DEPT        GR          CALX        RS          RD          TEN         ZDEN        PORZ        ZCOR        PE          CNCF
# ...
  3815.5000     85.5040     12.8073      2.8121      2.3829    -43.5517      1.5578     66.1954      0.1137      4.1960     55.6117
  3816.0000     88.8321     13.7157      2.6406      2.2393    -22.7753      1.6955     57.8513      0.1656      3.7157     49.0317
  3816.5000     90.0520     14.1454      2.6457      2.2910    -34.1799      1.8654     47.5498      0.2134      3.3013     40.2769
  3817.0000     87.5513     13.2172      3.1460      2.8382    -44.8521      2.0087     38.8651      0.1978      3.1881     37.4469
  3817.5000     84.7742     11.2945      4.2045      3.9469    -42.6875      2.1504     30.2793      0.1524      3.2012     37.4425
  3818.0000     86.3396      9.9656      5.4937      5.2620    -55.7057      2.2581     23.7495      0.1792      3.1999     37.1717
  3818.5000     91.8308     10.0760      6.2824      5.9984    -59.8233      2.2528     24.0726      0.2469      3.2478     36.5291
  3819.0000     97.8181     10.7620      5.9661      5.6146    -29.3277      2.1859     28.1297      0.2765      3.2946     36.2609
  3819.5000    101.2392     11.0715      4.8882      4.5603      1.1417      2.1332     31.3216      0.2670      3.3831     35.7641
  3820.0000    100.2503     10.9796      4.0483      3.8168      6.1086      2.1577     29.8366      0.2980      3.7969     35.9638
  3820.5000     95.9302     10.6951      3.9833      3.8384      0.0683      2.2523     24.1054      0.3571      4.4807     36.3287
  3821.0000     90.3700     10.2248      4.4419      4.3537    -12.2107      2.3513     18.1040      0.3699      4.6552     34.4413
  3821.5000     85.4019      9.8734      4.9340      4.8387    -38.5785      2.3156     20.2690      0.3035      3.9316     31.4431
  3822.0000     82.3695     10.2329      4.9962      4.8009    -54.3618      2.1581     29.8141      0.2722      3.4249     30.6986
  3822.5000     83.1975     11.2387      4.4733      4.1739    -47.6584      2.0523     36.2253      0.2791      3.3219     35.0835
  3823.0000     87.6390     12.2643      3.7154      3.4094    -38.9900      2.0439     36.7345      0.2393      3.2110     43.3527
  3823.5000     92.6760     12.9118      3.2028      2.9589    -44.8252      2.0806     34.5097      0.2025      2.9499     48.4768
  3824.0000     95.1013     13.1432      3.0186      2.8181    -54.6520      2.0973     33.4950      0.2066      2.5953     47.8558
  3824.5000     95.6636     13.0573      2.9575      2.7722    -59.8021      2.0729     34.9766      0.2117      2.2936     46.0822
  3825.0000     97.5491     12.9466      2.8874      2.7129    -67.3635      2.0106     38.7516      0.2123      2.1781     45.5335
  3825.5000     99.6751     12.8846      2.8026      2.6396    -74.4912      1.9274     43.7931      0.2254      2.2607     44.3544
  3826.0000     99.2529     12.7092      2.8179      2.6618    -67.6749      1.8816     46.5706      0.2215      2.4048     41.8325
  3826.5000     98.1904     12.1469      3.1226      2.9704    -58.4368      1.9413     42.9526      0.1745      2.4669     38.9429
  3827.0000     98.8057     11.0382      3.9503      3.7995    -63.9481      2.1291     31.5692      0.1358      2.3718     36.0996
  3827.5000    100.9124      9.8368      5.3622      5.1702    -64.1315      2.3579     17.7003      0.1771      2.0707     34.1125
  3828.0000    105.2680      9.2917      6.7239      6.4045    -40.2995      2.4086     14.6280      0.2056      1.7977     32.6002
  3828.5000    111.0542      9.6453      6.9892      6.5211    -15.9881      2.2288     25.5289      0.1377      1.9026     31.3785
  3829.0000    115.6336     10.4358      5.9941      5.4843    -13.2256      2.0272     37.7446      0.1217      2.1897     32.0630
  3829.5000    118.4375     11.0348      4.7256      4.3081    -23.0216      1.9577     41.9587      0.1666      2.3683     34.9327
  3830.0000    121.1586     10.9540      4.0753      3.7934    -38.1294      2.0676     35.2979      0.2241      2.3424     37.0515
  3830.5000    123.6435     10.4338      4.1414      3.9693    -58.3789      2.2310     25.3967      0.2608      2.1678     37.4787
  3831.0000    124.4891     10.0891      4.4541      4.3277    -72.9236      2.2686     23.1124      0.2471      2.1017     38.4585
  3831.5000    121.4848     10.2812      4.4000      4.2631    -85.7605      2.1071     32.9060      0.2114      2.2318     39.8735
  3832.0000    115.5110     10.8253      3.8605      3.6981   -109.6508      1.9345     43.3658      0.2135      2.3378     40.4959
  3832.5000    110.8496     11.3174      3.2951      3.1269   -117.5299      1.8917     45.9572      0.1875      2.3737     37.5853
  3833.0000    109.4236     11.1585      3.1185      2.9673    -97.8672      1.9652     41.5055      0.1044      2.2718     34.1090
  3833.5000    108.8789     10.2934      3.5337      3.4796    -93.1177      2.1960     27.5163      0.0275      1.9345     33.7516
  3834.0000    108.8255      9.4160      5.0632      5.1885   -117.6552      2.4926      9.5405      0.0528      1.4000     33.5101
  3834.5000    110.7376      9.0822      7.1959      7.4274   -131.5276      2.6176      1.9650      0.0845      1.1277     31.5666
  3835.0000    113.1671      9.1040      8.3869      8.6011   -131.3140      2.5988      3.1001      0.0730      1.3000     29.3973
  3835.5000    114.5672      9.1804      8.2055      8.3832   -129.6158      2.5054      8.7616      0.0671      1.7542     28.4664
  3836.0000    115.4188      9.3635      7.3878      7.5132   -106.6764      2.3060     20.8486      0.0631      2.3552     29.2927
  3836.5000    114.3610      9.6952      5.9610      5.9952    -77.1306      2.0518     36.2572      0.0596      2.8582     32.9183
  3837.0000    107.3108     10.0602      4.1175      4.1426    -81.6895      1.8604     47.8533      0.0632      3.2357     38.5593
  3837.5000     95.5184     10.2551      2.8822      3.0023   -101.1012      1.7839     52.4894      0.0514      3.5449     42.5809
  3838.0000     86.7271     10.2973      2.6127      2.8469   -100.4741      1.7845     52.4567      0.0515      3.7286     43.5558
  3838.5000     85.6423     10.7097      2.7731      3.0955    -96.0922      1.7657     53.5947      0.0976      3.7996     43.0071
  3839.0000     88.9111     11.8353      2.9631      3.3354    -98.0631      1.7106     56.9314      0.1569      3.8652     41.5906
  3839.5000     90.9144     13.1376      3.0818      3.4546    -95.6766      1.6956     57.8417      0.1913      3.9358     40.8432
  3840.0000     90.1989     13.8604      3.1262      3.4703    -98.1091      1.7700     53.3345      0.2199      3.9282     41.8326
  3840.5000     87.9774     13.9379      3.0575      3.3670   -119.5794      1.9027     45.2934      0.2538      3.6866     43.7410
  3841.0000     86.9420     13.7350      2.8244      3.1057   -141.7007      2.0022     39.2621      0.2586      3.4084     44.7072
  3841.5000     88.2589     13.5963      2.4638      2.7094   -126.9697      1.9690     41.2743      0.2133      3.3889     43.8102
  3842.0000     90.5708     13.6305      2.0903      2.2897    -80.9693      1.8399     49.0976      0.1589      3.6085     42.1069
  3842.5000     93.4128     13.4845      1.8126      1.9836    -59.3629      1.7241     56.1174      0.1136      3.8020     41.9711
  3843.0000     97.0773     13.0004      1.6787      1.8637    -71.3376      1.6809     58.7308      0.0822      3.8581     43.5177
  3843.5000     98.5392     12.6675      1.6772      1.9129    -84.1078      1.6834     58.5796      0.0909      3.9034     43.1370
  3844.0000     96.1697     12.7236      1.7454      2.0440   -100.2340      1.6945     57.9118      0.1385      4.0446     41.6560
  3844.5000     92.9515     12.7233      1.8094      2.1542   -106.0522      1.7245     56.0905      0.1856      4.1310     41.4315
  3845.0000     90.8775     12.2973      1.8267      2.1918    -89.5642      1.7858     52.3764      0.2066      3.9983     41.3265
  3845.5000     89.9367     11.5520      1.8174      2.1883   -106.8491      1.8987     45.5353      0.2126      3.6915     38.5925
