~VERSION INFORMATION
 VERS.               2.10:   CWLS LOG ASCII STANDARD - VERSION 2.10
 WRAP.                 NO:   ONE LINE PER DEPTH STEP
~WELL INFORMATION
#MNEM.UNIT      DATA TYPE    INFORMATION
#----------   ------------   ------------------------------
 STRT.F         2399.3489:   START DEPTH
 STOP.F         5518.8403:   STOP DEPTH
 STEP.F            0.5000:   STEP LENGTH
 NULL.          -999.2500:   NO VALUE
 COMP. Fluor Daniel (NPOSR), Inc.:   COMPANY
 WELL.        43-2 TPX 10:   WELL
 FLD .           N.P.R. 3:   FIELD
 LOC . 10-38N-78W-NATRONA-WY:   LOCATION
 STAT.                 WY:   STATE
 COUN.            Natrona:   COUNTY
 SRVC.      Western Atlas:   SERVICE COMPANY
 DATE.                   :   LOGDATE
 APIN.         4902522843:   API NUMBER
~CURVE INFORMATION
#MNEM.UNIT       API CODE    CURVE DESCRIPTION
#----------   ------------   ------------------------------
 DEPT.F                  :
 DPHI.none   42 890 03 00:   Den. Porosity, Ss [%]
 NPHI.none   42 890 03 00:   Neu. Porosity, Ss [%]
 GR  .gAPI   42 310 00 00:   Gamma Ray
 RHOB.gm/cc  42 350 01 00:   Bulk Density
~PARAMETER INFORMATION
#MNEM.UNIT          VALUE    DESCRIPTION
#----------   ------------   ------------------------------
 EKB .F         5209.0000:   Kelly bushing
 EGL .F         5199.0000:   Ground level
 EDF .F         5208.0000:   Drilling floor
 EPD .F           10.0000:   Permanent datum
 TD  .F         3150.0000:   Total depth
 NRUN.             1.0000:   Number of Runs
#--RUN 1---   ------------   The following are for Run 1---
 RUN .             1.0000:   Run 1
 DATE.mm/dd/yyyy 02/13/1997:   Date Logged
 DD  .ft             5540:   Depth Driller
 DL  .ft             5541:   Depth Logger
 BLI .ft             5535:   Bottom Log Interval
 TLI .ft             2400:   Top Log Interval
 CSS .inch          9.625:   Casing Size
 CTD1.ft              439:   Casing Driller 1
 CTL1.ft              436:   Casing Logger 1
 BS  .inch           8.75:   Bit Size
 DFT .           Gel/Chem:   Type Fluid In Hole
 DFD .lb/gal          9.6:   Mud Weight
 DFV .sec              50:   Viscosity
 DFPH.                9.5:   pH
 DFL .cc              8.0:   Fluid Loss
 WSS .               tank:   Source Of Sample
 RM  .ohmm            .68:   Rm
 EMT .F                94:   Rm Meas. Temp.
 RMF .ohmm            .51:   Rmf
 MFT .F                94:   Rmf Meas. Temp.
 RMC .ohmm            .95:   Rmc
 MCST.F                94:   Rmc Meas. Temp.
 MFSS.              calc.:   Source Rmf.
 MCSS.              calc.:   Source Rmc.
 RMB .ohmm            .38:   Rm. At BHT
 BHT .F               168:   BHT.
 TCS .hh:mm         6 hrs:   Time Circ. Stopped
 MRT .F               168:   Maximum Recorded Temp.
 LUL .          Rk. Spgs.:   Logging Unit Location
 ENGI.               Rall:   Recorded By
 WITN.      Lebeau/ Hardy:   Witnessed By
 DGBY.              Burke:   Digitized By
~OTHER INFORMATION
# Rho M=2.65, Rho F=1.0
# CNCF=Sandstone
# Cement Volume Based on 7" casing
~A  DEPTH     DPHI       NPHI         GR       RHOB
# ...
 4881.3490    -3.8778    11.7866    80.3025     2.7130
 4881.8490    -3.9091    11.6269    78.1402     2.7138
 4882.3490    -3.8160    11.5662    76.2881     2.7137
 4882.8490    -3.6297    11.5341    77.6180     2.7083
 4883.3490    -3.3813    11.8420    80.6478     2.7028
 4883.8490    -3.3188    12.2983    81.8965     2.7028
 4884.3490    -3.2463    12.7923    80.9745     2.7020
 4884.8490    -2.6360    13.2864    81.6030     2.6950
 4885.3490    -2.0145    13.7804    84.0919     2.6842
 4885.8490    -1.6418    14.3810    86.2708     2.6795
 4886.3490    -1.5487    15.0699    88.4437     2.6764
 4886.8490    -1.7665    15.7587    90.6298     2.6810
 4887.3490    -1.9531    16.6269    95.9095     2.6833
 4887.8490    -1.9844    17.6477   103.6697     2.6817
 4888.3490    -1.9224    18.3949   108.9493     2.6793
 4888.8490    -1.7361    17.9592   112.0584     2.6778
 4889.3490    -1.9539    17.1386   112.1593     2.6777
 4889.8490    -2.3893    15.9487   105.5634     2.6824
 4890.3490    -2.7002    14.7589    98.9482     2.6916
 4890.8490    -3.4464    13.5690    90.1878     2.7049
 4891.3490    -3.1979    12.3792    82.0224     2.6993
 4891.8490    -2.8251    11.5363    79.8623     2.6931
 4892.3490    -2.6077    11.1009    78.0101     2.6908
 4892.8490    -2.5769    10.9754    77.7063     2.6900
 4893.3490    -2.7061    10.8091    75.5461     2.6907
 4893.8490    -3.7810    10.4143    70.9032     2.7046
 4894.3490    -4.3490    10.1649    67.1906     2.7131
 4894.8490    -4.6290    10.1013    66.2687     2.7239
 4895.3490    -4.7535    10.2237    68.8411     2.7271
 4895.8490    -4.8158    10.4081    71.5587     2.7285
 4896.3490    -4.2255    10.9333    74.6678     2.7223
 4896.8490    -3.1856    11.8302    78.7071     2.6983
 4897.3490    -2.2678    13.6851    83.0565     2.6866
 4897.8490    -2.1126    15.6262    94.8477     2.6843
 4898.3490    -2.4547    17.5672   100.1274     2.6881
 4898.8490    -2.7968    19.5083   106.6473     2.6943
 4899.3490    -3.1388    21.0865   116.2680     2.6997
 4899.8490    -3.2944    21.2089   118.7571     2.6996
 4900.3490    -2.7898    20.2047   116.2831     2.6950
 4900.8490    -2.1418    19.0751   112.8775     2.6808
 4901.3490    -1.5350    17.9454   107.9612     2.6737
 4901.8490    -1.3610    16.8157   100.5248     2.6692
 4902.3490    -1.6101    15.6861    92.7394     2.6800
 4902.8490    -1.9834    14.5564    91.5030     2.6823
 4903.3490    -1.8905    13.7991    92.7500     2.6777
 4903.8490    -1.6422    13.5495    91.2049     2.6769
 4904.3490    -1.6425    13.4549    90.5888     2.6784
 4904.8490    -1.7361    13.4222    91.8357     2.6784
 4905.3490    -1.6117    13.8543    94.9418     2.6761
 4905.8490    -1.3567    14.5348    97.1314     2.6721
 4906.3490    -0.9913    15.1863    98.9836     2.6674
 4906.8490    -0.7430    14.9642    99.7172     2.6644
 4907.3490    -0.6501    14.6526    98.3753     2.6636
 4907.8490    -0.6193    14.5894    97.1390     2.6620
 4908.3490    -0.6197    14.8661    98.0759     2.6605
 4908.8490    -0.9930    15.3911    99.9417     2.6620
 4909.3490    -1.3663    15.8542   101.1873     2.6667
 4909.8490    -1.5538    16.2243   100.2624     2.6728
 4910.3490    -1.7442    16.6874   100.5778     2.6767
 4910.8490    -1.9579    17.6199   102.7537     2.6806
 4911.3490    -1.8339    18.6187   105.5497     2.6813
 4911.8490    -1.6167    19.9351   111.4465     2.6774
 4912.3490    -1.4927    20.3052   116.4243     2.6766
 4912.8490    -1.9282    19.9008   119.2383     2.6805
 4913.3490    -2.1461    18.6907   118.4368     2.6859
 4913.8490    -2.0843    17.2249   113.0264     2.6843
 4914.3490    -2.0211    15.8201   104.9562     2.6820
 4914.8490    -1.9296    14.4152    96.8860     2.6812
 4915.3490    -1.8988    13.0103    93.0995     2.6812
 4915.8490    -1.8992    11.6486    91.9547     2.6820
 4916.3490    -1.7442    11.3061    89.7908     2.6796
 4916.8490    -1.2783    10.9016    82.0442     2.6773
 4917.3490    -1.1232    10.6830    79.5689     2.6695
 4917.8490    -1.3101    10.4025    80.1943     2.6695
 4918.3490    -1.5901    10.0909    80.8198     2.6757
 4918.8490    -1.7770     9.5608    78.9647     2.6811
 4919.3490    -1.9016     9.3053    69.3576     2.6819
 4919.8490    -1.6223     9.1249    65.3319     2.6810
 4920.3490    -1.4051     9.3091    65.6473     2.6786
 4920.8490    -1.1074    10.7608    69.6836     2.6725
 4921.3490    -0.7221    13.5009    82.2973     2.6624
 4921.8490    -0.1630    16.2410    94.9413     2.6508
 4922.3490     0.0233    18.7212   110.0110     2.6477
 4922.8490    -0.1015    18.9059   112.1869     2.6523
 4923.3490    -0.7545    18.5939   110.6418     2.6600
 4923.8490    -1.4075    18.2204   109.7156     2.6709
 4924.3490    -2.0605    17.6300   110.0323     2.6825
 4924.8490    -2.5073    16.6368   109.7276     2.6904
 4925.3490    -2.9937    14.5355   101.7195     2.6987
 4925.8490    -3.0251    12.5726    91.2989     2.7026
 4926.3490    -2.9943    10.4037    81.5269     2.7026
 4926.8490    -2.9636    10.0612    78.7402     2.7002
 4927.3490    -2.9951    10.0595    77.8167     2.6979
 4927.8490    -2.9954    10.0888    77.2005     2.6994
 4928.3490    -2.9025    10.0561    75.6568     2.6979
 4928.8490    -3.0272     9.7931    71.9412     2.6963
 4929.3490    -3.4764     9.1228    67.6054     2.6988
 4929.8490    -4.1157     8.9042    66.3599     2.7121
 4930.3490    -4.2715     8.9954    65.4105     2.7172
 4930.8490    -4.2407     9.4895    65.7622     2.7195
 4931.3490    -4.0203    11.7752    73.3499     2.7202
 4931.8490    -3.5412    16.5239    91.8099     2.7102
 4932.3490    -3.0621    21.2726   112.9100     2.7032
 4932.8490    -2.5327    21.2267   114.7744     2.6993
 4933.3490    -2.2844    19.3673   110.7501     2.6915
 4933.8490    -2.1915    17.5079   107.6546     2.6845
 4934.3490    -1.9743    15.9218   107.0385     2.6814
 4934.8490    -1.6314    15.3004   107.0451     2.6783
 4935.3490    -1.5088    14.8030   107.0505     2.6767
 4935.8490    -2.0376    14.1506   106.4356     2.6783
 4936.3490    -2.5041    13.6222   101.7711     2.6837
 4936.8490    -2.6909    13.3726   100.2108     2.6891
 4937.3490    -2.7223    13.4639    99.3198     2.6929
 4937.8490    -2.9713    13.9889   101.8071     2.6937
 4938.3490    -3.3135    14.4256   101.8124     2.6991
 4938.8490    -3.2828    15.1796   101.8177     2.7038
 4939.3490    -2.5320    15.9353   101.5117     2.7006
 4939.8490    -1.9323    16.0580   103.3788     2.6944
 4940.3490    -1.4813    16.0559   104.6244     2.6836
 4940.8490    -1.5127    15.9302   105.8700     2.6758
 4941.3490    -1.6063    15.6807   107.1157     2.6758
 4941.8490    -1.8863    15.5550   108.0512     2.6773
 4942.3490    -1.8556    15.6153   106.5062     2.6796
 4942.8490    -1.7316    15.7995   106.1934     2.6797
 4943.3490    -1.8563    15.8908   104.9349     2.6796
 4943.8490    -2.0587    15.7027   103.9855     2.6852
 4944.3490    -3.3178    15.8560   100.3273     2.6997
 4944.8490    -3.5668    16.5899   100.0212     2.7090
 4945.3490    -3.1631    17.4782   103.4387     2.7059
 4945.8490    -2.5418    18.3664   110.5758     2.6943
 4946.3490    -2.2002    19.1025   113.3718     2.6873
 4946.8490    -3.3195    18.6360   113.9973     2.6896
 4947.3490    -3.5374    17.5701   114.3127     2.6989
 4947.8490    -3.2580    16.4135   111.3430     2.7035
 4948.3490    -2.7223    15.2568   108.1113     2.6948
 4948.8490    -2.4818    14.5081   104.8796     2.6918
 4949.3490    -2.4200    14.1965   101.6217     2.6918
 4949.8490    -2.0784    13.9780   100.6968     2.6887
 4950.3490    -2.2652    13.8833   100.7021     2.6841
 4950.8490    -2.6696    13.8816    99.7759     2.6864
 4951.3490    -2.5767    13.9109    98.5422     2.6902
 4951.8490    -1.8933    13.9817    97.9261     2.6863
 4952.3490    -1.6450    14.3099    97.0025     2.6801
 4952.8490    -1.8040    14.5251    96.3875     2.6770
 4953.3490    -1.8322    14.9571    96.3930     2.6795
 4953.8490    -1.9258    15.4512    96.4126     2.6809
