~VERSION INFORMATION
 VERS.               2.10:   CWLS LOG ASCII STANDARD - VERSION 2.10
 WRAP.                 NO:   ONE LINE PER DEPTH STEP
~WELL INFORMATION
#MNEM.UNIT      DATA TYPE    INFORMATION
#----------   ------------   ------------------------------
 STRT.F         2399.3489:   START DEPTH
 STOP.F         5518.8403:   STOP DEPTH
 STEP.F            0.5000:   STEP LENGTH
 NULL.          -999.2500:   NO VALUE
 COMP. Fluor Daniel (NPOSR), Inc.:   COMPANY
 WELL.        43-2 TPX 10:   WELL
 FLD .           N.P.R. 3:   FIELD
 LOC . 10-38N-78W-NATRONA-WY:   LOCATION
 STAT.                 WY:   STATE
 COUN.            Natrona:   COUNTY
 SRVC.      Western Atlas:   SERVICE COMPANY
 DATE.                   :   LOGDATE
 APIN.         4902522843:   API NUMBER
~CURVE INFORMATION
#MNEM.UNIT       API CODE    CURVE DESCRIPTION
#----------   ------------   ------------------------------
 DEPT.F                  :
 DPHI.none   42 890 03 00:   Den. Porosity, Ss [%]
 NPHI.none   42 890 03 00:   Neu. Porosity, Ss [%]
 GR  .gAPI   42 310 00 00:   Gamma Ray
 RHOB.gm/cc  42 350 01 00:   Bulk Density
~PARAMETER INFORMATION
#MNEM.UNIT          VALUE    DESCRIPTION
#----------   ------------   ------------------------------
 EKB .F         5209.0000:   Kelly bushing
 EGL .F         5199.0000:   Ground level
 EDF .F         5208.0000:   Drilling floor
 EPD .F           10.0000:   Permanent datum
 TD  .F         3150.0000:   Total depth
 NRUN.             1.0000:   Number of Runs
#--RUN 1---   ------------   The following are for Run 1---
 RUN .             1.0000:   Run 1
 DATE.mm/dd/yyyy 02/13/1997:   Date Logged
 DD  .ft             5540:   Depth Driller
 DL  .ft             5541:   Depth Logger
 BLI .ft             5535:   Bottom Log Interval
 TLI .ft             2400:   Top Log Interval
 CSS .inch          9.625:   Casing Size
 CTD1.ft              439:   Casing Driller 1
 CTL1.ft              436:   Casing Logger 1
 BS  .inch           8.75:   Bit Size
 DFT .           Gel/Chem:   Type Fluid In Hole
 DFD .lb/gal          9.6:   Mud Weight
 DFV .sec              50:   Viscosity
 DFPH.                9.5:   pH
 DFL .cc              8.0:   Fluid Loss
 WSS .               tank:   Source Of Sample
 RM  .ohmm            .68:   Rm
 EMT .F                94:   Rm Meas. Temp.
 RMF .ohmm            .51:   Rmf
 MFT .F                94:   Rmf Meas. Temp.
 RMC .ohmm            .95:   Rmc
 MCST.F                94:   Rmc Meas. Temp.
 MFSS.              calc.:   Source Rmf.
 MCSS.              calc.:   Source Rmc.
 RMB .ohmm            .38:   Rm. At BHT
 BHT .F               168:   BHT.
 TCS .hh:mm         6 hrs:   Time Circ. Stopped
 MRT .F               168:   Maximum Recorded Temp.
 LUL .          Rk. Spgs.:   Logging Unit Location
 ENGI.               Rall:   Recorded By
 WITN.      Lebeau/ Hardy:   Witnessed By
 DGBY.              Burke:   Digitized By
~OTHER INFORMATION
# Rho M=2.65, Rho F=1.0
# CNCF=Sandstone
# Cement Volume Based on 7" casing
~A  DEPTH     DPHI       NPHI         GR       RHOB
 2399.3490     6.3084  -999.2500  -999.2500  -999.2500
 2399.8490     6.2402  -999.2500  -999.2500     2.5469
 2400.3490     5.9910    25.7260   124.5269     2.5569
 2400.8490     6.2054    25.6309   124.5172     2.5601
 2401.3490     6.5129    26.4330   122.5671     2.5554
 2401.8490     6.6659    26.6785   119.8395     2.5492
 2402.3490     5.9478    26.6143   120.4509     2.5469
 2402.8490     5.5100    26.1786   120.7518     2.5531
 2403.3490     5.0722    25.8667   119.4975     2.5640
 2403.8490     4.8518    25.3072   117.9350     2.5718
 2404.3490     4.6313    24.0230   116.6831     2.5764
 2404.8490     4.5662    24.8996   117.2945     2.5812
 2405.3490     4.5942    25.5475   120.0799     2.5826
 2405.8490     4.7146    26.1335   120.3808     2.5819
 2406.3490     4.9601    26.2247   120.0601     2.5811
 2406.8490     5.5160    26.0671   119.7379     2.5788
 2407.3490     6.1652    26.3434   119.4177     2.5726
 2407.8490     6.9075    28.2297   117.5446     2.5556
 2408.3490     7.3089    29.1872   114.7399     2.5378
 2408.8490     7.3051    29.1782   113.1775     2.5339
 2409.3490     6.9294    28.1914   114.7206     2.5364
 2409.8490     6.4295    27.8176   117.8165     2.5420
 2410.3490     6.2401    27.6915   119.9913     2.5495
 2410.8490     7.2922    28.1537   121.9226     2.5479
 2411.3490     7.5998    28.1205   122.7564     2.5379
 2411.8490     7.5346    28.0253   123.0573     2.5317
 2412.3490     7.1900    28.2707   123.9793     2.5317
 2412.8490     6.7211    28.0208   123.3461     2.5364
 2413.3490     6.5007    27.2624   122.0942     2.5434
 2413.8490     6.4355    26.7415   122.3950     2.5488
 2414.3490     6.2772    26.6827   124.2487     2.5520
 2414.8490     6.0568    27.1449   123.9259     2.5566
 2415.3490     5.7393    25.9965   122.9868     2.5589
 2415.8490     5.3942    25.4061   122.9750     2.5643
 2416.3490     5.5811    25.2490   124.5182     2.5674
 2416.8490     6.0129    25.6492   124.8215     2.5628
 2417.3490     6.2901    26.2153   124.1883     2.5551
 2417.8490     5.9757    27.0719   124.1786     2.5497
 2418.3490     5.7242    27.7316   124.4819     2.5536
 2418.8490     5.6909    27.9925   123.8487     2.5590
 2419.3490     5.8735    27.9284   123.5284     2.5606
 2419.8490     5.9637    27.9261   124.4789     2.5582
 2420.3490     5.9606    28.2334   126.3017     2.5583
 2420.8490     5.9264    28.2937   126.6050     2.5583
 2421.3490     5.8606    27.8574   127.5246     2.5598
 2421.8490     5.7954    27.4527   129.6888     2.5606
 2422.3490     5.1092    26.6132   133.4059     2.5614
 2422.8490     4.5161    26.3458   131.8434     2.5661
 2423.3490     4.1714    24.9995   125.3120     2.5777
 2423.8490     4.0760    24.5019   120.3333     2.5832
 2424.3490     4.1040    24.2520   115.6439     2.5863
 2424.8490     4.1934    24.3735   114.3586     2.5863
 2425.3490     4.2835    24.4951   114.0907     2.5840
 2425.8490     4.4678    24.5244   114.3916     2.5832
 2426.3490     4.5569    24.4596   115.0055     2.5786
 2426.8490     3.9941    23.6689   115.3039     2.5809
 2427.3490     2.5186    21.8824   114.6731     2.5918
 2427.8490     0.7583    20.0959   110.0051     2.6235
 2428.3490     0.6628    18.3094    97.3707     2.6452
 2428.8490     1.4934    17.1020    79.2396     2.6398
 2429.3490     3.5588    17.6961    75.1926     2.6178
 2429.8490     4.5657    20.0664    83.4714     2.5921
 2430.3490     4.8733    22.9678    98.4916     2.5778
 2430.8490     4.9634    25.1504   113.5117     2.5738
 2431.3490     5.0535    25.5816   128.8790     2.5709
 2431.8490     4.9573    25.4245   129.1823     2.5725
 2432.3490     4.8301    25.1127   121.4063     2.5741
 2432.8490     4.8271    24.7080   116.1171     2.5756
 2433.3490     5.4065    24.3961   115.7968     2.5702
 2433.8490     5.6595    24.3880   116.0977     2.5640
 2434.3490     5.7178    25.7859   117.3279     2.5610
 2434.8490     5.9322    27.3380   118.8710     2.5602
 2435.3490     6.2086    27.6069   120.4141     2.5578
 2435.8490     6.6101    26.5641   123.8206     2.5502
 2436.3490     6.4821    24.5677   122.2581     2.5486
 2436.8490     6.4169    24.3178   121.0062     2.5502
 2437.3490     6.5382    24.5323   121.3071     2.5486
 2437.8490     6.0071    25.9113   122.2291     2.5487
 2438.3490     5.6887    26.5713   122.5300     2.5572
 2438.8490     5.5973    26.5375   122.8284     2.5614
 2439.3490     5.9041    26.6591   125.3032     2.5634
 2439.8490     6.0253    26.6883   125.6065     2.5596
 2440.3490     6.1154    26.5307   123.7311     2.5565
 2440.8490     6.1442    25.0247   121.5475     2.5549
 2441.3490     6.1722    24.4211   120.9167     2.5550
 2441.8490     6.0132    24.9136   121.8387     2.5557
 2442.3490     5.8238    25.1596   122.7607     2.5581
 2442.8490     5.6655    24.5725   123.6827     2.5612
 2443.3490     5.5693    24.0088   122.1178     2.5620
 2443.8490     5.6284    24.0066   119.9342     2.5612
 2444.3490     6.0904    23.4470   118.3717     2.5605
 2444.8490     6.4290    22.7017   118.3621     2.5574
 2445.3490     6.5502    22.2351   118.9735     2.5520
 2445.8490     6.5471    22.5856   119.8979     2.5489
 2446.3490     6.3888    23.4686   119.5753     2.5489
 2446.8490     6.0131    23.6211   118.3234     2.5520
 2447.3490     5.7306    24.1452   116.7608     2.5605
 2447.8490     5.7276    24.8550   118.7619     2.5621
 2448.3490     5.9730    25.0081   125.1242     2.5589
 2448.8490     5.9033    25.0053   132.8785     2.5575
 2449.3490     5.7183    24.5696   135.0427     2.5606
 2449.8490     5.7457    23.4133   134.7225     2.5629
 2450.3490     5.9290    23.3267   130.9861     2.5606
 2450.8490     6.4539    23.8407   128.1814     2.5568
 2451.3490     6.6380    25.3440   130.6562     2.5483
 2451.8490     6.4789    26.2295   134.7064     2.5466
 2452.3490     6.2896    25.9177   136.5375     2.5506
 2452.8490     6.1002    25.6058   135.5937     2.5545
 2453.3490     6.1593    25.4488   135.5840     2.5537
 2453.8490     6.3426    24.7654   135.8873     2.5530
 2454.3490     6.3358    24.3195   133.7013     2.5522
 2454.8490     6.3047    23.6458   129.9650     2.5522
 2455.3490     6.0532    23.6131   127.4708     2.5546
 2455.8490     5.8017    24.1985   126.8400     2.5592
 2456.3490     5.6434    24.1653   126.8303     2.5623
 2456.8490     5.5472    23.6367   124.4781     2.5639
 2457.3490     5.6063    23.0153   118.7303     2.5639
 2457.8490     5.6964    22.6105   115.5586     2.5623
 2458.3490     5.7866    23.1656   113.4360     2.5570
 2458.8490     6.0009    23.1013   114.0474     2.5554
 2459.3490     6.2195    23.0985   115.9011     2.5539
 2459.8490     6.1399    23.3130   119.9572     2.5547
 2460.3490     5.7426    23.4655   121.7824     2.5609
 2460.8490     5.5843    23.7419   121.4597     2.5648
 2461.3490     5.6123    25.0709   122.6923     2.5656
 2461.8490     5.6411    25.6259   127.3410     2.5640
 2462.3490     5.5752    25.4998   127.3313     2.5640
 2462.8490     5.6032    24.6617   125.1477     2.5641
 2463.3490     5.6002    23.8197   122.6536     2.5641
 2463.8490     5.7214    23.5682   122.6310     2.5594
 2464.3490     5.9984    23.3304   122.9448     2.5579
 2464.8490     6.2192    22.5242   121.5838     2.5556
 2465.3490     6.2713    21.7037   118.2646     2.5548
 2465.8490     6.2675    21.6139   117.3233     2.5548
 2466.3490     5.9850    21.9206   115.1397     2.5549
 2466.8490     5.6990    21.9809   113.2667     2.5611
 2467.3490     5.3636    22.0090   112.9464     2.5666
 2467.8490     5.1060    22.0687   112.9367     2.5728
 2468.3490     5.3204    22.1284   113.2376     2.5720
 2468.8490     5.5348    22.1880   114.1858     2.5681
 2469.3490     5.5007    22.6281   116.4170     2.5673
 2469.8490     5.4355    23.4100   117.8670     2.5673
 2470.3490     5.6499    24.6268   120.0288     2.5666
 2470.8490     5.8953    24.2152   122.5036     2.5651
 2471.3490     5.9233    23.6482   123.1175     2.5596
 2471.8490     5.7581    23.4121   121.5526     2.5581
