~VERSION INFORMATION
 VERS.               2.10:   CWLS LOG ASCII STANDARD - VERSION 2.10
 WRAP.                 NO:   ONE LINE PER DEPTH STEP
~WELL INFORMATION
#MNEM.UNIT      DATA TYPE    INFORMATION
#----------   ------------   ------------------------------
 STRT.F         2400.0405:   START DEPTH
 STOP.F         5534.6855:   STOP DEPTH
 STEP.F            0.5000:   STEP LENGTH
 NULL.          -999.2500:   NO VALUE
 COMP. Fluor Daniel (NPOSR), Inc.:   COMPANY
 WELL.         43-2TPX-10:   WELL
 FLD .           N.P.R. 3:   FIELD
 LOC . 10-38N-78W-NATRONA-WY:   LOCATION
 STAT.                 WY:   STATE
 COUN.            Natrona:   COUNTY
 SRVC.      Western Atlas:   SERVICE COMPANY
 DATE.                   :   LOGDATE
 APIN.         4902522843:   API NUMBER
~CURVE INFORMATION
#MNEM.UNIT       API CODE    CURVE DESCRIPTION
#----------   ------------   ------------------------------
 DEPT.F                  :
 LLD .ohm.m  11 220 04 00:   Dual Laterolog, Deep
 LLS .ohmm   11 220 06 00:   Dual Laterolog, shallow
 GR  .GAPI   06 310 01 00:   Gamma Ray
 SP  .mV     06 010 01 00:   Spontaneous Potential
~PARAMETER INFORMATION
#MNEM.UNIT          VALUE    DESCRIPTION
#----------   ------------   ------------------------------
 EKB .F         5209.0000:   Kelly bushing
 EGL .F         5199.0000:   Ground level
 EDF .F         5208.0000:   Drilling floor
 EPD .F           10.0000:   Permanent datum
 TD  .F         5230.0000:   Total depth
 NRUN.             1.0000:   Number of Runs
#--RUN 1---   ------------   The following are for Run 1---
 RUN .             1.0000:   Run 1
 DATE.mm/dd/yyyy 02/13/1997:   Date Logged
 DD  .ft             5540:   Depth Driller
 DL  .ft             5541:   Depth Logger
 BLI .ft             5535:   Bottom Log Interval
 TLI .ft             2400:   Top Log Interval
 CSS .inch          9.625:   Casing Size
 CTD1.ft              439:   Casing Driller 1
 CTL1.ft              436:   Casing Logger 1
 BS  .inch           8.75:   Bit Size
 DFT .          Gel/ Chem:   Type Fluid In Hole
 DFD .lb/gal          9.6:   Mud Weight
 DFV .sec              50:   Viscosity
 DFPH.                9.5:   pH
 DFL .cc                8:   Fluid Loss
 WSS .               tank:   Source Of Sample
 RM  .ohmm            .68:   Rm
 EMT .F                94:   Rm Meas. Temp.
 RMF .ohmm            .51:   Rmf
 MFT .F                94:   Rmf Meas. Temp.
 RMC .ohmm            .95:   Rmc
 MCST.F                94:   Rmc Meas. Temp.
 MFSS.              calc.:   Source Rmf.
 MCSS.              calc.:   Source Rmc.
 RMB .ohmm            .38:   Rm. At BHT
 BHT .F               168:   BHT.
 TCS .hh:mm         6 hrs:   Time Circ. Stopped
 MRT .F               168:   Maximum Recorded Temp.
 LUL .          Rk. Spgs.:   Logging Unit Location
 ENGI.               Rall:   Recorded By
 WITN.      Lebeau/ Hardy:   Witnessed By
 DGBY.              Burke:   Digitized By
~OTHER INFORMATION
# RIG FUEL PUMP CAUSING SPURRIOUS ANOMILIES ON S.P.
~A  DEPTH      LLD        LLS         GR         SP
# ...
 3422.0410     7.8292     8.3172    89.1921    66.4592
 3422.5410     8.2117     8.6570    88.2628    66.6263
 3423.0410     8.5110     8.7819    88.5803    67.1043
 3423.5410     8.5723     8.8457    90.4517    66.9603
 3424.0410     8.2122     8.2484    94.8114    66.1942
 3424.5410     7.8784     7.9758    97.3049    65.8947
 3425.0410     7.5575     7.6748    97.6211    65.7506
 3425.5410     7.2367     7.3739    95.7426    65.9205
 3426.0410     6.9158     7.1251    93.5444    65.9320
 3426.5410     6.6261     6.5508    93.2819    66.0990
 3427.0410     6.3024     6.2382    92.3552    66.2661
 3427.5410     5.9946     6.2839    90.4941    65.8081
 3428.0410     5.9095     6.6958    85.8336    65.8225
 3428.5410     6.4692     7.2868    84.2836    65.8340
 3429.0410     7.1694     7.6052    82.4212    66.1565
 3429.5410     7.5379     7.8301    83.6718    66.6346
 3430.0410     7.4309     7.7693    88.3742    66.8019
 3430.5410     7.2213     7.4507    91.9040    66.7852
 3431.0410     7.0176     7.2462    94.8860    66.3609
 3431.5410     6.8687     7.1470    93.3359    65.9058
 3432.0410     6.7229     7.0985    87.4313    65.6063
 3432.5410     6.6692     7.1009    86.1910    65.6178
 3433.0410     6.4869     7.1529    89.3078    65.6293
 3433.5410     6.4870     7.6297    90.8682    65.4824
 3434.0410     7.1196     8.3880    92.1175    65.6523
 3434.5410     7.9834     9.2845    92.4337    65.8193
 3435.0410     8.7619     9.4842    93.9166    66.1418
 3435.5410     9.1465     7.6356   100.4655    66.6252
 3436.0410     7.0680     5.8021   119.0491    66.9611
 3436.5410     4.0708     3.9685   137.6327    66.9539
 3437.0410     2.3316     2.6017   156.5349    66.9683
 3437.5410     2.2497     3.0673   138.0505    66.8214
 3438.0410     3.7457     5.5225   119.2436    66.6774
 3438.5410     6.9072     7.9776   108.6503    66.5362
 3439.0410     8.5823     8.7987   108.6691    66.2338
 3439.5410     8.2758     7.4885   110.0970    66.0898
 3440.0410     6.3054     6.2840   115.1989    66.2597
 3440.5410     5.5832     5.9005   120.1807    66.1153
 3441.0410     5.3486     5.8194   122.0521    65.8161
 3441.5410     5.3871     5.8624   121.7462    65.6721
 3442.0410     5.5835     6.0312   121.7513    65.6836
 3442.5410     5.8286     6.2492   120.8234    65.3841
 3443.0410     6.0918     6.4796   120.5174    65.3984
 3443.5410     6.2612     6.6604   120.5376    65.7210
 3444.0410     6.3972     6.7088   121.8219    65.8880
 3444.5410     6.4432     6.6636   126.7550    66.0550
 3445.0410     6.3518     6.6192   130.4927    66.0665
 3445.5410     5.8292     6.1287   131.4309    65.9196
 3446.0410     5.5843     5.8357   129.8809    65.7779
 3446.5410     5.5827     5.9203   125.2204    65.9455
 3447.0410     6.1766     6.5351   119.0047    65.9652
 3447.5410     6.7267     7.0231   115.5884    66.0109
 3448.0410     7.1231     7.2647   120.0655    66.0567
 3448.5410     6.6313     6.5860   131.4067    66.1025
 3449.0410     5.6728     4.9390   142.3547    66.1483
 3449.5410     4.5383     4.6049   140.1826    66.0164
 3450.0410     4.4419     5.0470   129.9233    65.8719
 3450.5410     5.2368     5.8922   118.7309    66.0394
 3451.0410     5.5455     6.0618   116.2465    66.2064
 3451.5410     5.7889     6.0210   119.3633    66.2181
 3452.0410     5.7890     6.1171   117.8133    66.0739
 3452.5410     6.1470     6.7890   114.3633    65.9327
 3453.0410     7.4904     7.9817   110.6104    65.9442
 3453.5410     8.5815     8.9967   106.8575    65.8002
 3454.0410     8.8943     9.5866   103.1045    65.5006
 3454.5410     8.9583     9.1934   101.0431    65.6677
 3455.0410     8.0467     8.4124   110.3808    65.6792
 3455.5410     6.0871     7.2351   127.1822    66.1572
 3456.0410     5.6264     6.2520   131.2309    66.7908
 3456.5410     5.4677     6.7584   129.0588    66.4913
 3457.0410     6.6333     8.8757   121.3081    66.3472
 3457.5410     9.9746    10.9929   112.7643    66.2032
 3458.0410    11.5097    12.9140   103.2586    66.2176
 3458.5410    12.3637    12.8194   101.0864    66.2291
 3459.0410    11.5927    11.6757   105.4462    66.2406
 3459.5410     9.2151     9.4776   120.3072    66.2521
 3460.0410     6.6854     7.2795   146.1460    66.2636
 3460.5410     4.1557     5.0815   172.9577    66.5861
 3461.0410     2.0961     2.8834   178.5616    66.9087
 3461.5410     1.6911     1.9401   177.9025    66.7618
 3462.0410     1.6671     1.9132   184.1719    66.7761
 3462.5410     1.6791     1.9721   186.3531    66.7876
 3463.0410     1.9058     2.2192   179.5166    66.3262
 3463.5410     3.3616     3.8337   150.6794    66.0136
 3464.0410     5.6679     6.1803   116.9487    65.8890
 3464.5410     7.9741     8.5268    97.6605    65.9034
 3465.0410     9.6957    10.7182    98.3561    66.2259
 3465.5410    10.0491    11.5007    98.6710    66.5484
 3466.0410     9.5583    10.5744    96.8099    67.0265
 3466.5410     8.8983     9.7314    98.9936    67.0380
 3467.0410     8.2248     8.8812   107.2978    67.0495
 3467.5410     7.3351     8.0311   116.3889    67.0610
 3468.0410     6.9767     7.1809   125.4799    66.9170
 3468.5410     6.9272     6.8979   121.7211    66.1509
 3469.0410     7.8235     7.8304   118.6145    65.5403
 3469.5410     8.4644     8.8884   118.3086    65.5522
 3470.0410     8.7104     8.9535   122.0476    65.7217
 3470.5410     8.2849     8.4561   128.5846    65.8887
 3471.0410     7.3360     7.8395   136.9879    66.0557
 3471.5410     7.2319     7.4653   140.4145    65.7562
 3472.0410     7.2840     7.4151   144.3266    65.7677
 3472.5410     6.7690     7.0117   152.8677    65.7792
 3473.0410     6.1787     6.1805   160.6489    65.6323
 3473.5410     5.9616     5.9270   158.4768    65.6466
 3474.0410     6.0477     6.1406   147.2792    65.6581
 3474.5410     6.8302     7.3911   131.3444    65.6696
 3475.0410     8.4057     8.2820   117.2296    65.8369
 3475.5410     9.3584     9.4344   109.9756    66.0299
 3476.0410     9.4935    10.2671   108.7353    65.8596
 3476.5410     9.4936    10.1973   115.5847    65.7156
 3477.0410     9.4938    10.1287   120.2555    65.5716
 3477.5410     9.8399    10.2755   123.6821    65.5860
 3478.0410    10.2718    10.6458   124.9314    65.5975
 3478.5410    10.5702    10.8755   125.2476    65.6090
 3479.0410    10.7998    10.9552   128.3631    65.4621
 3479.5410    10.4952    10.5685   134.3878    65.4764
 3480.0410    10.2724    10.4352   139.2612    65.4879
 3480.5410    10.1267    10.4387   138.9553    65.4995
 3481.0410    10.1996    10.5145   136.7831    65.6667
 3481.5410    10.1271    10.2266   135.8539    65.9919
 3482.0410     9.4955     9.5354   139.5928    66.3144
 3482.5410     8.6521     8.9536   141.4642    65.8022
 3483.0410     8.1708     8.3485   142.7135    65.2487
 3483.5410     7.8838     8.0625   141.1634    65.4158
 3484.0410     7.9976     9.0762   132.5799    65.4273
 3484.5410     9.7145    11.6725   118.7728    65.5943
 3485.0410    12.1126    14.2688   104.9657    65.4503
 3485.5410    14.2801    16.3119    95.7727    65.6173
 3486.0410    16.0128    17.2422    97.6441    65.4731
 3486.5410    14.9071    15.0928   101.6928    65.6404
 3487.0410    11.8294    12.3272   116.0191    65.8076
 3487.5410     8.4458     9.0530   143.1887    65.8217
 3488.0410     5.0622     5.7788   170.3584    65.6748
 3488.5410     2.6381     2.7405   196.8927    65.8447
 3489.0410     2.2059     2.6651   182.1228    65.6978
 3489.5410     2.6007     4.6283   167.6904    65.7121
 3490.0410     5.0796     6.7085   153.2580    65.7236
 3490.5410     7.7475     8.7886   138.8256    65.7351
 3491.0410    10.1305    10.5771   126.6238    65.4356
 3491.5410    10.4249    11.3469   125.0737    65.2912
 3492.0410    10.4251    11.4299   133.1667    65.3031
 3492.5410     9.9871    10.8089   141.6127    65.3147
 3493.0410     9.2975    10.2210   151.2179    65.3265
 3493.5410     9.0974     9.8018   153.7114    65.1820
 3494.0410     9.0354     9.5321   154.6497    65.1964
 3494.5410     9.1005     9.6026   156.2101    65.2079
