~VERSION INFORMATION
 VERS.               2.10:   CWLS LOG ASCII STANDARD - VERSION 2.10
 WRAP.                 NO:   ONE LINE PER DEPTH STEP
~WELL INFORMATION
#MNEM.UNIT      DATA TYPE    INFORMATION
#----------   ------------   ------------------------------
 STRT.F         2399.3489:   START DEPTH
 STOP.F         5518.8403:   STOP DEPTH
 STEP.F            0.5000:   STEP LENGTH
 NULL.          -999.2500:   NO VALUE
 COMP. Fluor Daniel (NPOSR), Inc.:   COMPANY
 WELL.        43-2 TPX 10:   WELL
 FLD .           N.P.R. 3:   FIELD
 LOC . 10-38N-78W-NATRONA-WY:   LOCATION
 STAT.                 WY:   STATE
 COUN.            Natrona:   COUNTY
 SRVC.      Western Atlas:   SERVICE COMPANY
 DATE.                   :   LOGDATE
 APIN.         4902522843:   API NUMBER
~CURVE INFORMATION
#MNEM.UNIT       API CODE    CURVE DESCRIPTION
#----------   ------------   ------------------------------
 DEPT.F                  :
 DPHI.none   42 890 03 00:   Den. Porosity, Ss [%]
 NPHI.none   42 890 03 00:   Neu. Porosity, Ss [%]
 GR  .gAPI   42 310 00 00:   Gamma Ray
 RHOB.gm/cc  42 350 01 00:   Bulk Density
~PARAMETER INFORMATION
#MNEM.UNIT          VALUE    DESCRIPTION
#----------   ------------   ------------------------------
 EKB .F         5209.0000:   Kelly bushing
 EGL .F         5199.0000:   Ground level
 EDF .F         5208.0000:   Drilling floor
 EPD .F           10.0000:   Permanent datum
 TD  .F         3150.0000:   Total depth
 NRUN.             1.0000:   Number of Runs
#--RUN 1---   ------------   The following are for Run 1---
 RUN .             1.0000:   Run 1
 DATE.mm/dd/yyyy 02/13/1997:   Date Logged
 DD  .ft             5540:   Depth Driller
 DL  .ft             5541:   Depth Logger
 BLI .ft             5535:   Bottom Log Interval
 TLI .ft             2400:   Top Log Interval
 CSS .inch          9.625:   Casing Size
 CTD1.ft              439:   Casing Driller 1
 CTL1.ft              436:   Casing Logger 1
 BS  .inch           8.75:   Bit Size
 DFT .           Gel/Chem:   Type Fluid In Hole
 DFD .lb/gal          9.6:   Mud Weight
 DFV .sec              50:   Viscosity
 DFPH.                9.5:   pH
 DFL .cc              8.0:   Fluid Loss
 WSS .               tank:   Source Of Sample
 RM  .ohmm            .68:   Rm
 EMT .F                94:   Rm Meas. Temp.
 RMF .ohmm            .51:   Rmf
 MFT .F                94:   Rmf Meas. Temp.
 RMC .ohmm            .95:   Rmc
 MCST.F                94:   Rmc Meas. Temp.
 MFSS.              calc.:   Source Rmf.
 MCSS.              calc.:   Source Rmc.
 RMB .ohmm            .38:   Rm. At BHT
 BHT .F               168:   BHT.
 TCS .hh:mm         6 hrs:   Time Circ. Stopped
 MRT .F               168:   Maximum Recorded Temp.
 LUL .          Rk. Spgs.:   Logging Unit Location
 ENGI.               Rall:   Recorded By
 WITN.      Lebeau/ Hardy:   Witnessed By
 DGBY.              Burke:   Digitized By
~OTHER INFORMATION
# Rho M=2.65, Rho F=1.0
# CNCF=Sandstone
# Cement Volume Based on 7" casing
~A  DEPTH     DPHI       NPHI         GR       RHOB
# ...
 3859.3490    48.8811    27.2722   131.8360     2.5077
 3859.8490    49.4399    27.6437   135.5882     2.4991
 3860.3490    49.7813    28.9758   139.9940     2.4889
 3860.8490    50.3909   -50.0020   143.0209     2.4791
 3861.3490    52.4091   -46.9039   144.8882     2.4667
 3861.8490    54.4272   -46.4395   145.2033     2.4343
 3862.3490    56.4454   -46.9664   141.1808     2.3902
 3862.8490    58.4087   -46.5019   136.3402     2.3460
 3863.3490    58.9985   -46.3643   130.2939     2.3398
 3863.8490    57.8327   -47.9277   124.2475     2.3570
 3864.3490    55.1302   -48.9359   117.8921     2.3923
 3864.8490    52.1098   -49.2606   110.8719     2.4275
 3865.3490    51.5203   -48.9820   104.3241     2.4599
 3865.8490    51.6445   -49.0133   102.7805     2.4607
 3866.3490    51.9860   -49.4473   100.3067     2.4561
 3866.8490    51.9240    29.6849   100.0017     2.4530
 3867.3490    52.1471    29.4058   102.4908     2.4530
 3867.8490    52.2656    29.5604   104.3581     2.4499
 3868.3490    52.3899  -999.2500   107.1556     2.4484
 3868.8490    52.9654   -47.1558   107.7825     2.4322
 3869.3490    53.8577   -47.2274   105.9226     2.4128
 3869.8490    54.6245   -47.0015   105.6256     2.4245
 3870.3490    53.4454   -46.2891   107.4945     2.4400
 3870.8490    52.6697   -46.5683   109.9820     2.4462
 3871.3490    52.7009   -46.9713   111.2291     2.4377
 3871.8490    53.0284   -47.5293   110.9258     2.4283
 3872.3490    51.0572   -47.2817   108.7621     2.4485
 3872.8490    49.0860   -47.0341   106.5983     2.4869
 3873.3490    47.1149   -47.1288   106.9152     2.5254
 3873.8490    45.3469   -47.4141   110.6429     2.5579
 3874.3490    47.0245   -47.6856   112.2451     2.5517
 3874.8490    48.5453   -47.6548   113.1371     2.5131
 3875.3490    50.0662   -47.3763   111.9053     2.4704
 3875.8490    50.4744   -47.6554   107.8811     2.4673
 3876.3490    48.1207   -49.1429   101.9964     2.4983
 3876.8490    45.7670    29.3387   101.0713     2.5688
 3877.3490    44.2069    28.8736   109.7620     2.5820
 3877.8490    45.7784    29.2141   121.3387     2.5740
 3878.3490    47.3498    29.5857   140.7938     2.5383
 3878.8490    48.9212    29.1207   160.2489     2.5015
 3879.3490    50.7788    27.5396   179.7040     2.4782
 3879.8490    49.9641    24.9133   187.0070     2.4814
 3880.3490    48.9682    23.0780   185.4634     2.5039
 3880.8490    47.9722    22.8299   168.9806     2.5202
 3881.3490    46.9762    24.0253   145.3776     2.5504
 3881.8490    45.9802    24.8742   121.7746     2.5597
 3882.3490    48.1170    25.8964    97.9201     2.5535
 3882.8490    53.9384    26.5158    82.8628     2.3975
 3883.3490    60.0892    27.4451    80.6991     2.1800
 3883.8490  -999.2500    28.4983    80.0840  -999.2500
 3884.3490  -999.2500  -999.2500    79.4724     3.9050
 3884.8490  -999.2500   -47.7337    76.3784     3.7659
 3885.3490    15.4039   -44.8410    74.8348     3.7419
 3885.8490    16.1488   -44.4331    75.1517     3.7241
 3886.3490    17.2350   -44.1496    76.0887     3.6923
 3886.8490    17.7855   -41.5886    77.3640     3.6885
 3887.3490    16.2425   -41.3409    80.2586     3.7163
 3887.8490    14.6994   -42.2880    83.2426     3.7590
 3888.3490    13.1564   -43.7854    86.3502     3.7877
 3888.8490    11.5878   -45.2829    89.7678     3.8024
 3889.3490    13.3529   -46.6372    91.3250     3.7668
 3889.8490    15.1477   -46.9813    92.5721     3.7219
 3890.3490    16.9425   -46.4549    92.8890     3.6917
 3890.8490    17.0225   -45.4650    92.2756     3.7282
 3891.3490    11.9193   -43.3261    90.1119     3.7744
 3891.8490    -0.2994   -43.8841    88.8298     3.9008
 3892.3490  -999.2500   -46.9662    85.4760  -999.2500
 3892.8490    65.1101  -999.2500    79.5913  -999.2500
 3893.3490    58.6294  -999.2500    74.3268  -999.2500
 3893.8490    52.1488    19.6316    70.3026  -999.2500
 3894.3490    45.8171    20.4988    70.3094     2.5478
 3894.8490    46.5310    21.8334    73.6816     2.5525
 3895.3490    47.4931    23.1081    84.1890     2.5293
 3895.8490    48.0518    23.8442    94.6965     2.5146
 3896.3490    48.5174    26.3870   102.5858     2.5091
 3896.8490    48.6106   -49.9286    99.1818     2.5068
 3897.3490    47.8970   -49.5261    96.3979     2.5146
 3897.8490    46.8420    29.4822    95.1643     2.5340
 3898.3490    46.3146    24.6484    92.6905     2.5456
 3898.8490    45.7857    24.2144    91.4570     2.5534
 3899.3490    45.5558    24.6169    86.8126     2.5604
 3899.8490    45.2599    25.4532    83.0985     2.5635
 3900.3490    45.1979    25.5750    84.0428     2.5628
 3900.8490    45.3532    24.8020    86.2262     2.5612
 3901.3490    45.4153    24.7398    85.3089     2.5597
 3901.8490    45.1672    25.0183    80.0504     2.5613
 3902.3490    44.8260    25.5138    79.4399     2.5698
 3902.8490    44.6399    26.1642    82.2467     2.5715
 3903.3490    44.5159    26.5047    89.0813     2.5755
 3903.8490    44.1337    26.1327    92.8151     2.5808
 3904.3490    43.2749    24.9043    90.3473     2.5855
 3904.8490    42.8406    23.5525    77.8857     2.5956
 3905.3490    42.5304    22.1661    73.2323     2.6056
 3905.8490    42.1271    21.8553    69.3039     2.6095
 3906.3490    41.7858    20.2742    64.6656     2.6142
 3906.8490    41.3205    19.7155    64.3652     2.6228
 3907.3490    41.2275    19.9934    68.7224     2.6274
 3907.8490    41.3207    20.7981    73.3864     2.6258
 3908.3490    41.7369    21.4168    75.2565     2.6162
 3908.8490    43.3121    20.5173    72.4787     2.5966
 3909.3490    43.4002    19.3661    71.8746     2.5935
 3909.8490    43.2141    18.5325    70.6472     2.6013
 3910.3490    42.8108    19.9256    70.0399     2.6075
 3910.8490    42.7178    22.6081    72.5366     2.6091
 3911.3490    43.4317    25.8453    83.4022     2.5944
 3911.8490    43.9283    29.1250    93.0275     2.5812
 3912.3490    44.0525    27.6939    97.6915     2.5836
 3912.8490    43.7727    27.2021    99.8749     2.5906
 3913.3490    43.5873    27.1390    98.3374     2.5929
 3913.8490    44.0219    26.9831    95.5596     2.5759
 3914.3490    44.6116    26.9514    93.7115     2.5697
 3914.8490    45.0461    26.8883    93.7249     2.5667
 3915.3490    45.1393    26.5775    93.0928     2.5675
 3915.8490    44.9222    25.6873    91.1454     2.5745
 3916.3490    44.4258    23.3071    86.3249     2.5962
 3916.8490    43.2641    20.9268    81.0664     2.6102
 3917.3490    42.3088    19.1375    73.0173     2.6218
 3917.8490    41.3535    18.9507    71.7866     2.6311
 3918.3490    40.4853    19.3835    73.9732     2.6381
 3918.8490    40.3302    20.5366    77.3970     2.6436
 3919.3490    40.2062    20.7447    78.3401     2.6475
 3919.8490    40.2063    20.8987    78.9731     2.6475
 3920.3490    40.6719    21.2075    83.3270     2.6413
 3920.8490    42.0446    22.3220    88.4618     2.6305
 3921.3490    42.4454    23.7773    94.6279     2.6143
 3921.8490    42.4721    24.4890    97.6325     2.6104
 3922.3490    42.0688    23.9613    97.9522     2.6128
 3922.8490    41.2311    22.6395    90.2163     2.6221
 3923.3490    40.5175    21.0443    80.6168     2.6353
 3923.8490    39.9590    19.1559    77.5289     2.6477
 3924.3490    39.8660    18.0396    76.6083     2.6524
 3924.8490    40.9523    17.6658    76.9345     2.6427
 3925.3490    41.2627    17.3179    76.9474     2.6339
 3925.8490    41.6100    17.3549    75.9983     2.6285
 3926.3490    41.6974    17.8187    74.8026     2.6254
 3926.8490    41.5113    18.4994    75.7489     2.6247
 3927.3490    41.2011    19.6139    76.6920     2.6309
 3927.8490    40.8288    21.0544    76.3948     2.6371
 3928.3490    41.2944    23.0056    77.0278     2.6333
 3928.8490    45.4286    24.9568    84.4826     2.5630
 3929.3490    54.1337    27.0771    91.6272     2.3903
 3929.8490    62.8388    27.6958    94.7409     2.2177
 3930.3490    -9.3801    29.2441    94.7537     2.0450
 3930.8490    -1.8944   -50.0751    95.0767     3.9998
 3931.3490     7.9049   -46.1542    97.3101     3.8894
 3931.8490     8.6498   -42.7345   100.2281     3.8527
