~Version Information
 VERS.                2.00:   CWLS log ASCII Standard -VERSION 2.00
 WRAP.                  NO:   One line per frame
~Well Information Block
#MNEM.UNIT              Data                Description
#--------- -------------------------------  -------------------------------
 STRT.F                          430.0000:   Starting Depth
 STOP.F                         5565.5000:   Ending Depth
 STEP.F                            0.5000:   Level Spacing
 NULL.                          -999.2500:   Absent Value
 COMP.     FLUOR DANIEL (NPOSR), INC.    :   Company
 WELL.     43-2 X 10                     :   Well
 FLD .                                   :   Field
 LOC .                                   :   Location
 CNTY.                                   :   County
 STAT.                                   :   State
 SRVC.                                   :   Service Company
 LIC .                                   :   License Number
 DATE.                                   :   Log Date
 API .                                   :   API Number
~Curve Information Block
#MNEM.UNIT       API Codes    Curve Description
#---------    -------------   -------------------------------
 DEPT.F        0   1  0  1:   Depth
 GR  .API      0 310  1  1:   Gamma ray counts
 CALX.         0   0  0  1:   N/A
 RS  .OHMM     0 220  9  1:   Logarithmic Resistivity from ES, IS
 RD  .OHMM     0 220 10  1:   Logarithmic Resistivity from ED, ID
 TEN .LBF      0 635 99  1:   Differential Tension
 ZDEN.G/C3     0 350  1  1:   ZDL Bulk Density
 PORZ.PU       0 890 99  1:   Porosity from ZDEN
 ZCOR.G/C3     0 356 99  1:   ZDL Correction
 PE  .BARN     0 995 99  1:   Photo Electric cross section
 CNCF.PU       0 995 99  1:   CNC corrected to Field Normalized transform
#  Curve Data
~A   DEPT        GR          CALX        RS          RD          TEN         ZDEN        PORZ        ZCOR        PE          CNCF
# ...
  4151.0000     62.5651      8.5950     12.8979     11.0887    -28.9570      2.5771      4.4191      0.0528      2.5702     15.1924
  4151.5000     57.4574      8.5950     13.1892     11.4851    -31.3840      2.5765      4.4550      0.0557      2.5551     14.7507
  4152.0000     54.0834      8.5977     14.3505     12.5992    -23.3211      2.5818      4.1343      0.0505      2.5333     14.2021
  4152.5000     54.3562      8.5996     15.5687     13.6517     -9.6079      2.5861      3.8744      0.0442      2.5280     13.9277
  4153.0000     54.8085      8.6005     16.0392     14.0217     -5.4521      2.5816      4.1454      0.0314      2.5343     14.0366
  4153.5000     54.0525      8.6013     15.7213     13.7853     -5.3259      2.5638      5.2248      0.0149      2.5392     14.2906
  4154.0000     55.1719      8.6025     14.7882     13.0393     -6.0192      2.5313      7.1958      0.0108      2.5364     14.6561
  4154.5000     59.9641      8.6042     13.2884     11.7656    -15.1533      2.4997      9.1098      0.0364      2.5247     15.3711
  4155.0000     64.6617      8.6066     11.8538     10.5723    -21.9694      2.4938      9.4693      0.0607      2.5087     16.4103
  4155.5000     64.5301      8.6105     11.2537     10.1716    -22.2439      2.5182      7.9900      0.0543      2.5095     16.8240
  4156.0000     60.9589      8.6161     11.7151     10.7621    -28.8032      2.5465      6.2728      0.0311      2.5255     16.1140
  4156.5000     57.7982      8.6219     13.0480     12.1185    -40.7396      2.5505      6.0297      0.0181      2.5458     15.1600
  4157.0000     54.9041      8.6267     14.5902     13.5844    -41.6851      2.5326      7.1152      0.0117      2.5543     14.5207
  4157.5000     49.8426      8.6307     15.7551     14.6844    -31.8710      2.5166      8.0857      0.0120      2.5406     13.9508
  4158.0000     43.3017      8.6338     16.5669     15.5025    -23.3194      2.5103      8.4637      0.0169      2.5476     13.6749
  4158.5000     38.2117      8.6349     17.1354     16.1009    -22.3642      2.5030      8.9094      0.0160      2.5735     14.0587
  4159.0000     36.1477      8.6342     17.3627     16.3531    -28.7078      2.4884      9.7957      0.0112      2.5761     14.8265
  4159.5000     36.2109      8.6323     17.2935     16.3160    -37.8852      2.4712     10.8377      0.0082      2.6065     15.3813
  4160.0000     37.6107      8.6299     17.1569     16.2184    -44.0561      2.4568     11.7097      0.0073      2.7061     15.5335
  4160.5000     39.9952      8.6275     16.9415     16.0199    -48.3147      2.4504     12.0969      0.0078      2.8511     15.0747
  4161.0000     42.9757      8.6265     16.4717     15.5642    -55.4646      2.4601     11.5114      0.0165      2.9126     14.0053
  4161.5000     45.8379      8.6259     15.9642     15.0850    -58.4235      2.4837     10.0803      0.0331      2.9249     13.0633
  4162.0000     47.4521      8.6230     15.7474     14.8991    -50.1819      2.5078      8.6173      0.0408      2.9464     12.8086
  4162.5000     48.3334      8.6187     15.8797     15.0487    -39.7175      2.5272      7.4444      0.0363      2.9741     13.0656
  4163.0000     51.2974      8.6151     16.0306     15.1392    -38.9025      2.5452      6.3490      0.0306      2.9404     13.6335
  4163.5000     57.8894      8.6127     15.6103     14.5650    -44.3937      2.5610      5.3936      0.0255      2.9391     14.7167
  4164.0000     65.3718      8.6100     14.4241     13.2211    -47.5265      2.5720      4.7265      0.0168      3.1761     16.2856
  4164.5000     71.6780      8.6069     12.9103     11.6318    -48.1383      2.5815      4.1532      0.0127      3.4969     17.5329
  4165.0000     76.9793      8.6033     11.5272     10.2574    -47.9579      2.5921      3.5091      0.0202      3.5581     18.0283
  4165.5000     80.7318      8.5984     10.5582      9.3418    -45.3608      2.6013      2.9544      0.0299      3.4423     18.3145
  4166.0000     80.6490      8.5914     10.0587      8.8738    -43.1419      2.6014      2.9466      0.0255      3.3912     18.5218
  4166.5000     78.0029      8.5819      9.7464      8.5621    -45.0878      2.5915      3.5426      0.0131      3.3734     18.5386
  4167.0000     76.9436      8.5691      9.5825      8.3795    -48.0309      2.5817      4.1378      0.0164      3.3693     18.7964
  4167.5000     77.4450      8.5547      9.7177      8.4482    -50.1920      2.5790      4.3007      0.0309      3.2492     19.0777
  4168.0000     77.2095      8.5427     10.1705      8.7907    -50.8339      2.5809      4.1856      0.0349      3.0353     18.6890
  4168.5000     76.5611      8.5366     10.7922      9.2741    -43.8934      2.5811      4.1730      0.0251      2.9983     18.0373
  4169.0000     76.5033      8.5348     11.1757      9.5263    -32.2008      2.5799      4.2479      0.0154      3.0147     17.9924
  4169.5000     76.2515      8.5298     10.9457      9.2434    -40.1338      2.5832      4.0475      0.0135      2.9806     18.2691
  4170.0000     77.6973      8.5180     10.2262      8.5778    -73.3732      2.5915      3.5448      0.0174      2.9661     18.3196
  4170.5000     80.4605      8.5041      9.3954      7.8575    -97.3586      2.5974      3.1896      0.0201      2.9205     18.5173
  4171.0000     81.3109      8.4935      8.6247      7.2086    -95.2543      2.5932      3.4419      0.0162      2.8198     19.3643
  4171.5000     81.0154      8.4863      7.9701      6.6645    -87.4731      2.5774      4.4001      0.0161      2.7926     20.4748
  4172.0000     82.9652      8.4793      7.5607      6.3401    -87.1826      2.5599      5.4607      0.0451      2.7711     20.8873
  4172.5000     84.4630      8.4716      7.6346      6.4576    -91.5719      2.5532      5.8648      0.0820      2.7302     19.9445
  4173.0000     82.2561      8.4652      8.4240      7.2458    -98.8682      2.5627      5.2912      0.0817      2.7375     18.0131
  4173.5000     77.1030      8.4612     10.1116      8.8649   -102.9371      2.5863      3.8617      0.0534      2.6984     16.2946
  4174.0000     71.6140      8.4574     12.2513     10.8443   -106.3419      2.6129      2.2507      0.0429      2.5074     15.4370
  4174.5000     67.9649      8.4530     13.8005     12.2233   -118.7678      2.6268      1.4058      0.0527      2.2931     15.3796
  4175.0000     67.2924      8.4479     14.3727     12.7004   -127.9413      2.6244      1.5486      0.0561      2.1724     15.8821
  4175.5000     66.7435      8.4410     14.4557     12.7732   -124.5086      2.6145      2.1527      0.0494      2.1120     16.4553
  4176.0000     63.1472      8.4350     14.7477     13.1231   -121.5990      2.6058      2.6777      0.0427      2.0401     16.5458
  4176.5000     57.8364      8.4343     15.6519     14.0756   -115.1503      2.5987      3.1095      0.0423      1.9818     16.1218
  4177.0000     54.0413      8.4418     16.8225     15.2137    -88.6933      2.5876      3.7814      0.0437      1.9692     15.6349
  4177.5000     51.5338      8.4543     17.5028     15.8619    -54.8264      2.5736      4.6285      0.0449      1.9452     15.3359
  4178.0000     48.3196      8.4641     17.5728     15.9991    -37.4371      2.5641      5.2090      0.0493      1.9409     15.1382
  4178.5000     45.7028      8.4668     17.4114     15.9558    -33.5488      2.5605      5.4232      0.0505      1.9760     14.8148
  4179.0000     45.6764      8.4634     17.1258     15.7750    -30.5552      2.5575      5.6070      0.0426      1.9988     14.4202
  4179.5000     47.0208      8.4574     16.6647     15.4174    -23.5463      2.5504      6.0335      0.0317      1.9906     14.3580
  4180.0000     46.6276      8.4532     16.2435     15.1362    -17.3596      2.5399      6.6744      0.0257      2.0232     14.5796
  4180.5000     44.7741      8.4521     16.1604     15.2162    -19.6575      2.5320      7.1498      0.0246      2.0744     14.5804
  4181.0000     43.6839      8.4506     16.2540     15.4574    -29.7020      2.5329      7.0949      0.0238      2.0689     14.3181
