~Version Information
 VERS.                2.00:   CWLS log ASCII Standard -VERSION 2.00
 WRAP.                  NO:   One line per frame
~Well Information Block
#MNEM.UNIT              Data                Description
#--------- -------------------------------  -------------------------------
 STRT.F                          430.0000:   Starting Depth
 STOP.F                         5565.5000:   Ending Depth
 STEP.F                            0.5000:   Level Spacing
 NULL.                          -999.2500:   Absent Value
 COMP.     FLUOR DANIEL (NPOSR), INC.    :   Company
 WELL.     43-2 X 10                     :   Well
 FLD .                                   :   Field
 LOC .                                   :   Location
 CNTY.                                   :   County
 STAT.                                   :   State
 SRVC.                                   :   Service Company
 LIC .                                   :   License Number
 DATE.                                   :   Log Date
 API .                                   :   API Number
~Curve Information Block
#MNEM.UNIT       API Codes    Curve Description
#---------    -------------   -------------------------------
 DEPT.F        0   1  0  1:   Depth
 GR  .API      0 310  1  1:   Gamma ray counts
 CALX.         0   0  0  1:   N/A
 RS  .OHMM     0 220  9  1:   Logarithmic Resistivity from ES, IS
 RD  .OHMM     0 220 10  1:   Logarithmic Resistivity from ED, ID
 TEN .LBF      0 635 99  1:   Differential Tension
 ZDEN.G/C3     0 350  1  1:   ZDL Bulk Density
 PORZ.PU       0 890 99  1:   Porosity from ZDEN
 ZCOR.G/C3     0 356 99  1:   ZDL Correction
 PE  .BARN     0 995 99  1:   Photo Electric cross section
 CNCF.PU       0 995 99  1:   CNC corrected to Field Normalized transform
#  Curve Data
~A   DEPT        GR          CALX        RS          RD          TEN         ZDEN        PORZ        ZCOR        PE          CNCF
# ...
  2107.5000    124.5592      9.7382      5.6131      5.5995    -61.5952      2.4799     10.3075      0.0675      3.1256     38.0536
  2108.0000    126.3942      9.7303      6.0272      5.9964    -48.8954      2.4865      9.9062      0.0800      2.9206     36.0833
  2108.5000    130.2513      9.7211      6.3552      6.2388    -42.8657      2.4911      9.6287      0.0888      2.8216     32.1454
  2109.0000    132.0918      9.7119      6.4874      6.3140    -48.6164      2.4922      9.5616      0.0948      2.6256     29.4359
  2109.5000    131.7137      9.7050      6.5899      6.4544    -58.0609      2.4978      9.2230      0.0966      2.4714     29.6527
  2110.0000    130.4275      9.7028      6.8643      6.8090    -61.6250      2.5082      8.5941      0.0960      2.4787     31.9239
  2110.5000    127.1002      9.7044      7.2750      7.2456    -63.5323      2.5145      8.2108      0.0976      2.6195     33.5728
  2111.0000    122.9050      9.7065      7.5977      7.5009    -69.4265      2.5145      8.2117      0.0954      2.7773     32.5297
  2111.5000    121.7149      9.7067      7.6460      7.4490    -74.8790      2.5119      8.3717      0.0789      2.8454     30.7415
  2112.0000    125.4713      9.7057      7.4802      7.2331    -77.8011      2.5069      8.6746      0.0583      2.9409     29.8346
  2112.5000    131.6053      9.7052      7.3167      7.0846    -79.4746      2.5003      9.0742      0.0557      3.0729     29.7094
  2113.0000    133.6693      9.7044      7.3136      7.1269    -77.5979      2.4948      9.4071      0.0687      3.1924     30.2393
  2113.5000    131.3394      9.7029      7.5032      7.3447    -72.7844      2.4925      9.5447      0.0764      3.2460     31.7052
  2114.0000    129.9301      9.7020      7.7945      7.6315    -71.4588      2.4923      9.5573      0.0689      3.2493     33.6931
  2114.5000    132.0389      9.7027      8.0650      7.8820    -75.8435      2.4931      9.5072      0.0588      3.2855     34.2998
  2115.0000    132.5273      9.7037      8.2263      7.9912    -81.7812      2.4992      9.1376      0.0630      3.2891     32.4201
  2115.5000    127.3842      9.7043      8.1618      7.8297    -84.6317      2.5082      8.5914      0.0707      3.2318     30.5406
  2116.0000    118.7691      9.7043      7.8139      7.3917    -82.2190      2.5084      8.5825      0.0573      3.3759     30.7662
  2116.5000    114.6628      9.7067      7.3081      6.8594    -76.1418      2.4968      9.2860      0.0321      3.6459     32.0909
  2117.0000    118.1193      9.7132      6.8794      6.4801    -67.8501      2.4858      9.9529      0.0298      3.6342     32.6339
  2117.5000    123.1043      9.7224      6.7430      6.4239    -59.2095      2.4832     10.1076      0.0525      3.6655     32.9877
  2118.0000    124.4755      9.7312      6.9262      6.6467    -57.8527      2.4848     10.0128      0.0724      3.4535     33.3428
  2118.5000    122.8094      9.7378      7.1903      6.8641    -65.0096      2.4835     10.0894      0.0762      3.2303     32.5566
  2119.0000    120.8069      9.7419      7.2172      6.7866    -67.0675      2.4788     10.3773      0.0682      3.1439     30.7971
  2119.5000    118.7411      9.7446      6.9125      6.3946    -52.6609      2.4782     10.4147      0.0638      3.0994     30.2035
  2120.0000    117.5720      9.7464      6.4231      5.8902    -33.9137      2.4825     10.1523      0.0769      3.0799     31.8875
  2120.5000    118.7744      9.7487      5.9771      5.5065    -30.7223      2.4803     10.2849      0.0852      3.0772     34.3696
  2121.0000    122.9586      9.7509      5.7939      5.4084    -44.5601      2.4739     10.6713      0.0735      3.1165     36.0506
  2121.5000    126.8653      9.7476      5.9512      5.6105    -57.4869      2.4787     10.3840      0.0601      3.1661     37.1828
  2122.0000    126.7876      9.7349      6.3565      6.0295    -57.4557      2.4909      9.6423      0.0586      3.1886     36.6396
  2122.5000    123.9809      9.7169      6.8909      6.5476    -52.2081      2.4918      9.5895      0.0509      3.2132     33.3628
  2123.0000    124.2029      9.7043      7.3357      6.9111    -51.7828      2.4830     10.1191      0.0413      3.2541     31.2976
  2123.5000    131.0376      9.7013      7.4382      6.9170    -54.9354      2.4743     10.6457      0.0399      3.2690     32.4542
  2124.0000    140.2560      9.7030      7.2300      6.6787    -56.0853      2.4654     11.1874      0.0428      3.2605     33.5440
  2124.5000    143.5867      9.7042      6.9516      6.4402    -53.1553      2.4537     11.8960      0.0427      3.2348     32.5610
  2125.0000    137.7139      9.7046      6.8005      6.3710    -46.4650      2.4429     12.5528      0.0424      3.2361     31.9673
  2125.5000    128.8845      9.7048      6.9134      6.5594    -36.0494      2.4401     12.7197      0.0417      3.2088     32.0568
  2126.0000    126.4441      9.7044      7.2751      6.9490    -27.4200      2.4491     12.1735      0.0398      3.1374     32.1963
  2126.5000    129.7175      9.7033      7.7048      7.3476    -30.0269      2.4621     11.3879      0.0408      3.1322     33.0888
  2127.0000    131.1809      9.7022      7.9822      7.5423    -42.4121      2.4689     10.9781      0.0481      3.1579     34.2095
  2127.5000    128.7582      9.7016      7.9885      7.4607    -50.2853      2.4694     10.9431      0.0538      3.1755     34.0910
  2128.0000    124.0220      9.7018      7.8064      7.2486    -48.6862      2.4645     11.2431      0.0483      3.2078     32.3886
  2128.5000    119.6062      9.7024      7.6579      7.1277    -48.0446      2.4514     12.0348      0.0327      3.2745     31.5957
  2129.0000    118.5314      9.7024      7.6891      7.1886    -55.4448      2.4360     12.9689      0.0169      3.3150     33.0865
  2129.5000    120.0401      9.7023      7.8300      7.3086    -65.3981      2.4308     13.2859      0.0128      3.3018     35.6807
  2130.0000    121.4986      9.7029      7.8357      7.2562    -69.3592      2.4365     12.9385      0.0179      3.2456     37.3256
  2130.5000    124.6591      9.7040      7.6257      7.0184    -69.3621      2.4405     12.6946      0.0259      3.1043     36.3496
  2131.0000    130.9394      9.7059      7.3991      6.8175    -73.8298      2.4353     13.0115      0.0378      3.0095     34.0249
  2131.5000    136.1182      9.7144      7.3522      6.8368    -82.8538      2.4302     13.3234      0.0506      3.2473     33.6780
  2132.0000    135.8885      9.7295      7.5605      7.1167    -88.2573      2.4307     13.2931      0.0508      3.7665     34.9689
  2132.5000    131.2929      9.7422      7.9721      7.5375    -84.4492      2.4326     13.1744      0.0367      4.2698     35.2111
  2133.0000    128.5017      9.7469      8.3970      7.9077    -77.1382      2.4355     12.9976      0.0229      4.5452     36.3004
  2133.5000    129.9087      9.7478      8.7044      8.1838    -76.7959      2.4436     12.5075      0.0186      4.4503     38.2404
  2134.0000    130.6840      9.7487      8.9715      8.4496    -84.1806      2.4597     11.5363      0.0273      3.8731     37.5226
  2134.5000    128.7392      9.7499      9.2600      8.6947    -88.9242      2.4789     10.3708      0.0388      3.2474     34.0642
  2135.0000    127.9218      9.7509      9.4824      8.8428    -80.7858      2.4888      9.7706      0.0462      3.0832     30.2204
  2135.5000    129.8922      9.7511      9.5453      8.8618    -61.9366      2.4819     10.1897      0.0547      3.2606     27.6569
  2136.0000    131.2340      9.7506      9.4252      8.7354    -48.5804      2.4658     11.1629      0.0559      3.4856     27.0814
  2136.5000    130.6774      9.7504      9.1432      8.4618    -51.0340      2.4513     12.0424      0.0400      3.6630     28.1413
  2137.0000    130.0656      9.7504      8.7643      8.1184    -61.9283      2.4447     12.4432      0.0251      3.6660     29.5693
  2137.5000    129.7449      9.7499      8.3928      7.7998    -70.4585      2.4497     12.1419      0.0354      3.2592     30.7685
