~VERSION INFORMATION
 VERS.               2.10:   CWLS LOG ASCII STANDARD - VERSION 2.10
 WRAP.                 NO:   ONE LINE PER DEPTH STEP
~WELL INFORMATION
#MNEM.UNIT      DATA TYPE    INFORMATION
#----------   ------------   ------------------------------
 STRT.F         2399.3489:   START DEPTH
 STOP.F         5518.8403:   STOP DEPTH
 STEP.F            0.5000:   STEP LENGTH
 NULL.          -999.2500:   NO VALUE
 COMP. Fluor Daniel (NPOSR), Inc.:   COMPANY
 WELL.        43-2 TPX 10:   WELL
 FLD .           N.P.R. 3:   FIELD
 LOC . 10-38N-78W-NATRONA-WY:   LOCATION
 STAT.                 WY:   STATE
 COUN.            Natrona:   COUNTY
 SRVC.      Western Atlas:   SERVICE COMPANY
 DATE.                   :   LOGDATE
 APIN.         4902522843:   API NUMBER
~CURVE INFORMATION
#MNEM.UNIT       API CODE    CURVE DESCRIPTION
#----------   ------------   ------------------------------
 DEPT.F                  :
 DPHI.none   42 890 03 00:   Den. Porosity, Ss [%]
 NPHI.none   42 890 03 00:   Neu. Porosity, Ss [%]
 GR  .gAPI   42 310 00 00:   Gamma Ray
 RHOB.gm/cc  42 350 01 00:   Bulk Density
~PARAMETER INFORMATION
#MNEM.UNIT          VALUE    DESCRIPTION
#----------   ------------   ------------------------------
 EKB .F         5209.0000:   Kelly bushing
 EGL .F         5199.0000:   Ground level
 EDF .F         5208.0000:   Drilling floor
 EPD .F           10.0000:   Permanent datum
 TD  .F         3150.0000:   Total depth
 NRUN.             1.0000:   Number of Runs
#--RUN 1---   ------------   The following are for Run 1---
 RUN .             1.0000:   Run 1
 DATE.mm/dd/yyyy 02/13/1997:   Date Logged
 DD  .ft             5540:   Depth Driller
 DL  .ft             5541:   Depth Logger
 BLI .ft             5535:   Bottom Log Interval
 TLI .ft             2400:   Top Log Interval
 CSS .inch          9.625:   Casing Size
 CTD1.ft              439:   Casing Driller 1
 CTL1.ft              436:   Casing Logger 1
 BS  .inch           8.75:   Bit Size
 DFT .           Gel/Chem:   Type Fluid In Hole
 DFD .lb/gal          9.6:   Mud Weight
 DFV .sec              50:   Viscosity
 DFPH.                9.5:   pH
 DFL .cc              8.0:   Fluid Loss
 WSS .               tank:   Source Of Sample
 RM  .ohmm            .68:   Rm
 EMT .F                94:   Rm Meas. Temp.
 RMF .ohmm            .51:   Rmf
 MFT .F                94:   Rmf Meas. Temp.
 RMC .ohmm            .95:   Rmc
 MCST.F                94:   Rmc Meas. Temp.
 MFSS.              calc.:   Source Rmf.
 MCSS.              calc.:   Source Rmc.
 RMB .ohmm            .38:   Rm. At BHT
 BHT .F               168:   BHT.
 TCS .hh:mm         6 hrs:   Time Circ. Stopped
 MRT .F               168:   Maximum Recorded Temp.
 LUL .          Rk. Spgs.:   Logging Unit Location
 ENGI.               Rall:   Recorded By
 WITN.      Lebeau/ Hardy:   Witnessed By
 DGBY.              Burke:   Digitized By
~OTHER INFORMATION
# Rho M=2.65, Rho F=1.0
# CNCF=Sandstone
# Cement Volume Based on 7" casing
~A  DEPTH     DPHI       NPHI         GR       RHOB
# ...
 5246.3490    -7.1915     8.9451    47.5575     2.7708
 5246.8490    -7.1301     8.8865    46.3291     2.7685
 5247.3490    -7.0376     9.1031    46.3489     2.7662
 5247.8490    -6.7586     9.5056    47.2950     2.7646
 5248.3490    -6.8215     9.6602    48.2411     2.7638
 5248.8490    -6.8844     9.7838    48.2571     2.7662
 5249.3490    -6.7513     9.8455    48.6302     2.7669
 5249.8490    -6.2645     9.9381    52.3236     2.7592
 5250.3490    -6.3274     9.9688    54.1999     2.7561
 5250.8490    -7.1362     9.7263    53.2855     2.7592
 5251.3490    -8.8774     8.3260    46.1696     2.7886
 5251.8490  -999.2500     6.8621    36.5652     2.8330
 5252.3490  -999.2500     5.0808    26.3577     2.8821
 5252.8490    63.8541     4.0184    24.5130     2.9257
 5253.3490    64.6856     4.2117    26.6994     2.9180
 5253.8490    68.0122     4.9472    36.3633     2.9033
 5254.3490  -999.2500     6.6522    47.8458     2.8576
 5254.8490    -9.3315     8.7825    59.3284     2.8042
 5255.3490    -8.0834    10.0586    69.2448     2.7513
 5255.8490    -6.8353    10.3991    72.9816     2.7459
 5256.3490    -5.7768    10.1509    65.5555     2.7499
 5256.8490    -6.0264     9.3823    56.2034     2.7522
 5257.3490    -5.8095     8.2346    53.4942     2.7468
 5257.8490    -5.2198     7.4544    59.0954     2.7368
 5258.3490    -3.9080     7.5781    65.6229     2.7151
 5258.8490    -3.1917     8.1225    69.9798     2.7050
 5259.3490    -3.3263     9.0057    70.9259     2.7047
 5259.8490    -4.5702    10.0558    70.9418     2.7158
 5260.3490    -5.1925    10.5512    75.2987     2.7308
 5260.8490    -5.7838    10.6749    83.7096     2.7435
 5261.3490    -5.2738    10.8915    94.7328     2.7492
 5261.8490    -5.3190    11.0151   102.0142     2.7368
 5262.3490    -4.0767    11.0458   104.8208     2.7236
 5262.8490    -3.4559    11.2314   106.6971     2.7089
 5263.3490    -3.2391    11.2621   104.2363     2.7027
 5263.8490    -3.1775    11.2485   103.0118     2.7004
 5264.3490    -3.3027    10.8276   100.8571     2.7019
 5264.8490    -3.7696    10.4245    96.2218     2.7058
 5265.3490    -4.2055    10.1454    93.1369     2.7138
 5265.8490    -4.7657     9.9282    90.3581     2.7337
 5266.3490    -5.1741    10.3307    92.8585     2.7406
 5266.8490    -5.5182    11.1359    99.0759     2.7461
 5267.3490    -5.6072    12.1705   105.1969     2.7461
 5267.8490    -5.4524    13.3015   111.4054     2.7391
 5268.3490    -5.5155    14.2024   116.1804     2.7375
 5268.8490    -5.6405    14.3880   116.5063     2.7422
 5269.3490    -5.7034    14.4497   119.9330     2.7437
 5269.8490    -5.3312    14.3564   120.5690     2.7399
 5270.3490    -4.9590    14.2322   119.6228     2.7350
 5270.8490    -4.7420    14.3611   115.2414     2.7244
 5271.3490    -4.4598    14.5414   113.4848     2.7205
 5271.8490    -4.1844    14.6031   114.4348     2.7197
 5272.3490    -4.0917    14.6647   116.0011     2.7197
 5272.8490    -3.8440    14.5714   116.3230     2.7128
 5273.3490    -3.4407    14.3542   112.3118     2.7089
 5273.8490    -3.3480    13.7652   107.0564     2.7104
 5274.3490    -3.9394    13.1452   102.4211     2.7197
 5274.8490    -4.4685    13.0210    88.9860     2.7252
 5275.3490    -4.5003    13.3379    75.2223     2.7243
 5275.8490    -4.7249    13.5780    61.4585     2.7275
 5276.3490    -5.9250    13.0510    47.6948     2.7492
 5276.8490    -6.7383    12.1855    33.9310     2.7693
 5277.3490    -7.5971    11.3815    28.7177     2.7786
 5277.8490    -8.3270    10.7526    28.7375     2.7856
 5278.3490    -8.3361    10.3852    28.1332     2.7833
 5278.8490    -7.1254    10.3849    24.1181     2.7507
 5279.3490    -5.4347    10.3536    20.7231     2.7325
 5279.8490    -3.7440    10.3223    18.2306     2.7134
 5280.3490    -2.0526    10.2290    18.5882     2.6919
 5280.8490    -1.6461     9.9189    20.4645     2.6795
 5281.3490    -2.8313     8.6173    23.5811     2.6810
 5281.8490    -4.1995     7.9043    27.9380     2.7012
 5282.3490    -4.9151     7.4373    36.0159     2.7252
 5282.8490    -5.0712     7.6558    45.6442     2.7337
 5283.3490    -4.2639     8.3080    47.2104     2.7178
 5283.8490    -3.3459     9.6263    47.8464     2.7028
 5284.3490    -2.4206    10.9447    47.8213     2.6810
 5284.8490    -1.4952    11.8374    44.9796     2.6686
 5285.3490    -0.5062    11.8991    40.4521     2.6617
 5285.8490    -0.6002    11.0002    38.9215     2.6679
 5286.3490    -1.7295     9.6986    37.0769     2.6919
 5286.8490    -3.8443     9.2955    32.4416     2.7329
 5287.3490    -5.2333     9.1403    29.9768     2.7384
 5287.8490    -4.8612     9.5118    29.6819     2.7291
 5288.3490    -4.4888    10.3516    30.9388     2.7243
 5288.8490    -4.4585    11.3485    33.7717     2.7244
 5289.3490    -4.5526    12.1709    36.6927     2.7267
 5289.8490    -4.4912    12.6324    51.4554     2.7260
 5290.3490    -3.8408    13.1043    70.0719     2.7167
 5290.8490    -2.8000    13.4167    96.4762     2.6984
 5291.3490    -1.7591    14.0809   125.6128     2.6793
 5291.8490    -0.7183    14.3738   129.3496     2.6656
 5292.3490    -0.5789    14.0945   130.6018     2.6632
 5292.8490    -0.6107    13.5675   126.5906     2.6632
 5293.3490    -0.4252    12.8856   123.1956     2.6625
 5293.8490    -0.2083    12.6374   122.2812     2.6570
 5294.3490     0.1328    12.5442   120.7466     2.6501
 5294.8490     0.3496    12.6058   120.1423     2.6454
 5295.3490     0.2246    12.4816   119.8481     2.6470
 5295.8490     0.2549    12.5123   118.9337     2.6477
 5296.3490     0.5339    13.3794   116.7830     2.6416
 5296.8490     0.5331    13.9368   121.4500     2.6423
 5297.3490     0.3458    14.0296   126.4271     2.6454
 5297.8490     0.0653    13.8123   129.2336     2.6485
 5298.3490     0.0958    13.6261   130.1797     2.6493
 5298.8490     0.0327    13.8737   129.8855     2.6509
 5299.3490    -0.3099    14.0283   129.2811     2.6570
 5299.8490    -0.8390    13.8650   130.5669     2.6671
 5300.3490    -1.2438    13.2677   130.8685     2.6733
 5300.8490    -1.3697    12.5398   128.0968     2.6725
 5301.3490    -1.2452    12.2606   121.6042     2.6749
 5301.8490    -1.5168    12.6319   119.4478     2.6780
 5302.3490    -2.0861    13.2511   120.7119     2.6826
 5302.8490    -1.9169    13.4056   123.2115     2.6842
 5303.3490    -1.2322    12.8327   123.2305     2.6738
 5303.8490    -0.6395    12.2581   119.3582     2.6656
 5304.3490    -0.6118    12.1028   112.1104     2.6630
 5304.8490    -0.5225    13.1868   110.5742     2.6622
 5305.3490    -0.0292    13.8679   115.5592     2.6622
 5305.8490     0.1857    14.3632   122.3998     2.6622
 5306.3490    -0.1291    14.7346   124.2793     2.6576
 5306.8490    -0.3494    13.9595   120.8874     2.6514
 5307.3490     0.1129    12.6887   115.0678     2.6529
 5307.8490    -0.0148    11.8822   108.6569     2.6568
 5308.3490    -0.2357    11.1975   102.2460     2.6560
 5308.8490    -0.3944    11.3860    98.9478     2.6475
 5309.3490    -1.0193    12.4976    99.0133     2.6491
 5309.8490    -1.4888    14.0504   103.9277     2.6529
 5310.3490    -0.3429    15.6033   111.4126     2.6536
 5310.8490     0.2443    17.1562   112.6719     2.6575
 5311.3490     0.6761    18.7091   114.2412     2.6637
 5311.8490     0.3937    20.2765   116.7408     2.6761
 5312.3490     1.4660    21.9607   119.8606     2.6776
 5312.8490     3.0278    23.5279   120.4997     2.6660
 5313.3490     2.8380    23.8373   121.4489     2.6497
 5313.8490     3.6117    24.3325   123.6385     2.6435
 5314.3490     7.1831    25.6330   123.6574     2.6466
 5314.8490    14.1778    26.7793   122.1260     2.6381
 5315.3490    21.1724    26.9959   118.0185     2.6288
 5315.8490    24.0991    27.2122   112.3377     2.6148
 5316.3490    18.9212    27.5835   106.6570     2.6048
 5316.8490    13.7433    28.9181   101.7416     2.6071
 5317.3490    11.8561   -50.0006   100.2101     2.5730
 5317.8490    17.1101   -48.9787   100.2291     2.5489
 5318.3490    19.8615   -49.3510   100.5582     2.4534
 5318.8490    15.1383   -49.8472    98.4066     2.3580
