~Version Information
 VERS.                2.00:   CWLS log ASCII Standard -VERSION 2.00
 WRAP.                  NO:   One line per frame
~Well Information Block
#MNEM.UNIT              Data                Description
#--------- -------------------------------  -------------------------------
 STRT.F                          430.0000:   Starting Depth
 STOP.F                         5565.5000:   Ending Depth
 STEP.F                            0.5000:   Level Spacing
 NULL.                          -999.2500:   Absent Value
 COMP.     FLUOR DANIEL (NPOSR), INC.    :   Company
 WELL.     43-2 X 10                     :   Well
 FLD .                                   :   Field
 LOC .                                   :   Location
 CNTY.                                   :   County
 STAT.                                   :   State
 SRVC.                                   :   Service Company
 LIC .                                   :   License Number
 DATE.                                   :   Log Date
 API .                                   :   API Number
~Curve Information Block
#MNEM.UNIT       API Codes    Curve Description
#---------    -------------   -------------------------------
 DEPT.F        0   1  0  1:   Depth
 GR  .API      0 310  1  1:   Gamma ray counts
 CALX.         0   0  0  1:   N/A
 RS  .OHMM     0 220  9  1:   Logarithmic Resistivity from ES, IS
 RD  .OHMM     0 220 10  1:   Logarithmic Resistivity from ED, ID
 TEN .LBF      0 635 99  1:   Differential Tension
 ZDEN.G/C3     0 350  1  1:   ZDL Bulk Density
 PORZ.PU       0 890 99  1:   Porosity from ZDEN
 ZCOR.G/C3     0 356 99  1:   ZDL Correction
 PE  .BARN     0 995 99  1:   Photo Electric cross section
 CNCF.PU       0 995 99  1:   CNC corrected to Field Normalized transform
#  Curve Data
~A   DEPT        GR          CALX        RS          RD          TEN         ZDEN        PORZ        ZCOR        PE          CNCF
# ...
  1772.0000    119.3219      9.9338      6.2145      6.8836    -66.6026      2.5514      5.9738      0.0589      3.4626     29.3344
  1772.5000    118.5505      9.9279      6.3256      7.0942    -65.0547      2.5446      6.3884      0.0493      3.5223     31.0064
  1773.0000    123.3172      9.9227      6.3934      7.2738    -63.5773      2.5370      6.8514      0.0480      3.5091     30.3230
  1773.5000    127.1767      9.9213      6.4916      7.4475    -60.7352      2.5269      7.4605      0.0481      3.5310     28.0309
  1774.0000    125.5057      9.9222      6.6238      7.5953    -61.5697      2.5173      8.0440      0.0397      3.5760     27.2502
  1774.5000    123.9809      9.9217      6.7427      7.6697    -68.9123      2.5118      8.3768      0.0332      3.5365     28.4437
  1775.0000    127.4708      9.9203      6.8061      7.6434    -75.8998      2.5109      8.4287      0.0423      3.5215     29.8640
  1775.5000    133.6986      9.9197      6.8199      7.5551    -76.7987      2.5124      8.3422      0.0578      3.4233     29.7828
  1776.0000    139.4921      9.9199      6.8081      7.4561    -77.1792      2.5131      8.2941      0.0612      3.3461     28.2393
  1776.5000    142.1275      9.9194      6.7512      7.3060    -83.0802      2.5101      8.4775      0.0502      3.4189     27.0154
  1777.0000    141.3276      9.9187      6.6095      7.0406    -90.4829      2.5028      8.9201      0.0362      3.4094     27.6836
  1777.5000    140.9643      9.9182      6.4116      6.7183    -90.2296      2.4938      9.4638      0.0329      3.3727     30.4360
  1778.0000    141.1936      9.9178      6.2600      6.4921    -83.9191      2.4875      9.8492      0.0344      3.3705     33.9000
  1778.5000    139.3596      9.9167      6.2225      6.4207    -80.4984      2.4882      9.8050      0.0276      3.3943     35.4435
  1779.0000    138.0753      9.9157      6.2073      6.3198    -82.1757      2.4972      9.2578      0.0245      3.3838     34.3801
  1779.5000    140.4823      9.9151      5.9984      5.9221    -83.8511      2.5043      8.8298      0.0380      3.3654     32.7197
  1780.0000    144.1273      9.9136      5.5258      5.2687    -84.0561      2.4962      9.3182      0.0526      3.4136     33.4735
  1780.5000    147.1358      9.9114      5.0516      4.7351    -82.6288      2.4765     10.5151      0.0617      3.5057     37.6181
  1781.0000    154.0689      9.8950      4.8439      4.5306    -77.9426      2.4595     11.5436      0.0690      3.6469     41.8202
  1781.5000    168.5808      9.8419      4.8432      4.4923    -69.1689      2.4536     11.9018      0.0569      3.8449     41.2548
  1782.0000    185.4506      9.7701      4.8344      4.4122    -56.6975      2.4537     11.8946      0.0335      3.9658     37.5413
  1782.5000    194.4738      9.7231      4.7525      4.3004    -45.4270      2.4505     12.0923      0.0315      3.9982     36.2723
  1783.0000    194.2112      9.7065      4.7484      4.3639    -42.9214      2.4491     12.1749      0.0595      4.0589     37.7961
  1783.5000    195.0594      9.6927      5.1405      4.9042    -50.8070      2.4611     11.4499      0.0794      4.0720     37.1202
  1784.0000    198.4054      9.6757      6.2060      6.0582    -60.8399      2.4802     10.2935      0.0737      4.0732     33.6353
  1784.5000    194.4481      9.6623      7.7350      7.4763    -65.3569      2.4883      9.8022      0.0553      4.3339     31.9667
  1785.0000    184.6961      9.6555      9.0955      8.5956    -67.8692      2.4796     10.3297      0.0510      4.6882     33.4075
  1785.5000    183.4388      9.6528      9.9047      9.2317    -73.2634      2.4622     11.3818      0.0547      4.8542     34.9841
  1786.0000    190.9161      9.6524     10.3320      9.6454    -78.0803      2.4502     12.1068      0.0516      4.7819     35.0417
  1786.5000    192.3888      9.6544     10.7391     10.1152    -78.7708      2.4471     12.2957      0.0433      4.5877     35.1278
  1787.0000    185.4293      9.6567     11.2932     10.6767    -75.4131      2.4421     12.6005      0.0374      4.4182     35.1911
  1787.5000    176.6829      9.6583     11.8655     11.1575    -69.3675      2.4327     13.1713      0.0363      4.4522     34.4736
  1788.0000    173.6616      9.6595     12.2090     11.3818    -64.5211      2.4298     13.3433      0.0382      4.6382     34.2280
  1788.5000    176.4005      9.6602     12.2466     11.3449    -65.2197      2.4360     12.9726      0.0331      4.8265     35.3540
  1789.0000    182.3330      9.6603     12.1082     11.1911    -71.7873      2.4429     12.5510      0.0290      4.9619     35.6699
  1789.5000    188.6482      9.6617     11.9884     11.0862    -80.1874      2.4460     12.3646      0.0350      4.8054     34.9866
  1790.0000    194.1745      9.6642     11.9527     11.0390    -83.5768      2.4487     12.1995      0.0430      4.3668     34.9010
  1790.5000    200.0007      9.6676     11.8854     10.9197    -83.5696      2.4530     11.9403      0.0471      3.9996     34.4712
  1791.0000    207.8620      9.6734     11.7182     10.7049    -91.1774      2.4536     11.9014      0.0547      3.8012     33.6025
  1791.5000    212.3628      9.6797     11.5756     10.5516   -105.3951      2.4461     12.3595      0.0554      3.8010     34.1096
  1792.0000    206.5792      9.6828     11.6208     10.6139   -112.4126      2.4385     12.8181      0.0448      3.9022     35.2512
  1792.5000    195.4826      9.6806     11.9166     10.9146   -103.9441      2.4382     12.8381      0.0381      4.1147     34.3924
  1793.0000    191.8648      9.6725     12.3767     11.3106    -86.8901      2.4396     12.7507      0.0444      4.1963     32.1459
  1793.5000    196.2434      9.6587     12.7727     11.6089    -76.2832      2.4349     13.0342      0.0516      4.2345     31.2500
  1794.0000    202.9226      9.6436     12.9770     11.7861    -83.3430      2.4248     13.6502      0.0450      4.3634     31.7744
  1794.5000    204.6843      9.6316     13.1138     11.9844   -103.5381      2.4155     14.2151      0.0331      4.5554     31.8204
  1795.0000    196.7764      9.6231     13.3543     12.2927   -119.9184      2.4118     14.4389      0.0360      4.5644     30.3398
  1795.5000    182.0110      9.6166     13.7147     12.6577   -119.7655      2.4107     14.5055      0.0488      4.5715     29.0426
  1796.0000    170.9842      9.6126     14.0534     12.9391   -107.7258      2.4054     14.8248      0.0453      4.5817     29.6036
  1796.5000    166.2956      9.6122     14.1888     13.0220    -97.0721      2.3996     15.1773      0.0284      4.5585     31.7978
  1797.0000    162.6177      9.6115     14.0773     12.9175    -97.3172      2.4023     15.0128      0.0219      4.5245     33.2924
  1797.5000    158.9224      9.6036     13.7817     12.6542   -107.9510      2.4122     14.4134      0.0279      4.5139     32.4903
  1798.0000    157.7198      9.5876     13.2665     12.1835   -116.8914      2.4214     13.8570      0.0360      4.5083     31.0500
  1798.5000    157.4828      9.5724     12.5853     11.6159   -111.1302      2.4274     13.4911      0.0401      4.4716     30.9771
  1799.0000    157.2914      9.5662     12.0347     11.2388    -97.7178      2.4327     13.1698      0.0369      4.4227     31.9460
  1799.5000    159.4840      9.5660     11.8552     11.2224    -94.8987      2.4390     12.7901      0.0349      4.3801     31.7719
  1800.0000    162.1791      9.5619     12.0600     11.5248   -105.2371      2.4473     12.2870      0.0458      4.3401     29.5889
  1800.5000    160.5229      9.5507     12.4464     11.9137   -115.4853      2.4587     11.5963      0.0636      4.2951     28.5253
  1801.0000    155.1565      9.5376     12.6803     12.0891   -112.2768      2.4656     11.1765      0.0637      4.2622     29.9451
  1801.5000    149.0852      9.5291     12.5631     11.9328    -89.6239      2.4634     11.3067      0.0427      4.2354     31.4932
  1802.0000    140.4047      9.5266     12.1379     11.5138    -58.8239      2.4636     11.2998      0.0276      4.1633     31.9196
