~VERSION INFORMATION
 VERS.               2.10:   CWLS LOG ASCII STANDARD - VERSION 2.10
 WRAP.                 NO:   ONE LINE PER DEPTH STEP
~WELL INFORMATION
#MNEM.UNIT      DATA TYPE    INFORMATION
#----------   ------------   ------------------------------
 STRT.F         2400.0405:   START DEPTH
 STOP.F         5534.6855:   STOP DEPTH
 STEP.F            0.5000:   STEP LENGTH
 NULL.          -999.2500:   NO VALUE
 COMP. Fluor Daniel (NPOSR), Inc.:   COMPANY
 WELL.         43-2TPX-10:   WELL
 FLD .           N.P.R. 3:   FIELD
 LOC . 10-38N-78W-NATRONA-WY:   LOCATION
 STAT.                 WY:   STATE
 COUN.            Natrona:   COUNTY
 SRVC.      Western Atlas:   SERVICE COMPANY
 DATE.                   :   LOGDATE
 APIN.         4902522843:   API NUMBER
~CURVE INFORMATION
#MNEM.UNIT       API CODE    CURVE DESCRIPTION
#----------   ------------   ------------------------------
 DEPT.F                  :
 LLD .ohm.m  11 220 04 00:   Dual Laterolog, Deep
 LLS .ohmm   11 220 06 00:   Dual Laterolog, shallow
 GR  .GAPI   06 310 01 00:   Gamma Ray
 SP  .mV     06 010 01 00:   Spontaneous Potential
~PARAMETER INFORMATION
#MNEM.UNIT          VALUE    DESCRIPTION
#----------   ------------   ------------------------------
 EKB .F         5209.0000:   Kelly bushing
 EGL .F         5199.0000:   Ground level
 EDF .F         5208.0000:   Drilling floor
 EPD .F           10.0000:   Permanent datum
 TD  .F         5230.0000:   Total depth
 NRUN.             1.0000:   Number of Runs
#--RUN 1---   ------------   The following are for Run 1---
 RUN .             1.0000:   Run 1
 DATE.mm/dd/yyyy 02/13/1997:   Date Logged
 DD  .ft             5540:   Depth Driller
 DL  .ft             5541:   Depth Logger
 BLI .ft             5535:   Bottom Log Interval
 TLI .ft             2400:   Top Log Interval
 CSS .inch          9.625:   Casing Size
 CTD1.ft              439:   Casing Driller 1
 CTL1.ft              436:   Casing Logger 1
 BS  .inch           8.75:   Bit Size
 DFT .          Gel/ Chem:   Type Fluid In Hole
 DFD .lb/gal          9.6:   Mud Weight
 DFV .sec              50:   Viscosity
 DFPH.                9.5:   pH
 DFL .cc                8:   Fluid Loss
 WSS .               tank:   Source Of Sample
 RM  .ohmm            .68:   Rm
 EMT .F                94:   Rm Meas. Temp.
 RMF .ohmm            .51:   Rmf
 MFT .F                94:   Rmf Meas. Temp.
 RMC .ohmm            .95:   Rmc
 MCST.F                94:   Rmc Meas. Temp.
 MFSS.              calc.:   Source Rmf.
 MCSS.              calc.:   Source Rmc.
 RMB .ohmm            .38:   Rm. At BHT
 BHT .F               168:   BHT.
 TCS .hh:mm         6 hrs:   Time Circ. Stopped
 MRT .F               168:   Maximum Recorded Temp.
 LUL .          Rk. Spgs.:   Logging Unit Location
 ENGI.               Rall:   Recorded By
 WITN.      Lebeau/ Hardy:   Witnessed By
 DGBY.              Burke:   Digitized By
~OTHER INFORMATION
# RIG FUEL PUMP CAUSING SPURRIOUS ANOMILIES ON S.P.
~A  DEPTH      LLD        LLS         GR         SP
# ...
 2619.0410    15.7831    17.0269    90.2408    66.6254
 2619.5410    15.4484    16.4395    89.9425    66.4711
 2620.0410    15.4478    16.3192    89.6407    65.8506
 2620.5410    15.6890    16.6598    89.3459    65.6967
 2621.0410    16.2376    17.0104    88.7321    65.8542
 2621.5410    16.4705    16.8843    89.3733    66.3224
 2622.0410    16.3527    16.8787    89.6990    66.1684
 2622.5410    16.3522    16.9934    90.6488    66.1610
 2623.0410    16.5866    17.3481    90.0280    66.1717
 2623.5410    17.1883    17.7134    87.8280    65.8625
 2624.0410    17.6853    18.0979    86.9458    65.7086
 2624.5410    18.0745    18.5921    88.2110    65.7102
 2625.0410    18.7450    18.9802    89.1607    65.8669
 2625.5410    18.9911    19.1092    85.7423    65.5575
 2626.0410    18.9903    19.3716    84.1925    65.4035
 2626.5410    18.7206    19.5033    84.8337    66.4942
 2627.0410    17.5558    18.9549    87.3435    67.5844
 2627.5410    16.0002    18.0393    92.9734    67.5693
 2628.0410    15.4390    17.1679    96.1073    67.2766
 2628.5410    15.2197    16.5696    98.3308    67.1226
 2629.0410    15.4430    16.4483    98.2099    66.3470
 2629.5410    16.1306    17.0292    91.7837    65.8820
 2630.0410    16.9369    17.8816    89.6133    65.7277
 2630.5410    17.1798    18.5148    88.0669    65.2627
 2631.0410    17.5509    18.6406    84.0245    65.4203
 2631.5410    18.1875    19.1639    80.9181    65.8884
 2632.0410    18.5803    19.8424    78.4357    65.7261
 2632.5410    18.4476    19.8358    77.7749    65.5806
 2633.0410    18.3158    19.5524    81.5833    65.5825
 2633.5410    18.5879    19.6838    84.1025    65.7397
 2634.0410    19.6894    20.6674    83.7560    66.2078
 2634.5410    20.6752    21.3991    76.0116    66.3649
 2635.0410    20.6744    21.5446    77.5854    66.3665
 2635.5410    20.3808    20.5022    80.7192    66.2122
 2636.0410    18.1816    18.7064    85.1011    66.2142
 2636.5410    17.1724    17.3095    86.3629    66.2158
 2637.0410    15.8757    17.2907    87.3126    66.2174
 2637.5410    15.8657    17.5427    88.2590    66.2193
 2638.0410    16.6937    18.1909    85.1560    66.2209
 2638.5410    17.2929    19.2059    83.6096    66.6891
 2639.0410    17.0893    18.7275    87.3898    66.5348
 2639.5410    16.8052    17.7657    92.3757    66.5368
 2640.0410    16.1004    17.3894    92.0774    66.2273
 2640.5410    15.5357    17.3836    90.2190    65.9178
 2641.0410    15.5373    17.5018    89.6053    65.7639
 2641.5410    15.9843    17.5310    91.4945    65.7655
 2642.0410    15.7572    16.8850    93.0683    65.9463
 2642.5410    15.3133    16.5196    92.4353    66.2356
 2643.0410    15.2039    16.4061    85.7404    65.9262
 2643.5410    16.5623    16.9856    75.3928    65.7719
 2644.0410    18.3014    19.1339    65.0452    65.7739
 2644.5410    19.5143    20.0917    56.8702    65.9310
 2645.0410    19.8083    20.5145    59.0922    66.2436
 2645.5410    18.0355    18.1975    70.0878    66.0896
 2646.0410    16.0721    15.5010    81.0834    66.2468
 2646.5410    14.1087    13.8266    91.7897    66.4192
 2647.0410    12.4459    12.8843    95.0832    67.0280
 2647.5410    11.9156    12.1761    96.9690    67.4961
 2648.0410    11.5070    11.8347   102.2869    67.1863
 2648.5410    11.1829    11.5007   104.7968    67.1883
 2649.0410    10.1920    10.7763   106.0585    67.1899
 2649.5410     9.8345    10.4910   106.0722    67.5025
 2650.0410     9.7643    10.5624   106.0860    67.5041
 2650.5410     9.8340    10.4840   106.0997    67.0391
 2651.0410     9.8335    10.4805   106.4323    66.4118
 2651.5410     9.8332    10.4770   108.0718    65.9536
 2652.0410     9.6862    10.3274   109.5764    65.7997
 2652.5410     9.2870    10.1087   110.8382    65.3352
 2653.0410     9.2206     9.8253   109.9158    65.1808
 2653.5410     9.1547     9.6117   108.3695    65.6494
 2654.0410     9.2201     9.5458   108.0678    66.4286
 2654.5410     9.4191     9.8146   106.8368    66.4302
 2655.0410    10.1153    10.8254    97.0849    66.2762
 2655.5410    13.0828    12.7196    86.1272    65.6557
 2656.0410    16.2286    17.0795    73.8070    65.6287
 2656.5410    18.4543    18.5757    70.0765    64.8813
 2657.0410    18.9485    17.9285    70.7143    65.0388
 2657.5410    16.4281    16.5896    74.4721    65.1959
 2658.0410    14.2431    14.4997    77.6060    65.6641
 2658.5410    14.0409    14.0060    77.9317    65.8212
 2659.0410    14.2422    14.1985    75.4493    65.9783
 2659.5410    14.5498    14.2950    70.7828    66.4465
 2660.0410    14.3431    13.4135    70.8583    66.6036
 2660.5410    13.3550    12.6762    80.4204    65.8217
 2661.0410    12.0778    12.1489    86.1160    65.5181
 2661.5410    11.7447    11.8916    88.9378    65.0535
 2662.0410    11.9130    12.0558    90.8236    65.0551
 2662.5410    12.1704    12.3085    90.8373    64.9012
 2663.0410    12.1699    12.2952    91.1631    62.8186
 2663.5410    11.4944    11.2257    94.2969    55.5632
 2664.0410    10.3275    10.2425   100.4791    51.5313
 2664.5410     9.5193     9.5764   110.9988    53.5547
 2665.0410     8.6581     8.8119   121.5133    65.9978
 2665.5410     7.7968     8.0474   126.2459    66.4660
 2666.0410     6.7784     7.2830   129.3143    65.2238
 2666.5410     6.2220     6.4766   134.3202    65.0695
 2667.0410     5.8766     6.0352   130.5898    65.0714
 2667.5410     6.0036     5.9909   126.8594    65.2286
 2668.0410     6.2214     6.1596   122.8169    65.5412
 2668.5410     6.4013     6.3777   122.2032    65.8538
 2669.0410     6.5395     6.6970   125.9645    66.3220
 2669.5410     6.7767     6.8046   126.9142    66.7901
 2670.0410     7.8307     7.7558   121.6891    67.5693
 2670.5410     9.1904     8.9228   111.3945    67.8820
 2671.0410    10.5456    10.4842    99.8126    67.2619
 2671.5410    11.2445    11.1647    97.3302    66.9524
 2672.0410    11.0848    10.8517    98.5919    66.0209
 2672.5410    10.5445    10.4004   100.1657    66.0225
 2673.0410     9.8181     9.9677   102.9875    66.0241
 2673.5410     9.4737     9.8937   103.3133    66.0257
 2674.0410     9.8174     9.5418   102.6851    65.8717
 2674.5410    10.4724     9.9569   101.4686    65.5623
 2675.0410    10.9255    10.5291   100.8583    65.5639
 2675.5410    11.0034    10.8255   101.1875    65.7214
 2676.0410    11.2409    11.0533   103.3853    66.0340
 2676.5410    11.1606    10.9714   104.9591    65.8797
 2677.0410    10.2445    10.0810   106.8448    65.7262
 2677.5410     9.2045     8.8805   109.3547    65.4163
 2678.0410     8.2113     8.2173   111.2404    65.5738
 2678.5410     8.0911     7.9311   110.9422    66.0420
 2679.0410     8.8965     9.1881   106.5853    66.5101
 2679.5410     9.7073    10.2058   106.2894    66.6672
 2680.0410    10.1696    10.6416   105.9911    66.1406
 2680.5410     9.9538    10.2709   105.0722    64.9601
 2681.0410     9.4686     9.8436   106.0220    64.8057
 2681.5410     9.1365     9.5677   111.0279    65.7409
 2682.0410     9.0712     9.3650   115.0977    66.5201
 2682.5410     9.0709     9.5613   116.3595    66.9882
 2683.0410     9.4000     9.9054   110.1330    66.9898
 2683.5410     9.9572    10.4167   107.0266    66.6804
 2684.0410    10.4085    10.9148   103.2961    66.0599
 2684.5410    10.6869    11.0665   102.0618    65.9059
 2685.0410    10.8401    10.7553   102.7467    66.3745
 2685.5410    10.6861    10.6765   103.3407    66.6871
 2686.0410    10.3113    10.6729   103.3544    66.5328
 2686.5410    10.0926    10.6694   103.6801    66.2233
 2687.0410     9.9492    10.5911   104.9419    65.4477
 2687.5410     9.8080    10.2221   106.8277    65.2934
 2688.0410     8.9371     9.5783   108.7135    65.4509
 2688.5410     8.4867     9.1285   109.6632    65.7635
 2689.0410     8.1465     8.8726   109.0529    66.2317
 2689.5410     8.3820     8.9321   107.5031    65.7667
 2690.0410     8.8741     9.2484   104.3694    64.9911
 2690.5410     9.3949     9.5758   103.1658    64.8368
 2691.0410     9.5297     9.9848   104.7430    64.9943
 2691.5410     9.5293    10.0519   105.6928    65.3069
