~Version Information
 VERS.                2.00:   CWLS log ASCII Standard -VERSION 2.00
 WRAP.                  NO:   One line per frame
~Well Information Block
#MNEM.UNIT              Data                Description
#--------- -------------------------------  -------------------------------
 STRT.F                          430.0000:   Starting Depth
 STOP.F                         5565.5000:   Ending Depth
 STEP.F                            0.5000:   Level Spacing
 NULL.                          -999.2500:   Absent Value
 COMP.     FLUOR DANIEL (NPOSR), INC.    :   Company
 WELL.     43-2 X 10                     :   Well
 FLD .                                   :   Field
 LOC .                                   :   Location
 CNTY.                                   :   County
 STAT.                                   :   State
 SRVC.                                   :   Service Company
 LIC .                                   :   License Number
 DATE.                                   :   Log Date
 API .                                   :   API Number
~Curve Information Block
#MNEM.UNIT       API Codes    Curve Description
#---------    -------------   -------------------------------
 DEPT.F        0   1  0  1:   Depth
 GR  .API      0 310  1  1:   Gamma ray counts
 CALX.         0   0  0  1:   N/A
 RS  .OHMM     0 220  9  1:   Logarithmic Resistivity from ES, IS
 RD  .OHMM     0 220 10  1:   Logarithmic Resistivity from ED, ID
 TEN .LBF      0 635 99  1:   Differential Tension
 ZDEN.G/C3     0 350  1  1:   ZDL Bulk Density
 PORZ.PU       0 890 99  1:   Porosity from ZDEN
 ZCOR.G/C3     0 356 99  1:   ZDL Correction
 PE  .BARN     0 995 99  1:   Photo Electric cross section
 CNCF.PU       0 995 99  1:   CNC corrected to Field Normalized transform
#  Curve Data
~A   DEPT        GR          CALX        RS          RD          TEN         ZDEN        PORZ        ZCOR        PE          CNCF
# ...
   765.5000     96.9346      9.9310      6.3342      7.7028    -78.1020      2.5248      7.5895      0.0650      2.8765     30.2008
   766.0000     96.0272      9.9299      6.3039      7.6728    -84.0608      2.5309      7.2209      0.0705      2.8767     32.6076
   766.5000     94.7735      9.9289      6.2620      7.6415    -82.8634      2.5261      7.5088      0.0636      2.9292     34.7918
   767.0000     93.6955      9.9278      6.2356      7.6242    -76.9263      2.5151      8.1786      0.0544      3.0163     34.9235
   767.5000     96.3081      9.9282      6.2502      7.6516    -69.8908      2.5097      8.5008      0.0567      3.0998     33.2727
   768.0000    100.7767      9.9283      6.2600      7.6448    -67.5049      2.5082      8.5911      0.0681      3.1985     30.7809
   768.5000    101.9735      9.9259      6.0826      7.3295    -71.7134      2.5004      9.0653      0.0690      3.3377     28.2138
   769.0000     99.7490      9.9239      5.5807      6.5910    -76.0287      2.4832     10.1077      0.0573      3.3854     27.3634
   769.5000     97.2915      9.9243      4.9450      5.7797    -75.2155      2.4599     11.5185      0.0484      3.3819     28.7359
   770.0000     94.1066      9.9216      4.5317      5.3565    -71.2657      2.4424     12.5821      0.0481      3.3640     31.6046
   770.5000     90.6763      9.9094      4.5222      5.4899    -66.1714      2.4426     12.5723      0.0455      3.3131     34.2406
   771.0000     89.0853      9.8933      4.9036      6.0844    -60.8480      2.4590     11.5782      0.0413      3.2228     34.1016
   771.5000     89.3392      9.8827      5.4795      6.7969    -60.9466      2.4806     10.2683      0.0481      3.0928     32.1396
   772.0000     90.3708      9.8768      5.9242      7.2358    -66.9305      2.4991      9.1425      0.0567      2.9743     31.2420
   772.5000     91.1835      9.8691      6.0969      7.3538    -72.2781      2.5105      8.4533      0.0553      2.9234     31.1082
   773.0000     91.6157      9.8604      6.1179      7.3559    -75.2898      2.5091      8.5399      0.0494      2.9146     30.8375
   773.5000     92.5301      9.8555      6.1041      7.3465    -77.0467      2.4980      9.2108      0.0392      2.9002     31.5113
   774.0000     93.6514      9.8553      6.0874      7.3431    -78.3684      2.4931      9.5113      0.0314      3.0927     33.9325
   774.5000     93.7755      9.8557      6.0831      7.3660    -79.5474      2.4989      9.1585      0.0364      3.1699     37.4129
   775.0000     93.2750      9.8554      6.0948      7.4121    -78.7289      2.5007      9.0515      0.0477      3.1837     39.1196
   775.5000     93.2241      9.8564      6.1079      7.4448    -74.9112      2.4916      9.5984      0.0565      3.2120     36.8520
   776.0000     93.3661      9.8599      6.0966      7.4197    -74.5384      2.4850      9.9971      0.0613      3.2142     33.9277
   776.5000     93.9547      9.8644      6.0474      7.3377    -76.0345      2.4914      9.6137      0.0620      3.1962     33.6494
   777.0000     95.3462      9.8663      5.9942      7.2786    -71.7236      2.5009      9.0362      0.0610      3.1934     34.5511
   777.5000     97.3177      9.8623      6.0078      7.3363    -65.7292      2.5009      9.0338      0.0621      3.2123     34.6380
   778.0000     98.0279      9.8552      6.1207      7.5147    -65.2553      2.4950      9.3952      0.0652      3.2231     34.2169
   778.5000     96.6925      9.8499      6.2752      7.6987    -66.0422      2.4935      9.4875      0.0737      3.2044     33.2064
   779.0000     96.1573      9.8485      6.3493      7.7193    -66.9256      2.4961      9.3248      0.0769      3.1733     31.3028
   779.5000     96.5033      9.8515      6.2803      7.5636    -72.2397      2.4979      9.2180      0.0669      3.1984     29.6568
   780.0000     96.4706      9.8561      6.2072      7.4927    -77.1102      2.5019      8.9743      0.0618      3.2228     28.8719
   780.5000     95.9732      9.8563      6.3356      7.7369    -76.4807      2.5157      8.1395      0.0763      3.0862     28.4471
   781.0000     94.9497      9.8530      6.6522      8.1779    -76.6822      2.5362      6.8942      0.0841      3.0469     28.0120
   781.5000     92.0450      9.8551      6.9419      8.4826    -78.2790      2.5498      6.0698      0.0627      3.0145     28.1739
   782.0000     91.0651      9.8656      6.9813      8.3999    -75.6232      2.5494      6.0948      0.0347      2.9616     28.6242
   782.5000     94.5498      9.8771      6.7380      8.0109    -74.4738      2.5402      6.6551      0.0290      2.9361     28.8153
   783.0000     98.2957      9.8823      6.4441      7.6822    -81.2914      2.5280      7.3951      0.0420      2.9329     28.8670
   783.5000     98.0708      9.8830      6.3683      7.6859    -88.3163      2.5151      8.1735      0.0542      2.9081     28.5676
   784.0000     95.4864      9.8840      6.5445      7.9635    -89.3480      2.5036      8.8740      0.0567      2.8680     27.4989
   784.5000     93.5666      9.8849      6.8311      8.3246    -90.5808      2.4933      9.4966      0.0523      2.8461     26.8035
   785.0000     93.0549      9.8827      7.0977      8.6443    -93.2597      2.4853      9.9836      0.0488      2.8551     26.9308
   785.5000     93.9664      9.8758      7.2826      8.8758    -89.4938      2.4859      9.9468      0.0489      2.8435     27.7303
   786.0000     95.9045      9.8682      7.3925      9.0175    -84.3346      2.4965      9.3048      0.0530      2.7734     28.8909
   786.5000     97.9781      9.8633      7.4675      9.1039    -89.0261      2.5090      8.5432      0.0570      2.7168     29.1502
   787.0000     96.7487      9.8595      7.5644      9.2220    -95.9066      2.5211      7.8111      0.0552      2.7034     28.4897
   787.5000     92.6511      9.8546      7.7032      9.4069    -94.5374      2.5334      7.0682      0.0619      2.6948     28.3042
   788.0000     89.7524      9.8500      7.8320      9.5706    -94.8108      2.5361      6.9004      0.0704      2.6662     28.6402
   788.5000     90.4278      9.8471      7.8787      9.5914   -101.6720      2.5283      7.3757      0.0658      2.6615     29.4156
   789.0000     92.5942      9.8465      7.8129      9.4537   -103.4540      2.5230      7.6948      0.0604      2.6719     30.5467
   789.5000     93.5471      9.8466      7.6823      9.2604    -98.4214      2.5242      7.6249      0.0663      2.6025     30.9229
   790.0000     90.7487      9.8459      7.5769      9.1275    -97.4491      2.5232      7.6861      0.0678      2.5552     30.4045
   790.5000     87.4140      9.8447      7.5423      9.0722   -100.5748      2.5171      8.0546      0.0659      2.4925     30.6266
   791.0000     88.6711      9.8439      7.5458      9.0342    -96.3138      2.5105      8.4541      0.0772      2.4370     31.6578
   791.5000     93.2475      9.8434      7.5307      8.9587    -88.4864      2.5095      8.5172      0.0914      2.3937     32.2228
   792.0000     96.4937      9.8431      7.4571      8.8215    -89.8037      2.5126      8.3276      0.0882      2.3122     31.0617
   792.5000     95.5468      9.8417      7.3336      8.6438    -98.0703      2.5113      8.4039      0.0681      2.5058     29.6925
   793.0000     90.6526      9.8390      7.2184      8.4888   -100.6108      2.5024      8.9466      0.0490      2.9649     29.6175
   793.5000     87.2789      9.8376      7.1586      8.4132    -97.8971      2.4958      9.3484      0.0429      3.2037     30.7206
   794.0000     89.9929      9.8384      7.1639      8.4265    -97.4432      2.5008      9.0440      0.0504      3.2252     31.7736
   794.5000     95.1815      9.8409      7.2180      8.4951    -96.1591      2.5083      8.5883      0.0613      3.1868     33.2677
   795.0000     97.9681      9.8427      7.2759      8.5484    -91.2962      2.5064      8.7026      0.0636      3.1437     34.8995
   795.5000     99.0154      9.8423      7.2852      8.5327    -89.6923      2.5003      9.0754      0.0604      3.0665     34.4175
