~Version Information
 VERS.                2.00:   CWLS log ASCII Standard -VERSION 2.00
 WRAP.                  NO:   One line per frame
~Well Information Block
#MNEM.UNIT              Data                Description
#--------- -------------------------------  -------------------------------
 STRT.F                          430.0000:   Starting Depth
 STOP.F                         5565.5000:   Ending Depth
 STEP.F                            0.5000:   Level Spacing
 NULL.                          -999.2500:   Absent Value
 COMP.     FLUOR DANIEL (NPOSR), INC.    :   Company
 WELL.     43-2 X 10                     :   Well
 FLD .                                   :   Field
 LOC .                                   :   Location
 CNTY.                                   :   County
 STAT.                                   :   State
 SRVC.                                   :   Service Company
 LIC .                                   :   License Number
 DATE.                                   :   Log Date
 API .                                   :   API Number
~Curve Information Block
#MNEM.UNIT       API Codes    Curve Description
#---------    -------------   -------------------------------
 DEPT.F        0   1  0  1:   Depth
 GR  .API      0 310  1  1:   Gamma ray counts
 CALX.         0   0  0  1:   N/A
 RS  .OHMM     0 220  9  1:   Logarithmic Resistivity from ES, IS
 RD  .OHMM     0 220 10  1:   Logarithmic Resistivity from ED, ID
 TEN .LBF      0 635 99  1:   Differential Tension
 ZDEN.G/C3     0 350  1  1:   ZDL Bulk Density
 PORZ.PU       0 890 99  1:   Porosity from ZDEN
 ZCOR.G/C3     0 356 99  1:   ZDL Correction
 PE  .BARN     0 995 99  1:   Photo Electric cross section
 CNCF.PU       0 995 99  1:   CNC corrected to Field Normalized transform
#  Curve Data
~A   DEPT        GR          CALX        RS          RD          TEN         ZDEN        PORZ        ZCOR        PE          CNCF
# ...
  1101.0000     94.1121      9.7427      8.6391      9.1387    -96.5715      2.5236      7.6635      0.0526      3.2149     27.6910
  1101.5000     95.2427      9.7418      8.4843      8.9776    -94.7710      2.5248      7.5873      0.0478      3.2201     29.0234
  1102.0000     95.7425      9.7426      8.4188      8.9455    -93.9237      2.5353      6.9527      0.0498      3.2280     29.6850
  1102.5000     96.4036      9.7435      8.4157      8.9728    -94.6756      2.5420      6.5434      0.0583      3.2181     28.9889
  1103.0000     97.7000      9.7436      8.4417      9.0094    -95.4568      2.5403      6.6503      0.0610      3.1936     27.1729
  1103.5000     98.1980      9.7426      8.4822      9.0345    -94.4979      2.5338      7.0428      0.0592      3.1814     25.9317
  1104.0000     97.1346      9.7415      8.5218      9.0576    -90.3049      2.5266      7.4759      0.0611      3.1760     25.9845
  1104.5000     95.1559      9.7413      8.6116      9.1657    -77.0437      2.5256      7.5420      0.0707      3.1567     26.3920
  1105.0000     92.5055      9.7425      8.7818      9.3625    -62.4757      2.5334      7.0669      0.0827      3.1190     26.4515
  1105.5000     88.9776      9.7426      8.9189      9.4928    -63.0308      2.5435      6.4523      0.0844      3.1412     26.0093
  1106.0000     85.9646      9.7418      8.9138      9.4587    -73.3357      2.5501      6.0550      0.0768      3.2112     24.5565
  1106.5000     86.4326      9.7418      8.7781      9.2961    -77.4245      2.5535      5.8461      0.0724      3.0691     23.1156
  1107.0000     87.8267      9.7416      8.5580      9.0532    -76.0794      2.5520      5.9403      0.0731      2.9985     23.7081
  1107.5000     85.8055      9.7404      8.3206      8.8070    -73.9963      2.5417      6.5615      0.0597      3.0810     26.2264
  1108.0000     84.0199      9.7408      8.1738      8.6517    -68.0197      2.5300      7.2722      0.0418      3.0816     28.5585
  1108.5000     86.8413      9.7425      8.1363      8.5771    -60.9768      2.5250      7.5728      0.0466      3.0606     29.5321
  1109.0000     89.9253      9.7427      8.1381      8.5478    -59.8041      2.5239      7.6419      0.0650      3.0322     29.1987
  1109.5000     90.1743      9.7430      8.1701      8.5979    -58.1475      2.5209      7.8235      0.0688      3.0401     28.0189
  1110.0000     90.4682      9.7454      8.2771      8.7473    -47.6011      2.5176      8.0271      0.0603      3.0740     27.0778
  1110.5000     90.0711      9.7466      8.4287      8.9132    -39.5904      2.5174      8.0378      0.0606      3.0314     27.3072
  1111.0000     88.2813      9.7443      8.4981      8.9481    -43.9797      2.5170      8.0584      0.0697      2.9624     27.9039
  1111.5000     89.1288      9.7424      8.4031      8.7885    -48.1125      2.5109      8.4313      0.0752      2.9556     28.0824
  1112.0000     93.8862      9.7430      8.2024      8.5503    -42.1395      2.5052      8.7761      0.0786      2.9403     27.9996
  1112.5000     97.9175      9.7425      8.0457      8.4254    -33.3651      2.5092      8.5316      0.0839      2.6708     28.3010
  1113.0000    100.3670      9.7411      8.0442      8.4902    -27.6606      2.5175      8.0307      0.0843      2.5796     28.1664
  1113.5000     99.8076      9.7420      8.1684      8.6418    -27.8661      2.5192      7.9245      0.0716      2.6650     27.0461
  1114.0000     94.9578      9.7426      8.2819      8.7284    -34.0745      2.5206      7.8442      0.0611      2.7481     26.6496
  1114.5000     90.7490      9.7409      8.2978      8.7069    -39.9561      2.5268      7.4638      0.0702      2.8070     28.2810
  1115.0000     92.6588      9.7407      8.2471      8.6515    -43.9540      2.5233      7.6771      0.0808      2.8007     31.3166
  1115.5000     97.4471      9.7431      8.2038      8.6418    -50.3877      2.5089      8.5505      0.0784      2.8476     33.4651
  1116.0000    101.7555      9.7441      8.2202      8.6903    -54.6068      2.5055      8.7547      0.0726      2.9092     33.2457
  1116.5000    104.5848      9.7424      8.2924      8.7523    -49.6395      2.5164      8.0970      0.0609      2.9018     31.0675
  1117.0000    103.1250      9.7417      8.3716      8.7942    -43.8593      2.5193      7.9215      0.0415      2.8403     29.6914
  1117.5000     97.7736      9.7423      8.4046      8.7883    -48.5615      2.5100      8.4838      0.0357      2.8419     29.9825
  1118.0000     92.3456      9.7416      8.3396      8.6885    -56.1707      2.5046      8.8131      0.0437      2.7472     29.9881
  1118.5000     90.3455      9.7432      8.1863      8.5170    -53.3272      2.5078      8.6200      0.0532      2.4404     28.5193
  1119.0000     93.2840      9.7501      8.0235      8.3650    -46.0216      2.5128      8.3172      0.0738      2.4081     27.3130
  1119.5000     97.9982      9.7533      7.9229      8.3050    -49.8398      2.5144      8.2181      0.0892      2.3379     27.2685
  1120.0000     99.0651      9.7478      7.9258      8.3505    -59.4124      2.5138      8.2538      0.0795      2.4889     27.6541
  1120.5000     98.4423      9.7428      8.0053      8.4386    -54.1947      2.5114      8.4001      0.0605      2.8688     27.5575
  1121.0000     98.6658      9.7432      8.0709      8.4865    -30.0603      2.5101      8.4777      0.0529      3.0243     26.5060
  1121.5000     98.9002      9.7438      8.1060      8.5063     -7.9532      2.5158      8.1305      0.0565      2.9112     25.4828
  1122.0000     98.4850      9.7439      8.1628      8.5572     -9.3192      2.5261      7.5106      0.0654      2.6911     26.4880
  1122.5000     97.5032      9.7449      8.2278      8.6408    -29.6939      2.5296      7.2985      0.0680      2.5235     29.8292
  1123.0000     94.0250      9.7449      8.2574      8.7087    -43.6467      2.5208      7.8313      0.0637      2.5208     32.9578
  1123.5000     89.5539      9.7432      8.2244      8.6837    -36.3183      2.5062      8.7147      0.0622      2.7448     33.3627
  1124.0000     88.1611      9.7434      8.1193      8.5529    -21.7904      2.4957      9.3492      0.0616      3.0847     31.7996
  1124.5000     89.9827      9.7455      8.0125      8.4358    -20.6088      2.4982      9.1978      0.0611      3.2404     30.0190
  1125.0000     92.4503      9.7459      8.0083      8.4591    -28.6071      2.5147      8.1995      0.0690      3.0511     28.5365
  1125.5000     94.0097      9.7452      8.1116      8.6031    -31.1292      2.5296      7.2990      0.0801      2.7925     27.1807
  1126.0000     95.0390      9.7446      8.2244      8.7391    -33.7705      2.5292      7.3232      0.0764      2.7779     26.7872
  1126.5000     94.2888      9.7440      8.2782      8.7954    -47.2242      2.5236      7.6616      0.0593      2.8462     27.4443
  1127.0000     91.9595      9.7448      8.2712      8.8002    -57.1566      2.5279      7.3992      0.0572      2.6314     28.0328
  1127.5000     90.6563      9.7474      8.2365      8.8033    -44.7227      2.5382      6.7770      0.0748      2.2841     27.4587
  1128.0000     90.7997      9.7507      8.2226      8.8211    -25.0026      2.5381      6.7822      0.0839      2.3296     27.1143
  1128.5000     90.6353      9.7538      8.2243      8.8243    -27.0018      2.5230      7.6985      0.0749      2.4851     27.5835
  1129.0000     90.3078      9.7571      8.1907      8.7838    -44.2267      2.5065      8.6992      0.0589      2.8066     28.2548
  1129.5000     91.2413      9.7597      8.1202      8.7157    -48.5603      2.5013      9.0148      0.0418      2.9114     27.9397
  1130.0000     93.5150      9.7613      8.0538      8.6497    -34.8881      2.5053      8.7701      0.0364      2.8958     27.6060
  1130.5000     96.5435      9.7626      7.9899      8.5754    -24.1369      2.5121      8.3582      0.0524      2.9138     28.7535
  1131.0000     99.2245      9.7620      7.9252      8.5023    -27.0612      2.5210      7.8178      0.0754      2.9373     30.3444
