~VERSION INFORMATION
 VERS.               2.10:   CWLS LOG ASCII STANDARD - VERSION 2.10
 WRAP.                 NO:   ONE LINE PER DEPTH STEP
~WELL INFORMATION
#MNEM.UNIT      DATA TYPE    INFORMATION
#----------   ------------   ------------------------------
 STRT.F         2399.3489:   START DEPTH
 STOP.F         5518.8403:   STOP DEPTH
 STEP.F            0.5000:   STEP LENGTH
 NULL.          -999.2500:   NO VALUE
 COMP. Fluor Daniel (NPOSR), Inc.:   COMPANY
 WELL.        43-2 TPX 10:   WELL
 FLD .           N.P.R. 3:   FIELD
 LOC . 10-38N-78W-NATRONA-WY:   LOCATION
 STAT.                 WY:   STATE
 COUN.            Natrona:   COUNTY
 SRVC.      Western Atlas:   SERVICE COMPANY
 DATE.                   :   LOGDATE
 APIN.         4902522843:   API NUMBER
~CURVE INFORMATION
#MNEM.UNIT       API CODE    CURVE DESCRIPTION
#----------   ------------   ------------------------------
 DEPT.F                  :
 DPHI.none   42 890 03 00:   Den. Porosity, Ss [%]
 NPHI.none   42 890 03 00:   Neu. Porosity, Ss [%]
 GR  .gAPI   42 310 00 00:   Gamma Ray
 RHOB.gm/cc  42 350 01 00:   Bulk Density
~PARAMETER INFORMATION
#MNEM.UNIT          VALUE    DESCRIPTION
#----------   ------------   ------------------------------
 EKB .F         5209.0000:   Kelly bushing
 EGL .F         5199.0000:   Ground level
 EDF .F         5208.0000:   Drilling floor
 EPD .F           10.0000:   Permanent datum
 TD  .F         3150.0000:   Total depth
 NRUN.             1.0000:   Number of Runs
#--RUN 1---   ------------   The following are for Run 1---
 RUN .             1.0000:   Run 1
 DATE.mm/dd/yyyy 02/13/1997:   Date Logged
 DD  .ft             5540:   Depth Driller
 DL  .ft             5541:   Depth Logger
 BLI .ft             5535:   Bottom Log Interval
 TLI .ft             2400:   Top Log Interval
 CSS .inch          9.625:   Casing Size
 CTD1.ft              439:   Casing Driller 1
 CTL1.ft              436:   Casing Logger 1
 BS  .inch           8.75:   Bit Size
 DFT .           Gel/Chem:   Type Fluid In Hole
 DFD .lb/gal          9.6:   Mud Weight
 DFV .sec              50:   Viscosity
 DFPH.                9.5:   pH
 DFL .cc              8.0:   Fluid Loss
 WSS .               tank:   Source Of Sample
 RM  .ohmm            .68:   Rm
 EMT .F                94:   Rm Meas. Temp.
 RMF .ohmm            .51:   Rmf
 MFT .F                94:   Rmf Meas. Temp.
 RMC .ohmm            .95:   Rmc
 MCST.F                94:   Rmc Meas. Temp.
 MFSS.              calc.:   Source Rmf.
 MCSS.              calc.:   Source Rmc.
 RMB .ohmm            .38:   Rm. At BHT
 BHT .F               168:   BHT.
 TCS .hh:mm         6 hrs:   Time Circ. Stopped
 MRT .F               168:   Maximum Recorded Temp.
 LUL .          Rk. Spgs.:   Logging Unit Location
 ENGI.               Rall:   Recorded By
 WITN.      Lebeau/ Hardy:   Witnessed By
 DGBY.              Burke:   Digitized By
~OTHER INFORMATION
# Rho M=2.65, Rho F=1.0
# CNCF=Sandstone
# Cement Volume Based on 7" casing
~A  DEPTH     DPHI       NPHI         GR       RHOB
# ...
 3202.3490     9.2826    25.9218   133.6558     2.5042
 3202.8490     7.9154    24.5758   134.3008     2.5236
 3203.3490     6.5481    21.8690   125.6350     2.5562
 3203.8490     5.1444    19.1621   116.9633     2.5671
 3204.3490     4.7393    16.4684   108.9126     2.5703
 3204.8490     4.7247    15.6311   107.0732     2.5672
 3205.3490     5.7930    15.8162   106.7865     2.5603
 3205.8490     6.7013    16.3421   108.0526     2.5457
 3206.3490     7.7150    16.8990   112.1138     2.5256
 3206.8490     7.8382    17.3962   117.7277     2.5202
 3207.3490     7.6191    18.2103   121.7889     2.5226
 3207.8490     7.2451    17.9809   119.8027     2.5312
 3208.3490     6.9642    16.9886   116.2526     2.5359
 3208.8490     6.8054    16.9570   115.6553     2.5367
 3209.3490     6.7127    17.8236   115.3627     2.5360
 3209.8490     7.0530    18.5835   120.0509     2.5345
 3210.3490     7.4418    19.5092   124.4226     2.5284
 3210.8490     7.9461    20.4161   129.7260     2.5207
 3211.3490     8.4504    21.3075   134.0977     2.5138
 3211.8490     8.9547    22.1988   140.0450     2.5077
 3212.3490     9.4647    23.0860   142.9255     2.4922
 3212.8490     9.8400    23.5809   144.4238     2.4877
 3213.3490     9.7451    23.7350   144.1312     2.4869
 3213.8490     9.7748    23.9511   144.7822     2.4885
 3214.3490     9.7734    25.0326   144.4895     2.4878
 3214.8490    10.0516    26.6479   144.8299     2.4848
 3215.3490    12.8288    28.2632   148.8911     2.4482
 3215.8490    15.8065    29.9897   157.6106     2.3982
 3216.3490    18.7841   -48.3558   170.0578     2.3483
 3216.8490    22.1266   -46.1236   190.4964     2.2922
 3217.3490    21.3489   -48.9383  -191.0735     2.2798
 3217.8490    17.9013    27.1126  -999.2500     2.3415
 3218.3490    12.9694    23.5051   184.9440     2.4100
 3218.8490    11.1489    20.9684   157.0587     2.4675
 3219.3490    11.7797    22.2070   136.3493     2.4536
 3219.8490    11.9943    24.4680   141.0375     2.4506
 3220.3490    10.2122    25.3038   140.4403     2.5033
 3220.8490     8.2221    25.6438   133.3213     2.5312
 3221.3490     6.2876    25.1473   127.1340     2.5468
 3221.8490     5.9946    24.8057   130.5800     2.5484
 3222.3490     5.8690    24.7117   131.8461     2.5509
 3222.8490     5.5260    24.4941   130.9384     2.5556
 3223.3490     5.3073    23.0061   128.4778     2.5587
 3223.8490     5.5854    21.8899   125.0855     2.5556
 3224.3490     5.8636    21.5173   124.4823     2.5526
 3224.8490     5.9554    21.4857   124.5122     2.5519
 3225.3490     5.9540    22.2283   125.4677     2.5519
 3225.8490     6.0148    23.3739   127.3734     2.5489
 3226.3490     6.0445    23.4661   128.6221     2.5497
 3226.8490     5.9496    22.8454   128.9556     2.5506
 3227.3490     6.0103    21.8221   126.8115     2.5496
 3227.8490     6.5059    21.8833   125.8977     2.5437
 3228.3490     6.8772    22.5332   125.6110     2.5399
 3228.8490     7.0314    24.0474   125.9515     2.5361
 3229.3490     6.9055    25.7561   127.5282     2.5323
 3229.8490     6.9367    26.4348   128.7943     2.5354
 3230.3490     7.1596    25.1635   129.7500     2.5301
 3230.8490     6.9632    24.3552   130.0851     2.5410
 3231.3490     5.7214    23.4579   129.8036     2.5737
 3231.8490     3.7617    23.3642   124.8585     2.5857
 3232.3490     3.4498    23.5414   118.0501     2.5815
 3232.8490     4.0996    24.6262   115.2730     2.5666
 3233.3490     6.5155    25.7978   120.2718     2.5285
 3233.8490     8.9313    26.9694   127.7491     2.4833
 3234.3490    10.2147    28.1005   132.1208     2.4802
 3234.8490     9.4366    28.0997   134.0081     2.4974
 3235.3490     8.9694    28.1919   132.7542     2.4959
 3235.8490     9.7444    28.7488   132.5031     2.4820
 3236.3490    10.8554    29.3142   133.1540     2.4495
 3236.8490    12.5540   -49.3938   133.7931     2.4217
 3237.3490    13.6843   -48.6200   133.1958     2.4171
 3237.8490    13.7765   -49.3026   134.1574     2.4245
 3238.3490    13.1536  -999.2500   136.3552     2.4420
 3238.8490    12.3754  -999.2500   138.8635     2.4475
 3239.3490    12.1261   -48.8223   140.4402     2.4452
 3239.8490    14.0498   -47.1666   140.7752     2.4104
 3240.3490    14.6385   -46.2393   140.4880     2.4035
 3240.8490    14.6061   -46.6687   138.6545     2.4059
 3241.3490    14.5116   -47.9439   136.8150     2.4076
 3241.8490    14.7898   -49.2192   136.8389     2.4029
 3242.3490    15.1303    29.0791   136.8628     2.4031
 3242.8490    13.4626    27.7458   136.2655     2.4364
 3243.3490    11.7240    27.3733   134.7366     2.4605
 3243.8490     9.9854    25.7303   133.5183     2.5054
 3244.3490     8.4163    24.5212   132.2591     2.5132
 3244.8490     8.1979    22.9402   128.2329     2.5094
 3245.3490     8.8173    22.4746   127.3788     2.5017
 3245.8490     8.4122    22.3497   128.0298     2.5111
 3246.3490     7.9760    22.4731   129.6064     2.5352
 3246.8490     6.8294    22.5960   127.4564     2.5438
 3247.3490     6.3270    22.9051   122.8219     2.5423
 3247.8490     6.6983    23.1521   122.1694     2.5354
 3248.3490     6.8833    22.8415   122.8697     2.5300
 3248.8490     7.0683    22.4070   124.7703     2.5277
 3249.3490     7.2843    22.2512   126.0707     2.5247
 3249.8490     7.5625    22.8166   126.9846     2.5217
 3250.3490     7.7474    23.5198   126.6979     2.5171
 3250.8490     8.0877    23.6431   125.7901     2.5133
 3251.3490     8.1795    23.6114   127.0563     2.5141
 3251.8490     8.1778    24.3230   128.6329     2.5126
 3252.3490     8.6112    24.7250   129.2780     2.5104
 3252.8490     9.0136    24.1665   128.3701     2.5035
 3253.3490     8.9501    23.3382   121.8674     2.5012
 3253.8490     8.4829    22.4769   121.2365     2.5121
 3254.3490     7.7052    21.8404   119.1310     2.5215
 3254.8490     7.1448    22.6102   117.2856     2.5316
 3255.3490     6.8639    23.6800   117.3154     2.5371
 3255.8490     6.7694    24.3475   119.2027     2.5402
 3256.3490     6.7370    24.3467   122.3321     2.5326
 3256.8490     6.9841    24.6261   122.6666     2.5303
 3257.3490     6.9824    25.0964   122.6905     2.5288
 3257.8490     6.9499    25.4286   125.1988     2.5320
 3258.3490     7.0728    25.9545   128.9812     2.5266
 3258.8490     8.0031    26.1396   131.7743     2.5189
 3259.3490     8.3123    26.2628   134.2827     2.5143
 3259.8490     8.5905    26.0761   134.9243     2.5043
 3260.3490     8.9060    25.7964   134.9536     2.4987
 3260.8490     9.3996    25.5168   134.9775     2.4840
 3261.3490    10.4805    25.4231   136.5542     2.4692
 3261.8490    10.8828    26.0731   137.8203     2.4596
 3262.3490    11.4715    26.5183   137.8441     2.4535
 3262.8490    12.5882    27.0007   139.7314     2.4280
 3263.3490    13.6427    27.4336   142.5503     2.4110
 3263.8490    14.5109    27.4640   145.3692     2.4120
 3264.3490    14.3853    27.4321   146.9459     2.4150
 3264.8490    14.0369    27.3073   145.9305     2.4244
 3265.3490    13.2331    27.3995   143.5835     2.4384
 3265.8490    11.8033    27.9007   142.9803     2.4648
 3266.3490    10.7150    28.1415   143.9418     2.4741
 3266.8490    10.1546    27.5518   144.2703     2.4843
 3267.3490     9.5011    27.2104   142.1263     2.5083
 3267.8490     8.7544    27.0855   139.9762     2.5185
 3268.3490     8.2561    26.1242   137.5156     2.5174
 3268.8490     8.0684    25.4728   135.3396     2.4954
 3269.3490     8.4813    25.4100   132.2839     2.4784
 3269.8490     9.9146    25.5951   136.9722     2.4754
 3270.3490    10.6416    25.7802   140.1017     2.4746
 3270.8490    10.7334    25.3145   140.7466     2.4701
 3271.3490    11.3843    25.1588   139.8329     2.4489
 3271.8490    12.8115    25.3439   143.2789     2.4261
 3272.3490    13.4002    25.7149   144.8556     2.4168
 3272.8490    14.1445    26.0859   144.9075     2.4261
 3273.3490    13.8943    26.1163   144.2822     2.4309
 3273.8490    13.3961    26.4561   145.0829     2.4301
 3274.3490    13.4258    27.6018   147.7521     2.4270
 3274.8490    13.7346    28.5501   147.7760     2.4194
