~VERSION INFORMATION
 VERS.               2.10:   CWLS LOG ASCII STANDARD - VERSION 2.10
 WRAP.                 NO:   ONE LINE PER DEPTH STEP
~WELL INFORMATION
#MNEM.UNIT      DATA TYPE    INFORMATION
#----------   ------------   ------------------------------
 STRT.F         2400.0405:   START DEPTH
 STOP.F         5534.6855:   STOP DEPTH
 STEP.F            0.5000:   STEP LENGTH
 NULL.          -999.2500:   NO VALUE
 COMP. Fluor Daniel (NPOSR), Inc.:   COMPANY
 WELL.         43-2TPX-10:   WELL
 FLD .           N.P.R. 3:   FIELD
 LOC . 10-38N-78W-NATRONA-WY:   LOCATION
 STAT.                 WY:   STATE
 COUN.            Natrona:   COUNTY
 SRVC.      Western Atlas:   SERVICE COMPANY
 DATE.                   :   LOGDATE
 APIN.         4902522843:   API NUMBER
~CURVE INFORMATION
#MNEM.UNIT       API CODE    CURVE DESCRIPTION
#----------   ------------   ------------------------------
 DEPT.F                  :
 LLD .ohm.m  11 220 04 00:   Dual Laterolog, Deep
 LLS .ohmm   11 220 06 00:   Dual Laterolog, shallow
 GR  .GAPI   06 310 01 00:   Gamma Ray
 SP  .mV     06 010 01 00:   Spontaneous Potential
~PARAMETER INFORMATION
#MNEM.UNIT          VALUE    DESCRIPTION
#----------   ------------   ------------------------------
 EKB .F         5209.0000:   Kelly bushing
 EGL .F         5199.0000:   Ground level
 EDF .F         5208.0000:   Drilling floor
 EPD .F           10.0000:   Permanent datum
 TD  .F         5230.0000:   Total depth
 NRUN.             1.0000:   Number of Runs
#--RUN 1---   ------------   The following are for Run 1---
 RUN .             1.0000:   Run 1
 DATE.mm/dd/yyyy 02/13/1997:   Date Logged
 DD  .ft             5540:   Depth Driller
 DL  .ft             5541:   Depth Logger
 BLI .ft             5535:   Bottom Log Interval
 TLI .ft             2400:   Top Log Interval
 CSS .inch          9.625:   Casing Size
 CTD1.ft              439:   Casing Driller 1
 CTL1.ft              436:   Casing Logger 1
 BS  .inch           8.75:   Bit Size
 DFT .          Gel/ Chem:   Type Fluid In Hole
 DFD .lb/gal          9.6:   Mud Weight
 DFV .sec              50:   Viscosity
 DFPH.                9.5:   pH
 DFL .cc                8:   Fluid Loss
 WSS .               tank:   Source Of Sample
 RM  .ohmm            .68:   Rm
 EMT .F                94:   Rm Meas. Temp.
 RMF .ohmm            .51:   Rmf
 MFT .F                94:   Rmf Meas. Temp.
 RMC .ohmm            .95:   Rmc
 MCST.F                94:   Rmc Meas. Temp.
 MFSS.              calc.:   Source Rmf.
 MCSS.              calc.:   Source Rmc.
 RMB .ohmm            .38:   Rm. At BHT
 BHT .F               168:   BHT.
 TCS .hh:mm         6 hrs:   Time Circ. Stopped
 MRT .F               168:   Maximum Recorded Temp.
 LUL .          Rk. Spgs.:   Logging Unit Location
 ENGI.               Rall:   Recorded By
 WITN.      Lebeau/ Hardy:   Witnessed By
 DGBY.              Burke:   Digitized By
~OTHER INFORMATION
# RIG FUEL PUMP CAUSING SPURRIOUS ANOMILIES ON S.P.
~A  DEPTH      LLD        LLS         GR         SP
# ...
 4663.0410    23.6363    26.6218   105.6365    68.4563
 4663.5410    20.7928    23.8103   109.8017    68.4535
 4664.0410    19.2281    21.0483   113.9668    68.7624
 4664.5410    18.1566    20.3420   116.9441    68.9158
 4665.0410    17.9128    20.0625   117.5334    68.6025
 4665.5410    19.2433    21.0813   114.4082    68.4447
 4666.0410    22.0422    22.3065   107.6973    68.4420
 4666.5410    23.3425    23.7693    97.3882    68.4398
 4667.0410    23.6837    26.2335    88.1318    68.4376
 4667.5410    23.0229    27.9537    93.4573    68.7470
 4668.0410    21.0204    25.1650   101.6794    68.7442
 4668.5410    18.2568    21.6678   111.3576    68.2755
 4669.0410    15.4932    18.1288   120.0756    68.1177
 4669.5410    12.9307    14.8713   122.2712    68.4266
 4670.0410    11.6213    14.1570   121.0240    68.4244
 4670.5410    11.2168    14.0666   121.0288    68.5777
 4671.0410    10.9826    13.8753   127.3869    68.5750
 4671.5410    10.6762    13.4002   133.3913    68.4172
 4672.0410    10.6022    12.9413   135.1287    68.4150
 4672.5410    10.6054    12.7635   133.8814    68.2573
 4673.0410    11.1512    13.4117   133.2602    68.0996
 4673.5410    11.8936    14.2912   131.7000    68.2535
 4674.0410    14.3373    16.7150   130.4528    68.5618
 4674.5410    17.7576    20.3755   121.6938    69.0262
 4675.0410    21.1779    24.0359   112.6674    69.0239
 4675.5410    24.5982    28.0862   103.0084    69.0217
 4676.0410    27.4396    30.5654    93.3494    68.8634
 4676.5410    29.6869    32.7994    89.7887    68.5502
 4677.0410    31.6632    33.5076    83.8466    68.7041
 4677.5410    33.5311    34.7155    81.0345    69.1684
 4678.0410    35.5092    36.2742    76.6573    68.8547
 4678.5410    37.8731    38.8706    75.0969    68.6969
 4679.0410    39.5391    40.2718    73.5369    68.6947
 4679.5410    40.4300    41.7236    70.4006    68.8481
 4680.0410    40.7060    41.1532    70.7709    68.8458
 4680.5410    38.1837    38.6427    77.3082    68.9992
 4681.0410    32.1827    32.4276    80.7558    69.3080
 4681.5410    29.5493    30.4494    77.9436    69.3053
 4682.0410    31.5165    30.4582    74.1925    69.1475
 4682.5410    33.6147    33.4290    70.4414    68.2122
 4683.0410    33.3839    35.6141    70.1319    68.0545
 4683.5410    32.6849    35.8305    74.2067    68.6744
 4684.0410    31.0582    31.4606    80.8981    69.4503
 4684.5410    26.8861    27.7730    88.5120    69.6032
 4685.0410    22.0412    24.0853    96.1259    69.4454
 4685.5410    18.0620    21.1811   103.7399    69.1321
 4686.0410    17.2199    20.3126   108.9726    68.9744
 4686.5410    18.1071    20.3184   108.2816    69.2833
 4687.0410    19.3126    21.8097   101.4985    69.9026
 4687.5410    19.4556    22.1186    97.7192    70.3670
 4688.0410    19.5985    22.2823   101.7940    70.5208
 4688.5410    18.2545    21.0705   108.0585    69.8960
 4689.0410    17.6190    20.2066   114.9490    69.2717
 4689.5410    17.7496    20.4984   108.6939    69.1140
 4690.0410    19.5499    22.1516    99.9937    69.1118
 4690.5410    23.2897    24.6205    90.4443    68.9540
 4691.0410    23.9697    25.8689    83.9824    68.9513
 4691.5410    24.3201    26.6153    83.6730    68.9491
 4692.0410    24.1516    26.8094    84.6179    69.1030
 4692.5410    24.3319    26.6291    84.9356    69.2563
 4693.0410    24.8643    26.8264    83.0624    68.9425
 4693.5410    25.0484    27.0233    82.7541    68.7848
 4694.0410    24.0046    26.2820    85.4243    68.9381
 4694.5410    23.1521    24.8527    89.0246    69.0915
 4695.0410    22.0471    23.6669    91.8462    69.4003
 4695.5410    21.4321    23.0174    93.1029    69.5536
 4696.0410    21.5908    23.1866    90.8409    69.3953
 4696.5410    22.7019    24.9096    87.9841    69.2376
 4697.0410    24.5612    26.1448    85.1274    69.0799
 4697.5410    25.4593    27.2782    82.1672    69.0777
 4698.0410    26.3903    28.2616    78.1031    69.2310
 4698.5410    26.9678    28.4690    74.3384    69.3849
 4699.0410    27.5581    28.4771    74.7136    69.5382
 4699.5410    28.5673    29.0920    75.9264    69.6910
 4700.0410    29.1918    29.9297    74.6804    69.7808
 4700.5410    30.0442    31.0086    73.7246    69.5196
 4701.0410    31.8165    33.0645    73.7371    69.6765
 4701.5410    34.1796    34.5128    71.8717    69.8334
 4702.0410    34.6772    35.2189    70.3192    69.6790
 4702.5410    32.5305    33.7773    71.2707    69.5252
 4703.0410    26.0823    30.7899    80.9859    69.3710
 4703.5410    21.6718    26.6164    90.6196    69.6978
 4704.0410    18.7946    22.3354   100.3873    70.1518
 4704.5410    17.8834    20.9729   107.6306    70.1532
 4705.0410    17.1382    20.3975   109.5211    69.6876
 4705.5410    16.4240    19.5612   112.3505    69.5338
 4706.0410    15.4986    17.6098   116.1189    69.6908
 4706.5410    13.5399    16.6521   123.9561    69.8477
 4707.0410    13.3642    15.8575   125.8434    70.4711
 4707.5410    13.5604    15.9001   121.5014    70.6280
 4708.0410    14.7760    19.4535   112.6439    69.3853
 4708.5410    16.8048    22.0822   103.7863    69.5422
 4709.0410    19.8062    23.6961    98.3536    70.1660
 4709.5410    21.8920    24.8977    98.9952    70.9450
 4710.0410    22.0540    25.2573   101.8246    70.9464
 4710.5410    21.7469    24.9102   101.5241    70.6364
 4711.0410    21.7276    24.7447   102.1626    70.4822
 4711.5410    20.9963    23.3990   106.2440    70.6395
 4712.0410    19.4163    21.6409   108.4475    70.9519
 4712.5410    18.4749    20.4883   110.6509    70.9533
 4713.0410    17.8308    20.3493   109.0985    70.9548
 4713.5410    19.4304    22.6188   106.5327    70.9564
 4714.0410    22.5958    26.9817    99.4582    70.9578
 4714.5410    27.7682    32.5231    91.1285    70.6482
 4715.0410    32.9406    38.0646    82.3213    70.1826
 4715.5410    38.3052    41.7267    74.9042    70.0285
 4716.0410    40.8554    44.4630    74.7458    70.6523
 4716.5410    40.5531    45.1051    76.6394    70.4982
 4717.0410    36.7291    40.8051    78.5298    70.3441
 4717.5410    33.7237    37.8641    79.7943    70.3455
 4718.0410    33.0176    36.3090    80.4328    70.6582
 4718.5410    31.6418    35.3155    82.0102    70.8151
 4719.0410    29.2607    33.1612    88.0882    70.8165
 4719.5410    25.8042    29.3342    97.3248    70.5069
 4720.0410    22.0144    25.0040   106.5613    70.0414
 4720.5410    17.8987    19.8744   116.1772    70.3541
 4721.0410    16.0861    19.3292   119.0066    70.8221
 4721.5410    15.7492    18.6660   119.9580    70.6679
 4722.0410    16.4421    20.5154   115.5936    69.7362
 4722.5410    18.7403    23.0140   106.5641    69.8935
 4723.0410    21.1173    25.5127    97.1495    70.2059
 4723.5410    23.5082    28.0114    94.9711    71.6070
 4724.0410    24.5423    28.6960    95.6096    71.9194
 4724.5410    24.7225    28.9066    94.9961    70.9877
 4725.0410    24.2063    28.3139    93.7047    70.5221
 4725.5410    23.5310    27.7313    92.8302    70.3683
 4726.0410    23.5367    26.9706    94.4108    70.9918
 4726.5410    24.7536    27.1685    96.6142    70.9577
 4727.0410    27.6461    28.9501    95.6878    69.7504
 4727.5410    31.7849    34.0369    88.1399    69.7522
 4728.0410    33.9009    36.5246    79.5228    69.9091
 4728.5410    34.8908    39.4705    73.8150    69.9105
 4729.0410    31.8081    39.3271    76.0216    69.9119
 4729.5410    28.2469    33.1021    79.9992    69.2912
 4730.0410    23.7533    27.9710    87.4002    68.9814
 4730.5410    21.6546    25.5531    94.8012    69.4495
 4731.0410    21.0505    25.2136   100.1729    69.4509
 4731.5410    20.7560    25.0442    99.8724    69.2724
 4732.0410    20.3227    24.7036    98.3168    68.8315
 4732.5410    18.9088    22.3960   100.8364    68.6774
 4733.0410    17.1837    20.7363   104.0760    68.9902
 4733.5410    16.5365    20.5956   108.8282    69.7692
 4734.0410    16.7793    20.7482   112.4566    69.7706
 4734.5410    17.1464    21.3457   113.4081    69.3050
 4735.0410    17.9007    22.2748   111.5776    68.9957
 4735.5410    18.9567    23.1171   106.2475    69.3082
