~VERSION INFORMATION
 VERS.               2.10:   CWLS LOG ASCII STANDARD - VERSION 2.10
 WRAP.                 NO:   ONE LINE PER DEPTH STEP
~WELL INFORMATION
#MNEM.UNIT      DATA TYPE    INFORMATION
#----------   ------------   ------------------------------
 STRT.F         2399.3489:   START DEPTH
 STOP.F         5518.8403:   STOP DEPTH
 STEP.F            0.5000:   STEP LENGTH
 NULL.          -999.2500:   NO VALUE
 COMP. Fluor Daniel (NPOSR), Inc.:   COMPANY
 WELL.        43-2 TPX 10:   WELL
 FLD .           N.P.R. 3:   FIELD
 LOC . 10-38N-78W-NATRONA-WY:   LOCATION
 STAT.                 WY:   STATE
 COUN.            Natrona:   COUNTY
 SRVC.      Western Atlas:   SERVICE COMPANY
 DATE.                   :   LOGDATE
 APIN.         4902522843:   API NUMBER
~CURVE INFORMATION
#MNEM.UNIT       API CODE    CURVE DESCRIPTION
#----------   ------------   ------------------------------
 DEPT.F                  :
 DPHI.none   42 890 03 00:   Den. Porosity, Ss [%]
 NPHI.none   42 890 03 00:   Neu. Porosity, Ss [%]
 GR  .gAPI   42 310 00 00:   Gamma Ray
 RHOB.gm/cc  42 350 01 00:   Bulk Density
~PARAMETER INFORMATION
#MNEM.UNIT          VALUE    DESCRIPTION
#----------   ------------   ------------------------------
 EKB .F         5209.0000:   Kelly bushing
 EGL .F         5199.0000:   Ground level
 EDF .F         5208.0000:   Drilling floor
 EPD .F           10.0000:   Permanent datum
 TD  .F         3150.0000:   Total depth
 NRUN.             1.0000:   Number of Runs
#--RUN 1---   ------------   The following are for Run 1---
 RUN .             1.0000:   Run 1
 DATE.mm/dd/yyyy 02/13/1997:   Date Logged
 DD  .ft             5540:   Depth Driller
 DL  .ft             5541:   Depth Logger
 BLI .ft             5535:   Bottom Log Interval
 TLI .ft             2400:   Top Log Interval
 CSS .inch          9.625:   Casing Size
 CTD1.ft              439:   Casing Driller 1
 CTL1.ft              436:   Casing Logger 1
 BS  .inch           8.75:   Bit Size
 DFT .           Gel/Chem:   Type Fluid In Hole
 DFD .lb/gal          9.6:   Mud Weight
 DFV .sec              50:   Viscosity
 DFPH.                9.5:   pH
 DFL .cc              8.0:   Fluid Loss
 WSS .               tank:   Source Of Sample
 RM  .ohmm            .68:   Rm
 EMT .F                94:   Rm Meas. Temp.
 RMF .ohmm            .51:   Rmf
 MFT .F                94:   Rmf Meas. Temp.
 RMC .ohmm            .95:   Rmc
 MCST.F                94:   Rmc Meas. Temp.
 MFSS.              calc.:   Source Rmf.
 MCSS.              calc.:   Source Rmc.
 RMB .ohmm            .38:   Rm. At BHT
 BHT .F               168:   BHT.
 TCS .hh:mm         6 hrs:   Time Circ. Stopped
 MRT .F               168:   Maximum Recorded Temp.
 LUL .          Rk. Spgs.:   Logging Unit Location
 ENGI.               Rall:   Recorded By
 WITN.      Lebeau/ Hardy:   Witnessed By
 DGBY.              Burke:   Digitized By
~OTHER INFORMATION
# Rho M=2.65, Rho F=1.0
# CNCF=Sandstone
# Cement Volume Based on 7" casing
~A  DEPTH     DPHI       NPHI         GR       RHOB
# ...
 5465.3490     3.5469     6.1605    41.0677     2.5635
 5465.8490     3.1596     5.4066    38.9023     2.5868
 5466.3490     2.9410     4.9502    38.9108     2.5968
 5466.8490     2.2562     5.0113    40.1579     2.6020
 5467.3490     2.1932     4.9792    39.8546     2.6146
 5467.8490     2.3592     4.9783    37.0626     2.6139
 5468.3490     2.5952     4.9464    35.3702     2.6092
 5468.8490     2.5009     4.7286    31.5046     2.6069
 5469.3490     2.0647     4.6348    30.5795     2.6115
 5469.8490     1.6285     4.6029    30.5880     2.6170
 5470.3490     1.4099     4.6661    29.0444     2.6247
 5470.8490     1.6952     4.8487    27.1908     2.6263
 5471.3490     3.0243     5.0957    27.5077     2.6149
 5471.8490     3.9556     5.3427    28.4447     2.5922
 5472.3490     4.7937     5.4657    29.6918     2.5767
 5472.8490     5.4764     5.9915    29.6986     2.5581
 5473.3490     5.7554     6.5483    28.7752     2.5565
 5473.8490     5.5657     6.7643    28.4719     2.5604
 5474.3490     4.8209     7.1972    29.4107     2.5689
 5474.8490     4.1050     7.1259    29.1074     2.5875
 5475.3490     3.1405     6.3896    27.8739     2.6007
 5475.8490     2.6111     5.9239    27.8807     2.6040
 5476.3490     2.5446     5.6441    28.1976     2.6092
 5476.8490     2.3917     5.5503    28.2044     2.6108
 5477.3490     1.8001     5.7043    28.8314     2.6193
 5477.8490     1.3950     5.9513    29.7684     2.6348
 5478.3490     0.4926     6.6443    29.4651     2.6552
 5478.8490    -1.8023     7.4985    29.4736     2.7011
 5479.3490    -4.5363     7.9316    29.7905     2.7470
 5479.8490    -7.2703     7.9927    30.4175     2.8005
 5480.3490    -9.3327     7.8056    31.6646     2.8067
 5480.8490    -9.6132     7.7737    31.9815     2.8060
 5481.3490    -9.5210     7.8038    31.0563     2.8044
 5481.8490    -9.4598     7.8962    31.0648     2.8176
 5482.3490    -9.9893     8.2396    31.3817     2.8277
 5482.8490    69.4506     8.6994    31.0785     2.8300
 5483.3490    69.0144     8.9154    31.0855     2.8071
 5483.8490  -999.2500     9.0074    31.0938     2.7820
 5484.3490  -999.2500     9.0377    31.1006     2.7487
 5484.8490    -7.7015     9.0988    31.1074     2.7154
 5485.3490    -4.6995     9.0977    30.1840     2.6867
 5485.8490    -3.0922     9.0348    30.1908     2.6743
 5486.3490    -1.6367     8.9100    30.1976     2.6681
 5486.8490    -1.1093     8.9090    30.2044     2.6534
 5487.3490    -0.8307     8.9701    30.5213     2.6228
 5487.8490    -0.0859     8.9070  -999.2500     2.5882
 5488.3490     1.5947     8.9681  -999.2500     2.5536
 5488.8490     3.2753     9.0292  -999.2500     2.5349
 5489.3490     4.9559     9.1522  -999.2500     2.5318
 5489.8490     6.5866     9.1203  -999.2500     2.5325
 5490.3490     7.1850     8.8715  -999.2500     2.5349
 5490.8490     7.3054     8.7141  -999.2500     2.5405
 5491.3490     7.1800     8.6528  -999.2500     2.5591
 5491.8490     6.9304     8.8686  -999.2500     2.5689
 5492.3490     6.1212     8.9299  -999.2500     2.5790
 5492.8490     5.5659     8.9288  -999.2500     2.5914
 5493.3490     4.6276     8.8659  -999.2500     2.6094
 5493.8490     3.9427  -999.2500  -999.2500     2.6625
 5494.3490     3.1647  -999.2500  -999.2500     2.7157
 5494.8490     1.4853  -999.2500  -999.2500     2.7689
 5495.3490    -0.2659  -999.2500  -999.2500     2.8300
 5495.8490    -3.4317  -999.2500  -999.2500     2.8431
 5496.3490    -6.5975  -999.2500  -999.2500     2.8215
 5496.8490   -10.0182  -999.2500  -999.2500     2.8044
 5497.3490    68.5200  -999.2500  -999.2500     2.7982
 5497.8490    69.2338  -999.2500  -999.2500     2.7920
 5498.3490  -999.2500  -999.2500  -999.2500     2.7780
 5498.8490    -9.0897  -999.2500  -999.2500     2.7734
 5499.3490    -8.7489  -999.2500  -999.2500     2.7812
 5499.8490    -8.4391  -999.2500  -999.2500     2.7897
 5500.3490    -8.0051  -999.2500  -999.2500     2.7967
 5500.8490    -7.3842  -999.2500  -999.2500     2.7990
 5501.3490    -7.6003  -999.2500  -999.2500     2.7812
 5501.8490    -8.6917  -999.2500  -999.2500     2.7765
 5502.3490    -9.0346  -999.2500  -999.2500     2.7812
 5502.8490    -8.7870  -999.2500  -999.2500     2.7835
 5503.3490    -8.2908  -999.2500  -999.2500     2.7858
 5503.8490    -7.9758  -999.2500  -999.2500     2.7835
 5504.3490    -7.8569  -999.2500  -999.2500     2.7711
 5504.8490    -8.0761  -999.2500  -999.2500     2.7610
 5505.3490    -8.1393  -999.2500  -999.2500     2.7541
 5505.8490    -8.0779  -999.2500  -999.2500     2.7533
 5506.3490    -7.8928  -999.2500  -999.2500     2.7672
 5506.8490    -7.6689  -999.2500  -999.2500     2.7742
 5507.3490    -7.2108  -999.2500  -999.2500     2.7773
 5507.8490    -6.2173  -999.2500  -999.2500     2.7771
 5508.3490    -6.3427  -999.2500  -999.2500     2.7711
 5508.8490    -6.9343  -999.2500  -999.2500     2.7703
 5509.3490    -7.4482  -999.2500  -999.2500     2.7711
 5509.8490    -7.5888  -999.2500  -999.2500     2.7719
 5510.3490    -7.4966  -999.2500  -999.2500     2.7734
 5510.8490    -7.2801  -999.2500  -999.2500     2.7750
 5511.3490    -7.2498  -999.2500  -999.2500     2.7077
 5511.8490    -7.3132  -999.2500  -999.2500     2.6103
 5512.3490    -7.3141  -999.2500  -999.2500     2.5077
 5512.8490    -7.3151  -999.2500  -999.2500     2.5070
 5513.3490    -7.5337  -999.2500  -999.2500     2.5061
 5513.8490    -1.3092  -999.2500  -999.2500     2.5053
 5514.3490     5.4034  -999.2500  -999.2500     2.5045
 5514.8490     8.8878  -999.2500  -999.2500     2.5037
 5515.3490     8.9162  -999.2500  -999.2500     2.5029
 5515.8490     8.9446  -999.2500  -999.2500     2.5020
 5516.3490     8.9729  -999.2500  -999.2500  -999.2500
 5516.8490     9.0013  -999.2500  -999.2500  -999.2500
 5517.3490     9.0297  -999.2500  -999.2500  -999.2500
 5517.8490     9.0581  -999.2500  -999.2500  -999.2500
 5518.3490     9.0864  -999.2500  -999.2500  -999.2500
