~VERSION INFORMATION
 VERS.               2.10:   CWLS LOG ASCII STANDARD - VERSION 2.10
 WRAP.                 NO:   ONE LINE PER DEPTH STEP
~WELL INFORMATION
#MNEM.UNIT      DATA TYPE    INFORMATION
#----------   ------------   ------------------------------
 STRT.F         2399.3489:   START DEPTH
 STOP.F         5518.8403:   STOP DEPTH
 STEP.F            0.5000:   STEP LENGTH
 NULL.          -999.2500:   NO VALUE
 COMP. Fluor Daniel (NPOSR), Inc.:   COMPANY
 WELL.        43-2 TPX 10:   WELL
 FLD .           N.P.R. 3:   FIELD
 LOC . 10-38N-78W-NATRONA-WY:   LOCATION
 STAT.                 WY:   STATE
 COUN.            Natrona:   COUNTY
 SRVC.      Western Atlas:   SERVICE COMPANY
 DATE.                   :   LOGDATE
 APIN.         4902522843:   API NUMBER
~CURVE INFORMATION
#MNEM.UNIT       API CODE    CURVE DESCRIPTION
#----------   ------------   ------------------------------
 DEPT.F                  :
 DPHI.none   42 890 03 00:   Den. Porosity, Ss [%]
 NPHI.none   42 890 03 00:   Neu. Porosity, Ss [%]
 GR  .gAPI   42 310 00 00:   Gamma Ray
 RHOB.gm/cc  42 350 01 00:   Bulk Density
~PARAMETER INFORMATION
#MNEM.UNIT          VALUE    DESCRIPTION
#----------   ------------   ------------------------------
 EKB .F         5209.0000:   Kelly bushing
 EGL .F         5199.0000:   Ground level
 EDF .F         5208.0000:   Drilling floor
 EPD .F           10.0000:   Permanent datum
 TD  .F         3150.0000:   Total depth
 NRUN.             1.0000:   Number of Runs
#--RUN 1---   ------------   The following are for Run 1---
 RUN .             1.0000:   Run 1
 DATE.mm/dd/yyyy 02/13/1997:   Date Logged
 DD  .ft             5540:   Depth Driller
 DL  .ft             5541:   Depth Logger
 BLI .ft             5535:   Bottom Log Interval
 TLI .ft             2400:   Top Log Interval
 CSS .inch          9.625:   Casing Size
 CTD1.ft              439:   Casing Driller 1
 CTL1.ft              436:   Casing Logger 1
 BS  .inch           8.75:   Bit Size
 DFT .           Gel/Chem:   Type Fluid In Hole
 DFD .lb/gal          9.6:   Mud Weight
 DFV .sec              50:   Viscosity
 DFPH.                9.5:   pH
 DFL .cc              8.0:   Fluid Loss
 WSS .               tank:   Source Of Sample
 RM  .ohmm            .68:   Rm
 EMT .F                94:   Rm Meas. Temp.
 RMF .ohmm            .51:   Rmf
 MFT .F                94:   Rmf Meas. Temp.
 RMC .ohmm            .95:   Rmc
 MCST.F                94:   Rmc Meas. Temp.
 MFSS.              calc.:   Source Rmf.
 MCSS.              calc.:   Source Rmc.
 RMB .ohmm            .38:   Rm. At BHT
 BHT .F               168:   BHT.
 TCS .hh:mm         6 hrs:   Time Circ. Stopped
 MRT .F               168:   Maximum Recorded Temp.
 LUL .          Rk. Spgs.:   Logging Unit Location
 ENGI.               Rall:   Recorded By
 WITN.      Lebeau/ Hardy:   Witnessed By
 DGBY.              Burke:   Digitized By
~OTHER INFORMATION
# Rho M=2.65, Rho F=1.0
# CNCF=Sandstone
# Cement Volume Based on 7" casing
~A  DEPTH     DPHI       NPHI         GR       RHOB
# ...
 4005.3490    38.5480    16.1518    57.7656     2.6717
 4005.8490    39.2616    16.2745    61.5149     2.6709
 4006.3490    39.5408    16.8000    64.6384     2.6663
 4006.8490    39.8510    17.1396    65.2813     2.6570
 4007.3490    39.9750    17.1383    65.9242     2.6509
 4007.8490    39.8818    16.8582    68.7376     2.6509
 4008.3490    39.8196    16.6401    70.9360     2.6525
 4008.8490    39.8816    16.5769    69.1992     2.6525
 4009.3490    40.3190    16.8235    66.6352     2.6471
 4009.8490    40.7929    17.3606    70.0745     2.6376
 4010.3490    41.2668    19.2534    75.9887     2.6298
 4010.8490    41.7406    22.2726    81.2827     2.6220
 4011.3490    42.2145    22.8294    85.9566     2.6141
 4011.8490    42.6884    22.6109    88.1499     2.6063
 4012.3490    43.1623    22.9505    89.7230     2.5993
 4012.8490    43.6370    23.4140    88.8155     2.5923
 4013.3490    43.9147    23.5370    87.2875     2.5877
 4013.8490    43.2219    23.1946    87.9309     2.5955
 4014.3490    41.7782    21.4273    88.5744     2.6266
 4014.8490    40.4698    19.8049    87.9818     2.6408
 4015.3490    40.5628    18.6050    84.9038     2.6444
 4015.8490    40.9661    18.5727    80.8955     2.6227
 4016.3490    42.3313    18.9433    78.1275     2.6158
 4016.8490    42.1473    20.1850    76.9100     2.6135
 4017.3490    42.9207    22.7804    75.3766     2.6088
 4017.8490    48.2226    25.3758    75.0893     2.5095
 4018.3490    54.7477    27.9712    78.5285     2.4010
 4018.8490    61.2727  -999.2500    82.8923     2.2925
 4019.3490    67.7978   -43.7443    85.0860     2.1629
 4019.8490    -9.2443   -42.5372    83.7673     2.1296
 4020.3490    -8.3246   -42.7866    80.1755     2.1273
 4020.8490    -9.5859   -43.8103    78.6478     2.1738
 4021.3490  -999.2500   -46.5684    78.6706     2.2474
 4021.8490  -999.2500    28.9370    79.6235     2.2916
 4022.3490    60.9180    28.4403    82.7470     2.3049
 4022.8490    63.6036  -999.2500    88.6612     2.2889
 4023.3490    66.6156   -48.0388    91.1646     2.2178
 4023.8490    69.9789   -46.4824    91.8348     2.1467
 4024.3490    -8.1379   -47.4131    90.2798     2.1136
 4024.8490   -10.0213   -48.4825    90.3329     2.1555
 4025.3490    69.0570   -48.9032    90.9511     2.1819
 4025.8490    68.7420   -49.1213    90.3536     2.1827
 4026.3490  -999.2500   -44.4130    90.3764     2.1142
 4026.8490  -999.2500   -42.6172    89.4632     2.0271
 4027.3490  -999.2500   -42.4632    91.0420  -999.2500
 4027.8490  -999.2500   -42.7746    91.9893     3.9799
 4028.3490    -2.5828   -44.8518    87.0564     3.9590
 4028.8490    -7.4804   -45.5037    86.4581  -999.2500
 4029.3490  -999.2500   -46.2485    87.1019  -999.2500
 4029.8490    67.2890   -45.7529    86.4859     2.2209
 4030.3490    66.4088   -45.4454    84.2815     2.2225
 4030.8490    66.9672   -46.3146    80.6641     2.2047
 4031.3490    64.2053   -46.7186    78.5163     2.2272
 4031.8490    62.1378   -46.2861    77.6031     2.2436
 4032.3490    58.8210   -44.1804    78.5617     2.3034
 4032.8490    55.5042   -45.6069    81.3751     2.3788
 4033.3490    52.7851   -49.2358    84.8087     2.4404
 4033.8490    60.0975  -999.2500    87.0020     2.4113
 4034.3490    66.2934   -48.6426    86.7146     2.2689
 4034.8490  -999.2500   -45.2713    82.0862     2.1265
 4035.3490  -999.2500   -44.5599    76.5099  -999.2500
 4035.8490  -999.2500   -41.9718    76.5511     3.9603
 4036.3490     4.7782   -36.2550    79.3694     3.9123
 4036.8490     4.6229   -35.5783    81.5626     3.9093
 4037.3490     3.7229   -39.5269    83.1357     3.9201
 4037.8490     0.0795   -43.8284    85.0189     3.9388
 4038.3490    -4.5293   -46.8491    84.4215  -999.2500
 4038.8490    -4.4032   -45.2506    80.7233     2.0852
 4039.3490    -1.2361   -41.5028    79.1956     2.0442
 4039.8490     1.9309   -37.3213    78.9077     3.9955
 4040.3490     1.1662   -36.2997    79.2411     3.9297
 4040.8490    -6.7108   -40.9798    79.5999     3.9986
 4041.3490    69.8818   -41.6317    80.5825  -999.2500
 4041.8490    65.5408   -41.8862    82.7258  -999.2500
 4042.3490    61.3788   -41.8798    83.6788     2.2931
 4042.8490    62.5221   -43.3526    84.0116     2.2962
 4043.3490    64.4997   -45.2592    82.7940     2.2273
 4043.8490    66.4773   -46.5955    81.5707     2.2002
 4044.3490    66.1697   -46.8136    81.5991     2.2080
 4044.8490    63.9913   -46.7412    81.3118     2.2375
 4045.3490    63.6124   -45.3912    80.0942     2.2647
 4045.8490    64.0026   -43.7636    78.8766     2.2515
 4046.3490    64.2454   -41.7459    80.1403     2.2585
 4046.8490    63.6625   -41.1189    80.1680     2.2516
 4047.3490    62.1686   -42.0190    79.5706     2.2748
 4047.8490    60.6746   -44.3131    78.3530     2.3097
 4048.3490    59.1807   -45.2438    77.4398     2.3322
 4048.8490    60.0040   -45.5546    77.7783     2.3377
 4049.3490    61.5306   -45.2460    79.3514     2.3005
 4049.8490    63.0573   -46.2700    80.9246     2.2642
 4050.3490    64.1283   -47.2008    81.6112     2.2548
 4050.8490    65.3489   -46.7992    80.0398     2.2430
 4051.3490    65.5039   -46.5836    77.2590     2.2256
 4051.8490    68.1726   -47.4042    77.3798     2.1962
 4052.3490    67.7070   -47.9494    81.3539     2.1822
 4052.8490    65.2063   -48.1368    82.9270     2.2109
 4053.3490    61.1005   -49.5943    84.5002     2.2888
 4053.8490    56.9946    27.6941    84.2128     2.3534
 4054.3490    52.8888    27.0570    82.3751     2.4180
 4054.8490    48.7829    25.1278    83.0180     2.4826
 4055.3490    46.0150    23.9559    83.0407     2.5370
 4055.8490    45.6115    23.5518    82.4432     2.5520
 4056.3490    44.9287    23.8294    81.8457     2.5629
 4056.8490    44.8976    24.0764    81.8907     2.5714
 4057.3490    46.5264    24.0748    82.2526     2.5498
 4057.8490    47.9694    24.0426    81.9197     2.5374
 4058.3490    47.1625    23.8864    78.5316     2.5188
 4058.8490    46.6969    23.6993    76.9982     2.5344
 4059.3490    47.9381    23.1403    77.3367     2.5368
 4059.8490    49.2723    23.4693    82.0106     2.5048
 4060.3490    50.6066    26.2978    84.2038     2.4795
 4060.8490    50.1100    25.9558    84.8467     2.4772
 4061.3490    48.0643    24.7462    85.4896     2.4974
 4061.8490    45.9464    22.4521    86.7527     2.5327
 4062.3490    43.8285    21.7073    86.4361     2.5741
 4062.8490    42.9101    20.9934    84.9433     2.6005
 4063.3490    43.3444    21.1471    84.6503     2.5928
 4063.8490    43.3866    21.9824    85.9190     2.5944
 4064.3490    47.7259    25.0131    88.1123     2.5727
 4064.8490    53.1446    28.1229    89.9955     2.4551
 4065.3490    58.5633    29.6623    90.9484     2.3174
 4065.8490    63.9821    28.3597    91.2755     2.2490
 4066.3490    62.1346    26.4247    90.0636     2.2375
 4066.8490    57.4582    23.9886    87.2957     2.3335
 4067.3490    52.7818    23.2438    86.0689     2.4428
 4067.8490    48.1054    23.0531    86.4874     2.5567
 4068.3490    44.6466    22.7455    88.6098     2.5715
 4068.8490    45.1297    23.6425    88.0124     2.5605
 4069.3490    45.6394    24.2609    87.4093     2.5537
 4069.8490    45.5772    24.3839    87.1219     2.5584
 4070.3490    45.5461    24.0725    88.3906     2.5530
 4070.8490    46.2597    21.6236    88.1033     2.5391
 4071.3490    47.1595    19.5774    85.0253     2.5345
 4071.8490    45.6371    18.3368    81.3270     2.5438
 4072.3490    42.8766    18.3666    79.7994     2.5771
 4072.8490    40.0529    18.4583    77.9097     2.6203
 4073.3490    38.9657    17.8255    75.1014     2.6562
 4073.8490    38.4946    17.8668    70.8810     2.6656
 4074.3490    38.5319    19.1358    66.5626     2.6710
 4074.8490    39.6715    20.2020    67.8257     2.6556
 4075.3490    45.8653    23.2968    71.8794     2.6145
 4075.8490    52.0591    26.3916    75.3130     2.5383
 4076.3490    58.2528    29.9441    78.7466     2.3946
 4076.8490    64.4466  -999.2500    82.8003     2.2509
 4077.3490   -10.0956   -49.0359    84.9936     2.1071
 4077.8490    -1.1585   -48.3847    84.0861     2.0332
