~Version Information
 VERS.                2.00:   CWLS log ASCII Standard -VERSION 2.00
 WRAP.                  NO:   One line per frame
~Well Information Block
#MNEM.UNIT              Data                Description
#--------- -------------------------------  -------------------------------
 STRT.F                          430.0000:   Starting Depth
 STOP.F                         5565.5000:   Ending Depth
 STEP.F                            0.5000:   Level Spacing
 NULL.                          -999.2500:   Absent Value
 COMP.     FLUOR DANIEL (NPOSR), INC.    :   Company
 WELL.     43-2 X 10                     :   Well
 FLD .                                   :   Field
 LOC .                                   :   Location
 CNTY.                                   :   County
 STAT.                                   :   State
 SRVC.                                   :   Service Company
 LIC .                                   :   License Number
 DATE.                                   :   Log Date
 API .                                   :   API Number
~Curve Information Block
#MNEM.UNIT       API Codes    Curve Description
#---------    -------------   -------------------------------
 DEPT.F        0   1  0  1:   Depth
 GR  .API      0 310  1  1:   Gamma ray counts
 CALX.         0   0  0  1:   N/A
 RS  .OHMM     0 220  9  1:   Logarithmic Resistivity from ES, IS
 RD  .OHMM     0 220 10  1:   Logarithmic Resistivity from ED, ID
 TEN .LBF      0 635 99  1:   Differential Tension
 ZDEN.G/C3     0 350  1  1:   ZDL Bulk Density
 PORZ.PU       0 890 99  1:   Porosity from ZDEN
 ZCOR.G/C3     0 356 99  1:   ZDL Correction
 PE  .BARN     0 995 99  1:   Photo Electric cross section
 CNCF.PU       0 995 99  1:   CNC corrected to Field Normalized transform
#  Curve Data
~A   DEPT        GR          CALX        RS          RD          TEN         ZDEN        PORZ        ZCOR        PE          CNCF
# ...
  3144.5000    114.2278      8.2406      5.8050      5.7923      0.6232      2.5295      7.3039      0.0440      2.5873     24.3857
  3145.0000    115.1547      8.2434      5.9473      5.9624     27.8384      2.5410      6.6053      0.0491      2.5194     24.3632
  3145.5000    115.8262      8.2518      6.1626      6.1893     49.2377      2.5500      6.0611      0.0565      2.4794     24.1825
  3146.0000    114.9285      8.2632      6.3873      6.3965     36.4890      2.5517      5.9566      0.0550      2.4714     23.5524
  3146.5000    114.9694      8.2742      6.6477      6.6341     12.0787      2.5489      6.1295      0.0463      2.4620     22.8012
  3147.0000    116.4756      8.2852      7.0055      6.9866      1.1471      2.5464      6.2799      0.0410      2.4600     22.4849
  3147.5000    117.1846      8.2999      7.3373      7.3191     -6.2338      2.5484      6.1585      0.0535      2.4595     22.5098
  3148.0000    117.3319      8.3178      7.4413      7.4007    -10.3310      2.5541      5.8145      0.0763      2.4491     22.6503
  3148.5000    118.2375      8.3345      7.2363      7.1415     -4.2646      2.5574      5.6117      0.0845      2.4359     22.6400
  3149.0000    119.0213      8.3483      6.7987      6.6428      0.6815      2.5546      5.7819      0.0740      2.4376     22.9572
  3149.5000    117.9447      8.3606      6.2428      6.0472     -2.6595      2.5420      6.5476      0.0678      2.4571     24.3443
  3150.0000    116.9053      8.3743      5.6753      5.4646     -9.9413      2.5133      8.2870      0.0821      2.4721     26.3013
  3150.5000    117.5329      8.3931      5.2103      4.9982    -18.0707      2.4780     10.4236      0.1116      2.4712     27.1207
  3151.0000    118.7349      8.4197      4.9653      4.7597    -25.7500      2.4583     11.6171      0.1386      2.4755     26.5942
  3151.5000    119.5561      8.4557      4.9486      4.7498    -31.4814      2.4585     11.6089      0.1505      2.5001     26.0572
  3152.0000    119.4026      8.5013      5.0391      4.8402    -34.7744      2.4666     11.1173      0.1519      2.5297     26.1608
  3152.5000    118.5097      8.5661      5.0513      4.8316    -35.1134      2.4719     10.7958      0.1376      2.5679     27.0063
  3153.0000    118.6248      8.6666      4.8426      4.5875    -32.9825      2.4690     10.9716      0.1327      2.6329     28.3086
  3153.5000    121.1234      8.8033      4.4945      4.2162    -32.3602      2.4589     11.5802      0.1624      2.6737     28.9659
  3154.0000    124.2298      8.9356      4.2357      3.9594    -37.6233      2.4555     11.7870      0.1901      2.6937     28.1278
  3154.5000    125.4431      9.0177      4.1963      3.9381    -46.1720      2.4679     11.0372      0.1722      2.7127     26.9789
  3155.0000    124.1367      9.0518      4.3288      4.0863    -47.6403      2.4864      9.9156      0.1356      2.7177     26.3441
  3155.5000    122.4038      9.0765      4.5036      4.2619    -41.6358      2.4939      9.4578      0.1236      2.7157     26.1473
  3156.0000    121.9839      9.1238      4.5791      4.3291    -35.8487      2.4854      9.9742      0.1372      2.7247     26.9071
  3156.5000    122.3517      9.1881      4.4873      4.2390    -39.8133      2.4667     11.1085      0.1510      2.7371     28.2049
  3157.0000    121.6070      9.2415      4.2883      4.0571    -47.8215      2.4461     12.3592      0.1618      2.7361     28.5333
  3157.5000    120.2660      9.2716      4.0959      3.8858    -53.2388      2.4310     13.2707      0.1778      2.7292     28.0003
  3158.0000    121.5380      9.2813      3.9579      3.7660    -56.2491      2.4242     13.6869      0.1911      2.7278     28.0619
  3158.5000    125.3925      9.2554      3.8781      3.7069    -56.4219      2.4236     13.7194      0.1896      2.7332     28.6345
  3159.0000    127.3835      9.1875      3.9128      3.7665    -55.5416      2.4307     13.2887      0.1900      2.7318     28.7881
  3159.5000    127.1930      9.1062      4.1237      4.0026    -64.2029      2.4508     12.0729      0.1926      2.7103     27.9202
  3160.0000    125.6874      9.0457      4.5106      4.4205    -75.4350      2.4821     10.1783      0.1640      2.6797     25.9068
  3160.5000    120.6168      9.0151      5.0688      5.0229    -69.3451      2.5108      8.4368      0.1190      2.5730     23.7222
  3161.0000    113.2898      9.0028      5.7535      5.7411    -59.9123      2.5259      7.5227      0.1289      2.4252     22.7083
  3161.5000    109.7518      8.9956      6.2968      6.2769    -57.6885      2.5351      6.9625      0.1635      2.4197     22.9172
  3162.0000    110.7421      8.9922      6.4168      6.3632    -33.4796      2.5496      6.0852      0.1435      2.4679     22.9359
  3162.5000    113.4345      8.9942      6.1600      6.0686     -1.2846      2.5580      5.5740      0.0867      2.4826     22.2642
  3163.0000    116.1029      8.9983      5.7767      5.6513    -11.0626      2.5480      6.1817      0.0779      2.4836     21.6211
  3163.5000    116.3596      8.9990      5.4874      5.3548    -16.9175      2.5321      7.1462      0.1087      2.4933     21.3995
  3164.0000    112.7946      8.9957      5.4783      5.3847     19.5923      2.5333      7.0749      0.1177      2.5099     21.2142
  3164.5000    107.2865      8.9937      5.8244      5.7837     27.6710      2.5554      5.7342      0.0995      2.5130     21.2883
  3165.0000    103.4362      8.9946      6.2637      6.2307     -5.2389      2.5730      4.6669      0.0799      2.5083     21.8294
  3165.5000    104.3390      8.9977      6.3563      6.2648    -13.7942      2.5556      5.7217      0.0724      2.5201     22.6441
  3166.0000    108.7350      9.0073      5.9270      5.7503    -12.7531      2.5060      8.7285      0.0903      2.5535     23.4958
  3166.5000    112.9282      9.0260      5.2114      4.9739    -27.0412      2.4527     11.9547      0.1314      2.5937     24.8068
  3167.0000    117.1480      9.0499      4.5314      4.2669    -30.4622      2.4199     13.9425      0.1530      2.6477     26.4151
  3167.5000    121.6887      9.0713      4.0547      3.7887    -27.7513      2.4128     14.3783      0.1526      2.7580     26.7466
  3168.0000    124.9878      9.0834      3.8451      3.5922    -24.7766      2.4214     13.8545      0.1570      2.8409     26.1287
  3168.5000    126.9080      9.0872      3.8786      3.6428     -5.0403      2.4351     13.0218      0.1732      2.8673     26.5040
  3169.0000    126.5762      9.0874      4.0840      3.8592     10.2773      2.4512     12.0481      0.1788      2.8884     27.5895
  3169.5000    124.5979      9.0816      4.4076      4.1721     -5.3689      2.4685     10.9973      0.1775      2.8845     27.3620
  3170.0000    124.1476      9.0749      4.7215      4.4420    -28.5977      2.4817     10.2021      0.1612      3.0139     26.2639
  3170.5000    124.8109      9.0830      4.7980      4.4616    -41.2434      2.4797     10.3215      0.1269      3.2002     25.9975
  3171.0000    126.0359      9.1069      4.5524      4.1817    -46.6971      2.4439     12.4905      0.1149      3.2552     26.7873
  3171.5000    130.3039      9.1226      4.1986      3.8330    -50.4238      2.3756     16.6311      0.1604      3.3319     27.3434
  3172.0000    136.8627      9.0969      4.0664      3.7434    -59.1113      2.3204     19.9771      0.2072      3.4950     27.0683
  3172.5000    139.6653      9.0234      4.3829      4.1244    -67.1952      2.3326     19.2338      0.1940      3.5721     26.2674
  3173.0000    134.2118      8.9404      5.1447      4.9241    -63.1388      2.4182     14.0461      0.1362      3.3431     25.2840
  3173.5000    123.9697      8.8966      5.9954      5.7163    -50.1554      2.5131      8.2972      0.0952      2.8930     24.6288
  3174.0000    117.9199      8.8946      6.3807      5.9630    -40.9124      2.5460      6.3011      0.0907      2.5537     24.5853
  3174.5000    118.1414      8.9047      6.1881      5.6652    -46.7264      2.5270      7.4546      0.1104      2.4122     24.6749
