~VERSION INFORMATION
 VERS.               2.10:   CWLS LOG ASCII STANDARD - VERSION 2.10
 WRAP.                 NO:   ONE LINE PER DEPTH STEP
~WELL INFORMATION
#MNEM.UNIT      DATA TYPE    INFORMATION
#----------   ------------   ------------------------------
 STRT.F         2400.0405:   START DEPTH
 STOP.F         5534.6855:   STOP DEPTH
 STEP.F            0.5000:   STEP LENGTH
 NULL.          -999.2500:   NO VALUE
 COMP. Fluor Daniel (NPOSR), Inc.:   COMPANY
 WELL.         43-2TPX-10:   WELL
 FLD .           N.P.R. 3:   FIELD
 LOC . 10-38N-78W-NATRONA-WY:   LOCATION
 STAT.                 WY:   STATE
 COUN.            Natrona:   COUNTY
 SRVC.      Western Atlas:   SERVICE COMPANY
 DATE.                   :   LOGDATE
 APIN.         4902522843:   API NUMBER
~CURVE INFORMATION
#MNEM.UNIT       API CODE    CURVE DESCRIPTION
#----------   ------------   ------------------------------
 DEPT.F                  :
 LLD .ohm.m  11 220 04 00:   Dual Laterolog, Deep
 LLS .ohmm   11 220 06 00:   Dual Laterolog, shallow
 GR  .GAPI   06 310 01 00:   Gamma Ray
 SP  .mV     06 010 01 00:   Spontaneous Potential
~PARAMETER INFORMATION
#MNEM.UNIT          VALUE    DESCRIPTION
#----------   ------------   ------------------------------
 EKB .F         5209.0000:   Kelly bushing
 EGL .F         5199.0000:   Ground level
 EDF .F         5208.0000:   Drilling floor
 EPD .F           10.0000:   Permanent datum
 TD  .F         5230.0000:   Total depth
 NRUN.             1.0000:   Number of Runs
#--RUN 1---   ------------   The following are for Run 1---
 RUN .             1.0000:   Run 1
 DATE.mm/dd/yyyy 02/13/1997:   Date Logged
 DD  .ft             5540:   Depth Driller
 DL  .ft             5541:   Depth Logger
 BLI .ft             5535:   Bottom Log Interval
 TLI .ft             2400:   Top Log Interval
 CSS .inch          9.625:   Casing Size
 CTD1.ft              439:   Casing Driller 1
 CTL1.ft              436:   Casing Logger 1
 BS  .inch           8.75:   Bit Size
 DFT .          Gel/ Chem:   Type Fluid In Hole
 DFD .lb/gal          9.6:   Mud Weight
 DFV .sec              50:   Viscosity
 DFPH.                9.5:   pH
 DFL .cc                8:   Fluid Loss
 WSS .               tank:   Source Of Sample
 RM  .ohmm            .68:   Rm
 EMT .F                94:   Rm Meas. Temp.
 RMF .ohmm            .51:   Rmf
 MFT .F                94:   Rmf Meas. Temp.
 RMC .ohmm            .95:   Rmc
 MCST.F                94:   Rmc Meas. Temp.
 MFSS.              calc.:   Source Rmf.
 MCSS.              calc.:   Source Rmc.
 RMB .ohmm            .38:   Rm. At BHT
 BHT .F               168:   BHT.
 TCS .hh:mm         6 hrs:   Time Circ. Stopped
 MRT .F               168:   Maximum Recorded Temp.
 LUL .          Rk. Spgs.:   Logging Unit Location
 ENGI.               Rall:   Recorded By
 WITN.      Lebeau/ Hardy:   Witnessed By
 DGBY.              Burke:   Digitized By
~OTHER INFORMATION
# RIG FUEL PUMP CAUSING SPURRIOUS ANOMILIES ON S.P.
~A  DEPTH      LLD        LLS         GR         SP
# ...
 2838.0410     5.9795     5.9001   114.6542    65.4282
 2838.5410     5.7567     5.4233   116.2442    65.7447
 2839.0410     4.8067     4.6939   122.5084    65.4390
 2839.5410     3.8868     3.8088   131.2687    65.2889
 2840.0410     2.9670     2.9238   140.4310    65.1388
 2840.5410     2.1720     2.1607   154.4587    65.2999
 2841.0410     2.1235     2.1009   168.4864    65.3064
 2841.5410     3.9283     4.2538   164.6113    65.3119
 2842.0410     5.9393     6.3753   146.4171    65.3173
 2842.5410     7.8466     6.8877   128.2228    65.3227
 2843.0410     8.1321     6.8396   104.2972    65.3281
 2843.5410     7.7074     6.6484   101.2010    65.4890
 2844.0410     7.1532     6.1019    99.9769    65.6499
 2844.5410     7.0022     5.9018    98.7528    65.8108
 2845.0410     6.9528     5.8196   102.2089    65.3496
 2845.5410     6.9040     5.7790   103.7929    65.3551
 2846.0410     6.7583     5.7387   104.1288    65.3606
 2846.5410     6.4755     5.4634   106.3369    65.6783
 2847.0410     6.1167     5.3496   108.8569    65.6837
 2847.5410     5.9028     5.2015   110.1291    65.6891
 2848.0410     5.7339     5.0574   107.3487    65.5376
 2848.5410     5.3808     4.8797   108.3087    65.8554
 2849.0410     5.1557     4.7145   110.2047    66.1718
 2849.5410     4.9753     4.5840   111.7887    66.3314
 2850.0410     4.8013     4.4571   114.3088    65.7161
 2850.5410     4.6334     4.3336   115.8928    65.5658
 2851.0410     4.4713     3.7131   125.9209    65.4158
 2851.5410     3.8495     3.3035   135.1721    65.5769
 2852.0410     3.2725     2.8534   144.4491    65.7390
 2852.5410     2.6052     2.4034   156.2502    65.8999
 2853.0410     2.0260     1.9533   168.0514    65.9053
 2853.5410     1.7195     1.7511   177.9048    66.0663
 2854.0410     1.8734     1.8655   175.6628    66.2272
 2854.5410     2.9861     2.8898   162.1325    66.3881
 2855.0410     4.4886     4.4895   139.9420    66.7046
 2855.5410     5.9095     5.2400   118.3243    67.3320
 2856.0410     6.1246     5.6611   110.5479    67.6485
 2856.5410     5.9953     5.5822   112.7559    67.4983
 2857.0410     5.8270     5.5045   117.1481    67.3483
 2857.5410     5.7860     5.5046   119.3798    67.3539
 2858.0410     5.7865     5.5435   120.3201    67.3604
 2858.5410     5.8284     5.6221   122.8401    66.7437
 2859.0410     5.9549     5.7420   122.5520    66.2826
 2859.5410     6.0409     5.8644   121.9520    66.2880
 2860.0410     6.1281     5.9475   122.5999    66.1365
 2860.5410     6.2611     5.9476   125.1200    65.9864
 2861.0410     6.4428     6.0319   127.9520    65.9931
 2861.5410     6.4432     6.1174   129.5360    66.1541
 2862.0410     6.4898     6.2478   129.2480    66.1595
 2862.5410     6.4961     6.4308   128.9221    66.3204
 2863.0410     6.7266     6.6094   129.3018    66.3260
 2863.5410     7.0212     6.7979   129.6378    66.3315
 2864.0410     7.1226     6.8459   129.9738    66.3370
 2864.5410     6.8735     6.8461   131.2457    66.3425
 2865.0410     6.6331     6.6099   130.9577    66.3480
 2865.5410     6.3556     6.2929   127.2375    66.1986
 2866.0410     6.0034     5.9074   127.8855    65.8916
 2866.5410     5.8349     5.7843   129.7815    65.8984
 2867.0410     5.7939     5.7873   132.6135    65.9038
 2867.5410     5.7943     5.8254   132.9497    65.9092
 2868.0410     5.8363     5.9496   132.9742    65.9146
 2868.5410     5.9205     5.9917   131.4433    66.0756
 2869.0410     6.0490     6.4732   129.3762    65.9254
 2869.5410     6.7810     7.0427   126.7894    66.2432
 2870.0410     7.4937     7.6088   124.2025    66.7151
 2870.5410     7.8780     7.8258   121.6156    66.7206
 2871.0410     7.8226     7.8298   120.3286    66.4136
 2871.5410     7.6567     7.5539   122.2588    66.2648
 2872.0410     7.5431     7.4507   122.5665    66.1133
 2872.5410     7.4431     7.5563   121.3424    66.1201
 2873.0410     7.4970     7.6634   117.3102    66.4365
 2873.5410     7.5512     7.8268   117.0162    66.5974
 2874.0410     7.7151     8.0501   119.8542    66.6029
 2874.5410     7.8825     8.1641   121.1202    66.4281
 2875.0410     7.9964     8.3382   120.5201    66.4595
 2875.5410     8.0542     8.3972   120.5500    66.4649
 2876.0410     8.1124     8.3974   121.8221    66.4703
 2876.5410     8.1711     8.3388   123.7182    66.3202
 2877.0410     8.0462     8.3390   123.3952    66.3256
 2877.5410     7.9423     8.2228   123.1419    66.0199
 2878.0410     7.8305     7.7736   125.6680    65.8698
 2878.5410     7.7752     7.5054   127.8760    65.7197
 2879.0410     7.2923     7.4530   127.8999    65.8806
 2879.5410     7.0876     7.5057   126.6758    65.8861
 2880.0410     7.0881     7.6658   125.7637    65.7359
 2880.5410     7.2420     7.9400   125.7877    65.8982
 2881.0410     7.4526     8.1093   125.8116    65.9036
 2881.5410     7.5597     8.0527   125.8356    66.2200
 2882.0410     7.3476     7.9965   125.8595    66.6920
 2882.5410     7.2958     7.9967   124.5982    67.1639
 2883.0410     7.4013     7.9969   123.4113    66.7028
 2883.5410     7.6161     8.4001   123.1232    66.2416
 2884.0410     8.2384     9.0117   122.5291    65.9360
 2884.5410     9.3680     9.9433   118.8089    65.7858
 2885.0410    12.4537    14.4272   109.1605    65.6357
 2885.5410    16.6059    19.1007   100.2423    65.6413
 2886.0410    20.7582    23.6486    90.3099    65.6479
 2886.5410    25.0810    24.7865    80.3775    65.6533
 2887.0410    25.0943    22.7830    68.6986    65.6587
 2887.5410    23.1716    19.7970    65.2904    65.8196
 2888.0410    20.3556    19.3844    65.6264    65.8250
 2888.5410    19.5444    19.3849    72.8266    65.8304
 2889.0410    19.6861    19.7982    77.5308    65.6789
 2889.5410    20.4024    20.5065    79.7388    65.4979
 2890.0410    21.4486    21.0961    78.5147    65.0690
 2890.5410    23.3674    22.3498    75.7305    65.2299
 2891.0410    24.5657    25.1422    68.2368    65.8575
 2891.5410    25.6419    26.4101    62.9207    65.3963
 2892.0410    27.3442    27.1634    61.1378    65.0906
 2892.5410    27.9558    27.5483    61.4797    65.2529
 2893.0410    28.9548    27.7432    64.9358    65.8804
 2893.5410    29.7950    28.1363    66.5198    65.8858
 2894.0410    30.2253    28.7362    66.8558    65.4233
 2894.5410    30.4438    29.3490    63.4476    65.2732
 2895.0410    30.0146    30.1861    57.8553    65.4354
 2895.5410    29.5909    28.7382    52.5750    65.9074
 2896.0410    29.5935    28.5375    53.9722    66.2238
 2896.5410    30.4523    31.2674    60.4272    66.2292
 2897.0410    37.3332    40.2137    63.8833    66.0791
 2897.5410    52.8640    52.9693    57.9790    65.9290
 2898.0410    68.3948    65.8473    52.0747    65.6247
 2898.5410    88.1868    69.6556    48.6665    65.3177
 2899.0410    91.3941    66.3144    47.7544    66.1021
 2899.5410    74.8517    56.4793    47.7784    65.7951
 2900.0410    63.5286    43.0508    47.4318    65.8018
 2900.5410    47.3160    32.8493    45.2714    65.4802
 2901.0410    40.2583    31.2736    43.1050    65.4869
 2901.5410    37.7615    30.8377    43.1345    65.4922
 2902.0410    37.4982    31.0560    42.8403    65.4976
 2902.5410    38.0457    31.4961    42.5573    65.9696
 2903.0410    37.7821    31.2761    42.5817    66.4415
 2903.5410    37.5187    30.8405    45.0910    66.1345
 2904.0410    36.9956    30.1980    51.0590    65.5190
 2904.5410    35.9613    29.7773    53.2667    65.6800
 2905.0410    34.9313    29.3624    54.2264    65.8594
 2905.5410    34.4670    28.1512    53.6201    66.1586
 2906.0410    33.9849    27.9546    54.2736    66.3195
 2906.5410    33.7494    27.9553    57.7294    67.1025
 2907.0410    33.7571    27.7602    59.0011    66.9524
 2907.5410    34.4937    27.7608    58.0887    66.9577
 2908.0410    34.7470    27.9571    58.4302    66.4965
 2908.5410    35.2528    28.5532    59.0779    65.5688
 2909.0410    36.5396    28.9579    58.4775    65.2631
 2909.5410    37.6044    29.1627    56.9352    65.5797
 2910.0410    36.8164    28.3553    56.9647    65.5862
 2910.5410    32.8508    25.8809    61.0445    65.5916
