~Version Information
 VERS.                2.00:   CWLS log ASCII Standard -VERSION 2.00
 WRAP.                  NO:   One line per frame
~Well Information Block
#MNEM.UNIT              Data                Description
#--------- -------------------------------  -------------------------------
 STRT.F                          430.0000:   Starting Depth
 STOP.F                         5565.5000:   Ending Depth
 STEP.F                            0.5000:   Level Spacing
 NULL.                          -999.2500:   Absent Value
 COMP.     FLUOR DANIEL (NPOSR), INC.    :   Company
 WELL.     43-2 X 10                     :   Well
 FLD .                                   :   Field
 LOC .                                   :   Location
 CNTY.                                   :   County
 STAT.                                   :   State
 SRVC.                                   :   Service Company
 LIC .                                   :   License Number
 DATE.                                   :   Log Date
 API .                                   :   API Number
~Curve Information Block
#MNEM.UNIT       API Codes    Curve Description
#---------    -------------   -------------------------------
 DEPT.F        0   1  0  1:   Depth
 GR  .API      0 310  1  1:   Gamma ray counts
 CALX.         0   0  0  1:   N/A
 RS  .OHMM     0 220  9  1:   Logarithmic Resistivity from ES, IS
 RD  .OHMM     0 220 10  1:   Logarithmic Resistivity from ED, ID
 TEN .LBF      0 635 99  1:   Differential Tension
 ZDEN.G/C3     0 350  1  1:   ZDL Bulk Density
 PORZ.PU       0 890 99  1:   Porosity from ZDEN
 ZCOR.G/C3     0 356 99  1:   ZDL Correction
 PE  .BARN     0 995 99  1:   Photo Electric cross section
 CNCF.PU       0 995 99  1:   CNC corrected to Field Normalized transform
#  Curve Data
~A   DEPT        GR          CALX        RS          RD          TEN         ZDEN        PORZ        ZCOR        PE          CNCF
# ...
  5493.0000   -999.2500      8.2101    300.1389    346.9497    556.9561      2.5960      3.2732      0.0737      1.9813      8.8587
  5493.5000   -999.2500      8.2130    376.4622    492.5828    559.9778      2.6274      1.3679      0.0921      2.2527   -999.2500
  5494.0000   -999.2500      8.2238    510.2490    751.9214    559.8735      2.6768     -1.6215      0.1026      2.7641   -999.2500
  5494.5000   -999.2500      8.2416    687.3481   1098.8018    562.2534      2.7405     -5.4853      0.0885      3.1231   -999.2500
  5495.0000   -999.2500      8.2621    874.7451   1470.6543    560.7834      2.8013     -9.1677      0.0622      3.1327   -999.2500
  5495.5000   -999.2500      8.2792   1020.8093   1760.7236    548.3560      2.8381    -11.4010      0.0476      3.0157   -999.2500
  5496.0000   -999.2500      8.2878   1082.2014   1877.1086    539.8096      2.8426    -11.6747      0.0436      2.9000   -999.2500
  5496.5000   -999.2500      8.2888   1067.1223   1836.3440    553.1572      2.8254    -10.6304      0.0426      2.8198   -999.2500
  5497.0000   -999.2500      8.2875   1029.2881   1750.5125    574.2388      2.8061     -9.4594      0.0416      2.8288   -999.2500
  5497.5000   -999.2500      8.2825   1007.5767   1702.4414    578.9348      2.7961     -8.8560      0.0390      2.8847   -999.2500
  5498.0000   -999.2500      8.2702   1016.1687   1722.1846    582.5718      2.7884     -8.3892      0.0356      2.8986   -999.2500
  5498.5000   -999.2500      8.2521   1059.9683   1819.3545    617.4626      2.7761     -7.6420      0.0364      2.9734   -999.2500
  5499.0000   -999.2500      8.2282   1124.7205   1962.1370    670.5588      2.7688     -7.2005      0.0448      3.0288   -999.2500
  5499.5000   -999.2500      8.1939   1161.9104   2039.8120    691.2986      2.7771     -7.7031      0.0577      2.9880   -999.2500
  5500.0000   -999.2500      8.1539   1122.1565   1942.7729    665.3455      2.7930     -8.6691      0.0579      2.9753   -999.2500
  5500.5000   -999.2500      8.1260   1009.4880   1689.1335    637.8130      2.7992     -9.0449      0.0364      2.9755   -999.2500
  5501.0000   -999.2500      8.1177    876.3887   1402.1326    645.0640      2.7919     -8.6015      0.0133      2.9792   -999.2500
  5501.5000   -999.2500      8.1190    773.9946   1186.5308    664.9612      2.7808     -7.9293      0.0053      3.0131   -999.2500
  5502.0000   -999.2500      8.1185    715.9824   1062.5552    663.8826      2.7757     -7.6173      0.0071      3.0534   -999.2500
  5502.5000   -999.2500      8.1153    677.3289    980.4539    656.6631      2.7792     -7.8316      0.0132      3.0749   -999.2500
  5503.0000   -999.2500      8.1116    624.1389    882.8315    674.1172      2.7840     -8.1237      0.0162      3.0852   -999.2500
  5503.5000   -999.2500      8.1084    544.0576    750.1228    709.9834      2.7842     -8.1306      0.0131      3.0943   -999.2500
  5504.0000   -999.2500      8.1060    455.7974    612.8860    738.3604      2.7818     -7.9874      0.0129      3.0900   -999.2500
  5504.5000   -999.2500      8.1050    394.5835    523.6189    743.4460      2.7766     -7.6757      0.0155      3.0705   -999.2500
  5505.0000   -999.2500      8.1045    377.5774    503.3164    735.9006      2.7643     -6.9301      0.0077      3.0950   -999.2500
  5505.5000   -999.2500      8.1049    384.1162    520.1904    752.9187      2.7520     -6.1788     -0.0093      3.1556   -999.2500
  5506.0000   -999.2500      8.1059    383.5181    529.9504    797.3899      2.7517     -6.1610     -0.0203      3.1522   -999.2500
  5506.5000   -999.2500      8.1056    376.8318    528.1047    822.4824      2.7619     -6.7839     -0.0144      3.1450   -999.2500
  5507.0000   -999.2500      8.1038    376.1467    530.7058    825.9473      2.7721     -7.4025      0.0017      3.1628   -999.2500
  5507.5000   -999.2500      8.1004    372.0276    532.5183    840.4377      2.7755     -7.6082      0.0145      3.1654   -999.2500
  5508.0000   -999.2500      8.0968    346.2417    506.4316    845.8982      2.7730     -7.4548      0.0170      3.0643   -999.2500
  5508.5000   -999.2500      8.0960    298.3245    440.6443    826.8142      2.7703     -7.2896      0.0143      3.0383   -999.2500
  5509.0000   -999.2500      8.0986    243.9833    357.0840    817.8250      2.7704     -7.2955      0.0128      3.0619   -999.2500
  5509.5000   -999.2500      8.1001    197.8005    284.1924    824.6077      2.7703     -7.2895      0.0128      3.0896   -999.2500
  5510.0000   -999.2500      8.0993    163.8857    230.8705    823.7949      2.7704     -7.3000      0.0131      3.1588   -999.2500
  5510.5000   -999.2500      8.0980    141.1649    194.8577    828.9819      2.7737     -7.4954      0.0154      3.0780   -999.2500
  5511.0000   -999.2500      8.0948    128.2110    173.3405    847.8782      2.7494     -6.0234      0.0190      2.9502   -999.2500
  5511.5000   -999.2500      8.0891    121.6358    161.1770    859.1484      2.5880      3.7597   -999.2500      2.8239   -999.2500
  5512.0000   -999.2500   -999.2500    118.3032    154.1887    862.9927      2.5066      8.6931   -999.2500      2.5502   -999.2500
  5512.5000   -999.2500   -999.2500    116.7222    150.7249    875.6328      2.5055      8.7546   -999.2500      2.5000   -999.2500
  5513.0000   -999.2500   -999.2500    116.2025    149.9854    889.9504      2.5046      8.8097   -999.2500      2.5007   -999.2500
  5513.5000   -999.2500   -999.2500    116.1977    151.1538    894.0444      2.5038      8.8605   -999.2500      2.5030   -999.2500
  5514.0000   -999.2500   -999.2500    116.8116    154.1707    891.2668      2.5030      8.9076   -999.2500      2.5007   -999.2500
  5514.5000   -999.2500   -999.2500    118.7326    159.5810    889.9343      2.5022      8.9578   -999.2500      2.5000   -999.2500
  5515.0000   -999.2500   -999.2500    122.0235    167.4333    890.3713      2.5012      9.0188   -999.2500      2.5019   -999.2500
  5515.5000   -999.2500   -999.2500    126.5536    177.9440    889.0071      2.5002      9.0758   -999.2500      2.5075   -999.2500
  5516.0000   -999.2500   -999.2500    132.4671    191.0255    892.6841   -999.2500   -999.2500   -999.2500      2.5018   -999.2500
  5516.5000   -999.2500   -999.2500    139.7910    205.7985    907.7249   -999.2500   -999.2500   -999.2500   -999.2500   -999.2500
  5517.0000   -999.2500   -999.2500    149.1800    222.7477    922.0630   -999.2500   -999.2500   -999.2500   -999.2500   -999.2500
  5517.5000   -999.2500   -999.2500    161.7305    243.5623    929.8979   -999.2500   -999.2500   -999.2500   -999.2500   -999.2500
  5518.0000   -999.2500   -999.2500    174.8510    263.8787    943.5486   -999.2500   -999.2500   -999.2500   -999.2500   -999.2500
  5518.5000   -999.2500   -999.2500    182.1560    273.0376    960.3806   -999.2500   -999.2500   -999.2500   -999.2500   -999.2500
  5519.0000   -999.2500   -999.2500    180.1539    265.2620    968.0466   -999.2500   -999.2500   -999.2500   -999.2500   -999.2500
  5519.5000   -999.2500   -999.2500    170.9644    245.0399    977.9929   -999.2500   -999.2500   -999.2500   -999.2500   -999.2500
  5520.0000   -999.2500   -999.2500    158.1906    220.0762   1002.0349   -999.2500   -999.2500   -999.2500   -999.2500   -999.2500
  5520.5000   -999.2500   -999.2500    144.2377    195.0749   1021.5261   -999.2500   -999.2500   -999.2500   -999.2500   -999.2500
  5521.0000   -999.2500   -999.2500    130.9817    172.2477   1015.6807   -999.2500   -999.2500   -999.2500   -999.2500   -999.2500
  5521.5000   -999.2500   -999.2500    120.2292    153.6003   1003.5122   -999.2500   -999.2500   -999.2500   -999.2500   -999.2500
  5522.0000   -999.2500   -999.2500    113.4714    141.1896   1014.3784   -999.2500   -999.2500   -999.2500   -999.2500   -999.2500
  5522.5000   -999.2500   -999.2500    111.4758    135.6006   1037.5923   -999.2500   -999.2500   -999.2500   -999.2500   -999.2500
  5523.0000   -999.2500   -999.2500    113.3828    135.3286   1048.5139   -999.2500   -999.2500   -999.2500   -999.2500   -999.2500
