~Version Information
 VERS.                2.00:   CWLS log ASCII Standard -VERSION 2.00
 WRAP.                  NO:   One line per frame
~Well Information Block
#MNEM.UNIT              Data                Description
#--------- -------------------------------  -------------------------------
 STRT.F                          430.0000:   Starting Depth
 STOP.F                         5565.5000:   Ending Depth
 STEP.F                            0.5000:   Level Spacing
 NULL.                          -999.2500:   Absent Value
 COMP.     FLUOR DANIEL (NPOSR), INC.    :   Company
 WELL.     43-2 X 10                     :   Well
 FLD .                                   :   Field
 LOC .                                   :   Location
 CNTY.                                   :   County
 STAT.                                   :   State
 SRVC.                                   :   Service Company
 LIC .                                   :   License Number
 DATE.                                   :   Log Date
 API .                                   :   API Number
~Curve Information Block
#MNEM.UNIT       API Codes    Curve Description
#---------    -------------   -------------------------------
 DEPT.F        0   1  0  1:   Depth
 GR  .API      0 310  1  1:   Gamma ray counts
 CALX.         0   0  0  1:   N/A
 RS  .OHMM     0 220  9  1:   Logarithmic Resistivity from ES, IS
 RD  .OHMM     0 220 10  1:   Logarithmic Resistivity from ED, ID
 TEN .LBF      0 635 99  1:   Differential Tension
 ZDEN.G/C3     0 350  1  1:   ZDL Bulk Density
 PORZ.PU       0 890 99  1:   Porosity from ZDEN
 ZCOR.G/C3     0 356 99  1:   ZDL Correction
 PE  .BARN     0 995 99  1:   Photo Electric cross section
 CNCF.PU       0 995 99  1:   CNC corrected to Field Normalized transform
#  Curve Data
~A   DEPT        GR          CALX        RS          RD          TEN         ZDEN        PORZ        ZCOR        PE          CNCF
# ...
  5157.5000     81.5495      9.0685     20.7723     19.2904     38.3192      2.7264     -4.6322      0.0316      3.3384     17.7273
  5158.0000     72.4275      9.0662     22.9193     23.0488     37.5972      2.7647     -6.9543      0.0456      3.3419     14.6382
  5158.5000     56.9196      9.0646     28.0707     29.9476     29.9766      2.8262    -10.6761      0.0580      3.3594     11.6433
  5159.0000     45.1288      9.0633     33.6994     36.0717     19.0858      2.8681    -13.2193      0.0383      3.4599     10.0670
  5159.5000     46.6099      9.0585     36.3175     37.1886     10.5950      2.8531    -12.3084      0.0108      3.7077      9.9215
  5160.0000     54.7300      9.0478     35.6353     34.5346     16.0268      2.8146     -9.9772      0.0204      4.1239     10.3994
  5160.5000     54.5773      9.0356     35.3685     34.1494     26.8039      2.8116     -9.7947      0.0444      4.5806      9.6274
  5161.0000     42.2778      9.0277     48.9689     53.6246     24.6676      2.8536    -12.3369      0.0455      4.8656      7.6111
  5161.5000     26.9874      9.0243    131.4477    165.4481     17.4098      2.9073    -15.5940      0.0306      4.9184      6.0849
  5162.0000     17.8059      9.0237    293.6968    363.6196     18.8077      2.9432    -17.7716      0.0229      4.6504      5.7507
  5162.5000     18.4883      9.0253    380.1086    443.8093     21.8349      2.9421    -17.7039      0.0171      3.9488      6.4965
  5163.0000     29.5710      9.0265    287.9368    307.7888     16.4337      2.8913    -14.6259      0.0005      3.2611      8.0284
  5163.5000     48.0688      9.0258    137.2920    127.9740      8.8144      2.8094     -9.6593     -0.0083      3.0403     10.1549
  5164.0000     66.9201      9.0238     63.2246     52.0478      7.1629      2.7374     -5.2999     -0.0015      3.1078     12.7518
  5164.5000     80.0756      9.0214     41.6247     32.2714      9.2751      2.6972     -2.8598      0.0079      3.2008     15.0711
  5165.0000     86.7961      9.0195     33.4533     25.0407     10.4234      2.6844     -2.0829      0.0168      3.2586     16.1789
  5165.5000     89.2773      9.0190     30.3352     22.3585      9.6201      2.6870     -2.2429      0.0247      3.3295     16.1817
  5166.0000     88.1105      9.0188     29.8461     21.9614      9.2256      2.7051     -3.3417      0.0326      3.4218     15.3160
  5166.5000     80.1499      9.0179     32.4060     24.3171      9.7017      2.7448     -5.7463      0.0395      3.4759     14.0790
  5167.0000     65.5154      9.0183     39.8984     31.1041      5.9525      2.7937     -8.7111      0.0337      3.5261     12.6874
  5167.5000     52.8790      9.0209     52.3176     41.7890     -0.1392      2.8184    -10.2070      0.0141      3.5709     11.6071
  5168.0000     52.8910      9.0197     66.3501     52.1371     -0.4235      2.8022     -9.2240      0.0062      3.5677     11.4686
  5168.5000     65.6005      9.0093     73.9754     55.8056     -2.1903      2.7641     -6.9174      0.0141      3.6760     12.3633
  5169.0000     79.8170      8.9957     70.2010     51.3883    -13.8825      2.7316     -4.9454      0.0121      3.9317     13.1907
  5169.5000     85.7851      8.9896     61.9429     45.7673    -17.9966      2.7247     -4.5294      0.0062      4.1552     12.7723
  5170.0000     82.4765      8.9919     61.1590     47.1751     -9.4088      2.7535     -6.2718      0.0152      4.2486     10.9058
  5170.5000     69.8682      8.9967     74.3132     60.4905    -12.2576      2.8096     -9.6719      0.0254      4.3100      7.9869
  5171.0000     48.8947      9.0011    111.5423    100.1757    -32.5763      2.8665    -13.1200      0.0134      4.4692      5.3739
  5171.5000     28.3181      9.0054    401.6003   3285.5156    -49.5895      2.9004    -15.1750     -0.0117      4.7876      3.8435
  5172.0000     17.5597      9.0034   1507.4885  14243.7461    -56.6283      2.9079    -15.6327     -0.0258      5.1623      3.4256
  5172.5000     17.8995      8.9883   2590.9463  22053.4375    -56.0949      2.8956    -14.8838     -0.0251      5.2068      4.0871
  5173.0000     26.0708      8.9680   2240.6284  15922.0625    -48.6841      2.8590    -12.6637     -0.0204      4.7907      5.8874
  5173.5000     42.0502      8.9554    925.4634   4471.3047    -42.2467      2.7970     -8.9074     -0.0190      4.3710      8.8094
  5174.0000     63.4302      8.9502    166.3969    219.1698    -41.8527      2.7363     -5.2302     -0.0082      4.0328     12.4216
  5174.5000     82.4840      8.9449     61.7257     57.8785    -38.5656      2.7013     -3.1077      0.0141      3.7409     15.5920
  5175.0000     93.8535      8.9386     42.8085     39.4585    -36.6943      2.6856     -2.1591      0.0275      3.7273     17.3396
  5175.5000    100.2157      8.9336     34.6163     31.7149    -47.6974      2.6752     -1.5291      0.0195      3.7961     18.0509
  5176.0000    104.3840      8.9300     31.1247     28.5244    -60.9721      2.6699     -1.2086      0.0057      3.7568     18.2021
  5176.5000    104.6564      8.9264     30.2641     27.9398    -60.7290      2.6692     -1.1651     -0.0002      3.7493     17.7144
  5177.0000    100.7241      8.9222     31.6649     29.7323    -54.1161      2.6678     -1.0792     -0.0008      3.7199     16.7769
  5177.5000     94.5663      8.9174     35.3244     33.9850    -52.2685      2.6705     -1.2432      0.0044      3.6021     15.7426
  5178.0000     89.2081      8.9130     40.7086     40.2184    -52.0777      2.6820     -1.9419      0.0114      3.4824     14.7956
  5178.5000     85.4996      8.9108     46.0909     46.6243    -50.6181      2.6950     -2.7295      0.0073      3.4570     13.8427
  5179.0000     83.6138      8.9108     49.2456     50.7760    -52.7422      2.6991     -2.9786     -0.0057      3.4665     12.8707
  5179.5000     84.4858      8.9111     49.4729     51.8477    -59.4576      2.6926     -2.5820     -0.0113      3.4496     12.1868
  5180.0000     87.4321      8.9107     47.9095     50.9692    -62.6413      2.6841     -2.0652     -0.0039      3.4324     11.9480
  5180.5000     88.7324      8.9089     45.7986     49.4717    -60.2027      2.6833     -2.0201      0.0106      3.4177     11.9268
  5181.0000     88.2014      8.9057     43.7922     48.0319    -59.7848      2.6880     -2.3004      0.0167      3.4016     12.0088
  5181.5000     88.3120      8.9047     41.8806     46.5057    -63.4712      2.6889     -2.3562      0.0084      3.3760     12.3329
  5182.0000     89.5851      8.9068     39.6625     44.3641    -67.1983      2.6863     -2.1977     -0.0006      3.3650     13.0220
  5182.5000     92.4181      8.9086     36.9325     41.4758    -68.5015      2.6854     -2.1464      0.0005      3.3309     14.1109
  5183.0000     96.9722      8.9084     34.0847     38.4162    -67.8856      2.6866     -2.2172      0.0085      3.2356     15.6269
  5183.5000    101.8756      8.9090     31.6696     35.8233    -70.2420      2.6892     -2.3732      0.0183      3.2511     17.2709
  5184.0000    106.0153      8.9110     29.9700     34.0279    -77.4381      2.6922     -2.5569      0.0232      3.2512     18.4329
  5184.5000    108.4717      8.9131     28.9284     32.9847    -81.6574      2.6934     -2.6310      0.0167      3.2453     18.8342
  5185.0000    108.1216      8.9150     28.0863     32.1657    -78.9129      2.6891     -2.3705      0.0045      3.2606     18.9081
  5185.5000    107.6900      8.9164     26.8930     30.9282    -76.3143      2.6792     -1.7674      0.0025      3.2756     18.9585
  5186.0000    110.4271      8.9171     25.2754     29.2132    -76.7114      2.6704     -1.2393      0.0154      3.2648     18.8404
  5186.5000    114.2168      8.9182     23.7448     27.6464    -75.2529      2.6663     -0.9849      0.0288      3.1816     18.7059
  5187.0000    113.5062      8.9225     22.9507     26.9976    -71.3621      2.6610     -0.6655      0.0246      3.1125     18.6133
  5187.5000    106.8080      8.9310     23.1447     27.5234    -69.4726      2.6573     -0.4442      0.0092      3.0543     18.0551
