~VERSION INFORMATION
 VERS.               2.10:   CWLS LOG ASCII STANDARD - VERSION 2.10
 WRAP.                 NO:   ONE LINE PER DEPTH STEP
~WELL INFORMATION
#MNEM.UNIT      DATA TYPE    INFORMATION
#----------   ------------   ------------------------------
 STRT.F         2399.3489:   START DEPTH
 STOP.F         5518.8403:   STOP DEPTH
 STEP.F            0.5000:   STEP LENGTH
 NULL.          -999.2500:   NO VALUE
 COMP. Fluor Daniel (NPOSR), Inc.:   COMPANY
 WELL.        43-2 TPX 10:   WELL
 FLD .           N.P.R. 3:   FIELD
 LOC . 10-38N-78W-NATRONA-WY:   LOCATION
 STAT.                 WY:   STATE
 COUN.            Natrona:   COUNTY
 SRVC.      Western Atlas:   SERVICE COMPANY
 DATE.                   :   LOGDATE
 APIN.         4902522843:   API NUMBER
~CURVE INFORMATION
#MNEM.UNIT       API CODE    CURVE DESCRIPTION
#----------   ------------   ------------------------------
 DEPT.F                  :
 DPHI.none   42 890 03 00:   Den. Porosity, Ss [%]
 NPHI.none   42 890 03 00:   Neu. Porosity, Ss [%]
 GR  .gAPI   42 310 00 00:   Gamma Ray
 RHOB.gm/cc  42 350 01 00:   Bulk Density
~PARAMETER INFORMATION
#MNEM.UNIT          VALUE    DESCRIPTION
#----------   ------------   ------------------------------
 EKB .F         5209.0000:   Kelly bushing
 EGL .F         5199.0000:   Ground level
 EDF .F         5208.0000:   Drilling floor
 EPD .F           10.0000:   Permanent datum
 TD  .F         3150.0000:   Total depth
 NRUN.             1.0000:   Number of Runs
#--RUN 1---   ------------   The following are for Run 1---
 RUN .             1.0000:   Run 1
 DATE.mm/dd/yyyy 02/13/1997:   Date Logged
 DD  .ft             5540:   Depth Driller
 DL  .ft             5541:   Depth Logger
 BLI .ft             5535:   Bottom Log Interval
 TLI .ft             2400:   Top Log Interval
 CSS .inch          9.625:   Casing Size
 CTD1.ft              439:   Casing Driller 1
 CTL1.ft              436:   Casing Logger 1
 BS  .inch           8.75:   Bit Size
 DFT .           Gel/Chem:   Type Fluid In Hole
 DFD .lb/gal          9.6:   Mud Weight
 DFV .sec              50:   Viscosity
 DFPH.                9.5:   pH
 DFL .cc              8.0:   Fluid Loss
 WSS .               tank:   Source Of Sample
 RM  .ohmm            .68:   Rm
 EMT .F                94:   Rm Meas. Temp.
 RMF .ohmm            .51:   Rmf
 MFT .F                94:   Rmf Meas. Temp.
 RMC .ohmm            .95:   Rmc
 MCST.F                94:   Rmc Meas. Temp.
 MFSS.              calc.:   Source Rmf.
 MCSS.              calc.:   Source Rmc.
 RMB .ohmm            .38:   Rm. At BHT
 BHT .F               168:   BHT.
 TCS .hh:mm         6 hrs:   Time Circ. Stopped
 MRT .F               168:   Maximum Recorded Temp.
 LUL .          Rk. Spgs.:   Logging Unit Location
 ENGI.               Rall:   Recorded By
 WITN.      Lebeau/ Hardy:   Witnessed By
 DGBY.              Burke:   Digitized By
~OTHER INFORMATION
# Rho M=2.65, Rho F=1.0
# CNCF=Sandstone
# Cement Volume Based on 7" casing
~A  DEPTH     DPHI       NPHI         GR       RHOB
# ...
 2618.3490    12.3121    21.1463    89.3840     2.4518
 2618.8490    12.0942    21.3628    90.0036     2.4501
 2619.3490    12.0938    21.5483    90.3127     2.4410
 2619.8490    12.3438    21.5330    89.0686     2.4355
 2620.3490    12.8425    20.8632    87.8248     2.4402
 2620.8490    13.0551    20.4509    87.8233     2.4534
 2621.3490    11.8744    20.8836    87.8218     2.4596
 2621.8490    11.5634    21.1618    88.4414     2.4588
 2622.3490    11.6562    21.0367    89.9926     2.4565
 2622.8490    12.1526    20.5711    90.3017     2.4473
 2623.3490    12.5869    20.5083    87.1946     2.4388
 2623.8490    12.7728    20.1976    86.5719     2.4439
 2624.3490    12.4509    19.5151    86.9350     2.4690
 2624.8490    11.6487    18.7706    88.4322     2.4768
 2625.3490    10.8155    18.3050    89.3624     2.4830
 2625.8490     9.9759    19.7894    86.5655     2.4807
 2626.3490    10.2860    20.3479    85.0112     2.4698
 2626.8490    10.8135    20.4712    86.2519     2.4691
 2627.3490    10.9708    20.4082    89.6665     2.4784
 2627.8490    10.4709    20.4383    94.6339     2.4908
 2628.3490     9.6008    20.5306    97.4274     2.4955
 2628.8490     9.2898    20.4056    98.0520     2.4993
 2629.3490     9.1030    19.4752    94.8247     2.4970
 2629.8490     9.1336    19.1025    90.2291     2.4916
 2630.3490     9.5990    19.2023    89.0359     2.4777
 2630.8490    10.4145    19.8030    86.2393     2.4532
 2631.3490    11.5161    20.4630    81.5794     2.4320
 2631.8490    12.6176    20.6480    79.4040     2.4259
 2632.3490    13.5102    20.2134    77.2290     2.4309
 2632.8490    13.3474    19.5752    81.8855     2.4468
 2633.3490    12.1900    18.7244    84.0582     2.4637
 2633.8490    10.6971    17.8735    81.5719     2.4891
 2634.3490     9.2041    17.4522    78.1542     2.5065
 2634.8490     8.5967    17.5443    76.5999     2.5042
 2635.3490     8.9421    18.1631    80.1578     2.4977
 2635.8490     9.5125    18.6580    83.1182     2.4876
 2636.3490    10.2091    19.1838    85.2910     2.4732
 2636.8490    10.9056    19.4928    86.8419     2.4609
 2637.3490    11.4589    19.8017    87.7724     2.4578
 2637.8490    11.6779    19.8629    86.2177     2.4570
 2638.3490    11.4549    19.8295    84.0423     2.4632
 2638.8490    11.1128    19.7681    83.7306     2.4702
 2639.3490    10.6465    19.8600    88.3871     2.4757
 2639.8490    10.4287    19.8904    90.8700     2.4780
 2640.3490    10.3973    19.7963    89.5591     2.4765
 2640.8490    10.5520    19.5476    88.3825     2.4749
 2641.3490    10.5525    19.5159    90.5545     2.4757
 2641.8490    10.3258    19.7317    92.1058     2.4796
 2642.3490    10.1780    19.8858    92.7258     2.4796
 2642.8490    10.4551    19.8849    89.9288     2.4688
 2643.3490    11.6598    19.4835    80.9211     2.4510
 2643.8490    13.0957    18.5076    69.0785     2.4347
 2644.3490    12.8157    17.7132    57.9791     2.4402
 2644.8490    12.0389    17.6194    55.1403     2.4669
 2645.3490    10.8085    17.9284    65.4451     2.4891
 2645.8490     9.5535    19.1034    77.2114     2.4953
 2646.3490     9.6152    20.3231    88.9777     2.4937
 2646.8490     9.6458    21.0243    95.1958     2.4922
 2647.3490     9.3339    21.0232    96.7471     2.4953
 2647.8490     9.2101    21.1463    97.6776     2.4976
 2648.3490     9.2716    21.2696   101.7130     2.4945
 2648.8490     9.3644    21.0826   104.1960     2.4914
 2649.3490     9.3951    20.7099   104.8159     2.4922
 2649.8490     9.0218    20.7739   106.0563     2.4969
 2650.3490     8.9282    20.8941   106.1005     2.5024
 2650.8490     8.8346    20.4282   105.7427     2.5047
 2651.3490     8.7099    20.0865   106.7046     2.5070
 2651.8490     8.4595    19.8998   109.5049     2.5101
 2652.3490     8.1606    19.8681   111.3282     2.5140
 2652.8490     7.9010    20.3008   111.6372     2.5171
 2653.3490     7.5900    20.7027   108.8403     2.5249
 2653.8490     7.2169    20.7329   108.5282     2.5358
 2654.3490     6.3779    20.1953   106.3528     2.5474
 2654.8490     5.6462    18.3599    97.2138     2.5551
 2655.3490     4.9448    16.5245    86.9644     2.5707
 2655.8490     4.2434    14.6891    76.6633     2.5850
 2656.3490     3.2704    13.6020    71.2533     2.5970
 2656.8490     3.1147    13.5704    70.0095     2.5955
 2657.3490     3.6111    14.2510    72.8031     2.5870
 2657.8490     3.9835    14.7768    76.8388     2.5816
 2658.3490     3.8897    15.2717    77.4588     2.5824
 2658.8490     3.3613    14.5582    72.7985     2.5925
 2659.3490     2.8572    14.3404    70.3125     2.6018
 2659.8490     3.4224    14.4114    71.2427     2.5995
 2660.3490     4.0120    15.0201    75.5890     2.5840
 2660.8490     4.3532    16.1657    84.0198     2.5755
 2661.3490     4.4150    16.4127    87.4392     2.5763
 2661.8490     4.2281    16.3188    90.1803     2.5794
 2662.3490     4.1344    16.2250    90.4897     2.5778
 2662.8490     4.3514    16.4410    90.4878     2.5748
 2663.3490     4.4760    16.6880    94.8341     2.5732
 2663.8490     4.6033    17.9885    99.8016     2.5725
 2664.3490     4.7226    19.1364   106.9391     2.5725
 2664.8490     5.1569    20.6612   117.2574     2.5671
 2665.3490     6.7118    22.1859   124.3312     2.5361
 2665.8490     9.1247    23.3141   126.5036     2.4978
 2666.3490    11.5375    23.7160   131.2237     2.4595
 2666.8490    12.7638    23.6841   134.2645     2.4370
 2667.3490    10.7564    23.1810   130.2253     2.4471
 2667.8490     8.3115    22.5269   122.7704     2.5057
 2668.3490     5.7748    22.4730   121.2161     2.5494
 2668.8490     5.8675    22.1932   123.3885     2.5556
 2669.3490     7.0591    21.1930   126.1820     2.5424
 2669.8490     7.6679    19.6778   126.4914     2.5239
 2670.3490     6.1456    17.9148   116.5516     2.5494
 2670.8490     5.1538    17.3872   104.1277     2.5659
 2671.3490     4.3124    17.7272    96.9834     2.5766
 2671.8490     4.6225    18.7488    97.9496     2.5735
 2672.3490     5.1500    19.3676    99.4648     2.5642
 2672.8490     5.3085    19.6455   101.0157     2.5619
 2673.3490     5.2733    19.2419   103.1881     2.5619
 2673.8490     5.0141    18.9588   103.4975     2.5658
 2674.3490     4.7443    18.7705   102.2534     2.5705
 2674.8490     4.6196    18.8983   101.9413     2.5720
 2675.3490     4.6502    18.9286   101.6292     2.5720
 2675.8490     4.7429    18.9895   102.5594     2.5705
 2676.3490     4.9288    19.2365   104.4212     2.5664
 2676.8490     5.9532    19.7004   105.3514     2.5512
 2677.3490     7.5695    20.4431   108.5128     2.5204
 2677.8490     9.2687    20.3493   111.8701     2.4854
 2678.3490    10.5792    20.1315   110.6260     2.4776
 2678.8490     9.4507    19.6269   107.2083     2.4885
 2679.3490     8.0176    19.3240   106.5856     2.5252
 2679.8490     6.5845    19.3851   106.5841     2.5559
 2680.3490     5.4220    20.0837   105.0298     2.5599
 2680.8490     5.7372    21.2271   105.3389     2.5551
 2681.3490     5.9853    22.2329   107.2007     2.5481
 2681.8490     6.0728    22.1701   113.0998     2.5467
 2682.3490     6.1034    21.3139   116.5144     2.5490
 2682.8490     5.6681    20.2550   114.1378     2.5537
 2683.3490     5.4503    19.1930   105.2518     2.5615
 2683.8490     5.1703    18.8823   102.2238     2.5646
 2684.3490     5.2009    18.9126   101.6015     2.5623
 2684.8490     5.7284    19.3065   103.4630     2.5584
 2685.3490     5.6631    19.8337   103.4615     2.5576
 2685.8490     5.4479    20.5827   103.1494     2.5600
 2686.3490     5.2300    21.5424   103.1479     2.5615
 2686.8490     5.2918    21.6657   103.1463     2.5616
 2687.3490     5.2912    21.0759   105.0082     2.5608
 2687.8490     5.2908    20.9823   107.4911     2.5569
 2688.3490     5.5698    21.4459   109.0587     2.5508
 2688.8490     6.7185    21.8169   109.6620     2.5392
 2689.3490     6.6859    21.5991   105.9334     2.5384
 2689.8490     6.1935    21.1947   104.0685     2.5508
 2690.3490     5.2884    21.0087   103.7564     2.5617
 2690.8490     4.8221    20.9766   104.9972     2.5687
