~VERSION INFORMATION
 VERS.               2.10:   CWLS LOG ASCII STANDARD - VERSION 2.10
 WRAP.                 NO:   ONE LINE PER DEPTH STEP
~WELL INFORMATION
#MNEM.UNIT      DATA TYPE    INFORMATION
#----------   ------------   ------------------------------
 STRT.F         2400.0405:   START DEPTH
 STOP.F         5534.6855:   STOP DEPTH
 STEP.F            0.5000:   STEP LENGTH
 NULL.          -999.2500:   NO VALUE
 COMP. Fluor Daniel (NPOSR), Inc.:   COMPANY
 WELL.         43-2TPX-10:   WELL
 FLD .           N.P.R. 3:   FIELD
 LOC . 10-38N-78W-NATRONA-WY:   LOCATION
 STAT.                 WY:   STATE
 COUN.            Natrona:   COUNTY
 SRVC.      Western Atlas:   SERVICE COMPANY
 DATE.                   :   LOGDATE
 APIN.         4902522843:   API NUMBER
~CURVE INFORMATION
#MNEM.UNIT       API CODE    CURVE DESCRIPTION
#----------   ------------   ------------------------------
 DEPT.F                  :
 LLD .ohm.m  11 220 04 00:   Dual Laterolog, Deep
 LLS .ohmm   11 220 06 00:   Dual Laterolog, shallow
 GR  .GAPI   06 310 01 00:   Gamma Ray
 SP  .mV     06 010 01 00:   Spontaneous Potential
~PARAMETER INFORMATION
#MNEM.UNIT          VALUE    DESCRIPTION
#----------   ------------   ------------------------------
 EKB .F         5209.0000:   Kelly bushing
 EGL .F         5199.0000:   Ground level
 EDF .F         5208.0000:   Drilling floor
 EPD .F           10.0000:   Permanent datum
 TD  .F         5230.0000:   Total depth
 NRUN.             1.0000:   Number of Runs
#--RUN 1---   ------------   The following are for Run 1---
 RUN .             1.0000:   Run 1
 DATE.mm/dd/yyyy 02/13/1997:   Date Logged
 DD  .ft             5540:   Depth Driller
 DL  .ft             5541:   Depth Logger
 BLI .ft             5535:   Bottom Log Interval
 TLI .ft             2400:   Top Log Interval
 CSS .inch          9.625:   Casing Size
 CTD1.ft              439:   Casing Driller 1
 CTL1.ft              436:   Casing Logger 1
 BS  .inch           8.75:   Bit Size
 DFT .          Gel/ Chem:   Type Fluid In Hole
 DFD .lb/gal          9.6:   Mud Weight
 DFV .sec              50:   Viscosity
 DFPH.                9.5:   pH
 DFL .cc                8:   Fluid Loss
 WSS .               tank:   Source Of Sample
 RM  .ohmm            .68:   Rm
 EMT .F                94:   Rm Meas. Temp.
 RMF .ohmm            .51:   Rmf
 MFT .F                94:   Rmf Meas. Temp.
 RMC .ohmm            .95:   Rmc
 MCST.F                94:   Rmc Meas. Temp.
 MFSS.              calc.:   Source Rmf.
 MCSS.              calc.:   Source Rmc.
 RMB .ohmm            .38:   Rm. At BHT
 BHT .F               168:   BHT.
 TCS .hh:mm         6 hrs:   Time Circ. Stopped
 MRT .F               168:   Maximum Recorded Temp.
 LUL .          Rk. Spgs.:   Logging Unit Location
 ENGI.               Rall:   Recorded By
 WITN.      Lebeau/ Hardy:   Witnessed By
 DGBY.              Burke:   Digitized By
~OTHER INFORMATION
# RIG FUEL PUMP CAUSING SPURRIOUS ANOMILIES ON S.P.
~A  DEPTH      LLD        LLS         GR         SP
# ...
 5028.0410     0.0000  1713.7902    12.3688    67.2523
 5028.5410     0.0000  1763.1997    12.7037    67.5673
 5029.0410  -999.2500  1345.2689    13.3515    66.7935
 5029.5410  -999.2500   935.7717    15.8774    66.4862
 5030.0410  -999.2500   526.2745    18.7162    66.6457
 5030.5410  2006.4071   383.9691    19.0670    67.1318
 5031.0410     0.0000   604.9782    17.5080    67.1200
 5031.5410     0.0001   825.9872    17.6468    66.3473
 5032.0410     0.0001  1008.1592    26.6340    66.0391
 5032.5410     0.0000   751.3984    40.3912    67.1326
 5033.0410  -999.2500   533.0136    57.3022    67.9141
 5033.5410    76.4964   314.6288    74.2132    68.2280
 5034.0410    73.2990    85.7820    84.6246    67.6108
 5034.5410    82.7615    91.4202    84.9595    66.5260
 5035.0410    88.8988   101.6464    84.6629    66.5299
 5035.5410    90.1784   104.5659    85.0033    67.1714
 5036.0410    86.4114    98.2103    85.9641    67.7818
 5036.5410    82.7995    92.2322    85.0471    66.2314
 5037.0410    78.2145    86.0117    82.5158    66.2353
 5037.5410    75.4818    83.0783    81.3350    66.8612
 5038.0410    74.4185    80.8108    81.9884    67.6427
 5038.5410    76.5831    78.0464    82.6363    67.3355
 5039.0410    79.9410    78.0882    82.9712    66.8719
 5039.5410    84.0437    78.6724    82.9931    66.2546
 5040.0410    86.5233    79.2615    83.3280    66.7250
 5040.5410    88.4709    79.9521    85.2278    66.8845
 5041.0410    89.6485    82.7530    81.8068    65.6451
 5041.5410    90.3001    85.1479    79.9508    64.8704
 5042.0410    91.6076    85.7850    80.9117    65.4973
 5042.5410    91.6175    84.6242    81.8725    67.6785
 5043.0410    88.4165    81.7382    80.9188    68.1489
 5043.5410    84.7208    78.3978    80.3514    67.8417
 5044.0410    81.7608    75.1940    80.3788    67.6891
 5044.5410    77.7821    71.6104    80.4007    67.8495
 5045.0410    73.3665    68.5794    80.7356    68.0089
 5045.5410    67.9422    63.6152    82.3224    66.7376
 5046.0410    63.2707    55.6898    84.8482    66.3059
 5046.5410    56.4515    50.4947    87.0611    66.6218
 5047.0410    52.5701    47.4211    89.2739    66.7812
 5047.5410    50.7333    44.5346    89.2958    67.0961
 5048.0410    50.0200    43.0158    88.6917    66.6334
 5048.5410    50.0254    41.8417    87.7747    66.3252
 5049.0410    48.6232    40.9864    87.4836    66.7966
 5049.5410    47.2231    40.7171    85.9460    67.1115
 5050.0410    44.5926    40.4025    83.4640    67.4264
 5050.5410    40.4053    37.6839    83.7989    67.0728
 5051.0410    37.3597    33.1127    87.5767    65.7244
 5051.5410    35.2909    28.6772    88.8505    66.0393
 5052.0410    34.0570    28.1198    89.4984    67.1319
 5052.5410    35.2985    28.7341    91.0853    68.0688
 5053.0410    37.6434    29.7741    92.9851    67.6052
 5053.5410    38.4619    31.0693    93.6330    66.5214
 5054.0410    38.1926    31.7447    93.3346    66.8363
 5054.5410    37.6278    30.4474    92.4248    67.1512
 5055.0410    36.0826    28.9987    94.0172    66.9995
 5055.5410    34.0845    27.6717    95.2910    67.1746
 5056.0410    33.1292    26.1225    93.7480    68.0969
 5056.5410    31.5187    25.2298    94.0829    68.1008
 5057.0410    29.9866    24.3719    96.6087    67.9481
 5057.5410    27.3335    21.4860    99.4475    67.4864
 5058.0410    24.3875    19.6190   101.9733    67.3338
 5058.5410    23.5354    18.4248   102.9342    67.3386
 5059.0410    23.5461    17.9200   102.6431    67.3425
 5059.5410    25.3666    18.7015    98.2821    67.6574
 5060.0410    27.5448    20.2127    92.4746    67.3503
 5060.5410    28.5481    21.4014    87.5442    67.3542
 5061.0410    26.2086    21.5505    86.1423    67.3590
 5061.5410    23.9155    20.0992    87.1087    67.5183
 5062.0410    21.6448    17.8441    89.6345    67.0556
 5062.5410    19.3742    15.2952    92.4733    66.4374
 5063.0410    17.5844    14.2637    97.8160    66.4413
 5063.5410    17.3366    14.0692    99.0899    66.4452
 5064.0410    18.0973    14.3765   100.3637    66.9156
 5064.5410    19.2995    15.2142   101.0116    66.9355
 5065.0410    20.5815    16.3285    99.7815    66.9233
 5065.5410    22.2770    17.6811    98.2287    66.9278
 5066.0410    23.5750    18.6782    93.6904    66.9317
 5066.5410    23.7464    19.4907    87.2287    67.0911
 5067.0410    23.2461    20.3385    80.1545    67.4060
 5067.5410    22.7563    20.4907    78.9190    67.7209
 5068.0410    21.8051    20.6418    79.8853    68.1914
 5068.5410    19.1793    19.1169    81.1592    68.3508
 5069.0410    17.2347    17.2122    82.7460    68.5103
 5069.5410    16.3969    15.9390    84.0201    68.2039
 5070.0410    16.1664    15.5005    84.3555    67.8968
 5070.5410    16.9221    15.6351    83.7562    67.9006
 5071.0410    21.9760    17.0029    75.7274    67.7480
 5071.5410   696.7104    20.8541    57.4087    67.5964
 5072.0410  -999.2500   403.6148    39.0900    67.6012
 5072.5410     0.0001  1470.7189    20.3052    67.6051
 5073.0410     0.0003     0.0001    10.9374    67.4534
 5073.5410     0.0003     0.0000    10.0204    67.1413
 5074.0410     0.0002     0.0000     9.9933    66.8391
 5074.5410     0.0001  -999.2500     9.7512    66.9994
 5075.0410  -999.2500  1653.0288     9.7786    67.1588
 5075.5410  -999.2500  1239.9874    11.0524    67.4737
 5076.0410  -999.2500   889.1724    13.8912    67.9442
 5076.5410  -999.2500   589.7217    24.2221    68.1026
 5077.0410    30.5517   290.2710    39.4638    67.7954
 5077.5410    25.9310    35.2536    55.5845    67.3337
 5078.0410   118.8445   102.4957    45.0923    66.5600
 5078.5410   217.3924   142.4678    32.2803    66.7194
 5079.0410   188.5054   182.4398    19.6601    67.0344
 5079.5410   155.7314   207.4153    20.6210    67.0391
 5080.0410   119.2504   159.8934    28.6436    67.1985
 5080.5410    82.7693   119.2379    39.0657    67.5134
 5081.0410    46.2882    78.5823    49.4878    68.1393
 5081.5410    26.1406    38.9152    59.9099    68.2978
 5082.0410    23.4902    33.9373    70.3320    67.6805
 5082.5410    21.8751    31.2068    80.8463    67.5287
 5083.0410    20.6633    29.9315    84.9696    67.0662
 5083.5410    22.1943    29.5234    85.8987    67.0701
 5084.0410    24.5282    31.0282    85.9253    67.2296
 5084.5410    27.3418    33.0676    82.1914    67.3898
 5085.0410    36.1703    35.4894    74.1564    67.2372
 5085.5410   322.7526    42.3216    59.8123    67.0855
 5086.0410   833.8354   158.6307    45.4682    67.0904
 5086.5410  1344.9182   376.2537    31.1240    67.2497
 5087.0410  1856.0010   593.8767    17.8251    67.5647
 5087.5410     0.0000   811.4997    13.4652    67.2573
 5088.0410     0.0000  1036.9928    11.9221    67.1058
 5088.5410     0.0000  1152.7314    10.6897    67.1097
 5089.0410  -999.2500  1177.7885    10.4010    67.2897
 5089.5410  -999.2500   966.9802    13.8340    67.5850
 5090.0410  -999.2500   711.3429    23.3907    67.5888
 5090.5410  -999.2500   455.7056    33.7724    67.5927
 5091.0410    19.1375   200.0683    44.1541    67.4401
 5091.5410    13.8841    17.5568    54.5359    67.4449
 5092.0410    12.7463    14.4278    64.9176    67.4488
 5092.5410    12.6570    12.6290    70.0277    67.2970
 5093.0410    12.6587    12.7248    70.0496    67.4565
 5093.5410    13.0266    13.0931    70.0715    67.6159
 5094.0410    16.7232    14.4525    70.4064    67.1532
 5094.5410    55.1036    16.8754    69.4485    67.0016
 5095.0410   113.8823    54.3462    60.7571    67.1619
 5095.5410   172.6610   104.5941    41.5974    67.7879
 5096.0410   219.7905   154.8421    23.8587    68.4138
 5096.5410   198.9254   201.8542    29.5199    68.2622
 5097.0410   161.7661   135.6781    34.2366    67.9550
 5097.5410   123.8645    73.5057    39.8923    67.1813
 5098.0410    85.9629     9.9943    43.3571    66.4075
 5098.5410    48.0613     6.4192    42.4400    66.1004
 5099.0410     5.0498     5.8446    41.5230    66.4359
 5099.5410     4.6692     4.9226    41.8579    67.1977
 5100.0410     5.2718     5.2462    42.8187    67.2016
 5100.5410     6.2570     6.6644    44.0020    67.3440
