~Version Information
 VERS.                2.00:   CWLS log ASCII Standard -VERSION 2.00
 WRAP.                  NO:   One line per frame
~Well Information Block
#MNEM.UNIT              Data                Description
#--------- -------------------------------  -------------------------------
 STRT.F                          430.0000:   Starting Depth
 STOP.F                         5565.5000:   Ending Depth
 STEP.F                            0.5000:   Level Spacing
 NULL.                          -999.2500:   Absent Value
 COMP.     FLUOR DANIEL (NPOSR), INC.    :   Company
 WELL.     43-2 X 10                     :   Well
 FLD .                                   :   Field
 LOC .                                   :   Location
 CNTY.                                   :   County
 STAT.                                   :   State
 SRVC.                                   :   Service Company
 LIC .                                   :   License Number
 DATE.                                   :   Log Date
 API .                                   :   API Number
~Curve Information Block
#MNEM.UNIT       API Codes    Curve Description
#---------    -------------   -------------------------------
 DEPT.F        0   1  0  1:   Depth
 GR  .API      0 310  1  1:   Gamma ray counts
 CALX.         0   0  0  1:   N/A
 RS  .OHMM     0 220  9  1:   Logarithmic Resistivity from ES, IS
 RD  .OHMM     0 220 10  1:   Logarithmic Resistivity from ED, ID
 TEN .LBF      0 635 99  1:   Differential Tension
 ZDEN.G/C3     0 350  1  1:   ZDL Bulk Density
 PORZ.PU       0 890 99  1:   Porosity from ZDEN
 ZCOR.G/C3     0 356 99  1:   ZDL Correction
 PE  .BARN     0 995 99  1:   Photo Electric cross section
 CNCF.PU       0 995 99  1:   CNC corrected to Field Normalized transform
#  Curve Data
~A   DEPT        GR          CALX        RS          RD          TEN         ZDEN        PORZ        ZCOR        PE          CNCF
# ...
  4486.5000     91.4506      8.8627     28.9693     27.4969    -35.6935      2.6294      1.2455      0.0122      2.8083     13.8860
  4487.0000     95.6352      8.8657     26.3746     24.8161    -42.9439      2.6282      1.3190      0.0111      3.1902     15.7367
  4487.5000    105.1951      8.8716     22.5727     21.0120    -37.9111      2.6303      1.1932      0.0088      3.6205     18.1420
  4488.0000    120.2540      8.8775     18.6613     17.2360    -34.7454      2.6328      1.0425      0.0016      3.7266     20.0373
  4488.5000    131.6700      8.8798     16.2102     14.9865    -41.5681      2.6336      0.9934     -0.0007      3.5377     20.3388
  4489.0000    132.0598      8.8795     15.9428     14.9052    -46.5145      2.6294      1.2475      0.0068      3.4603     18.8144
  4489.5000    121.9621      8.8792     17.7988     16.8571    -40.8040      2.6203      1.7999      0.0154      3.4264     16.2687
  4490.0000    108.8623      8.8783     20.8898     19.8378    -29.8909      2.6098      2.4355      0.0193      3.3549     14.1733
  4490.5000     98.5605      8.8748     23.5064     22.1829    -23.3884      2.5975      3.1832      0.0143      3.3022     13.1198
  4491.0000     91.4875      8.8713     24.6022     23.0821    -24.0088      2.5863      3.8630      0.0067      3.2505     12.7396
  4491.5000     86.4459      8.8709     24.7122     23.1893    -25.6497      2.5824      4.0968      0.0074      3.1477     12.5151
  4492.0000     84.8824      8.8716     24.6757     23.2268    -24.3178      2.5855      3.9107      0.0184      3.0705     12.3448
  4492.5000     85.4044      8.8694     24.5652     23.1623    -21.9047      2.5884      3.7351      0.0255      3.1145     12.3009
  4493.0000     84.6220      8.8671     24.2550     22.8746    -19.9953      2.5886      3.7197      0.0216      3.1142     12.3819
  4493.5000     83.4361      8.8672     23.7674     22.4124    -17.6617      2.5882      3.7432      0.0161      3.1021     12.7034
  4494.0000     84.6352      8.8682     23.1204     21.7835    -19.9414      2.5899      3.6439      0.0153      3.0868     13.3071
  4494.5000     88.1874      8.8681     22.3258     20.9807    -26.6124      2.5961      3.2693      0.0143      3.0739     13.8353
  4495.0000     92.2795      8.8672     21.5710     20.1924    -28.5912      2.6045      2.7593      0.0116      3.0732     14.2154
  4495.5000     95.1692      8.8659     21.1070     19.6874    -26.1503      2.6070      2.6038      0.0104      3.0660     14.6357
  4496.0000     96.0795      8.8650     21.0129     19.5705    -23.1498      2.6009      2.9777      0.0117      3.0321     14.8347
  4496.5000     94.2436      8.8642     21.1976     19.7545    -15.2105      2.5957      3.2909      0.0158      3.0287     14.5879
  4497.0000     90.7568      8.8644     21.4825     20.0392     -7.2572      2.5997      3.0480      0.0200      3.0432     14.3636
  4497.5000     87.4315      8.8665     21.7432     20.2975     -9.6296      2.6059      2.6701      0.0185      2.9479     14.3507
  4498.0000     84.9344      8.8695     22.0096     20.5706    -19.0747      2.6048      2.7391      0.0183      2.9558     14.1428
  4498.5000     83.5407      8.8714     22.3345     20.9077    -24.5641      2.5986      3.1175      0.0230      3.3223     13.5072
  4499.0000     84.2754      8.8718     22.7193     21.3005    -26.2403      2.5940      3.3963      0.0216      3.5251     12.7916
  4499.5000     85.0764      8.8723     23.1971     21.7872    -29.8655      2.5900      3.6357      0.0109      3.3742     12.2626
  4500.0000     83.0155      8.8731     23.8535     22.4627    -38.3886      2.5838      4.0095      0.0040      3.0507     11.9685
  4500.5000     80.2936      8.8735     24.6549     23.2773    -43.3711      2.5809      4.1887      0.0057      2.8331     12.0231
  4501.0000     80.4210      8.8731     25.3448     23.9384    -41.6915      2.5867      3.8362      0.0070      2.8781     12.2502
  4501.5000     82.2850      8.8719     25.5950     24.1092    -38.7231      2.5966      3.2334      0.0104      2.9682     12.4315
  4502.0000     83.6489      8.8692     25.3459     23.7849    -32.0479      2.6024      2.8856      0.0206      2.9709     12.5046
  4502.5000     84.7187      8.8676     24.9346     23.3541    -21.5277      2.6026      2.8740      0.0273      2.9905     12.6267
  4503.0000     85.6135      8.8694     24.7777     23.2154    -19.0453      2.6024      2.8849      0.0230      3.0127     12.7891
  4503.5000     84.8394      8.8728     24.9850     23.4266    -26.7506      2.6079      2.5496      0.0207      2.9784     12.8908
  4504.0000     82.6706      8.8753     25.3064     23.7294    -33.1703      2.6186      1.9020      0.0236      2.7904     12.9249
  4504.5000     82.2193      8.8763     25.4939     23.8974    -35.2504      2.6277      1.3486      0.0260      2.7271     13.0373
  4505.0000     85.8012      8.8768     25.5060     23.9009    -39.9267      2.6325      1.0604      0.0284      2.9496     13.2186
  4505.5000     91.0709      8.8770     25.3386     23.7400    -47.5723      2.6337      0.9900      0.0298      3.2991     13.5425
  4506.0000     94.5820      8.8773     24.7957     23.2236    -48.6501      2.6316      1.1151      0.0201      3.4972     14.2858
  4506.5000     98.0128      8.8779     23.7052     22.1793    -40.9920      2.6287      1.2914      0.0068      3.5010     15.3137
  4507.0000    103.7897      8.8791     22.2045     20.7466    -36.6698      2.6265      1.4269      0.0009      3.4740     16.0441
  4507.5000    108.6474      8.8795     20.8283     19.4836    -36.8871      2.6234      1.6142      0.0008      3.4725     16.2685
  4508.0000    108.6192      8.8784     20.2265     19.0309    -30.7882      2.6205      1.7862      0.0039      3.4517     16.2545
  4508.5000    105.2880      8.8781     20.6218     19.5717    -19.4937      2.6209      1.7634      0.0091      3.4029     15.8706
  4509.0000    102.9416      8.8789     21.7908     20.8359    -14.4859      2.6230      1.6338      0.0102      3.3849     15.0296
  4509.5000    101.7339      8.8795     23.1972     22.2556    -19.4885      2.6249      1.5204      0.0104      3.3843     14.2531
  4510.0000     99.8526      8.8794     24.2845     23.3280    -25.1806      2.6250      1.5150      0.0134      3.3761     13.9730
  4510.5000     97.7063      8.8792     24.8711     23.9669    -22.5043      2.6202      1.8071      0.0100      3.3497     14.0384
  4511.0000     96.5544      8.8789     24.8351     24.0284    -15.5242      2.6139      2.1888     -0.0003      3.3113     14.4170
  4511.5000     97.0225      8.8787     23.6542     22.9026    -15.1387      2.6172      1.9869      0.0014      3.2956     15.3612
  4512.0000    100.6151      8.8795     21.3436     20.6316    -19.3472      2.6301      1.2035      0.0170      3.2645     16.8491
  4512.5000    105.9053      8.8802     19.1002     18.4822    -22.4102      2.6415      0.5172      0.0298      3.1638     17.9911
  4513.0000    106.3472      8.8795     18.1356     17.6856    -27.3239      2.6437      0.3840      0.0305      3.1192     17.5816
  4513.5000    100.5474      8.8795     18.8333     18.5843    -33.6092      2.6374      0.7637      0.0245      3.1157     15.8827
  4514.0000     94.1475      8.8818     20.6799     20.5506    -31.3534      2.6267      1.4147      0.0154      3.0740     14.2516
  4514.5000     90.8489      8.8829     22.5473     22.3715    -20.3864      2.6195      1.8467      0.0124      3.0389     13.4837
  4515.0000     89.5963      8.8816     23.5831     23.2774    -14.7692      2.6228      1.6466      0.0186      3.0665     13.4499
  4515.5000     89.4378      8.8799     23.9489     23.5602    -16.6877      2.6340      0.9676      0.0230      3.1029     13.7580
  4516.0000     91.4979      8.8792     23.8826     23.4020    -13.6419      2.6448      0.3168      0.0192      3.0821     14.4510
  4516.5000    100.1531      8.8800     22.6187     21.9491     -5.7810      2.6523     -0.1408      0.0216      3.1021     16.0686
