~Version Information
 VERS.                2.00:   CWLS log ASCII Standard -VERSION 2.00
 WRAP.                  NO:   One line per frame
~Well Information Block
#MNEM.UNIT              Data                Description
#--------- -------------------------------  -------------------------------
 STRT.F                          430.0000:   Starting Depth
 STOP.F                         5565.5000:   Ending Depth
 STEP.F                            0.5000:   Level Spacing
 NULL.                          -999.2500:   Absent Value
 COMP.     FLUOR DANIEL (NPOSR), INC.    :   Company
 WELL.     43-2 X 10                     :   Well
 FLD .                                   :   Field
 LOC .                                   :   Location
 CNTY.                                   :   County
 STAT.                                   :   State
 SRVC.                                   :   Service Company
 LIC .                                   :   License Number
 DATE.                                   :   Log Date
 API .                                   :   API Number
~Curve Information Block
#MNEM.UNIT       API Codes    Curve Description
#---------    -------------   -------------------------------
 DEPT.F        0   1  0  1:   Depth
 GR  .API      0 310  1  1:   Gamma ray counts
 CALX.         0   0  0  1:   N/A
 RS  .OHMM     0 220  9  1:   Logarithmic Resistivity from ES, IS
 RD  .OHMM     0 220 10  1:   Logarithmic Resistivity from ED, ID
 TEN .LBF      0 635 99  1:   Differential Tension
 ZDEN.G/C3     0 350  1  1:   ZDL Bulk Density
 PORZ.PU       0 890 99  1:   Porosity from ZDEN
 ZCOR.G/C3     0 356 99  1:   ZDL Correction
 PE  .BARN     0 995 99  1:   Photo Electric cross section
 CNCF.PU       0 995 99  1:   CNC corrected to Field Normalized transform
#  Curve Data
~A   DEPT        GR          CALX        RS          RD          TEN         ZDEN        PORZ        ZCOR        PE          CNCF
   430.0000     63.9166      8.7851      0.1001      0.2405    -33.2280      2.3002     21.1997     -0.3775     14.5645     38.0665
   430.5000     65.2961      8.7915      0.1001      0.2401    -34.6735      2.2938     21.5860     -0.3708     14.3258     34.8729
   431.0000     64.0206      8.7992      0.1000      0.2437    -36.2934      2.3009     21.1582     -0.3822     14.2531     32.6882
   431.5000     61.5111      8.8047      0.1000      0.2395    -37.0487      2.3211     19.9362     -0.3844     14.5419     31.7231
   432.0000     60.3045      8.8058      0.1000      0.2209    -37.7083      2.3539     17.9435     -0.3676     14.5353     31.0796
   432.5000     60.5595      8.8046      0.1000      0.1902    -41.0810      2.3767     16.5643     -0.3495     14.3892     30.7812
   433.0000     60.9337      8.8046      0.1000      0.1529    -45.8433      2.4159     14.1865     -0.3351     15.2102     31.9056
   433.5000     60.4190      8.8064      0.1000      0.1203    -49.3725      2.4878      9.8326     -0.3740     16.9774     33.9788
   434.0000     57.8988      8.8084      0.1000      0.1034    -50.6882      2.4368     12.9189     -0.5482     14.8318     34.3831
   434.5000     55.2357      8.8139      0.1071      0.1067    -51.6066      2.2936     21.5975     -0.7185      7.7525     33.0580
   435.0000     58.6949      8.8726      0.1820      0.1937    -52.7465      2.3093     20.6506     -0.4671      3.8633     32.3554
   435.5000     69.6808      9.0584      0.6077      1.0214    -50.4969      2.4211     13.8750     -0.1160      3.1293     32.8942
   436.0000     78.8197      9.3193      2.0162      3.9248    -44.0595      2.4729     10.7340      0.0746      2.9250     33.0541
   436.5000     81.6029      9.5036      4.3365      7.7164    -41.2784      2.4598     11.5284      0.1216      2.8207     31.9526
   437.0000     82.4725      9.5575      6.4533      9.4667    -42.7359      2.4566     11.7220      0.1021      2.6057     30.3905
   437.5000     83.3520      9.5746      7.6800      9.0782    -42.5390      2.4767     10.5054      0.0814      2.5652     29.9702
   438.0000     83.1885      9.6290      8.4006      8.9099    -42.1529      2.4894      9.7358      0.0770      2.6207     30.9004
   438.5000     83.2246      9.7122      8.9107      9.4871    -47.0967      2.4850      9.9998      0.0830      2.4402     31.3835
   439.0000     83.1609      9.8477      9.0647      9.9078    -54.8999      2.4944      9.4293      0.0769      2.3801     30.6670
   439.5000     83.0399     10.2010      8.9103      9.8797    -60.2945      2.5145      8.2101      0.0523      2.3767     29.3725
   440.0000     83.9463     10.7847      8.6811      9.6243    -59.4010      2.5107      8.4409      0.0467      2.3848     28.1872
   440.5000     84.4491     11.1845      8.6113      9.6564    -54.0626      2.4773     10.4697      0.1008      2.4193     27.6320
   441.0000     84.1696     10.9828      8.8266     10.3081    -49.5942      2.4430     12.5428      0.1626      2.4831     27.7109
   441.5000     84.8793     10.3603      9.3079     11.3766    -48.2087      2.4392     12.7786      0.1530      2.5625     27.7181
   442.0000     86.1958      9.8397      9.9033     12.3656    -47.9805      2.4673     11.0736      0.0844      2.5873     27.1842
   442.5000     85.9390      9.6334     10.3967     12.9334    -47.1794      2.5014      9.0046      0.0340      2.6127     26.1292
   443.0000     85.5760      9.5995     10.6349     13.0842    -44.8874      2.5194      7.9170      0.0294      2.6501     25.4405
   443.5000     86.3920      9.5963     10.6011     12.9370    -41.8322      2.5197      7.8994      0.0369      2.6735     25.9796
   444.0000     86.7099      9.5942     10.3710     12.5806    -39.5143      2.5118      8.3731      0.0467      2.6800     27.2345
   444.5000     86.6145      9.5926     10.0488     12.0970    -39.1284      2.5064      8.7051      0.0508      2.6728     27.8872
   445.0000     87.9612      9.5924      9.7367     11.6003    -40.9609      2.5053      8.7690      0.0403      2.6708     27.8945
   445.5000     89.8490      9.5943      9.5010     11.1619    -44.7481      2.5057      8.7465      0.0320      2.6911     27.6790
   446.0000     90.6784      9.5966      9.3825     10.8345    -48.6698      2.5065      8.6983      0.0388      2.7059     27.1117
   446.5000     90.9680      9.5999      9.3955     10.6174    -48.3469      2.5060      8.7297      0.0431      2.6807     26.0240
   447.0000     90.0934      9.6103      9.4682     10.4077    -44.5927      2.5049      8.7945      0.0350      2.6327     25.3401
   447.5000     87.4807      9.6272      9.4787     10.1736    -43.7587      2.5074      8.6441      0.0306      2.5789     25.4352
   448.0000     84.4353      9.6400      9.3596     10.0512    -45.9325      2.5120      8.3633      0.0358      2.5323     25.7219
   448.5000     83.4911      9.6480      9.1509     10.1220    -45.7847      2.5114      8.4023      0.0372      2.4422     25.3225
   449.0000     84.7282      9.6645      8.9573     10.2609    -43.4300      2.5063      8.7105      0.0332      2.3534     24.9741
   449.5000     85.3097      9.6918      8.8355     10.3134    -42.7518      2.5053      8.7675      0.0358      2.3115     25.5733
   450.0000     86.2638      9.7228      8.7382     10.2509    -44.6096      2.5088      8.5579      0.0453      2.2752     26.5931
   450.5000     88.6171      9.7463      8.6123     10.1103    -45.8603      2.5064      8.7001      0.0469      2.3144     27.1209
   451.0000     90.0089      9.7573      8.4499      9.9159    -45.5185      2.4971      9.2686      0.0375      2.5321     27.4734
   451.5000     89.6920      9.7607      8.2573      9.6809    -45.9430      2.4921      9.5692      0.0274      2.6422     27.6472
   452.0000     89.1685      9.7646      8.0556      9.4366    -47.1619      2.4935      9.4835      0.0216      2.6785     27.2062
   452.5000     88.0530      9.7733      7.8881      9.2379    -47.0261      2.4938      9.4672      0.0228      2.7110     26.5062
   453.0000     88.3971      9.7856      7.7924      9.1269    -45.1348      2.4905      9.6637      0.0319      2.7050     26.3143
   453.5000     92.2013      9.7976      7.7608      9.0879    -41.5562      2.4889      9.7627      0.0396      2.6733     26.6094
   454.0000     95.4065      9.8047      7.7469      9.0653    -38.0573      2.4952      9.3815      0.0457      2.6473     27.4448
   454.5000     95.4047      9.8070      7.7094      9.0260    -38.0543      2.5083      8.5877      0.0558      2.6235     28.4323
   455.0000     95.5844      9.8079      7.6376      8.9674    -41.5360      2.5129      8.3120      0.0534      2.7005     29.1226
   455.5000     97.0444      9.8132      7.5377      8.8847    -44.7876      2.5000      9.0909      0.0274      2.6821     29.2531
   456.0000     97.3438      9.8244      7.4201      8.7715    -45.4089      2.4840     10.0592      0.0041      2.7120     28.6820
   456.5000     97.3457      9.8368      7.2889      8.6253    -44.0004      2.4788     10.3757      0.0034      2.7364     28.0122
   457.0000     98.7400      9.8449      7.1438      8.4620    -44.4059      2.4806     10.2640      0.0124      2.7731     28.7552
   457.5000     99.7991      9.8481      7.0114      8.3364    -45.8784      2.4819     10.1878      0.0187      2.8059     30.4486
   458.0000     98.6970      9.8496      6.9312      8.2910    -46.8835      2.4824     10.1564      0.0209      2.8230     30.7092
   458.5000     96.5398      9.8568      6.9126      8.3129    -47.4439      2.4825     10.1545      0.0205      2.8265     29.6731
   459.0000     94.5221      9.8704      6.9403      8.3779    -46.9116      2.4822     10.1668      0.0205      2.8247     28.8143
   459.5000     93.2995      9.8810      6.9964      8.4756    -44.4898      2.4841     10.0521      0.0240      2.8444     28.0484
   460.0000     93.5263      9.8848      7.0502      8.5682    -42.1775      2.4878      9.8294      0.0266      2.8832     27.8767
