~VERSION INFORMATION
 VERS.               2.10:   CWLS LOG ASCII STANDARD - VERSION 2.10
 WRAP.                 NO:   ONE LINE PER DEPTH STEP
~WELL INFORMATION
#MNEM.UNIT      DATA TYPE    INFORMATION
#----------   ------------   ------------------------------
 STRT.F         2400.0405:   START DEPTH
 STOP.F         5534.6855:   STOP DEPTH
 STEP.F            0.5000:   STEP LENGTH
 NULL.          -999.2500:   NO VALUE
 COMP. Fluor Daniel (NPOSR), Inc.:   COMPANY
 WELL.         43-2TPX-10:   WELL
 FLD .           N.P.R. 3:   FIELD
 LOC . 10-38N-78W-NATRONA-WY:   LOCATION
 STAT.                 WY:   STATE
 COUN.            Natrona:   COUNTY
 SRVC.      Western Atlas:   SERVICE COMPANY
 DATE.                   :   LOGDATE
 APIN.         4902522843:   API NUMBER
~CURVE INFORMATION
#MNEM.UNIT       API CODE    CURVE DESCRIPTION
#----------   ------------   ------------------------------
 DEPT.F                  :
 LLD .ohm.m  11 220 04 00:   Dual Laterolog, Deep
 LLS .ohmm   11 220 06 00:   Dual Laterolog, shallow
 GR  .GAPI   06 310 01 00:   Gamma Ray
 SP  .mV     06 010 01 00:   Spontaneous Potential
~PARAMETER INFORMATION
#MNEM.UNIT          VALUE    DESCRIPTION
#----------   ------------   ------------------------------
 EKB .F         5209.0000:   Kelly bushing
 EGL .F         5199.0000:   Ground level
 EDF .F         5208.0000:   Drilling floor
 EPD .F           10.0000:   Permanent datum
 TD  .F         5230.0000:   Total depth
 NRUN.             1.0000:   Number of Runs
#--RUN 1---   ------------   The following are for Run 1---
 RUN .             1.0000:   Run 1
 DATE.mm/dd/yyyy 02/13/1997:   Date Logged
 DD  .ft             5540:   Depth Driller
 DL  .ft             5541:   Depth Logger
 BLI .ft             5535:   Bottom Log Interval
 TLI .ft             2400:   Top Log Interval
 CSS .inch          9.625:   Casing Size
 CTD1.ft              439:   Casing Driller 1
 CTL1.ft              436:   Casing Logger 1
 BS  .inch           8.75:   Bit Size
 DFT .          Gel/ Chem:   Type Fluid In Hole
 DFD .lb/gal          9.6:   Mud Weight
 DFV .sec              50:   Viscosity
 DFPH.                9.5:   pH
 DFL .cc                8:   Fluid Loss
 WSS .               tank:   Source Of Sample
 RM  .ohmm            .68:   Rm
 EMT .F                94:   Rm Meas. Temp.
 RMF .ohmm            .51:   Rmf
 MFT .F                94:   Rmf Meas. Temp.
 RMC .ohmm            .95:   Rmc
 MCST.F                94:   Rmc Meas. Temp.
 MFSS.              calc.:   Source Rmf.
 MCSS.              calc.:   Source Rmc.
 RMB .ohmm            .38:   Rm. At BHT
 BHT .F               168:   BHT.
 TCS .hh:mm         6 hrs:   Time Circ. Stopped
 MRT .F               168:   Maximum Recorded Temp.
 LUL .          Rk. Spgs.:   Logging Unit Location
 ENGI.               Rall:   Recorded By
 WITN.      Lebeau/ Hardy:   Witnessed By
 DGBY.              Burke:   Digitized By
~OTHER INFORMATION
# RIG FUEL PUMP CAUSING SPURRIOUS ANOMILIES ON S.P.
~A  DEPTH      LLD        LLS         GR         SP
# ...
 4225.0410     5.8722     6.2424    96.6107    66.7224
 4225.5410     6.0023     6.4240    93.7623    67.3446
 4226.0410     6.0486     6.5647    90.4185    67.8112
 4226.5410     6.0512     6.7084    89.4950    68.1223
 4227.0410     6.0538     6.7597    91.0661    67.9669
 4227.5410     6.0999     6.6701    89.8347    67.9670
 4228.0410     5.9729     6.5339    89.2222    68.1226
 4228.5410     5.8485     6.4465    91.7264    67.8116
 4229.0410     5.7267     6.3602    95.1606    67.6562
 4229.5410     5.5675     6.1885    96.4175    67.4764
 4230.0410     5.4094     5.9705    96.7413    67.1897
 4230.5410     5.1880     5.6655    96.4123    67.3454
 4231.0410     5.0438     5.3605    94.9038    67.3454
 4231.5410     4.8362     5.0600    93.3613    67.3455
 4232.0410     4.7329     4.9566    92.3084    67.5011
 4232.5410     4.7694     4.9602    90.9827    67.5012
 4233.0410     4.8058     5.0333    89.6571    67.5131
 4233.5410     4.8078     4.9660    88.1256    67.0348
 4234.0410     4.7751     4.9341    87.5131    66.8793
 4234.5410     4.7776     4.9371    93.4388    67.0349
 4235.0410     4.8140     4.9754    95.9399    67.1905
 4235.5410     4.8855     5.0843    98.7520    66.8796
 4236.0410     4.9581     5.1231    98.1427    66.7241
 4236.5410     4.9542     5.0546    93.4898    66.8797
 4237.0410     4.7884     4.9174    90.7032    67.1908
 4237.5410     4.4278     4.8176    90.7165    67.3464
 4238.0410     4.2736     4.6540    90.7319    67.3465
 4238.5410     4.1548     4.4314    90.1225    67.5021
 4239.0410     4.1269     4.4048    85.1586    67.3467
 4239.5410     4.1887     4.4390    84.2350    67.3468
 4240.0410     4.2205     4.4416    84.5620    67.3468
 4240.5410     4.1910     4.4131    85.8189    67.5024
 4241.0410     4.1641     4.3847    87.0758    67.8135
 4241.5410     4.0779     4.2657    86.7775    68.4357
 4242.0410     3.9930     4.0920    84.9240    68.1247
 4242.5410     3.8820     3.9531    85.3523    67.9668
 4243.0410     3.8284     3.9002    88.3742    67.5028
 4243.5410     3.8301     3.9030    90.5642    67.3474
 4244.0410     3.8593     3.9328    91.5101    67.3475
 4244.5410     3.8886     4.0189    91.5228    67.5030
 4245.0410     3.9471     4.0781    92.1576    67.6586
 4245.5410     3.9765     4.1093    92.7925    67.9698
 4246.0410     3.9786     4.0823    91.8721    67.8143
 4246.5410     3.9803     4.0567    90.9516    67.3478
 4247.0410     3.9532     4.0590    90.6326    67.1912
 4247.5410     3.8713     4.0020    90.0441    67.0369
 4248.0410     3.7907     3.9240    89.4347    66.8815
 4248.5410     3.7118     3.8444    90.0728    67.1926
 4249.0410     3.7134     3.7659    91.9517    67.5037
 4249.5410     3.7416     3.7952    92.5866    67.8149
 4250.0410     3.8275     3.8511    92.2883    67.8149
 4250.5410     3.9659     3.9354    88.8796    67.3485
 4251.0410     4.0248     4.0785    87.3371    67.3485
 4251.5410     4.1140     4.2268    87.0387    67.3920
 4252.0410     4.2050     4.3194    86.7208    67.4366
 4252.5410     4.2675     4.3836    85.8201    67.4813
 4253.0410     4.3309     4.4171    84.9029    67.5260
 4253.5410     4.2407     4.4196    84.2904    67.5706
 4254.0410     4.1822     4.4222    85.5505    67.6153
 4254.5410     4.1542     4.4248    87.4295    67.6601
 4255.0410     4.1564     4.4900    88.0643    67.3492
 4255.5410     4.1582     4.5562    87.4550    67.0382
 4256.0410     4.2200     4.5919    86.5342    67.5048
 4256.5410     4.2826     4.6261    86.8584    67.5049
 4257.0410     4.2236     4.5648    87.8244    67.6605
 4257.5410     4.1352     4.5031    88.8027    67.8161
 4258.0410     3.9920     4.5063    90.0102    67.8162
 4258.5410     3.9937     4.5407    90.0230    67.6607
 4259.0410     4.0263     4.6077    90.0357    67.9719
 4259.5410     4.2942     4.8088    88.4933    68.2830
 4260.0410     4.5491     5.0188    87.8807    68.2831
 4260.5410     4.8539     5.2433    88.2077    68.2831
 4261.0410     5.2537     6.0663    88.8425    68.1277
 4261.5410     6.0215     7.1445    88.2332    67.8167
 4262.0410     8.3069     8.4023    82.8535    67.5058
 4262.5410    11.8913    11.0322    73.4188    67.5058
 4263.0410    15.4758    14.3803    63.7002    67.8170
 4263.5410    19.0602    17.7284    64.0340    67.6615
 4264.0410    22.6447    21.0765    66.2144    67.6666
 4264.5410    26.9407    24.4246    65.2936    67.6855
 4265.0410    28.9610    28.4313    63.7512    67.7045
 4265.5410    30.3034    30.7334    63.7671    67.7235
 4266.0410    29.8181    30.7513    65.0240    67.7424
 4266.5410    29.1973    30.5493    66.5920    67.7614
 4267.0410    31.8326    30.7870    66.6047    67.7804
 4267.5410    34.4546    35.4521    68.1727    67.7993
 4268.0410    35.4704    39.9956    69.4296    67.8183
 4268.5410    34.2383    38.0438    70.0644    67.8373
 4269.0410    27.3425    30.3598    69.4551    67.8563
 4269.5410    18.6362    22.6758    69.7820    67.8752
 4270.0410    13.2354    17.0059    72.2831    67.8942
 4270.5410    13.3362    17.0158    75.0952    67.9132
 4271.0410    14.8539    19.1855    75.4190    67.9321
 4271.5410    16.0774    21.6319    78.2312    67.9511
 4272.0410    18.4269    22.8958    81.3543    67.9701
 4272.5410    19.5244    24.9599    84.4775    67.9891
 4273.0410    21.0333    26.9462    86.3565    68.0080
 4273.5410    24.9227    29.9583    83.5367    68.0270
 4274.0410    32.0304    35.4810    79.1055    68.0460
 4274.5410    40.2907    41.1454    77.6855    68.0649
 4275.0410    48.8999    48.3892    78.6346    68.0839
 4275.5410    52.1755    57.7136    76.4701    68.1029
 4276.0410    53.3306    60.6580    72.1282    68.1218
 4276.5410    51.1111    60.2652    70.8936    68.1408
 4277.0410    46.6715    57.1722    81.6013    68.1598
 4277.5410    37.1044    46.8616    93.6624    68.1787
 4278.0410    29.2885    37.9784   105.7234    68.1977
 4278.5410    28.0666    34.4408   116.3610    68.2167
 4279.0410    31.0409    35.4429   119.4809    68.2357
 4279.5410    33.8390    38.0446   117.0082    68.2546
 4280.0410    34.8366    40.2674   119.1986    68.2736
 4280.5410    34.1113    40.3155   122.6328    68.1307
 4281.0410    34.3711    39.7517   116.3946    67.8198
 4281.5410    38.0095    40.4186   108.2273    67.5088
 4282.0410    40.3132    43.9176    99.9671    67.8199
 4282.5410    41.4579    45.5142   100.6019    67.5089
 4283.0410    39.4492    45.5406   105.9024    67.3535
 4283.5410    38.3524    42.4756   107.7913    67.3592
 4284.0410    38.6445    40.1775   103.0255    67.6647
 4284.5410    40.0695    39.9137    90.1554    67.9758
 4285.0410    40.0867    40.7934    77.2853    67.3538
 4285.5410    38.6943    40.5181    68.6442    67.5094
 4286.0410    36.8195    39.3437    65.8576    67.5095
 4286.5410    33.4926    36.2694    57.1612    67.6651
 4287.0410    29.4489    33.8284    54.6856    67.5096
 4287.5410    27.1044    29.8273    54.3867    67.5097
 4288.0410    25.7884    27.8159    54.7111    67.3543
 4288.5410    26.3622    28.6294    55.6571    67.1988
 4289.0410    27.9275    29.8793    55.6701    67.1989
 4289.5410    29.7982    31.8481    54.4415    67.0435
 4290.0410    30.6767    33.2709    53.5211    66.8880
 4290.5410    30.6899    34.2107    52.2865    67.1992
 4291.0410    29.8366    33.2820    51.9882    67.9768
 4291.5410    27.9290    30.3946    52.3151    68.4435
 4292.0410    27.4048    29.1570    54.1941    68.4436
 4292.5410    27.8148    29.1739    56.0731    68.4436
 4293.0410    30.1059    31.3154    57.9521    68.2882
 4293.5410    32.8196    34.5721    59.5202    67.8217
 4294.0410    34.2743    36.0815    59.5332    67.3552
 4294.5410    33.7981    36.8939    59.5488    67.5108
 4295.0410    32.3950    35.3752    62.0498    67.8219
 4295.5410    30.5970    33.6972    65.1730    67.9775
 4296.0410    29.7546    33.2415    67.9851    68.5997
 4296.5410    30.6351    33.7363    69.5531    69.2219
 4297.0410    31.0901    34.7180    69.8769    68.9109
 4297.5410    30.8784    34.2534    68.6455    68.7554
