~VERSION INFORMATION
 VERS.               2.10:   CWLS LOG ASCII STANDARD - VERSION 2.10
 WRAP.                 NO:   ONE LINE PER DEPTH STEP
~WELL INFORMATION
#MNEM.UNIT      DATA TYPE    INFORMATION
#----------   ------------   ------------------------------
 STRT.F         2400.0405:   START DEPTH
 STOP.F         5534.6855:   STOP DEPTH
 STEP.F            0.5000:   STEP LENGTH
 NULL.          -999.2500:   NO VALUE
 COMP. Fluor Daniel (NPOSR), Inc.:   COMPANY
 WELL.         43-2TPX-10:   WELL
 FLD .           N.P.R. 3:   FIELD
 LOC . 10-38N-78W-NATRONA-WY:   LOCATION
 STAT.                 WY:   STATE
 COUN.            Natrona:   COUNTY
 SRVC.      Western Atlas:   SERVICE COMPANY
 DATE.                   :   LOGDATE
 APIN.         4902522843:   API NUMBER
~CURVE INFORMATION
#MNEM.UNIT       API CODE    CURVE DESCRIPTION
#----------   ------------   ------------------------------
 DEPT.F                  :
 LLD .ohm.m  11 220 04 00:   Dual Laterolog, Deep
 LLS .ohmm   11 220 06 00:   Dual Laterolog, shallow
 GR  .GAPI   06 310 01 00:   Gamma Ray
 SP  .mV     06 010 01 00:   Spontaneous Potential
~PARAMETER INFORMATION
#MNEM.UNIT          VALUE    DESCRIPTION
#----------   ------------   ------------------------------
 EKB .F         5209.0000:   Kelly bushing
 EGL .F         5199.0000:   Ground level
 EDF .F         5208.0000:   Drilling floor
 EPD .F           10.0000:   Permanent datum
 TD  .F         5230.0000:   Total depth
 NRUN.             1.0000:   Number of Runs
#--RUN 1---   ------------   The following are for Run 1---
 RUN .             1.0000:   Run 1
 DATE.mm/dd/yyyy 02/13/1997:   Date Logged
 DD  .ft             5540:   Depth Driller
 DL  .ft             5541:   Depth Logger
 BLI .ft             5535:   Bottom Log Interval
 TLI .ft             2400:   Top Log Interval
 CSS .inch          9.625:   Casing Size
 CTD1.ft              439:   Casing Driller 1
 CTL1.ft              436:   Casing Logger 1
 BS  .inch           8.75:   Bit Size
 DFT .          Gel/ Chem:   Type Fluid In Hole
 DFD .lb/gal          9.6:   Mud Weight
 DFV .sec              50:   Viscosity
 DFPH.                9.5:   pH
 DFL .cc                8:   Fluid Loss
 WSS .               tank:   Source Of Sample
 RM  .ohmm            .68:   Rm
 EMT .F                94:   Rm Meas. Temp.
 RMF .ohmm            .51:   Rmf
 MFT .F                94:   Rmf Meas. Temp.
 RMC .ohmm            .95:   Rmc
 MCST.F                94:   Rmc Meas. Temp.
 MFSS.              calc.:   Source Rmf.
 MCSS.              calc.:   Source Rmc.
 RMB .ohmm            .38:   Rm. At BHT
 BHT .F               168:   BHT.
 TCS .hh:mm         6 hrs:   Time Circ. Stopped
 MRT .F               168:   Maximum Recorded Temp.
 LUL .          Rk. Spgs.:   Logging Unit Location
 ENGI.               Rall:   Recorded By
 WITN.      Lebeau/ Hardy:   Witnessed By
 DGBY.              Burke:   Digitized By
~OTHER INFORMATION
# RIG FUEL PUMP CAUSING SPURRIOUS ANOMILIES ON S.P.
~A  DEPTH      LLD        LLS         GR         SP
# ...
 4882.0410    43.0295    42.4172    76.9011    69.8417
 4882.5410    43.9741    43.3288    77.5345    70.1528
 4883.0410    41.8450    41.2573    79.7314    71.0860
 4883.5410    38.6988    38.3005    81.3023    70.7750
 4884.0410    36.5634    36.2246    81.6197    70.4641
 4884.5410    34.3002    34.1486    80.6867    69.8421
 4885.0410    31.0286    32.0727    80.6941    70.4642
 4885.5410    29.0981    30.5289    84.7689    70.9309
 4886.0410    27.5225    29.6899    86.9658    69.5313
 4886.5410    26.3775    28.0725    89.8564    68.9093
 4887.0410    25.6434    27.2985    93.2390    69.6969
 4887.5410    23.9994    26.3624    99.5047    70.1536
 4888.0410    21.1895    22.7356   104.1189    69.9982
 4888.5410    18.6981    20.7101   109.6976    70.1537
 4889.0410    17.8439    19.3643   112.6680    70.7759
 4889.5410    18.4991    20.3442   112.6740    70.9315
 4890.0410    21.0406    23.3245   106.4991    70.9316
 4890.5410    25.3800    27.5266    96.8632    69.9985
 4891.0410    30.3676    31.7287    87.2273    69.3765
 4891.5410    35.1999    36.4768    79.2084    69.2211
 4892.0410    38.0880    38.8649    78.2754    70.0087
 4892.5410    39.2028    39.1463    77.9684    70.9575
 4893.0410    40.0634    39.4297    77.9745    71.5541
 4893.5410    41.2361    41.4251    76.7298    70.7766
 4894.0410    43.6717    43.8319    72.9798    70.3101
 4894.5410    47.5901    45.7639    68.2909    69.8436
 4895.0410    49.6869    47.7035    66.4190    70.4658
 4895.5410    51.5103    48.0489    67.9898    71.0880
 4896.0410    51.0731    48.0579    71.4387    70.3104
 4896.5410    47.3145    45.7582    77.0784    69.9995
 4897.0410    43.4460    44.7811    79.9112    70.4871
 4897.5410    38.1214    38.1809    84.8582    71.7103
 4898.0410    31.7327    31.0984    93.3338    72.0215
 4898.5410    25.3439    24.8448   101.8094    71.0884
 4899.0410    18.6117    22.3667   110.2851    70.4664
 4899.5410    16.8479    18.7698   116.5527    70.9331
 4900.0410    16.2625    16.0867   118.5319    71.8662
 4900.5410    16.7656    17.6522   118.6433    71.5265
 4901.0410    18.6407    19.6302   114.6123    70.7658
 4901.5410    21.2163    21.6082   107.8268    69.0566
 4902.0410    23.7920    23.5862   101.0414    69.8358
 4902.5410    26.6495    25.6165    94.2559    70.1485
 4903.0410    28.2235    27.8798    91.8125    69.8390
 4903.5410    29.2576    28.6819    92.1431    69.2181
 4904.0410    29.4763    28.6927    91.2260    69.0642
 4904.5410    29.2759    28.4984    91.2436    69.9993
 4905.0410    28.1794    28.3098    92.2201    70.0009
 4905.5410    25.9503    27.3410    96.0167    69.8470
 4906.0410    24.6939    25.4940    99.1253    69.7938
 4906.5410    24.1786    24.6215   100.3948    69.2281
 4907.0410    24.3593    24.2853   101.0383    69.3852
 4907.5410    24.7171    24.4656   100.4299    69.0758
 4908.0410    24.8999    24.8182    97.6305    69.0778
 4908.5410    24.2088    24.4793    98.2740    68.9234
 4909.0410    23.8733    24.1470   100.4825    69.3920
 4909.5410    23.5279    23.8156   101.7520    69.4141
 4910.0410    22.7263    23.3261   100.8306    68.6176
 4910.5410    22.0939    22.6884   101.1619    68.6192
 4911.0410    21.7877    22.2221   103.6870    68.9319
 4911.5410    20.5854    21.0140   107.7912    69.4004
 4912.0410    17.6007    18.7810   112.5435    69.0909
 4912.5410    16.2774    17.3639   117.2958    68.9366
 4913.0410    16.2498    16.6823   120.9801    68.1610
 4913.5410    18.2176    17.9020   121.3006    68.1626
 4914.0410    21.8356    20.1792   111.6780    68.6307
 4914.5410    25.4536    23.1117   100.3669    68.9433
 4915.0410    29.6866    26.4860    95.0328    68.7894
 4915.5410    30.9946    29.8603    93.8336    69.2644
 4916.0410    32.1302    31.8977    91.9732    69.7482
 4916.5410    33.7861    33.0529    88.8609    70.0388
 4917.0410    36.0379    34.2726    83.9315    70.0404
 4917.5410    38.4397    35.9801    80.1279    70.0420
 4918.0410    40.7101    38.6107    80.7758    69.7325
 4918.5410    43.7796    40.5694    81.4193    69.2675
 4919.0410    48.6931    43.2307    78.1985    68.6467
 4919.5410    51.5691    47.3795    69.4106    68.3375
 4920.0410    53.4544    51.2019    64.8835    68.3392
 4920.5410    48.0483    51.2492    70.5392    68.6617
 4921.0410    38.8644    45.8699    78.0834    69.4310
 4921.5410    29.6447    38.5803    89.6586    68.6550
 4922.0410    22.4398    31.2907   101.2338    68.3460
 4922.5410    19.5816    22.8618   111.6095    68.3476
 4923.0410    19.7280    21.7697   112.2530    68.6602
 4923.5410    20.7447    22.0862   110.7056    69.2839
 4924.0410    22.1272    23.2067   110.4102    69.2855
 4924.5410    25.1671    25.2557   111.0581    68.5095
 4925.0410    31.6313    27.2933   107.6328    68.0445
 4925.5410    38.2941    35.5636    97.1122    68.0461
 4926.0410    48.4056    46.7379    85.1281    68.0477
 4926.5410    59.3204    57.9123    79.8279    68.3607
 4927.0410    64.1833    64.8760    79.2239    68.6733
 4927.5410    65.1260    66.2489    78.3024    69.1415
 4928.0410    62.8634    63.5381    76.7550    69.4541
 4928.5410    61.1139    58.8309    73.9557    69.1447
 4929.0410    60.6985    58.0234    67.0875    68.0576
 4929.5410    62.1012    60.1210    65.8531    67.4368
 4930.0410    63.3977    62.2895    64.6186    67.9053
 4930.5410    60.7601    64.0796    65.8881    68.6845
 4931.0410    47.6881    57.3565    75.6795    69.3082
 4931.5410    38.5909    46.6952    85.1980    69.7767
 4932.0410    27.8631    36.0339    99.7258    69.7783
 4932.5410    19.0168    25.3726   114.1630    69.3134
 4933.0410    18.6185    19.8557   116.0541    68.6925
 4933.5410    19.4404    20.1444   108.8773    68.2275
 4934.0410    22.4289    23.0282   107.3299    68.8516
 4934.5410    24.6163    25.0615   107.3474    69.6308
 4935.0410    26.1005    26.8938   107.6780    69.9434
 4935.5410    27.8361    28.6579   107.0695    69.6340
 4936.0410    28.6239    29.4839   104.8640    69.1454
 4936.5410    29.6727    30.1861   102.4142    68.0546
 4937.0410    30.3241    31.6515   100.2364    67.9280
 4937.5410    30.7694    31.6612   102.1362    67.9300
 4938.0410    31.2214    31.6710   102.7798    68.0871
 4938.5410    31.2311    30.8028   102.1670    67.7777
 4939.0410    29.2980    29.5405   102.1889    67.4678
 4939.5410    28.2722    28.1315   103.7714    67.4698
 4940.0410    27.2977    27.7474   105.0409    67.6269
 4940.5410    27.1121    27.7562   105.6845    68.2506
 4941.0410    26.9278    27.7650   107.9372    68.7287
 4941.5410    26.9383    27.7753   107.6018    68.8759
 4942.0410    27.3340    27.9797   106.3674    67.9447
 4942.5410    27.7354    28.3844   106.6979    67.4798
 4943.0410    28.5472    28.9979   106.7155    67.4814
 4943.5410    29.5932    29.4173   103.6031    67.4830
 4944.0410    30.0313    29.8427   101.1168    67.4846
 4944.5410    30.2523    30.9191   101.0900    67.7972
 4945.0410    30.0466    30.4641   104.5299    68.2654
 4945.5410    28.5941    27.3637   108.2634    67.9559
 4946.0410    25.8842    25.9627   112.1430    67.6396
 4946.5410    24.2821    25.7889   114.6645    68.6260
 4947.0410    23.9437    25.4388   114.6820    69.3608
 4947.5410    25.1796    26.5422   112.3700    68.8958
 4948.0410    27.4388    29.2945   107.2098    68.1198
 4948.5410    29.9068    31.6579   102.8454    67.9655
 4949.0410    32.7428    33.2639   101.6110    67.8115
 4949.5410    34.5098    34.7197   100.6852    67.9687
 4950.0410    35.2674    35.4573   100.3898    67.5041
 4950.5410    36.0416    35.4705   100.0987    67.0391
 4951.0410    36.3110    35.4814    99.4897    66.8803
 4951.5410    36.5824    36.2483    98.5689    66.7313
 4952.0410    36.8561    37.2929    97.6228    67.5109
 4952.5410    37.1342    38.0989    96.4174    67.0459
 4953.0410    36.8818    37.8434    96.4350    65.9588
 4953.5410    35.8553    37.8555    96.4525    66.4270
 4954.0410    35.1071    36.5316    97.0960    67.6728
 4954.5410    33.4073    34.5315    99.6175    67.8299
