~VERSION INFORMATION
 VERS.               2.10:   CWLS LOG ASCII STANDARD - VERSION 2.10
 WRAP.                 NO:   ONE LINE PER DEPTH STEP
~WELL INFORMATION
#MNEM.UNIT      DATA TYPE    INFORMATION
#----------   ------------   ------------------------------
 STRT.F         2400.0405:   START DEPTH
 STOP.F         5534.6855:   STOP DEPTH
 STEP.F            0.5000:   STEP LENGTH
 NULL.          -999.2500:   NO VALUE
 COMP. Fluor Daniel (NPOSR), Inc.:   COMPANY
 WELL.         43-2TPX-10:   WELL
 FLD .           N.P.R. 3:   FIELD
 LOC . 10-38N-78W-NATRONA-WY:   LOCATION
 STAT.                 WY:   STATE
 COUN.            Natrona:   COUNTY
 SRVC.      Western Atlas:   SERVICE COMPANY
 DATE.                   :   LOGDATE
 APIN.         4902522843:   API NUMBER
~CURVE INFORMATION
#MNEM.UNIT       API CODE    CURVE DESCRIPTION
#----------   ------------   ------------------------------
 DEPT.F                  :
 LLD .ohm.m  11 220 04 00:   Dual Laterolog, Deep
 LLS .ohmm   11 220 06 00:   Dual Laterolog, shallow
 GR  .GAPI   06 310 01 00:   Gamma Ray
 SP  .mV     06 010 01 00:   Spontaneous Potential
~PARAMETER INFORMATION
#MNEM.UNIT          VALUE    DESCRIPTION
#----------   ------------   ------------------------------
 EKB .F         5209.0000:   Kelly bushing
 EGL .F         5199.0000:   Ground level
 EDF .F         5208.0000:   Drilling floor
 EPD .F           10.0000:   Permanent datum
 TD  .F         5230.0000:   Total depth
 NRUN.             1.0000:   Number of Runs
#--RUN 1---   ------------   The following are for Run 1---
 RUN .             1.0000:   Run 1
 DATE.mm/dd/yyyy 02/13/1997:   Date Logged
 DD  .ft             5540:   Depth Driller
 DL  .ft             5541:   Depth Logger
 BLI .ft             5535:   Bottom Log Interval
 TLI .ft             2400:   Top Log Interval
 CSS .inch          9.625:   Casing Size
 CTD1.ft              439:   Casing Driller 1
 CTL1.ft              436:   Casing Logger 1
 BS  .inch           8.75:   Bit Size
 DFT .          Gel/ Chem:   Type Fluid In Hole
 DFD .lb/gal          9.6:   Mud Weight
 DFV .sec              50:   Viscosity
 DFPH.                9.5:   pH
 DFL .cc                8:   Fluid Loss
 WSS .               tank:   Source Of Sample
 RM  .ohmm            .68:   Rm
 EMT .F                94:   Rm Meas. Temp.
 RMF .ohmm            .51:   Rmf
 MFT .F                94:   Rmf Meas. Temp.
 RMC .ohmm            .95:   Rmc
 MCST.F                94:   Rmc Meas. Temp.
 MFSS.              calc.:   Source Rmf.
 MCSS.              calc.:   Source Rmc.
 RMB .ohmm            .38:   Rm. At BHT
 BHT .F               168:   BHT.
 TCS .hh:mm         6 hrs:   Time Circ. Stopped
 MRT .F               168:   Maximum Recorded Temp.
 LUL .          Rk. Spgs.:   Logging Unit Location
 ENGI.               Rall:   Recorded By
 WITN.      Lebeau/ Hardy:   Witnessed By
 DGBY.              Burke:   Digitized By
~OTHER INFORMATION
# RIG FUEL PUMP CAUSING SPURRIOUS ANOMILIES ON S.P.
~A  DEPTH      LLD        LLS         GR         SP
# ...
 5247.0410   441.2504   446.7825    45.8039    65.2169
 5247.5410   425.8338   450.2252    46.7775    65.3779
 5248.0410   410.9557   447.3061    47.7451    65.5388
 5248.5410   379.9792   435.1375    47.4607    65.8552
 5249.0410   351.3375   400.1652    47.8024    66.1716
 5249.5410   319.7570   357.8061    48.4570    66.3325
 5250.0410   271.0365   317.6911    50.9895    66.4935
 5250.5410   277.7348   286.0648    53.8350    67.1359
 5251.0410   536.9769   280.2446    53.8637    66.6611
 5251.5410  1253.5944   315.2582    45.6460    65.8889
 5252.0410  2047.9313   780.6635    35.9699    65.1167
 5252.5410     0.0000  1327.2236    26.2939    64.9652
 5253.0410     0.0000     0.0000    23.2574    65.4385
 5253.5410     0.0000     0.0000    28.0334    65.9104
 5254.0410     0.0000  -999.2500    31.6680    66.0714
 5254.5410  -999.2500  1901.2511    42.8399    65.7657
 5255.0410  -999.2500  1187.1675    54.0118    65.6155
 5255.5410   118.1109   546.8369    65.1838    65.3099
 5256.0410   120.6823   127.3847    72.9387    65.3155
 5256.5410   164.0289   124.7767    68.8985    65.3221
 5257.0410   187.8609   159.6632    58.4186    65.3274
 5257.5410   196.1544   191.7607    51.3746    65.4884
 5258.0410   200.3620   211.6904    56.7849    65.6493
 5258.5410   176.2395   222.4770    65.8903    65.9657
 5259.0410   136.3354   167.6639    69.3618    66.1266
 5259.5410   120.7767   132.4377    69.7034    65.5099
 5260.0410   115.7283   123.5170    70.9839    65.0487
 5260.5410   110.1027   114.3907    74.7684    65.0542
 5261.0410   103.2665   111.2643    83.2478    65.2152
 5261.5410    97.5482   109.0005    87.7013    65.5328
 5262.0410    92.1465   103.1104    93.7158    65.3814
 5262.5410    89.5638    98.2134   104.9370    65.2312
 5263.0410   100.4072    96.8933   105.5916    65.3935
 5263.5410   112.5604    97.6920   104.0553    66.3320
 5264.0410   124.7864   103.3387   102.8248    66.1819
 5264.5410   164.2725   126.7568   102.8606    65.7207
 5265.0410   203.7586   180.1992    99.4463    65.4141
 5265.5410   233.8185   193.0105    91.9632    65.1085
 5266.0410   247.2655   215.0311    90.4037    65.8928
 5266.5410   254.0300   232.4286    93.9055    66.3648
 5267.0410   217.1539   227.6996    99.8810    65.1260
 5267.5410   195.1367   201.0095   104.6099    65.1315
 5268.0410   171.6386   184.0858   111.2034    65.1370
 5268.5410   159.8149   167.1622   114.0490    65.1435
 5269.0410   150.7222   148.6510   117.5686    64.9934
 5269.5410   149.9292   142.5895   120.9991    64.8419
 5270.0410   166.8862   147.7642   120.7148    64.8487
 5270.5410   199.4925   167.7702   118.5524    65.0096
 5271.0410   247.1295   197.7260   116.0772    65.3260
 5271.5410   275.0724   234.8618   113.2889    65.7980
 5272.0410   303.9983   271.9975   112.9973    66.2699
 5272.5410   308.4002   288.7966   113.6591    65.0311
 5273.0410   308.4335   290.9841   115.2527    65.1922
 5273.5410   310.8183   289.0946   115.1508    65.3543
 5274.0410   326.2830   289.2492   109.0573    65.5152
 5274.5410   363.5602   296.7505   100.3583    65.0527
 5275.0410   431.5033   333.2739    84.0611    65.2150
 5275.5410   569.9903   370.5049    67.7639    65.5314
 5276.0410   785.8527   505.7376    51.4667    65.6923
 5276.5410   994.5674   704.6032    36.9000    65.2311
 5277.0410  1504.4811   903.4689    30.3558    64.7698
 5277.5410  1723.0690  1103.1600    27.8715    64.9309
 5278.0410  1698.5581  1192.4126    28.2221    65.2592
 5278.5410  1509.5734  1226.8759    26.0670    65.7195
 5279.0410  1381.6730  1168.7604    20.4618    65.5705
 5279.5410  1305.1639  1121.1016    16.4216    65.1080
 5280.0410  1139.8372  1067.8575    15.8170    65.5813
 5280.5410   948.3074   941.3428    18.0437    66.0532
 5281.0410   770.0693   752.4311    20.9017    65.5920
 5281.5410   786.8135   726.7426    26.1241    64.9754
 5282.0410   960.8886   769.2580    31.3465    64.3587
 5282.5410  1260.2539   963.6815    36.5689    64.2085
 5283.0410  1343.9358  1117.4623    41.7913    64.5324
 5283.5410  1045.3981  1174.2491    46.0739    65.3081
 5284.0410   681.8145   944.3017    47.6681    64.6926
 5284.5410   325.0591   672.2029    45.5123    64.3856
 5285.0410   292.1013   400.1041    41.7851    64.3923
 5285.5410   294.2244   332.2935    37.4318    64.5533
 5286.0410   399.7023   366.8766    34.6436    65.1807
 5286.5410   685.5729   487.9937    30.6033    65.1861
 5287.0410   971.4434   722.1167    28.4410    65.1915
 5287.5410  1063.0978   996.4924    28.7826    65.3524
 5288.0410   921.5186  1047.1320    30.0632    65.3578
 5288.5410   763.4719   871.6840    32.6569    65.1905
 5289.0410   634.4341   666.1160    37.0134    64.1244
 5289.5410   505.3964   460.5479    47.6453    65.5309
 5290.0410   376.3586   280.6650    64.8067    66.3139
 5290.5410   247.3209   178.8862    81.9682    65.0751
 5291.0410   118.2831   138.2334    99.1296    64.3015
 5291.5410    71.7421    97.5805   116.2910    64.1514
 5292.0410    68.7433    75.9993   129.8322    65.5578
 5292.5410    69.8520    73.9318   126.1050    66.3408
 5293.0410    75.6146    76.0784   123.9427    66.5017
 5293.5410    79.3141    80.5187   122.4063    66.2574
 5294.0410    80.4626    84.6214   119.9311    64.1797
 5294.5410    77.6514    87.0785   118.9889    64.9640
 5295.0410    76.5574    82.9429   118.7364    65.5902
 5295.5410    77.6681    80.1216   118.7721    64.9735
 5296.0410    78.7928    79.0448   118.1748    64.9802
 5296.5410    80.5060    80.2155   116.9443    64.8301
 5297.0410    81.0913    80.8231   120.7359    64.9910
 5297.5410    78.2002    78.6244   124.5204    65.4629
 5298.0410    76.6111    75.9500   126.4270    65.3127
 5298.5410    76.6194    74.4047   128.0219    64.8455
 5299.0410    77.1763    73.4048   128.0499    64.9005
 5299.5410    78.8544    72.4183   129.0239    65.6414
 5300.0410    80.5690    72.9668   131.7716    65.5802
 5300.5410    82.9102    73.0059   129.9318    64.8614
 5301.0410    85.3195    73.0523   126.5416    65.1839
 5301.5410    89.6982    75.1735   120.9411    66.2817
 5302.0410    89.0702    79.5608   118.7788    66.5996
 5302.5410    89.0801    78.4916   121.3304    64.1227
 5303.0410    89.7297    76.8846   122.9335    63.9763
 5303.5410    92.9982    74.7931   123.2752    64.0001
 5304.0410    97.7710    77.5174   118.6281    65.2412
 5304.5410   101.3325    80.3306   109.2766    65.7146
 5305.0410    97.0969    80.9390   110.2537    64.4796
 5305.5410    84.1947    75.6072   112.7959    64.6466
 5306.0410    71.9726    66.8033   120.0328    66.2109
 5306.5410    68.9642    57.9994   124.1591    67.1532
 5307.0410    68.4814    49.9587   121.4523    67.7845
 5307.5410    75.1467    50.3371   112.6452    67.1715
 5308.0410    80.7124    55.5687   105.4846    64.3813
 5308.5410    84.8547    57.1747   100.5150    64.9379
 5309.0410    80.7298    53.7065    98.3527    66.1127
 5309.5410    72.5446    50.2144    99.3394    65.6530
 5310.0410    67.5567    45.4093   106.5763    65.1979
 5310.5410    57.7499    40.6042   109.7444    64.8937
 5311.0410    50.0761    35.7992   111.3475    65.8383
 5311.5410    46.2606    30.9941   114.5156    65.3809
 5312.0410    42.5415    24.8782   118.9356    64.1459
 5312.5410    38.8224    22.2447   121.1648    64.6285
 5313.0410    35.1033    20.7463   120.8899    65.5010
 5313.5410    31.3841    18.9454   122.1896    67.1305
 5314.0410    27.6650    17.5456   123.7928    66.6731
 5314.5410    24.9074    16.8301   123.2050    65.5914
 5315.0410    23.3610    16.1438   118.0265    65.9138
 5315.5410    22.5448    15.4830   113.3823    66.3896
 5316.0410    21.6024    15.0505   108.7381    65.3101
 5316.5410    19.7684    14.0514   104.0938    64.8527
 5317.0410    17.5693    12.9221   100.8607    64.8643
 5317.5410    16.8349    12.5689    99.9586    65.6682
 5318.0410    16.5982    12.6641   100.6241    65.8133
 5318.5410    14.7040    11.9797   100.6623    65.6669
 5319.0410    12.3914    10.9398    97.7912    65.9894
 5319.5410    11.2951    10.2748    91.2894    66.3096
