~VERSION INFORMATION
 VERS.               2.10:   CWLS LOG ASCII STANDARD - VERSION 2.10
 WRAP.                 NO:   ONE LINE PER DEPTH STEP
~WELL INFORMATION
#MNEM.UNIT      DATA TYPE    INFORMATION
#----------   ------------   ------------------------------
 STRT.F         2400.0405:   START DEPTH
 STOP.F         5534.6855:   STOP DEPTH
 STEP.F            0.5000:   STEP LENGTH
 NULL.          -999.2500:   NO VALUE
 COMP. Fluor Daniel (NPOSR), Inc.:   COMPANY
 WELL.         43-2TPX-10:   WELL
 FLD .           N.P.R. 3:   FIELD
 LOC . 10-38N-78W-NATRONA-WY:   LOCATION
 STAT.                 WY:   STATE
 COUN.            Natrona:   COUNTY
 SRVC.      Western Atlas:   SERVICE COMPANY
 DATE.                   :   LOGDATE
 APIN.         4902522843:   API NUMBER
~CURVE INFORMATION
#MNEM.UNIT       API CODE    CURVE DESCRIPTION
#----------   ------------   ------------------------------
 DEPT.F                  :
 LLD .ohm.m  11 220 04 00:   Dual Laterolog, Deep
 LLS .ohmm   11 220 06 00:   Dual Laterolog, shallow
 GR  .GAPI   06 310 01 00:   Gamma Ray
 SP  .mV     06 010 01 00:   Spontaneous Potential
~PARAMETER INFORMATION
#MNEM.UNIT          VALUE    DESCRIPTION
#----------   ------------   ------------------------------
 EKB .F         5209.0000:   Kelly bushing
 EGL .F         5199.0000:   Ground level
 EDF .F         5208.0000:   Drilling floor
 EPD .F           10.0000:   Permanent datum
 TD  .F         5230.0000:   Total depth
 NRUN.             1.0000:   Number of Runs
#--RUN 1---   ------------   The following are for Run 1---
 RUN .             1.0000:   Run 1
 DATE.mm/dd/yyyy 02/13/1997:   Date Logged
 DD  .ft             5540:   Depth Driller
 DL  .ft             5541:   Depth Logger
 BLI .ft             5535:   Bottom Log Interval
 TLI .ft             2400:   Top Log Interval
 CSS .inch          9.625:   Casing Size
 CTD1.ft              439:   Casing Driller 1
 CTL1.ft              436:   Casing Logger 1
 BS  .inch           8.75:   Bit Size
 DFT .          Gel/ Chem:   Type Fluid In Hole
 DFD .lb/gal          9.6:   Mud Weight
 DFV .sec              50:   Viscosity
 DFPH.                9.5:   pH
 DFL .cc                8:   Fluid Loss
 WSS .               tank:   Source Of Sample
 RM  .ohmm            .68:   Rm
 EMT .F                94:   Rm Meas. Temp.
 RMF .ohmm            .51:   Rmf
 MFT .F                94:   Rmf Meas. Temp.
 RMC .ohmm            .95:   Rmc
 MCST.F                94:   Rmc Meas. Temp.
 MFSS.              calc.:   Source Rmf.
 MCSS.              calc.:   Source Rmc.
 RMB .ohmm            .38:   Rm. At BHT
 BHT .F               168:   BHT.
 TCS .hh:mm         6 hrs:   Time Circ. Stopped
 MRT .F               168:   Maximum Recorded Temp.
 LUL .          Rk. Spgs.:   Logging Unit Location
 ENGI.               Rall:   Recorded By
 WITN.      Lebeau/ Hardy:   Witnessed By
 DGBY.              Burke:   Digitized By
~OTHER INFORMATION
# RIG FUEL PUMP CAUSING SPURRIOUS ANOMILIES ON S.P.
~A  DEPTH      LLD        LLS         GR         SP
# ...
 3641.0410     9.0059    11.0558   109.8678    64.8327
 3641.5410     9.2018    10.4556   126.1914    63.1107
 3642.0410    10.3927    10.6824   126.5123    62.4773
 3642.5410    12.1654    12.2126   117.8130    63.3992
 3643.0410    13.0684    12.7433   106.6253    64.6320
 3643.5410    13.0690    13.1115    97.3039    65.3984
 3644.0410    12.9764    13.1167    89.5378    65.7061
 3644.5410    13.5463    13.5921    83.6387    65.8665
 3645.0410    14.3536    14.1827    80.8492    65.9866
 3645.5410    14.5525    14.3890    78.6817    65.9830
 3646.0410    13.3557    14.1937    80.5579    65.9797
 3646.5410    12.2571    13.1431    93.3785    65.9764
 3647.0410    10.7761    11.9685   113.3772    65.9731
 3647.5410     9.8072    10.8137   133.3760    65.9697
 3648.0410     8.8726     9.6588   143.4295    65.9664
 3648.5410     7.9380     8.5039   140.6427    65.9631
 3649.0410     7.0659     7.1973   129.9032    65.9598
 3649.5410     5.9745     5.9980   119.1637    65.9564
 3650.0410     4.7571     4.7254   108.4242    65.9531
 3650.5410     3.9298     4.1075    95.1484    65.9498
 3651.0410     3.7918     3.8303    92.4803    65.9464
 3651.5410     4.0733     4.0534    90.3128    65.9431
 3652.0410     4.2522     4.2319    88.4565    65.9398
 3652.5410     4.1621     4.1725    86.2890    65.9365
 3653.0410     3.7028     3.1961    82.8774    65.9331
 3653.5410     3.0590     2.5536    80.3990    65.9298
 3654.0410     2.5212     2.3981    78.5426    65.9265
 3654.5410     2.4689     2.3820    75.4420    65.9211
 3655.0410     2.6145     2.4857    73.8967    65.5986
 3655.5410     2.7886     2.6120    73.5955    65.4315
 3656.0410     2.9320     2.8032    73.6549    65.2624
 3656.5410     3.1048     2.9877    76.1061    65.0955
 3657.0410     3.1497     3.1391    79.2264    64.7732
 3657.5410     2.8907     2.7675    79.5448    64.7619
 3658.0410     2.7892     2.6543    75.8246    64.9090
 3658.5410     2.8097     2.6365    75.5210    64.8949
 3659.0410     3.0255     2.9104    82.0652    65.1949
 3659.5410     3.3842     3.2125    86.4297    65.4944
 3660.0410     3.6615     3.3286    89.2389    65.4827
 3660.5410     3.7951     3.4489    89.8709    65.6273
 3661.0410     3.5331     3.3546    84.2437    65.6132
 3661.5410     3.1510     2.9713    83.0477    65.7575
 3662.0410     2.9546     2.6571    83.6821    65.9045
 3662.5410     2.8509     2.5360    84.9362    65.9138
 3663.0410     2.8307     2.5013    87.1233    65.9273
 3663.5410     2.8308     2.5920    91.1767    65.9408
 3664.0410     2.9341     2.7237    91.4977    65.9543
 3664.5410     3.0194     2.8024    91.5075    65.9678
 3665.0410     3.0631     2.8230    89.6705    65.9813
 3665.5410     2.8721     2.6888    88.3510    65.9949
 3666.0410     2.7319     2.5788    87.0314    66.0084
 3666.5410     2.6740     2.4908    85.7119    66.0219
 3667.0410     2.6933     2.5095    84.3923    66.0354
 3667.5410     2.6934     2.5460    83.0728    66.0489
 3668.0410     2.6351     2.6012    82.8674    66.0624
 3668.5410     2.5589     2.5480    83.5019    66.0759
 3669.0410     2.4545     2.4096    85.6890    66.0895
 3669.5410     2.3683     2.3111    86.6320    66.1030
 3670.0410     2.2527     2.2795    85.7084    66.1165
 3670.5410     2.2367     2.2646    85.0965    66.1300
 3671.0410     2.2691     2.2816    85.7658    66.1435
 3671.5410     2.3019     2.3328    87.4874    65.9917
 3672.0410     2.3520     2.3985    93.5268    65.9805
 3672.5410     2.4218     2.4506    99.7575    66.1275
 3673.0410     2.5475     2.5392   100.6980    66.5828
 3673.5410     2.7931     2.6495    98.5331    66.1021
 3674.0410     2.9367     2.8434    96.9877    65.7798
 3674.5410     3.8546     3.2967    96.3730    65.7685
 3675.0410     4.4799     4.1294    97.3185    65.7572
 3675.5410     4.9169     4.4629    99.1946    65.7456
 3676.0410     5.4743     4.8942   101.7089    65.7318
 3676.5410     5.7558     5.2085   103.6072    65.8789
 3677.0410     5.9657     5.7141   105.4475    65.8648
 3677.5410     5.9554     5.7566   107.6347    65.8535
 3678.0410     5.4866     5.4399   111.0660    65.8422
 3678.5410     4.9916     5.0569   113.5642    65.8309
 3679.0410     4.4966     4.6740   113.2631    65.6641
 3679.5410     4.0016     4.2910   109.5404    65.8084
 3680.0410     3.4392     3.9080   105.5068    65.7969
 3680.5410     3.3663     3.5041   103.3393    65.7853
 3681.0410     3.4643     3.5550   104.2823    65.9300
 3681.5410     3.5906     3.7356   105.2535    65.7604
 3682.0410     3.6426     3.9255   107.4150    65.9074
 3682.5410     3.5399     3.8181   109.2911    66.2072
 3683.0410     3.2026     3.5074   108.6789    66.5070
 3683.5410     2.7923     3.1703   103.7121    66.6512
 3684.0410     2.4056     2.8333    96.5680    66.9484
 3684.5410     2.3715     2.6167    92.5343    66.4702
 3685.0410     2.5659     2.7888    88.8117    66.2826
 3685.5410     3.3111     3.0140    86.0222    65.6673
 3686.0410     4.4023     3.7365    86.0320    65.5005
 3686.5410     5.4934     5.0226    88.6084    65.3337
 3687.0410     6.5846     6.3088    94.3517    65.1669
 3687.5410     7.1925     7.1715   100.0949    65.3111
 3688.0410     7.4017     7.5278   105.6696    65.7664
 3688.5410     7.5721     7.5838   108.1678    65.7551
 3689.0410     7.9516     8.0819   108.1777    65.7438
 3689.5410     7.4559     8.0284   109.1207    66.1991
 3690.0410     6.6774     7.2792   111.3079    66.3433
 3690.5410     6.1185     6.6545   113.1840    66.0182
 3691.0410     5.5596     5.9622   112.8828    65.8514
 3691.5410     5.0006     5.2699   111.0197    65.6846
 3692.0410     4.4417     4.5776   110.1032    65.9843
 3692.5410     3.8874     3.9029   110.7376    66.1314
 3693.0410     3.8334     3.8770   111.6806    65.9618
 3693.5410     3.8612     3.9059   109.5132    65.9585
 3694.0410     3.8613     3.9074   105.6460    65.9814
 3694.5410     3.8066     3.7479   101.1253    66.0042
 3695.0410     3.5693     3.5444    98.6563    66.0270
 3695.5410     3.3709     3.3520    99.2883    66.0499
 3696.0410     3.1834     3.1924   100.8533    66.0727
 3696.5410     3.1815     3.1710   102.1074    66.0956
 3697.0410     3.2762     3.2401   101.8062    66.1184
 3697.5410     3.2501     3.2413   101.1965    66.1412
 3698.0410     3.1164     3.1306    98.7180    66.1641
 3698.5410     2.8629     2.8572    95.3064    66.1869
 3699.0410     2.6477     2.6773    92.8279    66.2097
 3699.5410     2.4967     2.5389    93.1488    66.2326
 3700.0410     2.4613     2.4695    94.7138    66.2554
 3700.5410     2.4438     2.4529    94.3942    66.0858
 3701.0410     2.4792     2.4888    92.1524    66.0773
 3701.5410     2.7406     2.8254    90.1075    66.0689
 3702.0410     3.2543     3.0968    87.9484    66.0604
 3702.5410     3.5717     3.3469    89.5219    65.8964
 3703.0410     3.6234     3.3955    90.1623    65.8879
 3703.5410     3.3801     3.2276    90.4915    66.0349
 3704.0410     2.7609     2.7433    89.8831    66.1820
 3704.5410     2.6074     2.5669    89.2793    66.1714
 3705.0410     2.5889     2.6042    89.3021    66.0074
 3705.5410     2.5661     2.7174    89.9425    65.9989
 3706.0410     2.6820     2.7763    93.1199    66.1481
 3706.5410     2.6824     2.6875    95.9949    66.1375
 3707.0410     2.6414     2.6134    96.2226    66.2848
 3707.5410     2.5705     2.4537    94.6857    66.1205
 3708.0410     2.5342     2.4028    94.3883    66.4332
 3708.5410     2.5166     2.4033    94.7222    67.0634
 3709.0410     2.5169     2.4549    94.4294    67.1837
 3709.5410     2.6848     2.5267    93.2035    66.5510
 3710.0410     2.7045     2.7151    91.6665    66.2315
 3710.5410     2.6474     2.7872    90.4401    66.3807
 3711.0410     2.5161     2.5623    91.3920    66.5277
 3711.5410     2.2928     2.3390    92.0326    66.6730
 3712.0410     2.2466     2.3559    94.1134    66.3531
 3712.5410     2.6705     2.5455    98.2942    66.3446
 3713.0410     3.4503     3.6945   101.1118    66.3358
 3713.5410     4.2302     4.5301   103.9295    66.6366
