~VERSION INFORMATION
 VERS.               2.10:   CWLS LOG ASCII STANDARD - VERSION 2.10
 WRAP.                 NO:   ONE LINE PER DEPTH STEP
~WELL INFORMATION
#MNEM.UNIT      DATA TYPE    INFORMATION
#----------   ------------   ------------------------------
 STRT.F         2399.3489:   START DEPTH
 STOP.F         5518.8403:   STOP DEPTH
 STEP.F            0.5000:   STEP LENGTH
 NULL.          -999.2500:   NO VALUE
 COMP. Fluor Daniel (NPOSR), Inc.:   COMPANY
 WELL.        43-2 TPX 10:   WELL
 FLD .           N.P.R. 3:   FIELD
 LOC . 10-38N-78W-NATRONA-WY:   LOCATION
 STAT.                 WY:   STATE
 COUN.            Natrona:   COUNTY
 SRVC.      Western Atlas:   SERVICE COMPANY
 DATE.                   :   LOGDATE
 APIN.         4902522843:   API NUMBER
~CURVE INFORMATION
#MNEM.UNIT       API CODE    CURVE DESCRIPTION
#----------   ------------   ------------------------------
 DEPT.F                  :
 DPHI.none   42 890 03 00:   Den. Porosity, Ss [%]
 NPHI.none   42 890 03 00:   Neu. Porosity, Ss [%]
 GR  .gAPI   42 310 00 00:   Gamma Ray
 RHOB.gm/cc  42 350 01 00:   Bulk Density
~PARAMETER INFORMATION
#MNEM.UNIT          VALUE    DESCRIPTION
#----------   ------------   ------------------------------
 EKB .F         5209.0000:   Kelly bushing
 EGL .F         5199.0000:   Ground level
 EDF .F         5208.0000:   Drilling floor
 EPD .F           10.0000:   Permanent datum
 TD  .F         3150.0000:   Total depth
 NRUN.             1.0000:   Number of Runs
#--RUN 1---   ------------   The following are for Run 1---
 RUN .             1.0000:   Run 1
 DATE.mm/dd/yyyy 02/13/1997:   Date Logged
 DD  .ft             5540:   Depth Driller
 DL  .ft             5541:   Depth Logger
 BLI .ft             5535:   Bottom Log Interval
 TLI .ft             2400:   Top Log Interval
 CSS .inch          9.625:   Casing Size
 CTD1.ft              439:   Casing Driller 1
 CTL1.ft              436:   Casing Logger 1
 BS  .inch           8.75:   Bit Size
 DFT .           Gel/Chem:   Type Fluid In Hole
 DFD .lb/gal          9.6:   Mud Weight
 DFV .sec              50:   Viscosity
 DFPH.                9.5:   pH
 DFL .cc              8.0:   Fluid Loss
 WSS .               tank:   Source Of Sample
 RM  .ohmm            .68:   Rm
 EMT .F                94:   Rm Meas. Temp.
 RMF .ohmm            .51:   Rmf
 MFT .F                94:   Rmf Meas. Temp.
 RMC .ohmm            .95:   Rmc
 MCST.F                94:   Rmc Meas. Temp.
 MFSS.              calc.:   Source Rmf.
 MCSS.              calc.:   Source Rmc.
 RMB .ohmm            .38:   Rm. At BHT
 BHT .F               168:   BHT.
 TCS .hh:mm         6 hrs:   Time Circ. Stopped
 MRT .F               168:   Maximum Recorded Temp.
 LUL .          Rk. Spgs.:   Logging Unit Location
 ENGI.               Rall:   Recorded By
 WITN.      Lebeau/ Hardy:   Witnessed By
 DGBY.              Burke:   Digitized By
~OTHER INFORMATION
# Rho M=2.65, Rho F=1.0
# CNCF=Sandstone
# Cement Volume Based on 7" casing
~A  DEPTH     DPHI       NPHI         GR       RHOB
# ...
 3421.3490    14.4444    29.0693    93.3996     2.4224
 3421.8490    14.2898    29.6300    90.9205     2.4318
 3422.3490    13.6596    29.2218    87.2011     2.4350
 3422.8490    13.1738    27.7839    87.8315     2.4373
 3423.3490    13.1121    26.4415    90.4242     2.4343
 3423.8490    13.1437    26.5033    93.7177     2.4344
 3424.3490    13.2063    27.2929    97.4401     2.4345
 3424.8490    13.2999    29.4091    97.4416     2.4369
 3425.3490    13.2384    29.2259    96.5129     2.4346
 3425.8490    13.1147    28.0176    93.4136     2.4285
 3426.3490    13.2418    27.1211    92.7946     2.4247
 3426.8490    13.7501    27.0283    92.1763     2.4247
 3427.3490    13.8922    27.2137    90.9375     2.4326
 3427.8490    13.6755    26.5026    85.6515     2.4365
 3428.3490    13.3036    25.4759    83.4203     2.4389
 3428.8490    12.8076    23.9677    82.2599     2.4422
 3429.3490    12.7150    24.0913    83.8122     2.4476
 3429.8490    12.4673    24.8331    86.9145     2.4507
 3430.3490    12.2816    25.5440    93.4276     2.4531
 3430.8490    12.1890    25.9458    95.2896     2.4509
 3431.3490    12.1896    24.6783    94.0508     2.4517
 3431.8490    12.1591    23.9673    89.0911     2.4564
 3432.3490    11.9424    23.6890    86.3019     2.4557
 3432.8490    11.9739    23.3753    87.8800     2.4496
 3433.3490    12.2537    22.9160    91.0356     2.4559
 3433.8490    12.4403    23.4105    91.8882     2.4646
 3434.3490    11.7893    25.3178    91.8897     2.4576
 3434.8490    12.7908    27.8511    93.4416     2.3169
 3435.3490    18.5994  -999.2500   101.9647     2.1427
 3435.8490    24.4079  -999.2500   119.9594     2.0658
 3436.3490  -999.2500  -999.2500   137.9540     2.0932
 3436.8490   -45.3998   -42.4080   156.7035     2.1788
 3437.3490   -48.1852  -999.2500   143.7140     2.2644
 3437.8490  -999.2500    27.9439   124.6426     2.3500
 3438.3490    30.1022    25.1718   111.5508     2.4411
 3438.8490    19.9980    26.1315   107.7177     2.4450
 3439.3490    12.5083    28.1142   109.8897     2.4342
 3439.8490    12.5708   -48.3987   114.2323     2.4188
 3440.3490    13.5035   -47.1624   119.8152     2.3995
 3440.8490    14.6006   -46.7296   122.6074     2.3856
 3441.3490    15.9550   -46.8534   122.2985     2.3787
 3441.8490    16.4830   -46.6371   121.3701     2.3780
 3442.3490    16.7007   -46.2971   120.7515     2.3822
 3442.8490    16.6082   -46.3899   120.1329     2.3867
 3443.3490    16.5154   -47.1937   120.1742     2.3914
 3443.8490    16.2368   -48.6776   122.3068     2.3938
 3444.3490    15.9890   -49.3886   126.6494     2.3970
 3444.8490    15.7368   -49.0796   130.9920     2.3978
 3445.3490    15.5866   -49.3888   131.3032     2.3894
 3445.8490    15.8666  -999.2500   128.2043     2.3801
 3446.3490    16.4257    29.2535   123.8648     2.3763
 3446.8490    16.6744    27.8682   120.4554     2.3950
 3447.3490    16.3025    26.4829   114.8755     2.4051
 3447.8490    15.4652    25.6340   121.1660     2.3951
 3448.3490    15.0592    25.5721   130.5001     2.3758
 3448.8490    16.0317    25.6957   141.2370     2.3682
 3449.3490    17.3542    26.0666   139.2397     2.3915
 3449.8490    16.8948    26.4683   127.3223     2.4094
 3450.3490    15.7782    27.2130   118.9160     2.4125
 3450.8490    14.5995    28.5450   117.0567     2.4017
 3451.3490    14.7241    29.6520   118.9190     2.3763
 3451.8490    16.3693   -49.4524   117.0824     2.3686
 3452.3490    17.0215  -999.2500   113.0689     2.3765
 3452.8490    17.1461    29.6209   109.0555     2.3834
 3453.3490    16.7069    28.8171   105.0420     2.3858
 3453.8490    16.3093    28.2915   100.9425     2.3836
 3454.3490    16.4961    28.4460   101.5641     2.3860
 3454.8490    16.3725    28.5078   108.7628     2.3798
 3455.3490    16.6713    28.0749   118.2979     2.3451
 3455.8490    17.9646    28.1367   127.8330     2.3265
 3456.3490    19.2579    28.1057   134.1283     2.3282
 3456.8490    20.3776    26.5948   128.3390     2.3561
 3457.3490    17.3681    23.1853   118.1341     2.3787
 3457.8490    16.7790    20.4393   107.9293     2.3818
 3458.3490    16.4381    20.5628   102.5066     2.3595
 3458.8490    17.0904    23.8461   106.5391     2.2171
 3459.3490    17.9908    28.6637   120.3495     2.0792
 3459.8490    23.9437  -999.2500   141.7298     2.0854
 3460.3490  -999.2500   -41.3849   163.1101     2.1041
 3460.8490   -46.4608   -40.3958   177.8632     2.1590
 3461.3490  -999.2500   -39.6535   178.4845     2.2139
 3461.8490  -999.2500   -41.7881   178.4330     2.2584
 3462.3490    26.6517   -48.1791   184.3794     2.2742
 3462.8490    23.4251  -999.2500   181.5553     2.2991
 3463.3490    22.2464    26.4406   160.1465     2.3476
 3463.8490    19.9162    23.7768   133.6580     2.3961
 3464.3490    16.9234    24.6732   107.1695     2.4369
 3464.8490    13.9305    26.7133    96.9452     2.4409
 3465.3490    12.7837    27.2388    98.8076     2.4355
 3465.8490    13.2524    26.9295   100.0490     2.4310
 3466.3490    13.4154    26.8058    97.2598     2.4186
 3466.8490    14.0267    27.6713   100.4174     2.3844
 3467.3490    15.0743    28.1349   111.1560     2.3475
 3467.8490    16.6087    28.0383   122.6911     2.3445
 3468.3490    18.4037    27.3612   127.0337     2.3686
 3468.8490    18.3422    26.4345   127.4110     2.3965
 3469.3490    16.6980    26.4962   121.1453     2.3973
 3469.8490    15.4882    27.6708   119.5964     2.3936
 3470.3490    15.3955    27.9180   123.0091     2.3882
 3470.8490    15.9547    27.8561   129.3679     2.3852
 3471.3490    16.0797    27.5778   140.0664     2.3810
 3471.8490    16.1189    27.4813   142.5486     2.3652
 3472.3490    16.5150    27.8559   147.2012     2.3529
 3472.8490    17.4464    28.2713   154.9780     2.3491
 3473.3490    18.3779    29.4631   161.4676     2.3507
 3473.8490    18.4405    29.9268   155.8881     2.3531
 3474.3490    18.3789    28.7333   142.6425     2.3616
 3474.8490    17.7898    27.6213   127.8116     2.3741
 3475.3490    17.0145    26.4953   112.4818     2.3757
 3475.8490    16.7668    26.5261   109.0724     2.3726
 3476.3490    17.0467    27.1020   111.9301     2.3730
 3476.8490    17.0781    27.5770   116.9766     2.3783
 3477.3490    16.8926    27.9169   122.0230     2.3822
 3477.8490    16.4276    27.9478   124.5912     2.3862
 3478.3490    16.2729    27.8241   124.8941     2.3901
 3478.8490    16.0252    28.5349   126.4463     2.3909
 3479.3490    15.9326   -49.3013   135.4401     2.3863
 3479.8490    16.0275   -48.9304   137.9222     2.3841
 3480.3490    16.2173    29.6479   140.0939     2.3857
 3480.8490    16.2446    28.4847   137.9253     2.3874
 3481.3490    16.1830    28.2255   136.3760     2.3897
 3481.8490    15.9973    29.4000   137.3081     2.3797
 3482.3490    15.9357    29.3072   141.0306     2.3705
 3482.8490    16.1846    28.4107   142.5825     2.3698
 3483.3490    16.7747    27.8851   142.5840     2.3792
 3483.8490    16.9924    26.3394   140.1052     2.3978
 3484.3490    15.6550    24.2201   126.4428     2.4517
 3484.8490    13.2884    21.6407   109.6082     2.4741
 3485.3490    10.7256    21.4860    97.6290     2.4755
 3485.8490    10.6329    21.7951    94.5298     2.4539
 3486.3490    11.5152    22.1968    98.9659     2.4462
 3486.8490    12.5940    24.4197   105.3627     2.4170
 3487.3490    13.7999    28.0046   123.6173     2.3368
 3487.8490    16.6377  -999.2500   161.7681     2.2222
 3488.3490    20.7913  -999.2500   195.3128     2.2087
 3488.8490    24.9450  -999.2500   195.0042     2.2335
 3489.3490    27.1494   -45.7563   183.1995     2.2873
 3489.8490    25.8975   -49.9521   165.9572     2.3528
 3490.3490    20.6533    29.3678   148.7148     2.4088
 3490.8490    15.4090    26.6166   131.4725     2.4182
 3491.3490    14.0212    26.9565   125.2258     2.4144
 3491.8490    14.6425    27.9050   127.2746     2.4044
 3492.3490    15.3257    29.7693   139.3509     2.3959
 3492.8490    15.6675   -49.5198   151.9161     2.3898
 3493.3490    15.8853   -49.9039   153.7780     2.3914
 3493.8490    15.7927   -49.9527   154.7098     2.3930
