~VERSION INFORMATION
 VERS.               2.10:   CWLS LOG ASCII STANDARD - VERSION 2.10
 WRAP.                 NO:   ONE LINE PER DEPTH STEP
~WELL INFORMATION
#MNEM.UNIT      DATA TYPE    INFORMATION
#----------   ------------   ------------------------------
 STRT.F         2400.0405:   START DEPTH
 STOP.F         5534.6855:   STOP DEPTH
 STEP.F            0.5000:   STEP LENGTH
 NULL.          -999.2500:   NO VALUE
 COMP. Fluor Daniel (NPOSR), Inc.:   COMPANY
 WELL.         43-2TPX-10:   WELL
 FLD .           N.P.R. 3:   FIELD
 LOC . 10-38N-78W-NATRONA-WY:   LOCATION
 STAT.                 WY:   STATE
 COUN.            Natrona:   COUNTY
 SRVC.      Western Atlas:   SERVICE COMPANY
 DATE.                   :   LOGDATE
 APIN.         4902522843:   API NUMBER
~CURVE INFORMATION
#MNEM.UNIT       API CODE    CURVE DESCRIPTION
#----------   ------------   ------------------------------
 DEPT.F                  :
 LLD .ohm.m  11 220 04 00:   Dual Laterolog, Deep
 LLS .ohmm   11 220 06 00:   Dual Laterolog, shallow
 GR  .GAPI   06 310 01 00:   Gamma Ray
 SP  .mV     06 010 01 00:   Spontaneous Potential
~PARAMETER INFORMATION
#MNEM.UNIT          VALUE    DESCRIPTION
#----------   ------------   ------------------------------
 EKB .F         5209.0000:   Kelly bushing
 EGL .F         5199.0000:   Ground level
 EDF .F         5208.0000:   Drilling floor
 EPD .F           10.0000:   Permanent datum
 TD  .F         5230.0000:   Total depth
 NRUN.             1.0000:   Number of Runs
#--RUN 1---   ------------   The following are for Run 1---
 RUN .             1.0000:   Run 1
 DATE.mm/dd/yyyy 02/13/1997:   Date Logged
 DD  .ft             5540:   Depth Driller
 DL  .ft             5541:   Depth Logger
 BLI .ft             5535:   Bottom Log Interval
 TLI .ft             2400:   Top Log Interval
 CSS .inch          9.625:   Casing Size
 CTD1.ft              439:   Casing Driller 1
 CTL1.ft              436:   Casing Logger 1
 BS  .inch           8.75:   Bit Size
 DFT .          Gel/ Chem:   Type Fluid In Hole
 DFD .lb/gal          9.6:   Mud Weight
 DFV .sec              50:   Viscosity
 DFPH.                9.5:   pH
 DFL .cc                8:   Fluid Loss
 WSS .               tank:   Source Of Sample
 RM  .ohmm            .68:   Rm
 EMT .F                94:   Rm Meas. Temp.
 RMF .ohmm            .51:   Rmf
 MFT .F                94:   Rmf Meas. Temp.
 RMC .ohmm            .95:   Rmc
 MCST.F                94:   Rmc Meas. Temp.
 MFSS.              calc.:   Source Rmf.
 MCSS.              calc.:   Source Rmc.
 RMB .ohmm            .38:   Rm. At BHT
 BHT .F               168:   BHT.
 TCS .hh:mm         6 hrs:   Time Circ. Stopped
 MRT .F               168:   Maximum Recorded Temp.
 LUL .          Rk. Spgs.:   Logging Unit Location
 ENGI.               Rall:   Recorded By
 WITN.      Lebeau/ Hardy:   Witnessed By
 DGBY.              Burke:   Digitized By
~OTHER INFORMATION
# RIG FUEL PUMP CAUSING SPURRIOUS ANOMILIES ON S.P.
~A  DEPTH      LLD        LLS         GR         SP
 2400.0410  -999.2500  -999.2500  -999.2500  -999.2500
 2400.5410     7.2868     6.5286   124.8090    66.7186
 2401.0410     7.4966     6.9120   122.0054    66.8742
 2401.5410     7.6032     7.1153   119.5130    66.7188
 2402.0410     7.6021     7.1216   120.4527    65.9412
 2402.5410     7.5467     6.9804   121.7044    65.9413
 2403.0410     7.3858     6.8890   121.3951    66.8745
 2403.5410     7.3847     6.8453   117.3435    67.6522
 2404.0410     7.3836     6.8527   115.7862    67.9633
 2404.5410     7.4356     6.9557   116.7268    68.1189
 2405.0410     7.4878     6.9665   119.5385    68.2745
 2405.5410     7.3803     6.8695   121.4143    68.1191
 2406.0410     7.2227     6.6793   120.1708    67.8081
 2406.5410     7.1136     6.5078   119.8615    66.4085
 2407.0410     7.0177     6.5135   118.6180    65.7865
 2407.5410     7.0669     6.5651   116.1256    65.9421
 2408.0410     7.0656     6.5708   114.5692    66.0977
 2408.5410     7.1154     6.5765   113.0127    66.2533
 2409.0410     7.0635     6.5360   113.0164    66.4089
 2409.5410     7.0123     6.4956   116.1402    66.7200
 2410.0410     6.8628     6.3661   119.8880    66.2535
 2410.5410     6.6213     6.1964   121.4829    65.9425
 2411.0410     6.3772     5.7810   121.7683    66.0981
 2411.5410     5.9474     5.4315   123.0200    66.2537
 2412.0410     5.6973     5.1032   123.6477    66.4093
 2412.5410     5.4968     5.0352   123.3384    66.3713
 2413.0410     5.6551     5.2948   122.7180    65.9429
 2413.5410     5.9864     5.9299   122.0976    66.0985
 2414.0410     6.3824     6.4175   123.3503    66.5652
 2414.5410     6.7563     6.4641   124.6020    66.7208
 2415.0410     6.6589     6.4244   123.9816    66.2543
 2415.5410     6.3796     6.2959   122.7372    66.2544
 2416.0410     6.2434     6.1268   124.3018    66.7210
 2416.5410     6.2425     6.0878   124.6175    67.4987
 2417.0410     6.2415     6.0944   124.3082    67.1877
 2417.5410     6.2406     6.0997   124.3128    66.8768
 2418.0410     6.2397     6.0623   124.6284    66.7213
 2418.5410     6.2388     5.9007   124.3201    66.4103
 2419.0410     6.1058     5.7814   123.3877    66.4104
 2419.5410     5.9756     5.7459   123.7034    66.4105
 2420.0410     5.9747     5.7927   124.6431    66.2551
 2420.5410     6.0164     5.7978   126.2374    66.2551
 2421.0410     6.0155     5.8028   127.7714    66.5663
 2421.5410     5.9719     5.7268   128.3991    66.8774
 2422.0410     5.9285     5.6917   130.2748    66.7219
 2422.5410     6.0128     5.9016   133.0866    66.5665
 2423.0410     6.3198     6.2044   128.0980    66.2555
 2423.5410     6.7379     6.7088   122.9593    66.2556
 2424.0410     7.5558     7.2033   117.0464    66.2557
 2424.5410     8.0591     7.6801   114.6924    66.2558
 2425.0410     8.2827     7.9616   113.4480    66.2559
 2425.5410     8.2226     7.9127   114.0758    66.5670
 2426.0410     8.1049     7.7501   114.7043    67.3447
 2426.5410     7.9889     7.5478   115.3320    67.9668
 2427.0410     7.8745     7.4998   114.7116    68.2779
 2427.5410     8.0437     7.9420   110.3471    68.1225
 2428.0410     9.7510     9.5649   100.2155    67.9670
 2428.5410    13.0852    11.8166    86.1964    68.1226
 2429.0410    15.2497    14.1662    73.8523    68.2783
 2429.5410    15.4971    14.7947    79.4731    68.2783
 2430.0410    13.5512    12.8834    93.2858    67.8118
 2430.5410    11.4841    10.4736   110.2872    66.1012
 2431.0410     9.4170     7.6623   127.8457    65.9457
 2431.5410     7.5342     7.1991   129.7214    66.2569
 2432.0410     7.5870     7.1534   124.2217    66.7235
 2432.5410     7.8055     7.4694   116.6248    66.8791
 2433.0410     7.8043     7.7432   115.3795    66.5539
 2433.5410     7.8594     7.6957   115.6961    65.7906
 2434.0410     7.5825     7.5390   116.3237    65.9462
 2434.5410     7.3681     7.0873   117.5754    66.2573
 2435.0410     7.1521     6.8954   120.0752    66.7240
 2435.5410     6.9571     6.9029   122.9182    65.9464
 2436.0410     6.9066     6.9089   124.1396    65.7910
 2436.5410     6.9056     6.9149   123.2072    65.7911
 2437.0410     7.0038     6.9697   121.0267    65.9467
 2437.5410     7.1036     7.0745   122.2785    66.2578
 2438.0410     7.2560     7.2315   123.2181    66.8821
 2438.5410     7.4119     7.2380   122.9089    66.5354
 2439.0410     7.4638     7.1430   123.5375    65.7914
 2439.5410     7.4015     7.1507   125.1012    66.1026
 2440.0410     7.2514     7.1570   125.7289    66.4137
 2440.5410     7.2504     7.0632   124.4540    66.7248
 2441.0410     7.4061     7.1694   122.3049    66.4139
 2441.5410     7.5655     7.2772   121.9957    66.2584
 2442.0410     7.5641     7.2835   123.2483    66.4140
 2442.5410     7.5630     7.1881   123.8760    67.0362
 2443.0410     7.6160     7.1959   124.1907    67.0397
 2443.5410     7.6720     7.3041   122.3232    66.5583
 2444.0410     7.7785     7.4139   120.7668    66.4143
 2444.5410     7.9456     7.5784   118.8983    66.2589
 2445.0410     7.9441     7.6385   118.9020    66.5700
 2445.5410     7.8304     7.4857   119.5298    66.5701
 2446.0410     7.7736     7.4922   119.5343    66.7257
 2446.5410     7.9406     7.6586   118.2899    66.5702
 2447.0410     8.1693     7.7752   115.7965    66.2593
 2447.5410     8.1681     7.6197   117.9852    66.1038
 2448.0410     7.9878     7.2603   121.4483    66.8815
 2448.5410     7.2946     6.5874   130.1938    66.7196
 2449.0410     6.3602     6.2744   134.2208    66.2596
 2449.5410     6.3143     6.3701   134.5364    66.5707
 2450.0410     6.5892     6.6036   132.0440    66.8818
 2450.5410     6.9256     6.8456   128.9275    67.3485
 2451.0410     7.1253     6.6617   129.8681    67.5041
 2451.5410     6.7288     6.2575   132.6799    67.5041
 2452.0410     6.5385     6.2138   135.4917    67.5042
 2452.5410     6.3510     6.0975   136.4313    67.6598
 2453.0410     6.2031     5.7692   136.1230    67.5044
 2453.5410     5.6261     5.4587   135.8137    67.5044
 2454.0410     5.3895     5.2748   136.1303    67.6600
 2454.5410     5.3887     5.3919   133.3258    67.6601
 2455.0410     5.7044     5.6686   130.1772    67.6602
 2455.5410     6.1692     6.4405   127.7172    67.3492
 2456.0410     6.6718     6.7215   127.0967    67.0383
 2456.5410     6.9405     6.8238   126.1645    66.7273
 2457.0410     7.2701     7.0244   122.0915    66.2608
 2457.5410     7.5998     7.2309   120.3509    66.1054
 2458.0410     7.8566     7.4959   113.6958    65.9499
 2458.5410     7.9686     7.5553   113.0745    65.9500
 2459.0410     7.7430     7.4042   115.8872    66.2611
 2459.5410     7.4175     7.1042   118.3870    66.2612
 2460.0410     7.3637     7.0117   120.2627    66.1058
 2460.5410     7.4684     7.0688   120.8904    66.1059
 2461.0410     7.7939     7.2766   120.5819    65.9504
 2461.5410     8.1375     7.4905   122.4577    65.7950
 2462.0410     8.1905     7.6031   125.6021    65.7950
 2462.5410     8.1890     7.6097   126.8332    65.7951
 2463.0410     8.0718     7.2001   123.4056    65.7952
 2463.5410     7.8997     7.0066   123.0964    65.7953
 2464.0410     7.6764     6.9579   123.7250    65.6398
 2464.5410     7.5127     7.0698   122.7926    65.6399
 2465.0410     7.4582     7.2776   119.3641    65.6400
 2465.5410     7.7279     7.5976   118.1188    65.6401
 2466.0410     8.1848     7.8760   117.1873    65.6401
 2466.5410     8.5368     8.1075   115.6309    65.4847
 2467.0410     8.7202     8.1718   114.0546    65.6403
 2467.5410     8.7189     8.1789   113.1421    66.1069
 2468.0410     8.7176     8.1862   113.4587    66.2625
 2468.5410     8.6544     8.1949   114.3984    65.9516
 2469.0410     8.5305     8.0858   117.2102    65.7961
 2469.5410     8.4084     7.9258   118.7739    65.9517
 2470.0410     8.2291     7.6589   118.7775    66.4184
 2470.5410     8.0492     7.2977   120.3412    66.2629
 2471.0410     7.6055     7.1016   122.8410    65.4854
 2471.5410     7.4966     6.9595   122.2206    65.4855
 2472.0410     7.4955     6.9658   121.2882    66.1076
 2472.5410     7.5481     7.0223   120.3558    65.4856
