~VERSION INFORMATION
 VERS.               2.10:   CWLS LOG ASCII STANDARD - VERSION 2.10
 WRAP.                 NO:   ONE LINE PER DEPTH STEP
~WELL INFORMATION
#MNEM.UNIT      DATA TYPE    INFORMATION
#----------   ------------   ------------------------------
 STRT.F         2399.3489:   START DEPTH
 STOP.F         5518.8403:   STOP DEPTH
 STEP.F            0.5000:   STEP LENGTH
 NULL.          -999.2500:   NO VALUE
 COMP. Fluor Daniel (NPOSR), Inc.:   COMPANY
 WELL.        43-2 TPX 10:   WELL
 FLD .           N.P.R. 3:   FIELD
 LOC . 10-38N-78W-NATRONA-WY:   LOCATION
 STAT.                 WY:   STATE
 COUN.            Natrona:   COUNTY
 SRVC.      Western Atlas:   SERVICE COMPANY
 DATE.                   :   LOGDATE
 APIN.         4902522843:   API NUMBER
~CURVE INFORMATION
#MNEM.UNIT       API CODE    CURVE DESCRIPTION
#----------   ------------   ------------------------------
 DEPT.F                  :
 DPHI.none   42 890 03 00:   Den. Porosity, Ss [%]
 NPHI.none   42 890 03 00:   Neu. Porosity, Ss [%]
 GR  .gAPI   42 310 00 00:   Gamma Ray
 RHOB.gm/cc  42 350 01 00:   Bulk Density
~PARAMETER INFORMATION
#MNEM.UNIT          VALUE    DESCRIPTION
#----------   ------------   ------------------------------
 EKB .F         5209.0000:   Kelly bushing
 EGL .F         5199.0000:   Ground level
 EDF .F         5208.0000:   Drilling floor
 EPD .F           10.0000:   Permanent datum
 TD  .F         3150.0000:   Total depth
 NRUN.             1.0000:   Number of Runs
#--RUN 1---   ------------   The following are for Run 1---
 RUN .             1.0000:   Run 1
 DATE.mm/dd/yyyy 02/13/1997:   Date Logged
 DD  .ft             5540:   Depth Driller
 DL  .ft             5541:   Depth Logger
 BLI .ft             5535:   Bottom Log Interval
 TLI .ft             2400:   Top Log Interval
 CSS .inch          9.625:   Casing Size
 CTD1.ft              439:   Casing Driller 1
 CTL1.ft              436:   Casing Logger 1
 BS  .inch           8.75:   Bit Size
 DFT .           Gel/Chem:   Type Fluid In Hole
 DFD .lb/gal          9.6:   Mud Weight
 DFV .sec              50:   Viscosity
 DFPH.                9.5:   pH
 DFL .cc              8.0:   Fluid Loss
 WSS .               tank:   Source Of Sample
 RM  .ohmm            .68:   Rm
 EMT .F                94:   Rm Meas. Temp.
 RMF .ohmm            .51:   Rmf
 MFT .F                94:   Rmf Meas. Temp.
 RMC .ohmm            .95:   Rmc
 MCST.F                94:   Rmc Meas. Temp.
 MFSS.              calc.:   Source Rmf.
 MCSS.              calc.:   Source Rmc.
 RMB .ohmm            .38:   Rm. At BHT
 BHT .F               168:   BHT.
 TCS .hh:mm         6 hrs:   Time Circ. Stopped
 MRT .F               168:   Maximum Recorded Temp.
 LUL .          Rk. Spgs.:   Logging Unit Location
 ENGI.               Rall:   Recorded By
 WITN.      Lebeau/ Hardy:   Witnessed By
 DGBY.              Burke:   Digitized By
~OTHER INFORMATION
# Rho M=2.65, Rho F=1.0
# CNCF=Sandstone
# Cement Volume Based on 7" casing
~A  DEPTH     DPHI       NPHI         GR       RHOB
# ...
 2837.3490    14.7556    22.4935   115.9698     2.4073
 2837.8490    14.5995    22.6471   114.1108     2.4089
 2838.3490    14.3503    23.9471   116.2919     2.4112
 2838.8490    15.5285    26.8579   124.3279     2.4089
 2839.3490    19.4280    29.9553   137.7281     2.3678
 2839.8490    23.3275   -48.7743   151.1283     2.2753
 2840.3490    27.2270   -45.6213   164.5284     2.1840
 2840.8490    26.4665   -42.7055   174.3962     2.1964
 2841.3490    21.4057   -47.7642   169.4330     2.2487
 2841.8490    16.3448  -999.2500   157.3784     2.3516
 2842.3490    11.2840  -999.2500   141.1119     2.4763
 2842.8490     6.0825  -999.2500   124.8454     2.5509
 2843.3490     5.5538    17.8299   108.5789     2.5579
 2843.8490     5.5841    17.7353   100.5183     2.5563
 2844.3490     5.7695    18.0128   100.2120     2.5548
 2844.8490     5.8308    18.3213   102.7037     2.5533
 2845.3490     5.8613    19.3115   104.2623     2.5525
 2845.8490     5.7983    20.1467   104.5786     2.5541
 2846.3490     5.7665    20.7341   106.1371     2.5549
 2846.8490     6.0142    20.9497   110.1965     2.5522
 2847.3490     6.8209    21.8190   111.4282     2.5325
 2847.8490     7.8139    22.1293   109.2615     2.5201
 2848.3490     8.2187    22.2157   107.7144     2.5155
 2848.8490     8.7112    22.3383   109.8941     2.5093
 2849.3490    10.8336    23.3150   113.3160     2.4960
 2849.8490    13.7458    25.8293   116.8996     2.4461
 2850.3490    16.6580    28.3437   120.7810     2.3963
 2850.8490    18.6191  -999.2500   130.1945     2.3464
 2851.3490    20.1977   -48.4104   140.3730     2.3006
 2851.8490    21.7764   -46.3831   150.5515     2.2849
 2852.3490    23.3551   -44.3557   160.8390     2.2717
 2852.8490    25.2905   -42.1186   170.8607     2.2454
 2853.3490    26.6562   -44.0487   177.9598     2.2168
 2853.8490    23.6800   -46.7672   172.9967     2.2346
 2854.3490    19.2384   -49.9927   165.0483     2.3084
 2854.8490    14.7969  -999.2500   140.7262     2.4000
 2855.3490    10.1625    22.8169   113.6972     2.4918
 2855.8490     9.2611    22.8462   109.6657     2.4973
 2856.3490     8.9451    23.8054   112.7770     2.5035
 2856.8490     7.9923    24.3099   118.3729     2.5105
 2857.3490     7.7679    24.5154   118.9998     2.5229
 2857.8490     8.0778    24.1729   119.3884     2.5175
 2858.3490     9.5677    23.7688   122.4289     2.5005
 2858.8490    10.2191    23.4577   121.8135     2.4819
 2859.3490    10.4668    23.1155   121.1982     2.4757
 2859.8490    10.1865    23.0835   122.1356     2.4851
 2860.3490     8.7261    23.5776   124.3153     2.5138
 2860.8490     7.4831    24.5678   127.1161     2.5301
 2861.3490     7.1718    24.6284   128.6746     2.5293
 2861.8490     7.2953    23.0156   129.9226     2.5309
 2862.3490     7.1080    22.6735   128.6861     2.5356
 2862.8490     6.6414    22.5482   128.0708     2.5472
 2863.3490     6.0817    22.4850   128.7477     2.5604
 2863.8490     5.3666    22.5766   129.6366     2.5612
 2864.3490     6.0514    22.9471   130.8846     2.5349
 2864.8490     7.5254    23.4105   130.5798     2.5131
 2865.3490     8.9994    23.9049   128.7222     2.4912
 2865.8490    10.3014    24.8108   127.4843     2.4730
 2866.3490    11.0770    27.6026   129.3548     2.4660
 2866.8490    11.3870    29.1371   131.8451     2.4708
 2867.3490    10.0533    29.1295   133.0931     2.4898
 2867.8490     7.9299    28.6810   132.7832     2.5389
 2868.3490     6.6951    27.5526   131.1729     2.5382
 2868.8490     6.9118    25.7858   127.5217     2.5366
 2869.3490     6.5071    24.1419   125.9747     2.5514
 2869.8490     5.7088    23.4589   123.4960     2.5708
 2870.3490     4.8068    22.7420   121.0173     2.5840
 2870.8490     3.7719    22.3320   120.7110     2.5902
 2871.3490     3.8953    22.0917   122.2710     2.5762
 2871.8490     4.3294    22.3069   122.5859     2.5691
 2872.3490     4.6984    22.7394   120.7298     2.5616
 2872.8490     5.1080    22.8314   118.2511     2.5570
 2873.3490     5.5176    22.7367   117.3251     2.5554
 2873.8490     5.6928    22.4256   117.6896     2.5593
 2874.3490     5.2261    22.3623   119.8226     2.5640
 2874.8490     4.8837    22.1743   120.1375     2.5679
 2875.3490     4.8521    21.7291   120.4552     2.5664
 2875.8490     5.3170    21.4905   122.6349     2.5618
 2876.3490     5.7510    21.5201   123.5709     2.5556
 2876.8490     5.7813    21.9433   122.3344     2.5556
 2877.3490     6.0402    23.0024   122.9628     2.5479
 2877.8490     6.4063    24.1498   125.7635     2.5441
 2878.3490     6.4622    24.4583   127.6327     2.5425
 2878.8490     6.2439    23.9078   126.6746     2.5464
 2879.3490     6.0568    23.2163   125.7808     2.5495
 2879.8490     6.0250    23.1530   125.7880     2.5503
 2880.3490     5.9621    23.3993   125.7938     2.5550
 2880.8490     5.5577    23.8007   126.1101     2.5621
 2881.3490     5.1532    23.8927   126.1159     2.5683
 2881.8490     4.8727    23.8910   125.8111     2.5698
 2882.3490     4.8757    23.6109   123.9535     2.5660
 2882.8490     5.2439    23.1448   123.0276     2.5629
 2883.3490     5.7400    22.7717   121.7911     2.5544
 2883.8490     6.4394    22.3985   120.1416     2.5459
 2884.3490     7.4776    21.2016   112.3926     2.5296
 2884.8490     7.7563    20.0546   104.6436     2.5258
 2885.3490     7.8798    18.7382    97.2679     2.5243
 2885.8490     8.9936    18.3341    88.9496     2.5062
 2886.3490    10.5099    18.1159    80.6312     2.4804
 2886.8490    12.4737    18.9201    72.3129     2.4500
 2887.3490    13.3736    19.4455    66.8697     2.4351
 2887.8490    13.5592    19.5372    67.1861     2.4307
 2888.3490    13.8379    19.4119    70.2974     2.4144
 2888.8490    14.9962    19.1924    76.2103     2.3935
 2889.3490    16.1034    19.4898    79.6259     2.3889
 2889.8490    16.0405    19.8104    74.3534     2.3913
 2890.3490    15.9156    19.6851    70.9430     2.3890
 2890.8490    16.3185    18.8473    65.9798     2.3750
 2891.3490    17.2805    18.2572    62.8800     2.3456
 2891.8490    18.0987    18.1010    61.0224     2.3379
 2892.3490    18.5521    18.2856    61.3388     2.3379
 2892.8490    18.9242    18.4082    64.1395     2.3395
 2893.3490    18.6127    18.0016    66.9403     2.3481
 2893.8490    18.1772    17.6232    67.5814     2.3535
 2894.3490    17.9280    16.9787    63.1766     2.3558
 2894.8490    18.1756    16.7295    59.0577     2.3512
 2895.3490    17.2743    16.6972    52.6791     2.3675
 2895.8490    16.5903    17.0057    54.5482     2.3815
 2896.3490    15.7821    17.0357    61.0757     2.3795
 2896.8490    18.8181    16.4453    63.8765     2.3371
 2897.3490    22.2401    15.2738    61.0873     2.2946
 2897.8490    23.1089    13.3286    54.8819     2.2615
 2898.3490    23.8847    12.3204    50.5398     2.2530
 2898.8490    21.4302    12.9579    48.6822     2.2918
 2899.3490    19.4419    14.2102    47.7556     2.3150
 2899.8490    18.8511    15.4625    46.1795     2.3337
 2900.3490    18.5087    16.7148    44.4394     2.3467
 2900.8490    18.3218    17.4570    42.5651     2.3436
 2901.3490    19.0972    17.4867    42.1029     2.3359
 2901.8490    19.1276    17.0513    42.4239     2.3344
 2902.3490    19.0026    16.9260    41.8090     2.3367
 2902.8490    18.8759    17.2035    42.7511     2.3414
 2903.3490    18.7478    18.1937    46.4862     2.3422
 2903.8490    18.6274    18.6262    51.7740     2.3431
 2904.3490    18.6890    18.9966    53.3351     2.3431
 2904.8490    18.8744    19.4601    53.6540     2.3408
 2905.3490    19.0599    19.4619    53.3518     2.3362
 2905.8490    19.1215    19.2059    54.2938     2.3347
 2906.3490    19.0895    18.9603    57.4078     2.3355
 2906.8490    19.0266    18.9978    58.6583     2.3402
 2907.3490    18.7153    19.1156    58.3561     2.3434
 2907.8490    18.4264    19.2042    58.3644     2.3496
 2908.3490    17.9372    19.1406    58.9939     2.3543
 2908.8490    17.5017    19.0463    57.3023     2.3597
 2909.3490    17.2214    18.9520    55.2852     2.3652
 2909.8490    17.0032    18.9507    54.0492     2.3675
