~Version Information
 VERS.                2.00:   CWLS log ASCII Standard -VERSION 2.00
 WRAP.                  NO:   One line per frame
~Well Information Block
#MNEM.UNIT              Data                Description
#--------- -------------------------------  -------------------------------
 STRT.F                          430.0000:   Starting Depth
 STOP.F                         5565.5000:   Ending Depth
 STEP.F                            0.5000:   Level Spacing
 NULL.                          -999.2500:   Absent Value
 COMP.     FLUOR DANIEL (NPOSR), INC.    :   Company
 WELL.     43-2 X 10                     :   Well
 FLD .                                   :   Field
 LOC .                                   :   Location
 CNTY.                                   :   County
 STAT.                                   :   State
 SRVC.                                   :   Service Company
 LIC .                                   :   License Number
 DATE.                                   :   Log Date
 API .                                   :   API Number
~Curve Information Block
#MNEM.UNIT       API Codes    Curve Description
#---------    -------------   -------------------------------
 DEPT.F        0   1  0  1:   Depth
 GR  .API      0 310  1  1:   Gamma ray counts
 CALX.         0   0  0  1:   N/A
 RS  .OHMM     0 220  9  1:   Logarithmic Resistivity from ES, IS
 RD  .OHMM     0 220 10  1:   Logarithmic Resistivity from ED, ID
 TEN .LBF      0 635 99  1:   Differential Tension
 ZDEN.G/C3     0 350  1  1:   ZDL Bulk Density
 PORZ.PU       0 890 99  1:   Porosity from ZDEN
 ZCOR.G/C3     0 356 99  1:   ZDL Correction
 PE  .BARN     0 995 99  1:   Photo Electric cross section
 CNCF.PU       0 995 99  1:   CNC corrected to Field Normalized transform
#  Curve Data
~A   DEPT        GR          CALX        RS          RD          TEN         ZDEN        PORZ        ZCOR        PE          CNCF
# ...
  4822.0000    107.7937      9.0903     26.0776     23.5235      7.1551      2.6853     -2.1424      0.0461      3.4991     14.4472
  4822.5000     99.0698      9.0888     30.8173     28.1515      1.2635      2.6841     -2.0684      0.0454      3.5128     12.7837
  4823.0000     92.4825      9.0879     35.9767     33.1968     -0.6669      2.6736     -1.4289      0.0400      3.4960     11.5384
  4823.5000     87.9663      9.0883     40.8551     38.0958      3.9930      2.6658     -0.9559      0.0366      3.5011     10.7700
  4824.0000     83.9111      9.0885     45.3801     42.8258      9.8742      2.6674     -1.0544      0.0266      3.4950     10.3483
  4824.5000     79.7043      9.0880     49.8057     47.5394     15.5889      2.6727     -1.3751      0.0105      3.4969      9.9297
  4825.0000     75.5265      9.0891     53.9434     51.9021     17.5961      2.6758     -1.5642     -0.0005      3.5210      9.4054
  4825.5000     71.3797      9.0917     56.8019     54.8252     14.1424      2.6781     -1.7040     -0.0027      3.5490      9.0455
  4826.0000     68.4703      9.0919     57.2701     55.1532     12.5018      2.6819     -1.9304      0.0025      3.5578      9.0985
  4826.5000     69.3968      9.0888     55.0879     52.6702     15.7531      2.6821     -1.9433      0.0059      3.4315      9.5008
  4827.0000     73.4497      9.0867     51.2863     48.5245     18.5688      2.6738     -1.4395      0.0009      3.2845     10.0456
  4827.5000     77.9460      9.0879     47.0205     43.9596     18.5615      2.6655     -0.9405     -0.0023      3.2136     10.6691
  4828.0000     82.2350      9.0915     42.7534     39.4219     14.8678      2.6672     -1.0452      0.0035      3.1667     11.5236
  4828.5000     87.2088      9.0940     38.3015     34.7025     13.4835      2.6732     -1.4042      0.0128      3.1373     12.7530
  4829.0000     92.6925      9.0938     33.3747     29.6535     15.3658      2.6762     -1.5858      0.0178      3.1283     14.4522
  4829.5000     99.7964      9.0928     28.4896     24.9015     12.4146      2.6805     -1.8455      0.0212      3.1240     16.4736
  4830.0000    109.3036      9.0938     24.7075     21.3914      9.9253      2.6849     -2.1125      0.0227      3.0982     18.2213
  4830.5000    117.5587      9.0955     22.4540     19.3696     13.9514      2.6816     -1.9154      0.0190      3.3171     19.2291
  4831.0000    120.7240      9.0945     21.4703     18.5173     14.8169      2.6743     -1.4757      0.0138      3.6547     19.5814
  4831.5000    119.0148      9.0917     21.5313     18.6044     12.8142      2.6721     -1.3386      0.0159      3.7594     19.1924
  4832.0000    115.5856      9.0892     22.4579     19.4927     20.1122      2.6756     -1.5486      0.0246      3.6533     18.2278
  4832.5000    111.2764      9.0867     24.1982     21.1787     30.0110      2.6783     -1.7131      0.0310      3.5676     17.1248
  4833.0000    105.0436      9.0849     26.7662     23.6746     32.4424      2.6772     -1.6496      0.0319      3.5372     15.5843
  4833.5000     97.1713      9.0851     30.2244     27.0617     31.0255      2.6746     -1.4939      0.0266      3.5456     13.6247
  4834.0000     90.2102      9.0865     34.7681     31.5227     26.9430      2.6732     -1.4055      0.0157      3.5403     11.9477
  4834.5000     84.4034      9.0887     39.9303     36.5335     22.6505      2.6738     -1.4424      0.0050      3.5883     11.0380
  4835.0000     79.5317      9.0920     43.7597     40.1223     22.8870      2.6762     -1.5874      0.0017      3.6389     10.7600
  4835.5000     76.8178      9.0945     44.2274     40.3874     27.3840      2.6788     -1.7462      0.0072      3.4694     10.7577
  4836.0000     77.9183      9.0947     41.8093     37.8834     31.8558      2.6778     -1.6838      0.0110      3.1925     10.9465
  4836.5000     81.9539      9.0945     38.4092     34.4800     31.2943      2.6723     -1.3531      0.0063      2.9954     11.4758
  4837.0000     86.4857      9.0949     35.2173     31.3183     27.2429      2.6681     -1.0988      0.0015      2.9166     12.3138
  4837.5000     90.3392      9.0945     32.6344     28.7448     20.3988      2.6691     -1.1587      0.0024      2.9166     13.3023
  4838.0000     94.1676      9.0933     30.6620     26.7293      6.2204      2.6719     -1.3302      0.0051      2.9295     14.2954
  4838.5000     97.3999      9.0937     28.5130     24.5744    -12.6373      2.6703     -1.2331      0.0058      2.9864     15.3162
  4839.0000    101.7910      9.0952     25.6706     21.8949    -26.5377      2.6653     -0.9247      0.0058      3.1777     16.3826
  4839.5000    110.9827      9.0971     22.8548     19.3627    -34.3104      2.6634     -0.8099      0.0078      3.2819     17.5429
  4840.0000    121.8802      9.1024     21.1505     17.9209    -42.4103      2.6672     -1.0414      0.0122      3.2657     18.4230
  4840.5000    126.1590      9.1107     21.1257     18.0182    -46.7245      2.6722     -1.3431      0.0138      3.2694     18.2941
  4841.0000    120.7024      9.1170     22.6262     19.4709    -36.8783      2.6738     -1.4397      0.0103      3.3028     17.1045
  4841.5000    110.0711      9.1193     25.3455     22.0437    -19.1843      2.6731     -1.4029      0.0106      3.3176     15.5764
  4842.0000     99.5892      9.1204     29.3781     25.8872    -13.7051      2.6731     -1.4010      0.0166      3.3015     14.1103
  4842.5000     91.7600      9.1223     34.5718     30.8244    -23.4317      2.6731     -1.4027      0.0190      3.2804     12.6829
  4843.0000     87.6853      9.1259     39.5742     35.5858    -33.3561      2.6719     -1.3264      0.0176      3.2878     11.3279
  4843.5000     85.0713      9.1298     43.7250     39.6718    -32.7324      2.6729     -1.3891      0.0198      3.3038     10.2752
  4844.0000     80.8513      9.1323     47.6869     43.6350    -25.2297      2.6787     -1.7384      0.0211      3.2965      9.7515
  4844.5000     76.5642      9.1338     50.8405     46.7491    -15.0676      2.6832     -2.0128      0.0166      3.2945      9.7093
  4845.0000     75.0064      9.1350     51.7827     47.8341     -7.5364      2.6826     -1.9746      0.0143      3.2986      9.7807
  4845.5000     74.4065      9.1365     51.3885     47.9731    -10.9520      2.6802     -1.8277      0.0154      3.2924      9.7118
  4846.0000     73.0249      9.1392     52.3199     49.6518    -23.9961      2.6779     -1.6901      0.0117      3.2922      9.4909
  4846.5000     70.6441      9.1417     56.2252     54.2887    -30.2880      2.6792     -1.7675      0.0088      3.3011      9.1287
  4847.0000     66.7739      9.1419     62.8564     61.6142    -21.1764      2.6862     -2.1954      0.0133      3.3043      8.5731
  4847.5000     62.5656      9.1404     69.8986     69.1860     -5.9220      2.6925     -2.5759      0.0148      3.3055      7.9606
  4848.0000     60.0440      9.1388     73.8504     73.1368     -0.9305      2.6924     -2.5718      0.0086      3.3075      7.5627
  4848.5000     60.2779      9.1359     72.7034     71.4199    -12.9749      2.6894     -2.3877      0.0056      3.3150      7.5845
  4849.0000     62.7443      9.1326     67.3592     65.3899    -19.7578      2.6825     -1.9688      0.0049      3.3437      8.0159
  4849.5000     65.4894      9.1330     60.2723     57.8551    -10.4619      2.6723     -1.3541      0.0053      3.3472      8.7170
  4850.0000     68.3287      9.1368     52.9655     50.2637    -15.2275      2.6657     -0.9498      0.0099      3.3224      9.6227
  4850.5000     72.8848      9.1403     45.1801     42.2709    -34.6373      2.6635     -0.8170      0.0125      3.3115     10.8999
  4851.0000     80.4237      9.1422     36.4187     33.4983    -31.6534      2.6632     -0.8018      0.0122      3.3248     12.7895
  4851.5000     90.4999      9.1440     27.9590     25.3371    -23.1982      2.6663     -0.9888      0.0159      3.3567     15.2275
  4852.0000    102.0169      9.1452     21.8644     19.6658    -38.8950      2.6723     -1.3495      0.0203      3.4574     17.6844
