~VERSION INFORMATION
 VERS.               2.10:   CWLS LOG ASCII STANDARD - VERSION 2.10
 WRAP.                 NO:   ONE LINE PER DEPTH STEP
~WELL INFORMATION
#MNEM.UNIT      DATA TYPE    INFORMATION
#----------   ------------   ------------------------------
 STRT.F         2400.0405:   START DEPTH
 STOP.F         5534.6855:   STOP DEPTH
 STEP.F            0.5000:   STEP LENGTH
 NULL.          -999.2500:   NO VALUE
 COMP. Fluor Daniel (NPOSR), Inc.:   COMPANY
 WELL.         43-2TPX-10:   WELL
 FLD .           N.P.R. 3:   FIELD
 LOC . 10-38N-78W-NATRONA-WY:   LOCATION
 STAT.                 WY:   STATE
 COUN.            Natrona:   COUNTY
 SRVC.      Western Atlas:   SERVICE COMPANY
 DATE.                   :   LOGDATE
 APIN.         4902522843:   API NUMBER
~CURVE INFORMATION
#MNEM.UNIT       API CODE    CURVE DESCRIPTION
#----------   ------------   ------------------------------
 DEPT.F                  :
 LLD .ohm.m  11 220 04 00:   Dual Laterolog, Deep
 LLS .ohmm   11 220 06 00:   Dual Laterolog, shallow
 GR  .GAPI   06 310 01 00:   Gamma Ray
 SP  .mV     06 010 01 00:   Spontaneous Potential
~PARAMETER INFORMATION
#MNEM.UNIT          VALUE    DESCRIPTION
#----------   ------------   ------------------------------
 EKB .F         5209.0000:   Kelly bushing
 EGL .F         5199.0000:   Ground level
 EDF .F         5208.0000:   Drilling floor
 EPD .F           10.0000:   Permanent datum
 TD  .F         5230.0000:   Total depth
 NRUN.             1.0000:   Number of Runs
#--RUN 1---   ------------   The following are for Run 1---
 RUN .             1.0000:   Run 1
 DATE.mm/dd/yyyy 02/13/1997:   Date Logged
 DD  .ft             5540:   Depth Driller
 DL  .ft             5541:   Depth Logger
 BLI .ft             5535:   Bottom Log Interval
 TLI .ft             2400:   Top Log Interval
 CSS .inch          9.625:   Casing Size
 CTD1.ft              439:   Casing Driller 1
 CTL1.ft              436:   Casing Logger 1
 BS  .inch           8.75:   Bit Size
 DFT .          Gel/ Chem:   Type Fluid In Hole
 DFD .lb/gal          9.6:   Mud Weight
 DFV .sec              50:   Viscosity
 DFPH.                9.5:   pH
 DFL .cc                8:   Fluid Loss
 WSS .               tank:   Source Of Sample
 RM  .ohmm            .68:   Rm
 EMT .F                94:   Rm Meas. Temp.
 RMF .ohmm            .51:   Rmf
 MFT .F                94:   Rmf Meas. Temp.
 RMC .ohmm            .95:   Rmc
 MCST.F                94:   Rmc Meas. Temp.
 MFSS.              calc.:   Source Rmf.
 MCSS.              calc.:   Source Rmc.
 RMB .ohmm            .38:   Rm. At BHT
 BHT .F               168:   BHT.
 TCS .hh:mm         6 hrs:   Time Circ. Stopped
 MRT .F               168:   Maximum Recorded Temp.
 LUL .          Rk. Spgs.:   Logging Unit Location
 ENGI.               Rall:   Recorded By
 WITN.      Lebeau/ Hardy:   Witnessed By
 DGBY.              Burke:   Digitized By
~OTHER INFORMATION
# RIG FUEL PUMP CAUSING SPURRIOUS ANOMILIES ON S.P.
~A  DEPTH      LLD        LLS         GR         SP
# ...
 3203.0410     6.4678     6.7466   133.4361    66.4817
 3203.5410     8.6587     7.8219   126.1554    66.9635
 3204.0410    10.8495    11.5153   117.2580    66.8202
 3204.5410    13.3666    12.8898   108.4996    66.8324
 3205.0410    14.2586    13.6398   106.6334    66.3729
 3205.5410    14.0621    13.8376   105.7073    65.9237
 3206.0410    13.6718    13.3647   107.5873    66.4055
 3206.5410    12.4579    12.4598   114.1474    66.7288
 3207.0410    11.6727    11.4410   120.7076    66.2744
 3207.5410    11.2896    10.9906   121.6496    65.5060
 3208.0410    11.7891    11.3876   117.6033    65.3626
 3208.5410    12.5759    11.4719   115.4260    66.0000
 3209.0410    12.3144    11.3158   115.1231    66.7898
 3209.5410    11.5531    10.7011   116.3810    67.1130
 3210.0410    10.5496     9.8394   122.2263    66.0266
 3210.5410     9.5200     9.1345   127.8606    65.7121
 3211.0410     8.4904     8.3806   133.4950    65.1309
 3211.5410     7.4608     7.6267   139.1293    64.9846
 3212.0410     6.4313     6.8728   142.6297    64.9998
 3212.5410     5.2837     6.1189   142.6376    65.1675
 3213.0410     4.8521     5.3650   143.5815    65.3353
 3213.5410     4.4240     4.7839   144.5255    65.6585
 3214.0410     4.2403     4.7521   144.8454    65.8262
 3214.5410     4.2114     4.7542   144.2293    65.8384
 3215.0410     4.1831     4.5917   144.2392    65.8509
 3215.5410     3.7604     4.3119   151.4234    65.8659
 3216.0410     3.0978     3.4558   162.4034    65.7195
 3216.5410     2.3335     2.7269   184.2620    65.2652
 3217.0410     2.0678     2.2776  -199.5688    65.4359
 3217.5410     2.0983     2.3932  -189.2625    65.4481
 3218.0410     3.0736     3.2556  -999.2500    65.4603
 3218.5410     4.0381     4.3001  -999.2500    65.4725
 3219.0410     5.1619     5.2624   137.4383    65.7958
 3219.5410     5.0902     5.3388   137.1342    65.9636
 3220.0410     5.0201     5.3033   140.5762    65.8202
 3220.5410     5.2797     5.7314   141.2062    65.6769
 3221.0410     5.8366     6.6459   130.9197    65.5336
 3221.5410     6.4984     7.0369   127.4935    65.3903
 3222.0410     6.5943     7.2860   129.6875    65.4055
 3222.5410     7.0967     7.7100   132.1915    65.4177
 3223.0410     8.3213     8.2161   130.3273    65.2713
 3223.5410     9.1023     8.8793   127.8391    65.2866
 3224.0410     9.5041     9.5289   125.6469    65.6098
 3224.5410     9.5759     9.9418   125.3589    65.9432
 3225.0410     9.1130     9.3367   125.3688    66.4124
 3225.5410     8.6724     9.1452   126.0007    66.1161
 3226.0410     8.5521     8.8925   126.9447    65.3507
 3226.5410     8.6792     8.7125   127.8886    64.8963
 3227.0410     8.8705     8.9647   128.2085    64.9085
 3227.5410     8.9445     8.9678   126.9684    65.0762
 3228.0410     9.0050     8.7839   126.3520    65.2440
 3228.5410     8.6937     8.4243   127.2963    65.4117
 3229.0410     8.1562     8.0228   128.8755    65.4239
 3229.5410     7.6519     7.6405   129.5382    65.1104
 3230.0410     7.0269     6.8306   130.4421    64.9817
 3230.5410     6.2713     6.5051   130.7621    64.8384
 3231.0410     6.0971     6.6096   130.7700    65.0092
 3231.5410     7.0855     7.2512   128.2818    65.0214
 3232.0410     8.5361     7.9842   122.6899    65.1891
 3232.5410     8.5975     8.6287   117.3418    65.3569
 3233.0410     7.9523     8.4517   115.4641    65.9911
 3233.5410     6.8485     7.6187   121.5313    66.7810
 3234.0410     6.0687     6.6667   127.9342    67.1043
 3234.5410     5.3777     5.7147   134.2588    66.9015
 3235.0410     5.1177     5.3608   131.7707    66.0400
 3235.5410     5.1564     5.4005   131.7786    65.8966
 3236.0410     5.2325     5.4405   132.0985    65.9119
 3236.5410     5.1604     5.3669   133.6665    65.9241
 3237.0410     5.0136     5.1112   133.3623    65.9363
 3237.5410     4.7751     4.9019   133.3704    65.7930
 3238.0410     4.5443     4.7012   134.3581    65.4942
 3238.5410     4.4812     4.5406   136.8203    65.3508
 3239.0410     4.4511     4.4163   138.3882    65.3632
 3239.5410     4.2972     4.2954   139.3322    65.1950
 3240.0410     4.0895     4.2369   139.6501    61.3470
 3240.5410     4.0044     3.9499   137.7880    58.7153
 3241.0410     3.9493     3.8159   137.1699    56.8613
 3241.5410     4.0076     3.8716   137.4918    57.4955
 3242.0410     4.1937     4.0114   137.4997    57.3522
 3242.5410     4.3696     4.1856   136.5642    55.9647
 3243.0410     4.4979     4.3673   135.5676    60.7981
 3243.5410     4.6964     4.6214   133.4693    64.6983
 3244.0410     5.0098     4.9248   131.2931    65.4884
 3244.5410     5.2310     5.1386   128.1809    65.3479
 3245.0410     5.3845     5.2132   127.5628    65.5156
 3245.5410     5.5031     5.2518   127.8847    65.5278
 3246.0410     5.6244     5.4100   128.2047    66.4731
 3246.5410     5.9231     5.5990   126.9645    66.7964
 3247.0410     6.1764     5.8421   123.2283    66.4975
 3247.5410     6.2676     6.0530   122.6122    66.1956
 3248.0410     6.3602     6.1409   122.6863    65.8999
 3248.5410     6.4541     6.2739   125.1261    65.2900
 3249.0410     6.5494     6.3203   126.0701    64.9722
 3249.5410     6.6937     6.3671   126.0780    64.6923
 3250.0410     6.7443     6.4142   125.7719    64.8631
 3250.5410     6.6518     6.4618   125.4678    65.1863
 3251.0410     6.6071     6.4193   127.0378    65.1985
 3251.5410     6.4237     6.2436   128.2937    65.3632
 3252.0410     6.2901     6.1587   128.6137    65.3785
 3252.5410     6.2473     6.1172   127.9975    65.8572
 3253.0410     6.2951     6.0770   124.2066    65.7139
 3253.5410     6.4798     6.2086   121.1511    65.4151
 3254.0410     6.7659     6.5699   118.9749    64.8052
 3254.5410     6.9701     6.7595   116.1747    65.4425
 3255.0410     7.2209     7.0036   116.8067    65.4547
 3255.5410     7.2754     7.0061   119.6227    65.4669
 3256.0410     7.1752     7.0091   121.8147    65.6347
 3256.5410     6.8283     6.9138   123.0707    65.4883
 3257.0410     6.1377     6.4924   123.0396    65.1895
 3257.5410     5.8410     6.0962   124.6466    65.5158
 3258.0410     5.7604     6.0138   129.6917    65.9945
 3258.5410     5.8040     6.0159   132.2040    66.1622
 3259.0410     5.8479     6.1032   134.0327    65.5524
 3259.5410     5.8503     6.1917   134.9766    65.5676
 3260.0410     5.8949     6.1939   134.6706    65.1133
 3260.5410     5.9389     6.1888   134.6805    64.9669
 3261.0410     5.7741     6.0690   135.0004    65.2932
 3261.5410     5.6950     6.0211   136.8804    65.6164
 3262.0410     5.6973     5.9624   137.5123    65.6286
 3262.5410     5.6995     5.8663   137.8323    65.6409
 3263.0410     5.7425     5.9098   140.4408    65.3420
 3263.5410     5.5831     5.9118   144.8086    65.1987
 3264.0410     5.4671     5.7906   146.2810    65.3952
 3264.5410     5.5089     5.7330   146.6010    65.5019
 3265.0410     5.5111     5.6736   144.3889    65.6086
 3265.5410     5.6728     5.7564   142.8726    65.7152
 3266.0410     5.8811     5.9643   144.1306    65.8219
 3266.5410     6.0107     6.1365   145.6985    65.8981
 3267.0410     6.0131     6.2694   144.7704    66.0658
 3267.5410     6.1455     6.3603   141.7584    65.7639
 3268.0410     6.3712     6.3626   138.4919    65.4681
 3268.5410     6.4653     6.4549   135.2255    65.1687
 3269.0410     6.4536     6.5026   132.3209    65.4925
 3269.5410     5.9826     6.3221   133.8909    66.1269
 3270.0410     5.8582     6.1460   136.3949    66.1394
 3270.5410     5.8605     5.9832   140.1470    65.9957
 3271.0410     5.8628     5.9858   141.4010    66.0110
 3271.5410     5.8651     6.0301   140.4728    65.8677
 3272.0410     5.8251     6.0323   143.2909    66.0354
 3272.5410     5.7864     5.9916   145.1709    66.2031
 3273.0410     5.6662     5.9518   145.1788    66.0567
 3273.5410     5.5445     5.8713   144.8747    65.9165
 3274.0410     5.3185     5.7106   146.4446    65.6176
 3274.5410     5.2079     5.5518   148.3246    65.6300
 3275.0410     5.0991     5.4341   148.3326    65.6425
 3275.5410     5.1016     5.3663   148.9645    65.9683
