~VERSION INFORMATION
 VERS.               2.10:   CWLS LOG ASCII STANDARD - VERSION 2.10
 WRAP.                 NO:   ONE LINE PER DEPTH STEP
~WELL INFORMATION
#MNEM.UNIT      DATA TYPE    INFORMATION
#----------   ------------   ------------------------------
 STRT.F         2400.0405:   START DEPTH
 STOP.F         5534.6855:   STOP DEPTH
 STEP.F            0.5000:   STEP LENGTH
 NULL.          -999.2500:   NO VALUE
 COMP. Fluor Daniel (NPOSR), Inc.:   COMPANY
 WELL.         43-2TPX-10:   WELL
 FLD .           N.P.R. 3:   FIELD
 LOC . 10-38N-78W-NATRONA-WY:   LOCATION
 STAT.                 WY:   STATE
 COUN.            Natrona:   COUNTY
 SRVC.      Western Atlas:   SERVICE COMPANY
 DATE.                   :   LOGDATE
 APIN.         4902522843:   API NUMBER
~CURVE INFORMATION
#MNEM.UNIT       API CODE    CURVE DESCRIPTION
#----------   ------------   ------------------------------
 DEPT.F                  :
 LLD .ohm.m  11 220 04 00:   Dual Laterolog, Deep
 LLS .ohmm   11 220 06 00:   Dual Laterolog, shallow
 GR  .GAPI   06 310 01 00:   Gamma Ray
 SP  .mV     06 010 01 00:   Spontaneous Potential
~PARAMETER INFORMATION
#MNEM.UNIT          VALUE    DESCRIPTION
#----------   ------------   ------------------------------
 EKB .F         5209.0000:   Kelly bushing
 EGL .F         5199.0000:   Ground level
 EDF .F         5208.0000:   Drilling floor
 EPD .F           10.0000:   Permanent datum
 TD  .F         5230.0000:   Total depth
 NRUN.             1.0000:   Number of Runs
#--RUN 1---   ------------   The following are for Run 1---
 RUN .             1.0000:   Run 1
 DATE.mm/dd/yyyy 02/13/1997:   Date Logged
 DD  .ft             5540:   Depth Driller
 DL  .ft             5541:   Depth Logger
 BLI .ft             5535:   Bottom Log Interval
 TLI .ft             2400:   Top Log Interval
 CSS .inch          9.625:   Casing Size
 CTD1.ft              439:   Casing Driller 1
 CTL1.ft              436:   Casing Logger 1
 BS  .inch           8.75:   Bit Size
 DFT .          Gel/ Chem:   Type Fluid In Hole
 DFD .lb/gal          9.6:   Mud Weight
 DFV .sec              50:   Viscosity
 DFPH.                9.5:   pH
 DFL .cc                8:   Fluid Loss
 WSS .               tank:   Source Of Sample
 RM  .ohmm            .68:   Rm
 EMT .F                94:   Rm Meas. Temp.
 RMF .ohmm            .51:   Rmf
 MFT .F                94:   Rmf Meas. Temp.
 RMC .ohmm            .95:   Rmc
 MCST.F                94:   Rmc Meas. Temp.
 MFSS.              calc.:   Source Rmf.
 MCSS.              calc.:   Source Rmc.
 RMB .ohmm            .38:   Rm. At BHT
 BHT .F               168:   BHT.
 TCS .hh:mm         6 hrs:   Time Circ. Stopped
 MRT .F               168:   Maximum Recorded Temp.
 LUL .          Rk. Spgs.:   Logging Unit Location
 ENGI.               Rall:   Recorded By
 WITN.      Lebeau/ Hardy:   Witnessed By
 DGBY.              Burke:   Digitized By
~OTHER INFORMATION
# RIG FUEL PUMP CAUSING SPURRIOUS ANOMILIES ON S.P.
~A  DEPTH      LLD        LLS         GR         SP
# ...
 2984.0410     3.5432     3.3378   114.2337    65.3140
 2984.5410     3.5694     3.4089   113.0379    65.6304
 2985.0410     3.6214     3.4816   111.6944    65.9468
 2985.5410     3.6480     3.5310   110.2504    65.9523
 2986.0410     3.6747     3.5560   109.0260    65.8034
 2986.5410     3.7549     3.6318   108.1136    65.6519
 2987.0410     3.9479     3.7882   106.8892    65.9696
 2987.5410     4.2105     4.0073   105.6647    66.1305
 2988.0410     4.4278     4.2094   108.3839    65.9790
 2988.5410     4.5559     4.3295   112.2702    65.9858
 2989.0410     4.4924     4.2992   112.5999    65.6799
 2989.5410     4.4295     4.3016   110.1334    65.6855
 2990.0410     4.4621     4.3910   108.5970    65.5353
 2990.5410     4.6581     4.4533   108.3027    65.6975
 2991.0410     4.6589     4.3299   108.3322    65.7029
 2991.5410     4.5611     4.0934   108.3559    65.5514
 2992.0410     4.3397     3.8698   109.6946    65.7137
 2992.5410     4.1280     3.7626   112.1532    65.8745
 2993.0410     3.9532     3.6074   113.1070    65.8799
 2993.5410     3.7381     3.5322   112.5066    66.1963
 2994.0410     3.6078     3.4334   113.4722    66.0462
 2994.5410     3.5571     3.3866   114.7438    65.8960
 2995.0410     3.5074     3.3866   115.3856    66.0583
 2995.5410     3.5082     3.4106   113.5431    66.3747
 2996.0410     3.5592     3.4833   111.9733    66.8466
 2996.5410     3.6630     3.6848   110.7293    66.6965
 2997.0410     3.8241     3.7899   110.1818    66.5463
 2997.5410     3.9668     3.9255   111.7715    66.3962
 2998.0410     4.0501     3.9811   112.1012    66.2459
 2998.5410     4.1681     3.9812   111.1947    66.4069
 2999.0410     4.2288     3.9813   109.9703    66.4124
 2999.5410     4.1696     3.9258   109.9939    66.2621
 3000.0410     4.0947     3.8644   110.5122    66.4089
 3000.5410     3.9937     3.6025   112.5710    65.9507
 3001.0410     3.8787     3.5525   114.6298    65.9592
 3001.5410     3.8519     3.5279   116.6886    65.9676
 3002.0410     3.8533     3.5034   118.7474    65.8138
 3002.5410     3.8820     3.5534   120.0015    66.0065
 3003.0410     3.8831     3.6039   118.1357    66.7726
 3003.5410     3.9121     3.6552   114.3823    67.0921
 3004.0410     3.8306     3.5792   111.0263    67.5671
 3004.5410     3.7239     3.4560   109.4180    67.4179
 3005.0410     3.6202     3.3369   111.9219    67.5839
 3005.5410     3.5696     3.2906   114.4243    67.5924
 3006.0410     3.5453     3.2678   115.3665    67.4432
 3006.5410     3.5465     3.2218   115.3728    67.1427
 3007.0410     3.5223     3.1305   115.6910    66.0625
 3007.5410     3.5233     3.0684   116.9453    65.7598
 3008.0410     3.3288     3.0257   117.8919    66.0814
 3008.5410     3.3298     3.0260   119.4908    66.2454
 3009.0410     3.3548     3.0263   120.0857    66.2538
 3009.5410     3.3798     3.0478   119.7783    66.2622
 3010.0410     3.3565     3.0055   118.8501    66.2707
 3010.5410     3.2401     2.8537   117.2962    65.9681
 3011.0410     3.0831     2.7481   118.2385    65.6633
 3011.5410     2.9548     2.6424   120.4288    65.5180
 3012.0410     2.8724     2.5579   122.9312    65.5268
 3012.5410     2.8326     2.5581   123.2626    65.5353
 3013.0410     2.8567     2.5945   120.3896    65.8761
 3013.5410     2.9795     2.6500   118.1650    65.7097
 3014.0410     3.0232     2.7643   117.9639    65.4050
 3014.5410     3.0895     2.7451   120.1558    65.4155
 3015.0410     2.9399     2.6881   121.0981    65.5795
 3015.5410     2.8377     2.5955   120.1682    65.5879
 3016.0410     2.7784     2.5416   119.5505    65.7519
 3016.5410     2.7594     2.5063   118.6206    65.7603
 3017.0410     2.7800     2.5065   117.3788    65.7687
 3017.5410     2.8207     2.5244   117.0706    65.9327
 3018.0410     2.7817     2.5050   115.8312    66.5764
 3018.5410     2.6659     2.4206   118.0231    67.2221
 3019.0410     2.5368     2.3209   120.2134    67.6687
 3019.5410     2.4486     2.2567   122.4037    66.9016
 3020.0410     2.4669     2.2411   123.3460    66.7524
 3020.5410     2.5572     2.3378   123.0402    66.6054
 3021.0410     2.6319     2.3878   122.4224    66.6159
 3021.5410     2.5954     2.3879   121.8047    66.7798
 3022.0410     2.5377     2.3220   121.8109    66.9438
 3022.5410     2.3838     2.2728   130.0199    67.1077
 3023.0410     2.3011     2.1623   134.4558    66.6496
 3023.5410     2.3018     2.1347   133.0584    66.6583
 3024.0410     2.3522     2.2584   127.4071    66.6686
 3024.5410     2.4038     2.3229   121.7558    66.5215
 3025.0410     2.4391     2.3559   116.5456    66.5299
 3025.5410     2.4925     2.4063   115.6143    66.5384
 3026.0410     2.6586     2.6928   115.9341    66.5468
 3026.5410     2.9815     3.1876   116.2841    66.5552
 3027.0410     3.3098     3.4928   114.6985    66.7192
 3027.5410     3.6947     3.6718   114.8041    66.8831
 3028.0410     3.9975     3.7212   119.0807    67.2026
 3028.5410     3.5928     3.3968   123.9631    67.6902
 3029.0410     3.3945     3.3732   131.9673    68.0247
 3029.5410     3.5440     3.4941   132.5149    68.1631
 3030.0410     3.9173     3.9101   125.9972    68.1716
 3030.5410     4.4130     4.3450   118.9089    68.1800
 3031.0410     5.0676     4.7944   111.0058    68.1884
 3031.5410     5.2531     5.0365   109.4519    67.7303
 3032.0410     5.3301     5.1461   108.2101    67.1166
 3032.5410     5.4083     5.2599   105.2112    66.5030
 3033.0410     5.6869     5.4044   100.4238    65.7337
 3033.5410     5.8116     5.6375    98.2460    66.0533
 3034.0410     5.8562     5.7177    98.8762    66.0815
 3034.5410     5.9407     5.7991   100.4425    66.2278
 3035.0410     5.9428     5.7589   100.7608    66.5472
 3035.5410     5.8603     5.7190   100.1414    66.7112
 3036.0410     5.7789     5.5610   100.1492    66.7196
 3036.5410     5.4599     5.2207   100.4674    66.7281
 3037.0410     4.9072     4.9984   104.6257    66.5789
 3037.5410     4.8387     4.8333   109.2178    66.2784
 3038.0410     4.9806     5.0417   113.2802    66.1310
 3038.5410     5.6659     5.9681   116.0946    66.1397
 3039.0410     6.6043     6.6319   117.3488    66.1483
 3039.5410     6.8724     6.7263   115.1710    66.3388
 3040.0410     6.4930     6.0635   114.8637    66.4781
 3040.5410     5.3953     5.3957   115.4955    66.1734
 3041.0410     4.9540     4.9043   115.1897    66.3395
 3041.5410     4.7818     4.7642   114.2599    66.8145
 3042.0410     4.6486     4.4722   114.3138    67.1339
 3042.5410     4.4551     4.2925   116.7700    66.9869
 3043.0410     4.2393     4.1446   117.4003    66.8394
 3043.5410     4.1804     4.0301   117.4065    66.5372
 3044.0410     4.2119     4.0305   116.7887    66.3901
 3044.5410     4.2432     4.1456   113.6748    66.2430
 3045.0410     4.1546     4.1460   111.8074    66.0959
 3045.5410     4.0678     4.0598   113.6873    66.2620
 3046.0410     3.9544     3.7319   115.2536    66.4259
 3046.5410     3.7096     3.6033   115.2600    65.6567
 3047.0410     3.5048     3.4549   113.0835    65.6652
 3047.5410     3.4072     3.4552   106.8495    65.8291
 3048.0410     3.3839     3.5043   105.6061    66.1486
 3048.5410     3.4379     3.5046   104.9883    66.3125
 3049.0410     3.4841     3.5545   104.3721    66.0099
 3049.5410     3.5101     3.6305   103.4423    65.7073
 3050.0410     3.5111     3.6350   102.8242    65.5348
 3050.5410     3.5121     3.6310   101.8947    65.2576
 3051.0410     3.5131     3.6313   102.2267    65.2682
 3051.5410     3.5901     3.6354   104.8522    65.5876
 3052.0410     3.7216     3.7355   108.7792    65.9071
 3052.5410     3.9155     4.2096   112.5296    66.3821
 3053.0410     4.4930     4.6778   113.1599    67.0126
 3053.5410     5.1752     5.4219   111.9180    67.3321
 3054.0410     5.8573     5.9828   106.9321    67.4960
 3054.5410     6.4686     6.5095   104.1302    67.8156
 3055.0410     6.6924     6.6021    97.8962    67.9795
 3055.5410     6.7905     6.6026    97.2746    67.6768
 3056.0410     6.6013     6.3669    99.2155    67.2208
 3056.5410     6.3718     5.9017   101.3486    66.9161
