~VERSION INFORMATION
 VERS.               2.10:   CWLS LOG ASCII STANDARD - VERSION 2.10
 WRAP.                 NO:   ONE LINE PER DEPTH STEP
~WELL INFORMATION
#MNEM.UNIT      DATA TYPE    INFORMATION
#----------   ------------   ------------------------------
 STRT.F         2400.0405:   START DEPTH
 STOP.F         5534.6855:   STOP DEPTH
 STEP.F            0.5000:   STEP LENGTH
 NULL.          -999.2500:   NO VALUE
 COMP. Fluor Daniel (NPOSR), Inc.:   COMPANY
 WELL.         43-2TPX-10:   WELL
 FLD .           N.P.R. 3:   FIELD
 LOC . 10-38N-78W-NATRONA-WY:   LOCATION
 STAT.                 WY:   STATE
 COUN.            Natrona:   COUNTY
 SRVC.      Western Atlas:   SERVICE COMPANY
 DATE.                   :   LOGDATE
 APIN.         4902522843:   API NUMBER
~CURVE INFORMATION
#MNEM.UNIT       API CODE    CURVE DESCRIPTION
#----------   ------------   ------------------------------
 DEPT.F                  :
 LLD .ohm.m  11 220 04 00:   Dual Laterolog, Deep
 LLS .ohmm   11 220 06 00:   Dual Laterolog, shallow
 GR  .GAPI   06 310 01 00:   Gamma Ray
 SP  .mV     06 010 01 00:   Spontaneous Potential
~PARAMETER INFORMATION
#MNEM.UNIT          VALUE    DESCRIPTION
#----------   ------------   ------------------------------
 EKB .F         5209.0000:   Kelly bushing
 EGL .F         5199.0000:   Ground level
 EDF .F         5208.0000:   Drilling floor
 EPD .F           10.0000:   Permanent datum
 TD  .F         5230.0000:   Total depth
 NRUN.             1.0000:   Number of Runs
#--RUN 1---   ------------   The following are for Run 1---
 RUN .             1.0000:   Run 1
 DATE.mm/dd/yyyy 02/13/1997:   Date Logged
 DD  .ft             5540:   Depth Driller
 DL  .ft             5541:   Depth Logger
 BLI .ft             5535:   Bottom Log Interval
 TLI .ft             2400:   Top Log Interval
 CSS .inch          9.625:   Casing Size
 CTD1.ft              439:   Casing Driller 1
 CTL1.ft              436:   Casing Logger 1
 BS  .inch           8.75:   Bit Size
 DFT .          Gel/ Chem:   Type Fluid In Hole
 DFD .lb/gal          9.6:   Mud Weight
 DFV .sec              50:   Viscosity
 DFPH.                9.5:   pH
 DFL .cc                8:   Fluid Loss
 WSS .               tank:   Source Of Sample
 RM  .ohmm            .68:   Rm
 EMT .F                94:   Rm Meas. Temp.
 RMF .ohmm            .51:   Rmf
 MFT .F                94:   Rmf Meas. Temp.
 RMC .ohmm            .95:   Rmc
 MCST.F                94:   Rmc Meas. Temp.
 MFSS.              calc.:   Source Rmf.
 MCSS.              calc.:   Source Rmc.
 RMB .ohmm            .38:   Rm. At BHT
 BHT .F               168:   BHT.
 TCS .hh:mm         6 hrs:   Time Circ. Stopped
 MRT .F               168:   Maximum Recorded Temp.
 LUL .          Rk. Spgs.:   Logging Unit Location
 ENGI.               Rall:   Recorded By
 WITN.      Lebeau/ Hardy:   Witnessed By
 DGBY.              Burke:   Digitized By
~OTHER INFORMATION
# RIG FUEL PUMP CAUSING SPURRIOUS ANOMILIES ON S.P.
~A  DEPTH      LLD        LLS         GR         SP
# ...
 4444.0410    19.9793    20.8263   101.8268    68.3115
 4444.5410    17.6974    19.4160   114.5867    68.3163
 4445.0410    15.7888    18.0489   127.3465    68.4757
 4445.5410    14.1871    16.8761   137.4323    68.6351
 4446.0410    15.1368    17.3594   136.8133    68.6389
 4446.5410    17.5982    19.7022   126.4917    68.6429
 4447.0410    20.4598    22.6775   120.4719    68.6476
 4447.5410    21.3657    23.0016   117.0649    68.8060
 4448.0410    20.2530    21.7474   117.7508    68.3443
 4448.5410    17.0641    19.1667   123.7047    68.1917
 4449.0410    15.2821    17.0113   133.1014    68.1965
 4449.5410    14.9618    16.1905   137.4902    68.3559
 4450.0410    16.0794    16.7591   134.9933    68.3597
 4450.5410    17.9084    20.2866   124.6717    68.3636
 4451.0410    20.6721    23.0244   116.5410    68.5230
 4451.5410    22.8593    24.3588   111.8532    68.5270
 4452.0410    24.0428    24.7060   111.2343    68.6872
 4452.5410    24.0520    23.8573   116.1423    68.8391
 4453.0410    23.0499    23.1994   119.7008    68.8227
 4453.5410    23.3934    23.6968   117.5169    68.8063
 4454.0410    25.3191    25.9783   107.8212    68.7899
 4454.5410    28.1990    27.6926    99.8964    68.7734
 4455.0410    30.7395    30.3160    89.7872    68.7570
 4455.5410    33.9919    32.9871    79.6781    68.7406
 4456.0410    37.3204    35.1450    68.4133    68.7242
 4456.5410    39.5345    37.7081    66.5424    68.5667
 4457.0410    41.2896    40.4580    64.0455    68.2596
 4457.5410    42.8440    42.2057    61.8613    68.2635
 4458.0410    43.4431    43.1105    61.2426    68.2682
 4458.5410    42.2334    41.6259    61.2497    68.5832
 4459.0410    39.8986    40.7327    62.8631    68.7425
 4459.5410    37.9637    39.3652    65.6473    68.7464
 4460.0410    35.8650    37.2188    68.1583    68.7503
 4460.5410    33.8823    34.6985    74.1121    68.9096
 4461.0410    28.7512    31.2323    85.8233    68.7579
 4461.5410    24.2272    27.9155   100.3911    68.7618
 4462.0410    19.8472    23.7359   114.9589    68.9368
 4462.5410    15.3343    19.0914   129.5267    69.3926
 4463.0410    12.8272    14.4285   137.3716    69.5520
 4463.5410    12.3810    14.2291   138.3175    69.5559
 4464.0410    13.6923    16.1499   139.8878    69.4032
 4464.5410    17.0747    19.2328   134.2627    69.0970
 4465.0410    21.8435    23.4768   118.4965    68.9444
 4465.5410    26.6123    27.7207   109.0206    68.7936
 4466.0410    30.1317    31.9427    99.2296    68.3310
 4466.5410    30.7974    33.0892    93.9158    68.3349
 4467.0410    30.3714    32.6320    89.8341    68.3397
 4467.5410    29.1060    31.2893    90.2789    68.4991
 4468.0410    27.4576    28.9663    99.5725    68.0364
 4468.5410    25.9448    26.6473   106.7782    68.0402
 4469.0410    25.2559    25.8299   111.1653    68.0441
 4469.5410    25.0830    25.3566   105.8533    68.0479
 4470.0410    26.1961    27.0162   102.4174    68.2073
 4470.5410    28.5561    29.8126    95.8517    68.6777
 4471.0410    30.9068    31.5636    94.2938    68.6736
 4471.5410    32.5069    32.9401    93.3618    68.3744
 4472.0410    33.2251    33.1394    93.0559    68.2228
 4472.5410    30.4768    31.3336    94.0536    68.2276
 4473.0410    28.3177    28.0060    99.9563    68.3870
 4473.5410    26.6477    26.4790   104.6980    67.9243
 4474.0410    25.1745    25.9303   111.1726    67.7717
 4474.5410    24.4735    25.3930   115.9415    67.7765
 4475.0410    25.5570    25.5755   112.8187    68.5579
 4475.5410    25.7504    26.4980   109.0698    68.8729
 4476.0410    25.2132    26.6841   110.9548    68.3691
 4476.5410    22.6555    25.4078   119.4125    67.9474
 4477.0410    20.6461    21.0207   125.6793    67.9523
 4477.5410    19.5976    20.0147   131.9461    68.1116
 4478.0410    18.6963    19.7374   131.9531    68.1155
 4478.5410    20.0930    21.7811   124.6995    68.1194
 4479.0410    23.0284    23.7002   115.7630    68.1230
 4479.5410    24.2206    25.6079   106.8265    68.1270
 4480.0410    25.6576    26.3414   101.3089    68.1310
 4480.5410    24.7652    25.9384   103.2877    68.1349
 4481.0410    21.7513    23.2195   107.5845    68.1389
 4481.5410    18.6814    20.7507   114.9462    68.1429
 4482.0410    15.6115    17.8003   123.3651    68.1468
 4482.5410    13.3088    14.8170   131.3927    68.1508
 4483.0410    13.0299    13.9105   132.9647    68.1548
 4483.5410    17.6070    17.0107   132.0327    68.1587
 4484.0410    21.5216    22.3632   122.9517    68.1627
 4484.5410    24.8429    27.7157   106.5139    68.1666
 4485.0410    27.9354    32.3584    88.8619    68.1706
 4485.5410    31.2631    33.2666    85.7390    68.1750
 4486.0410    31.4967    32.1227    85.6184    68.1789
 4486.5410    29.1263    29.9475    89.1959    68.0263
 4487.0410    26.5490    26.0254    92.0601    67.8754
 4487.5410    23.3491    22.3014    98.5485    67.7239
 4488.0410    19.5315    20.0394   109.2327    67.7278
 4488.5410    15.9911    17.5487   121.0180    67.5761
 4489.0410    14.9994    15.9238   132.4656    67.5810
 4489.5410    15.1252    18.5886   134.9351    67.8959
 4490.0410    19.0776    21.2460   124.3880    67.8997
 4490.5410    21.6333    23.4451   113.1112    67.9036
 4491.0410    22.9167    24.2955   101.8344    67.9074
 4491.5410    23.4230    25.3645    90.5576    67.9113
 4492.0410    23.7698    25.5178    84.2272    67.9152
 4492.5410    23.7789    25.3426    84.9527    67.9191
 4493.0410    23.4477    24.9933    85.5349    67.9230
 4493.5410    23.4590    24.6480    84.2900    68.0832
 4494.0410    22.8006    23.6338    83.6693    68.0871
 4494.5410    21.9042    22.5027    86.4949    67.9345
 4495.0410    20.6493    21.5769    90.5708    67.7838
 4495.5410    20.0743    20.9783    93.3947    68.0987
 4496.0410    19.7947    20.8378    95.2797    68.2581
 4496.5410    19.8042    21.1362    95.5997    68.5730
 4497.0410    19.8118    21.2882    93.8722    68.4189
 4497.5410    20.1051    21.2911    88.8869    68.0949
 4498.0410    20.2572    21.5953    85.9199    67.8069
 4498.5410    20.8559    22.0583    83.7360    68.1228
 4499.0410    21.4854    22.3735    83.4282    68.2822
 4499.5410    21.9437    22.6932    83.7500    68.4416
 4500.0410    22.0065    23.3093    84.0683    68.8956
 4500.5410    22.1874    24.2422    82.0084    68.8925
 4501.0410    22.3682    25.2280    80.6211    68.8889
 4501.5410    22.5491    25.5894    80.3207    68.8860
 4502.0410    22.6910    25.7731    81.8984    68.4164
 4502.5410    22.8611    25.2409    83.4784    68.2580
 4503.0410    23.0340    25.2453    84.4297    68.4105
 4503.5410    22.7133    25.0568    85.3810    69.0297
 4504.0410    22.5592    24.9016    84.1413    68.2491
 4504.5410    22.7300    25.0825    81.9628    68.2462
 4505.0410    22.9002    25.4418    82.9140    68.2431
 4505.5410    22.9077    25.4461    87.6212    68.5506
 4506.0410    23.0795    25.0954    91.7049    68.5476
 4506.5410    23.0887    24.2333    94.6416    68.2336
 4507.0410    22.9301    23.4007    98.9289    68.2307
 4507.5410    22.1356    22.4388   103.0101    68.2277
 4508.0410    20.6182    21.0581   108.0303    68.2248
 4508.5410    19.7607    20.6069   107.1036    68.3773
 4509.0410    18.9292    20.3473   103.9861    69.1520
 4509.5410    18.5439    22.2979   103.0563    68.9935
 4510.0410    19.5014    23.5910   101.5068    68.8350
 4510.5410    20.8014    23.9289    99.6376    69.1424
 4511.0410    22.9939    24.4428    97.7004    69.1394
 4511.5410    23.4990    24.2758    96.8490    69.1365
 4512.0410    23.5067    21.3958    98.1163    69.1335
 4512.5410    22.8118    19.5262   101.8845    69.1306
 4513.0410    19.9640    18.9535   105.9657    69.2839
 4513.5410    18.2017    18.4705   105.6651    69.2802
 4514.0410    17.5696    19.2698   101.6086    69.4327
 4514.5410    17.7011    21.1162    90.9792    69.4520
 4515.0410    18.2195    22.7186    90.3607    69.5824
 4515.5410    20.5755    23.4746    89.7520    69.2676
 4516.0410    22.3156    23.6403    89.7674    69.2647
 4516.5410    23.2457    23.4797    93.5356    69.4172
