~VERSION INFORMATION
 VERS.               2.10:   CWLS LOG ASCII STANDARD - VERSION 2.10
 WRAP.                 NO:   ONE LINE PER DEPTH STEP
~WELL INFORMATION
#MNEM.UNIT      DATA TYPE    INFORMATION
#----------   ------------   ------------------------------
 STRT.F         2400.0405:   START DEPTH
 STOP.F         5534.6855:   STOP DEPTH
 STEP.F            0.5000:   STEP LENGTH
 NULL.          -999.2500:   NO VALUE
 COMP. Fluor Daniel (NPOSR), Inc.:   COMPANY
 WELL.         43-2TPX-10:   WELL
 FLD .           N.P.R. 3:   FIELD
 LOC . 10-38N-78W-NATRONA-WY:   LOCATION
 STAT.                 WY:   STATE
 COUN.            Natrona:   COUNTY
 SRVC.      Western Atlas:   SERVICE COMPANY
 DATE.                   :   LOGDATE
 APIN.         4902522843:   API NUMBER
~CURVE INFORMATION
#MNEM.UNIT       API CODE    CURVE DESCRIPTION
#----------   ------------   ------------------------------
 DEPT.F                  :
 LLD .ohm.m  11 220 04 00:   Dual Laterolog, Deep
 LLS .ohmm   11 220 06 00:   Dual Laterolog, shallow
 GR  .GAPI   06 310 01 00:   Gamma Ray
 SP  .mV     06 010 01 00:   Spontaneous Potential
~PARAMETER INFORMATION
#MNEM.UNIT          VALUE    DESCRIPTION
#----------   ------------   ------------------------------
 EKB .F         5209.0000:   Kelly bushing
 EGL .F         5199.0000:   Ground level
 EDF .F         5208.0000:   Drilling floor
 EPD .F           10.0000:   Permanent datum
 TD  .F         5230.0000:   Total depth
 NRUN.             1.0000:   Number of Runs
#--RUN 1---   ------------   The following are for Run 1---
 RUN .             1.0000:   Run 1
 DATE.mm/dd/yyyy 02/13/1997:   Date Logged
 DD  .ft             5540:   Depth Driller
 DL  .ft             5541:   Depth Logger
 BLI .ft             5535:   Bottom Log Interval
 TLI .ft             2400:   Top Log Interval
 CSS .inch          9.625:   Casing Size
 CTD1.ft              439:   Casing Driller 1
 CTL1.ft              436:   Casing Logger 1
 BS  .inch           8.75:   Bit Size
 DFT .          Gel/ Chem:   Type Fluid In Hole
 DFD .lb/gal          9.6:   Mud Weight
 DFV .sec              50:   Viscosity
 DFPH.                9.5:   pH
 DFL .cc                8:   Fluid Loss
 WSS .               tank:   Source Of Sample
 RM  .ohmm            .68:   Rm
 EMT .F                94:   Rm Meas. Temp.
 RMF .ohmm            .51:   Rmf
 MFT .F                94:   Rmf Meas. Temp.
 RMC .ohmm            .95:   Rmc
 MCST.F                94:   Rmc Meas. Temp.
 MFSS.              calc.:   Source Rmf.
 MCSS.              calc.:   Source Rmc.
 RMB .ohmm            .38:   Rm. At BHT
 BHT .F               168:   BHT.
 TCS .hh:mm         6 hrs:   Time Circ. Stopped
 MRT .F               168:   Maximum Recorded Temp.
 LUL .          Rk. Spgs.:   Logging Unit Location
 ENGI.               Rall:   Recorded By
 WITN.      Lebeau/ Hardy:   Witnessed By
 DGBY.              Burke:   Digitized By
~OTHER INFORMATION
# RIG FUEL PUMP CAUSING SPURRIOUS ANOMILIES ON S.P.
~A  DEPTH      LLD        LLS         GR         SP
# ...
 3860.0410     4.5662     3.9578   134.1616    66.8433
 3860.5410     4.3749     3.8759   138.8419    66.8212
 3861.0410     4.0890     3.5882   141.6560    66.8027
 3861.5410     3.8021     3.2949   143.8480    66.9498
 3862.0410     3.5152     3.0119   144.7959    66.7835
 3862.5410     3.2282     2.5445   144.4624    66.4638
 3863.0410     2.9535     2.4917   136.8934    66.4551
 3863.5410     2.8911     2.5813   128.1833    66.6042
 3864.0410     2.9544     2.8286   119.4732    67.3710
 3864.5410     3.1097     2.9926   110.7631    67.8310
 3865.0410     3.3616     3.0354   106.9394    67.6647
 3865.5410     3.4106     3.0573   104.4658    67.5005
 3866.0410     3.3868     3.0359   101.0060    67.4917
 3866.5410     3.2682     2.9708   100.1407    67.4810
 3867.0410     3.1992     2.9325   100.7811    67.0058
 3867.5410     3.1317     2.8920   102.6621    66.9972
 3868.0410     3.1097     2.8521   104.8541    66.8330
 3868.5410     3.0881     2.8129   107.0461    66.9820
 3869.0410     2.9800     2.7740   107.3682    67.1267
 3869.5410     2.9592     2.7357   105.5203    67.2736
 3870.0410     3.1566     2.8742   105.8461    67.4207
 3870.5410     3.4156     3.1941   108.0381    67.4118
 3871.0410     3.6174     3.2398   110.9160    67.5587
 3871.5410     3.5665     3.0633   112.1147    67.3941
 3872.0410     3.2501     2.9168   111.8147    67.3837
 3872.5410     3.1815     2.9585   109.3448    67.5327
 3873.0410     3.6195     3.2879   106.8711    67.3664
 3873.5410     3.9165     3.5277   106.5711    67.0467
 3874.0410     4.2683     3.8117   109.0779    66.8825
 3874.5410     4.1486     3.7857   112.5140    66.5628
 3875.0410     3.8904     3.5793   113.1508    67.0207
 3875.5410     3.7007     3.4306   112.5386    67.4788
 3876.0410     3.7817     3.3848   107.1591    67.4699
 3876.5410     4.0628     3.6318   103.2453    66.9945
 3877.0410     4.3337     3.8695   102.3232    67.1394
 3877.5410     4.3709     3.7629   108.1516    67.4418
 3878.0410     4.0646     3.5329   125.2609    67.5908
 3878.5410     3.6254     3.3403   142.3702    67.2690
 3879.0410     3.6259     3.2028   159.4795    66.9493
 3879.5410     3.8402     3.2717   176.5887    66.7851
 3880.0410     4.0434     3.6900   189.5279    66.7765
 3880.5410     4.4295     3.9642   178.7808    67.3899
 3881.0410     4.8155     4.2750   158.7232    67.2257
 3881.5410     5.4174     4.6192   138.6656    67.0615
 3882.0410     5.9464     5.2060   118.6081    67.3617
 3882.5410     6.1682     5.0983    98.0449    67.6641
 3883.0410     5.7788     4.6172    81.9796    67.5000
 3883.5410     4.8469     3.9884    80.1243    67.4913
 3884.0410     4.1776     3.3597    79.8280    67.1716
 3884.5410     3.5083     2.7309    75.8029    67.1630
 3885.0410     2.7478     2.2906    74.2587    67.7764
 3885.5410     2.5953     2.2275    74.5881    68.3898
 3886.0410     2.4688     2.1661    75.2249    68.3811
 3886.5410     2.3995     2.1361    76.7948    68.0613
 3887.0410     2.3827     2.1366    78.3716    67.7414
 3887.5410     2.3661     2.1824    81.2564    67.5754
 3888.0410     2.4193     2.2767    84.9297    67.7223
 3888.5410     2.4530     2.3257    87.4328    67.8713
 3889.0410     2.4358     2.3097    89.6248    67.2384
 3889.5410     2.5070     2.3593    91.1947    66.6077
 3890.0410     2.5987     2.4270    92.7646    66.4435
 3890.5410     2.7326     2.4965    93.3977    66.7459
 3891.0410     2.8529     2.5323    91.5499    67.2038
 3891.5410     2.8738     2.5685    89.6983    68.2838
 3892.0410     2.9789     2.7366    87.8222    67.9638
 3892.5410     3.1361     3.0121    85.5965    67.7977
 3893.0410     3.8440     4.0305    80.1039    67.6336
 3893.5410     5.6231     5.0489    73.5867    67.6249
 3894.0410     6.6438     5.8072    70.8020    67.6163
 3894.5410     6.7889     6.0580    71.1278    67.4521
 3895.0410     6.3210     5.5537    74.2529    66.9769
 3895.5410     5.5707     4.8999    82.3547    66.9682
 3896.0410     4.8061     4.2461    95.4332    66.9595
 3896.5410     4.0416     3.5923   101.6687    66.9509
 3897.0410     3.6714     3.2218   102.3055    66.7735
 3897.5410     3.6196     3.2223    99.3742    66.3093
 3898.0410     3.8063     3.4239    96.1178    66.4562
 3898.5410     4.1792     3.8749    95.5104    67.0696
 3899.0410     4.6641     4.3258    93.6589    67.3742
 3899.5410     5.0340     4.7786    89.0080    67.3634
 3900.0410     5.2182     4.9156    84.0460    67.1992
 3900.5410     5.2564     4.9164    83.6766    67.1809
 3901.0410     5.2572     4.9520    84.9293    67.0209
 3901.5410     5.3337     5.1299    84.9709    67.1736
 3902.0410     5.3728     5.2400    80.8407    67.4809
 3902.5410     5.2972     5.1675    78.7290    67.4763
 3903.0410     5.0032     5.0253    86.5136    67.3170
 3903.5410     4.8627     4.7181    92.1191    67.3133
 3904.0410     4.9337     4.6530    91.8149    67.3096
 3904.5410     5.2251     4.7864    87.9434    67.4615
 3905.0410     5.6945     5.0366    81.7136    67.4577
 3905.5410     6.2060     6.4315    75.4838    67.4539
 3906.0410     7.1620     7.3510    69.2540    67.4493
 3906.5410     7.8054     7.8321    63.2338    67.2901
 3907.0410     8.1677     7.9439    65.1069    66.9753
 3907.5410     7.7335     7.6175    69.1573    67.2827
 3908.0410     7.3040     7.1516    74.4524    67.4354
 3908.5410     7.3572     7.3054    74.1482    67.4307
 3909.0410     7.6808     7.8936    71.0447    67.4270
 3909.5410     8.4911     8.4744    70.1167    67.4075
 3910.0410     8.8013     8.6512    70.1252    67.7306
 3910.5410     8.5538     8.1207    70.4431    67.7116
 3911.0410     7.3064     7.1766    74.3275    66.7892
 3911.5410     6.5712     6.2326    83.5981    66.1633
 3912.0410     6.0702     5.6794    92.6589    66.6262
 3912.5410     5.6911     5.6403    99.7101    66.9344
 3913.0410     5.6510     5.7212   100.3390    67.3973
 3913.5410     5.6923     5.8440    98.4796    67.2371
 3914.0410     5.6523     5.8036    96.3092    67.5444
 3914.5410     5.5328     5.6349    94.4497    67.8519
 3915.0410     5.4548     5.4122    93.5218    67.5370
 3915.5410     5.4554     5.3749    92.2861    67.5332
 3916.0410     5.7115     5.7673    90.1157    67.3731
 3916.5410     6.9102     6.7618    84.6564    67.3694
 3917.0410     8.4442     7.9133    78.1798    67.3657
 3917.5410     8.8156     8.4377    70.5423    67.5184
 3918.0410     8.8165     8.3746    73.3485    67.6702
 3918.5410     8.4468     7.5382    78.0209    67.6656
 3919.0410     7.7525     7.0279    78.9609    67.6619
 3919.5410     7.4275     6.8821    79.2788    67.6581
 3920.0410     7.4816     6.8835    80.2188    67.6544
 3920.5410     7.5361     6.7885    84.5802    67.6506
 3921.0410     7.4144     6.6083    87.6974    67.4905
 3921.5410     6.8193     5.9568    93.3177    67.4868
 3922.0410     6.5801     5.7535    96.1751    67.4831
 3922.5410     6.5339     5.9199    95.1847    67.4794
 3923.0410     6.8704     6.2647    89.2587    67.6321
 3923.5410     7.8719     6.4914    80.2683    67.7839
 3924.0410     8.2181     7.0653    78.4089    67.7793
 3924.5410     8.3974     7.3209    77.7920    67.6200
 3925.0410     8.7042     7.6392    77.4878    67.6163
 3925.5410     8.8373     7.9156    75.9411    67.6125
 3926.0410     8.9591     8.0381    75.0148    67.7644
 3926.5410     8.7071     7.8123    75.3327    67.6042
 3927.0410     8.0488     7.4405    76.5955    67.4450
 3927.5410     7.6564     7.2373    76.9018    67.7523
 3928.0410     7.6024     7.0389    77.2212    67.7486
 3928.5410     7.6034     7.0922    81.4551    67.5894
 3929.0410     7.3896     7.0447    87.8275    67.5857
 3929.5410     6.7822     6.9499    92.4827    67.5819
 3930.0410     6.4025     6.4683    94.0448    67.5782
 3930.5410     5.9702     6.0272    94.9848    67.5744
 3931.0410     4.6098     5.5861    97.4799    67.5699
 3931.5410     4.2919     5.1450   100.5972    67.7226
 3932.0410     3.9391     4.7039   101.5372    67.5624
 3932.5410     3.7470     4.2628   101.2132    67.5587
