~VERSION INFORMATION
 VERS.               2.10:   CWLS LOG ASCII STANDARD - VERSION 2.10
 WRAP.                 NO:   ONE LINE PER DEPTH STEP
~WELL INFORMATION
#MNEM.UNIT      DATA TYPE    INFORMATION
#----------   ------------   ------------------------------
 STRT.F         2400.0405:   START DEPTH
 STOP.F         5534.6855:   STOP DEPTH
 STEP.F            0.5000:   STEP LENGTH
 NULL.          -999.2500:   NO VALUE
 COMP. Fluor Daniel (NPOSR), Inc.:   COMPANY
 WELL.         43-2TPX-10:   WELL
 FLD .           N.P.R. 3:   FIELD
 LOC . 10-38N-78W-NATRONA-WY:   LOCATION
 STAT.                 WY:   STATE
 COUN.            Natrona:   COUNTY
 SRVC.      Western Atlas:   SERVICE COMPANY
 DATE.                   :   LOGDATE
 APIN.         4902522843:   API NUMBER
~CURVE INFORMATION
#MNEM.UNIT       API CODE    CURVE DESCRIPTION
#----------   ------------   ------------------------------
 DEPT.F                  :
 LLD .ohm.m  11 220 04 00:   Dual Laterolog, Deep
 LLS .ohmm   11 220 06 00:   Dual Laterolog, shallow
 GR  .GAPI   06 310 01 00:   Gamma Ray
 SP  .mV     06 010 01 00:   Spontaneous Potential
~PARAMETER INFORMATION
#MNEM.UNIT          VALUE    DESCRIPTION
#----------   ------------   ------------------------------
 EKB .F         5209.0000:   Kelly bushing
 EGL .F         5199.0000:   Ground level
 EDF .F         5208.0000:   Drilling floor
 EPD .F           10.0000:   Permanent datum
 TD  .F         5230.0000:   Total depth
 NRUN.             1.0000:   Number of Runs
#--RUN 1---   ------------   The following are for Run 1---
 RUN .             1.0000:   Run 1
 DATE.mm/dd/yyyy 02/13/1997:   Date Logged
 DD  .ft             5540:   Depth Driller
 DL  .ft             5541:   Depth Logger
 BLI .ft             5535:   Bottom Log Interval
 TLI .ft             2400:   Top Log Interval
 CSS .inch          9.625:   Casing Size
 CTD1.ft              439:   Casing Driller 1
 CTL1.ft              436:   Casing Logger 1
 BS  .inch           8.75:   Bit Size
 DFT .          Gel/ Chem:   Type Fluid In Hole
 DFD .lb/gal          9.6:   Mud Weight
 DFV .sec              50:   Viscosity
 DFPH.                9.5:   pH
 DFL .cc                8:   Fluid Loss
 WSS .               tank:   Source Of Sample
 RM  .ohmm            .68:   Rm
 EMT .F                94:   Rm Meas. Temp.
 RMF .ohmm            .51:   Rmf
 MFT .F                94:   Rmf Meas. Temp.
 RMC .ohmm            .95:   Rmc
 MCST.F                94:   Rmc Meas. Temp.
 MFSS.              calc.:   Source Rmf.
 MCSS.              calc.:   Source Rmc.
 RMB .ohmm            .38:   Rm. At BHT
 BHT .F               168:   BHT.
 TCS .hh:mm         6 hrs:   Time Circ. Stopped
 MRT .F               168:   Maximum Recorded Temp.
 LUL .          Rk. Spgs.:   Logging Unit Location
 ENGI.               Rall:   Recorded By
 WITN.      Lebeau/ Hardy:   Witnessed By
 DGBY.              Burke:   Digitized By
~OTHER INFORMATION
# RIG FUEL PUMP CAUSING SPURRIOUS ANOMILIES ON S.P.
~A  DEPTH      LLD        LLS         GR         SP
# ...
 5466.0410   398.7192   365.3100    38.1782  -999.2500
 5466.5410   463.2120   417.6943    38.8200  -999.2500
 5467.0410   493.9697   445.1892    39.4587  -999.2500
 5467.5410   490.5110   461.3454    38.5324  -999.2500
 5468.0410   523.1095   464.8438    36.0411  -999.2500
 5468.5410   612.0737   483.4900    31.9850  -999.2500
 5469.0410   711.2328   539.3682    30.4327  -999.2500
 5469.5410   893.5581   634.2886    29.8190  -999.2500
 5470.0410   980.5021   730.3566    28.8941  -999.2500
 5470.5410  1038.2031   795.0131    27.6549  -999.2500
 5471.0410  1091.4850   847.3452    26.4151  -999.2500
 5471.5410  1099.3887   871.9486    27.9932  -999.2500
 5472.0410  1045.9746   890.9849    29.2580  -999.2500
 5472.5410   906.9858   872.1345    28.2291  -999.2500
 5473.0410   815.0266   788.8331    27.4052  -999.2500
 5473.5410   709.0918   714.7693    27.4211  -999.2500
 5474.0410   589.4171   640.7054    27.4337  -999.2500
 5474.5410   469.7424   566.6417    27.1302  -999.2500
 5475.0410   425.9293   492.5778    27.1461  -999.2500
 5475.5410   419.6298   412.9407    27.4718  -999.2500
 5476.0410   420.0680   419.0019    27.4844  -999.2500
 5476.5410   411.2172   419.2201    27.4971  -999.2500
 5477.0410   402.5529   410.5562    27.8230  -999.2500
 5477.5410   414.2507   388.4472    27.8360  -999.2500
 5478.0410   441.7693   396.9793    29.1032  -999.2500
 5478.5410   474.4889   423.1106    29.1159  -999.2500
 5479.0410   613.4997   476.2671    29.1286  -999.2500
 5479.5410   989.5829   649.9166    29.4542  -999.2500
 5480.0410  1367.1989   823.5660    30.0929  -999.2500
 5480.5410  1524.5304   997.2155    30.7315  -999.2500
 5481.0410  1619.5417  1134.4280    30.4308  -999.2500
 5481.5410  1619.7162  1209.1022    30.4439  -999.2500
 5482.0410  1540.9805  1167.9745    30.1436  -999.2500
 5482.5410  1217.8608  1096.9819    30.1568  -999.2500
 5483.0410  1158.6597   960.4054    30.4851  -999.2500
 5483.5410  1071.3234   783.7880    30.1816  -999.2500
 5484.0410  1033.8929   757.1279    30.1974  -999.2500
 5484.5410  1087.5763   784.6046    30.5231  -999.2500
 5485.0410  1221.7976   837.7527    30.2196  -999.2500
 5485.5410  1356.3315   885.1734    29.2933  -999.2500
 5486.0410  1375.9716   898.1657    29.3092  -999.2500
 5486.5410  1318.4573   873.7319    29.3218  -999.2500
 5487.0410   949.7028   763.6386    29.3347  -999.2500
 5487.5410   826.0431   671.4158  -999.2500  -999.2500
 5488.0410   691.4886   579.1931  -999.2500  -999.2500
 5488.5410   556.9341   486.9702  -999.2500  -999.2500
 5489.0410   422.3795   394.7475  -999.2500  -999.2500
 5489.5410   287.8250   302.5247  -999.2500  -999.2500
 5490.0410   153.2705   210.3019  -999.2500  -999.2500
 5490.5410   111.7931   127.9978  -999.2500  -999.2500
 5491.0410   107.8843   117.7105  -999.2500  -999.2500
 5491.5410   128.9663   127.6716  -999.2500  -999.2500
 5492.0410   170.9462   148.5971  -999.2500  -999.2500
 5492.5410   218.9263   187.7436  -999.2500  -999.2500
 5493.0410   266.9063   235.4113  -999.2500  -999.2500
 5493.5410   347.8095   288.0791  -999.2500  -999.2500
 5494.0410   561.4531   376.4260  -999.2500  -999.2500
 5494.5410   952.5399   498.4395  -999.2500  -999.2500
 5495.0410  1343.6267   655.6514  -999.2500  -999.2500
 5495.5410  1744.8778   812.8633  -999.2500  -999.2500
 5496.0410  1860.7893   922.3069  -999.2500  -999.2500
 5496.5410  1874.3140  1002.1933  -999.2500  -999.2500
 5497.0410  1783.2021  1009.7844  -999.2500  -999.2500
 5497.5410  1745.6304   996.2139  -999.2500  -999.2500
 5498.0410  1733.4078   969.1127  -999.2500  -999.2500
 5498.5410  1771.1461   955.9639  -999.2500  -999.2500
 5499.0410  1835.6636   990.7854  -999.2500  -999.2500
 5499.5410  1971.6221  1019.5537  -999.2500  -999.2500
 5500.0410  1957.7642  1064.0031  -999.2500  -999.2500
 5500.5410  1784.5966  1079.6207  -999.2500  -999.2500
 5501.0410  1589.9918   979.1254  -999.2500  -999.2500
 5501.5410  1404.9829   766.0828  -999.2500  -999.2500
 5502.0410  1219.9739   714.4808  -999.2500  -999.2500
 5502.5410  1034.9650   685.3462  -999.2500  -999.2500
 5503.0410   862.4700   662.0344  -999.2500  -999.2500
 5503.5410   780.4291   591.9554  -999.2500  -999.2500
 5504.0410   656.3031   486.5015  -999.2500  -999.2500
 5504.5410   578.6118   419.9881  -999.2500  -999.2500
 5505.0410   516.2501   385.5626  -999.2500  -999.2500
 5505.5410   508.9774   370.4837  -999.2500  -999.2500
 5506.0410   520.0584   378.6213  -999.2500  -999.2500
 5506.5410   523.8384   386.8370  -999.2500  -999.2500
 5507.0410   520.1566   365.8855  -999.2500  -999.2500
 5507.5410   523.9514   368.7049  -999.2500  -999.2500
 5508.0410   524.2039   366.3144  -999.2500  -999.2500
 5508.5410   490.7545   353.8543  -999.2500  -999.2500
 5509.0410   423.3487   318.6279  -999.2500  -999.2500
 5509.5410   358.1648   271.1322  -999.2500  -999.2500
 5510.0410   292.9809   233.4859  -999.2500  -999.2500
 5510.5410   227.7970   195.8397  -999.2500  -999.2500
 5511.0410   178.5567   158.1935  -999.2500  -999.2500
 5511.5410   162.7587   125.5087  -999.2500  -999.2500
 5512.0410   153.7460   122.0943  -999.2500  -999.2500
 5512.5410   150.5066   118.7728  -999.2500  -999.2500
 5513.0410   148.3904   117.1766  -999.2500  -999.2500
 5513.5410   150.6518   115.6018  -999.2500  -999.2500
 5514.0410   154.9178   116.4779  -999.2500  -999.2500
 5514.5410   156.0438   117.3619  -999.2500  -999.2500
 5515.0410   159.4368   119.9375  -999.2500  -999.2500
 5515.5410   168.4067   124.0608  -999.2500  -999.2500
 5516.0410   183.9186   129.7420  -999.2500  -999.2500
 5516.5410   199.4305   135.4232  -999.2500  -999.2500
 5517.0410   214.9424   141.1045  -999.2500  -999.2500
 5517.5410   230.4542   147.4238  -999.2500  -999.2500
 5518.0410   248.2998   156.0280  -999.2500  -999.2500
 5518.5410   259.1871   166.3171  -999.2500  -999.2500
 5519.0410   270.5518   176.2954  -999.2500  -999.2500
 5519.5410   257.4001   178.5877  -999.2500  -999.2500
 5520.0410   239.7021   150.9759  -999.2500  -999.2500
 5520.5410   226.4288   144.8195  -999.2500  -999.2500
 5521.0410   212.2997   136.0170  -999.2500  -999.2500
 5521.5410   186.3375   124.2095  -999.2500  -999.2500
 5522.0410   158.5496   118.3105  -999.2500  -999.2500
 5522.5410   141.4614   114.2862  -999.2500  -999.2500
 5523.0410   136.5190   113.5449  -999.2500  -999.2500
 5523.5410   135.5594   113.6795  -999.2500  -999.2500
 5524.0410   137.5260   117.7078  -999.2500  -999.2500
 5524.5410   137.5409   117.6941  -999.2500  -999.2500
 5525.0410   138.5406   117.6804  -999.2500  -999.2500
 5525.5410   138.5555   117.6667  -999.2500  -999.2500
 5526.0410   138.5297   117.6531  -999.2500  -999.2500
 5526.5410   138.4900   117.6394  -999.2500  -999.2500
 5527.0410   138.4504   117.6257  -999.2500  -999.2500
 5527.5410   138.4107   117.6120  -999.2500  -999.2500
 5528.0410   138.3711   117.5983  -999.2500  -999.2500
 5528.5410   138.3314   117.5846  -999.2500  -999.2500
 5529.0410   138.2918   117.5710  -999.2500  -999.2500
 5529.5410   138.2521   117.5573  -999.2500  -999.2500
 5530.0410   138.2125   117.5436  -999.2500  -999.2500
 5530.5410   138.1728   117.5299  -999.2500  -999.2500
 5531.0410   138.1332   117.5162  -999.2500  -999.2500
 5531.5410   138.0935   117.5026  -999.2500  -999.2500
 5532.0410   138.0539   117.4889  -999.2500  -999.2500
 5532.5410   138.0142   117.4752  -999.2500  -999.2500
 5533.0410   137.9746   117.4615  -999.2500  -999.2500
 5533.5410   137.9349   117.4478  -999.2500  -999.2500
 5534.0410   137.8953   117.4342  -999.2500  -999.2500
 5534.5410   137.8556   117.4205  -999.2500  -999.2500
