~VERSION INFORMATION
 VERS.               2.10:   CWLS LOG ASCII STANDARD - VERSION 2.10
 WRAP.                 NO:   ONE LINE PER DEPTH STEP
~WELL INFORMATION
#MNEM.UNIT      DATA TYPE    INFORMATION
#----------   ------------   ------------------------------
 STRT.F         2399.3489:   START DEPTH
 STOP.F         5518.8403:   STOP DEPTH
 STEP.F            0.5000:   STEP LENGTH
 NULL.          -999.2500:   NO VALUE
 COMP. Fluor Daniel (NPOSR), Inc.:   COMPANY
 WELL.        43-2 TPX 10:   WELL
 FLD .           N.P.R. 3:   FIELD
 LOC . 10-38N-78W-NATRONA-WY:   LOCATION
 STAT.                 WY:   STATE
 COUN.            Natrona:   COUNTY
 SRVC.      Western Atlas:   SERVICE COMPANY
 DATE.                   :   LOGDATE
 APIN.         4902522843:   API NUMBER
~CURVE INFORMATION
#MNEM.UNIT       API CODE    CURVE DESCRIPTION
#----------   ------------   ------------------------------
 DEPT.F                  :
 DPHI.none   42 890 03 00:   Den. Porosity, Ss [%]
 NPHI.none   42 890 03 00:   Neu. Porosity, Ss [%]
 GR  .gAPI   42 310 00 00:   Gamma Ray
 RHOB.gm/cc  42 350 01 00:   Bulk Density
~PARAMETER INFORMATION
#MNEM.UNIT          VALUE    DESCRIPTION
#----------   ------------   ------------------------------
 EKB .F         5209.0000:   Kelly bushing
 EGL .F         5199.0000:   Ground level
 EDF .F         5208.0000:   Drilling floor
 EPD .F           10.0000:   Permanent datum
 TD  .F         3150.0000:   Total depth
 NRUN.             1.0000:   Number of Runs
#--RUN 1---   ------------   The following are for Run 1---
 RUN .             1.0000:   Run 1
 DATE.mm/dd/yyyy 02/13/1997:   Date Logged
 DD  .ft             5540:   Depth Driller
 DL  .ft             5541:   Depth Logger
 BLI .ft             5535:   Bottom Log Interval
 TLI .ft             2400:   Top Log Interval
 CSS .inch          9.625:   Casing Size
 CTD1.ft              439:   Casing Driller 1
 CTL1.ft              436:   Casing Logger 1
 BS  .inch           8.75:   Bit Size
 DFT .           Gel/Chem:   Type Fluid In Hole
 DFD .lb/gal          9.6:   Mud Weight
 DFV .sec              50:   Viscosity
 DFPH.                9.5:   pH
 DFL .cc              8.0:   Fluid Loss
 WSS .               tank:   Source Of Sample
 RM  .ohmm            .68:   Rm
 EMT .F                94:   Rm Meas. Temp.
 RMF .ohmm            .51:   Rmf
 MFT .F                94:   Rmf Meas. Temp.
 RMC .ohmm            .95:   Rmc
 MCST.F                94:   Rmc Meas. Temp.
 MFSS.              calc.:   Source Rmf.
 MCSS.              calc.:   Source Rmc.
 RMB .ohmm            .38:   Rm. At BHT
 BHT .F               168:   BHT.
 TCS .hh:mm         6 hrs:   Time Circ. Stopped
 MRT .F               168:   Maximum Recorded Temp.
 LUL .          Rk. Spgs.:   Logging Unit Location
 ENGI.               Rall:   Recorded By
 WITN.      Lebeau/ Hardy:   Witnessed By
 DGBY.              Burke:   Digitized By
~OTHER INFORMATION
# Rho M=2.65, Rho F=1.0
# CNCF=Sandstone
# Cement Volume Based on 7" casing
~A  DEPTH     DPHI       NPHI         GR       RHOB
# ...
 4443.3490     4.1785    16.0737    90.4080     2.5861
 4443.8490     2.6465    18.7478   104.4350     2.6102
 4444.3490     0.5875    21.5339   121.7474     2.6582
 4444.8490    -0.9829    23.3650   134.2711     2.6698
 4445.3490    -1.2898    23.6357   137.2238     2.6729
 4445.8490    -1.4138    22.6439   136.6017     2.6730
 4446.3490    -1.3512    20.6606   126.9878     2.6722
 4446.8490    -1.1332    20.0716   118.6142     2.6699
 4447.3490    -1.1328    20.0094   116.1321     2.6707
 4447.8490    -1.3188    21.3723   119.5414     2.6730
 4448.3490    -1.2873    23.0452   126.9818     2.6699
 4448.8490    -0.8469    23.4477   136.5927     2.6630
 4449.3490     0.0405    22.9553   139.3819     2.6568
 4449.8490     0.7964    21.1852   138.9826     2.6468
 4450.3490     1.1076    19.0470   131.3566     2.6336
 4450.8490     1.0458    18.2101   122.7468     2.6321
 4451.3490     0.8287    17.7451   114.1869     2.6329
 4451.8490     0.4251    17.8067   110.8470     2.6407
 4452.3490     0.1147    18.1473   116.4265     2.6469
 4452.8490     0.0840    18.2421   120.1463     2.6508
 4453.3490     0.3461    17.7701   115.8034     2.6410
 4453.8490     1.2600    17.1391   111.7709     2.6206
 4454.3490     2.1739    14.9258   104.4045     2.5943
 4454.8490     3.0878    13.5694    94.4876     2.5835
 4455.3490     4.0333    12.7836    84.5707     2.5796
 4455.8490     4.4378    11.9978    74.6538     2.5758
 4456.3490     4.4720    11.1708    68.6623     2.5758
 4456.8490     4.5941    10.9253    64.6297     2.5758
 4457.3490     4.5324    10.8939    63.0778     2.5774
 4457.8490     4.3773    10.6457    62.1461     2.5761
 4458.3490     4.7819    10.6765    62.1446     2.5650
 4458.8490     4.9066    10.9550    63.3834     2.5673
 4459.3490     4.5651    11.1716    65.8625     2.5736
 4459.8490     3.9627    11.2642    67.4697     2.5883
 4460.3490     3.3318    11.6977    74.5413     2.5953
 4460.8490     2.7010    13.2283    86.6965     2.6031
 4461.3490     1.2413    15.5574   103.4457     2.6224
 4461.8490     0.1522    18.1104   120.1949     2.6441
 4462.3490    -0.0322    22.2100   133.7601     2.6504
 4462.8490     0.1859    23.3854   137.4796     2.6487
 4463.3490     0.7457    23.9344   137.5173     2.6349
 4463.8490     1.2745    20.4329   139.9568     2.6287
 4464.3490     1.7101    18.0660   135.3041     2.6241
 4464.8490     1.9591    15.2819   124.2935     2.6195
 4465.3490     2.2392    12.8719   111.1149     2.6156
 4465.8490     2.3038    12.4998    99.0205     2.6149
 4466.3490     2.1453    12.2826    93.4376     2.6164
 4466.8490     1.9867    12.6801    90.6454     2.6188
 4467.3490     1.9301    13.4335    89.7136     2.6180
 4467.8490     2.0549    14.2337    96.9009     2.6155
 4468.3490     2.3972    15.0389   102.9302     2.6111
 4468.8490     2.5841    15.3175   109.5537     2.6103
 4469.3490     2.3981    15.1313   111.1029     2.6096
 4469.8490     2.2431    14.3564   103.0390     2.6135
 4470.3490     2.1192    13.4266    96.8359     2.6174
 4470.8490     1.8575    12.7136    95.2840     2.6213
 4471.3490     1.1566    12.4945    94.3523     2.6352
 4471.8490     0.5044    12.5324    93.7306     2.6407
 4472.3490     0.4426    13.2704    92.7989     2.6446
 4472.8490     0.1012    15.2840    94.6951     2.6454
 4473.3490    -0.1160    16.1203   102.4198     2.6492
 4473.8490    -0.1778    16.6157   111.7087     2.6547
 4474.3490    -0.1429    16.4605   115.4285     2.6547
 4474.8490    -0.2391    16.0574   113.8762     2.6570
 4475.3490    -0.2254    15.8712   109.8437     2.6540
 4475.8490     0.2326    16.2363   108.9123     2.6424
 4476.3490     0.7257    17.4105   116.0422     2.6370
 4476.8490     0.9747    18.9066   120.6919     2.6393
 4477.3490     0.0117    19.7739   127.8221     2.6489
 4477.8490    -0.4876    19.5257   131.8598     2.6587
 4478.3490    -0.6090    18.5029   131.6929     2.6611
 4478.8490    -0.3910    17.4492   114.4839     2.6572
 4479.3490    -0.6081    16.8602   107.0405     2.6580
 4479.8490    -0.7631    16.2402   103.3181     2.6611
 4480.3490    -0.7939    16.2089   102.6964     2.6619
 4480.8490    -0.0474    16.9831   104.2453     2.6588
 4481.3490     0.0773    19.0219   113.8562     2.6526
 4481.8490     0.0156    21.1240   120.9865     2.6496
 4482.3490    -0.1435    22.2185   128.1167     2.6543
 4482.8490    -0.3566    22.4661   132.7850     2.6535
 4483.3490     0.2588    20.4518   133.3850     2.6496
 4483.8490     0.8597    17.8928   121.9102     2.6371
 4484.3490     1.1144    15.2729   110.6398     2.6311
 4484.8490     0.7951    12.4881    96.7442     2.6381
 4485.3490     0.6091    11.9301    86.5568     2.6396
 4485.8490     0.9825    12.0847    84.6948     2.6373
 4486.3490     1.2627    12.9681    89.0343     2.6327
 4486.8490     1.3874    14.6111    92.4437     2.6296
 4487.3490     1.3567    16.3912    99.2639     2.6289
 4487.8490     1.2018    18.1714   106.6990     2.6320
 4488.3490     1.0157    20.0150   118.6794     2.6336
 4488.8490     1.0161    20.2371   130.5770     2.6327
 4489.3490     1.2349    18.5769   132.7465     2.6266
 4489.8490     1.7198    16.6195   126.5430     2.6189
 4490.3490     2.3613    14.2809   119.5335     2.6065
 4490.8490     3.0046    13.1277   108.2828     2.5910
 4491.3490     3.6479    12.7629    97.0321     2.5849
 4491.8490     4.1578    12.6076    86.1262     2.5841
 4492.3490     4.0029    12.4524    84.6750     2.5865
 4492.8490     3.8478    12.3901    85.6037     2.5888
 4493.3490     3.8483    12.5448    84.6716     2.5880
 4493.8490     3.8487    12.7304    84.3600     2.5888
 4494.3490     3.6937    13.2878    84.6686     2.5912
 4494.8490     3.4144    13.7522    89.3182     2.5959
 4495.3490     3.0057    14.5007    91.7973     2.6036
 4495.8490     2.7004    14.7740    94.5865     2.6067
 4496.3490     3.1360    14.8667    94.8951     2.6021
 4496.8490     3.3229    14.6495    93.8130     2.5990
 4497.3490     2.9504    14.4323    89.9304     2.6045
 4497.8490     2.7022    14.4010    85.5878     2.6076
 4498.3490     2.8269    14.2458    83.4158     2.6060
 4498.8490     3.1070    13.9976    83.1042     2.5991
 4499.3490     3.2939    12.9748    83.7228     2.5929
 4499.8490     3.4865    12.4908    84.9616     2.5898
 4500.3490     4.1340    12.0132    83.5418     2.5798
 4500.8490     4.2277    12.1050    80.3275     2.5828
 4501.3490     3.8862    12.3874    80.9567     2.5900
 4501.8490     3.2961    12.5364    82.8263     2.5990
 4502.3490     2.9857    12.5976    84.0757     2.5990
 4502.8490     3.0552    12.7202    85.6351     2.6005
 4503.3490     2.9933    12.9051    85.9543     2.6067
 4503.8490     2.7449    12.9972    85.6530     2.6152
 4504.3490     2.1406    12.9959    81.9415     2.6237
 4504.8490     1.5185    13.0568    82.0085     2.6299
 4505.3490     1.0985    13.2107    86.6950     2.6322
 4505.8490     1.0056    13.5222    94.0640     2.6321
 4506.3490     1.1301    14.2886    96.2436     2.6305
 4506.8490     1.2858    15.3451    99.0434     2.6259
 4507.3490     1.5969    16.0877   104.6339     2.6227
 4507.8490     1.6593    16.3345   108.0538     2.6204
 4508.3490     1.7839    16.3025   108.3730     2.6196
 4508.8490     1.8463    15.9296   106.8317     2.6203
 4509.3490     1.7496    14.9680   103.1198     2.6219
 4509.8490     1.5672    14.3783   101.8886     2.6226
 4510.3490     1.5985    14.0984   100.6196     2.6226
 4510.8490     2.1582    14.0663    96.9478     2.6178
 4511.3490     2.3139    14.4290    96.0244     2.6140
 4511.8490     2.2209    15.3963    97.2760     2.6240
 4512.3490     1.3820    17.0683   101.9363     2.6372
 4512.8490     0.5742    17.8109   105.9764     2.6410
 4513.3490     0.5114    17.5929   105.3653     2.6402
 4513.8490     1.0201    16.0737    99.4829     2.6340
 4514.3490     1.6629    14.0373    92.6703     2.6255
 4514.8490     1.7875    13.6237    90.5088     2.6200
 4515.3490     1.6945    13.4987    89.2776     2.6231
 4515.8490     0.8867    13.6835    89.5990     2.6335
