~Version Information
 VERS.                2.00:   CWLS log ASCII Standard -VERSION 2.00
 WRAP.                  NO:   One line per frame
~Well Information Block
#MNEM.UNIT              Data                Description
#--------- -------------------------------  -------------------------------
 STRT.F                          430.0000:   Starting Depth
 STOP.F                         5565.5000:   Ending Depth
 STEP.F                            0.5000:   Level Spacing
 NULL.                          -999.2500:   Absent Value
 COMP.     FLUOR DANIEL (NPOSR), INC.    :   Company
 WELL.     43-2 X 10                     :   Well
 FLD .                                   :   Field
 LOC .                                   :   Location
 CNTY.                                   :   County
 STAT.                                   :   State
 SRVC.                                   :   Service Company
 LIC .                                   :   License Number
 DATE.                                   :   Log Date
 API .                                   :   API Number
~Curve Information Block
#MNEM.UNIT       API Codes    Curve Description
#---------    -------------   -------------------------------
 DEPT.F        0   1  0  1:   Depth
 GR  .API      0 310  1  1:   Gamma ray counts
 CALX.         0   0  0  1:   N/A
 RS  .OHMM     0 220  9  1:   Logarithmic Resistivity from ES, IS
 RD  .OHMM     0 220 10  1:   Logarithmic Resistivity from ED, ID
 TEN .LBF      0 635 99  1:   Differential Tension
 ZDEN.G/C3     0 350  1  1:   ZDL Bulk Density
 PORZ.PU       0 890 99  1:   Porosity from ZDEN
 ZCOR.G/C3     0 356 99  1:   ZDL Correction
 PE  .BARN     0 995 99  1:   Photo Electric cross section
 CNCF.PU       0 995 99  1:   CNC corrected to Field Normalized transform
#  Curve Data
~A   DEPT        GR          CALX        RS          RD          TEN         ZDEN        PORZ        ZCOR        PE          CNCF
# ...
  1436.5000     99.7601      9.6142      6.5175      6.9552    -35.1474      2.5515      5.9724      0.0810      3.2510     29.4212
  1437.0000    101.2067      9.6208      6.5736      7.0536    -22.5852      2.5478      6.1923      0.0716      3.3611     28.0838
  1437.5000    105.3777      9.6060      6.6719      7.1606     -9.5808      2.5485      6.1502      0.0702      3.2831     27.1656
  1438.0000    108.3536      9.5838      6.7479      7.1999     -5.6102      2.5428      6.4958      0.0752      3.3133     27.0853
  1438.5000    107.0202      9.5704      6.7523      7.1583    -20.3498      2.5313      7.1952      0.0858      3.3662     26.4339
  1439.0000    103.9136      9.5658      6.7174      7.1012    -45.1469      2.5195      7.9065      0.1052      3.3262     25.2554
  1439.5000    103.1879      9.5647      6.7100      7.0840    -53.1161      2.5118      8.3760      0.1134      3.2736     25.4492
  1440.0000    105.4688      9.5612      6.7482      7.1074    -39.3983      2.5146      8.2036      0.0996      3.3417     26.9868
  1440.5000    107.9525      9.5508      6.8107      7.1559    -33.7018      2.5226      7.7227      0.0845      3.2835     27.8913
  1441.0000    108.2777      9.5402      6.8669      7.2101    -49.8367      2.5212      7.8071      0.0977      3.1571     27.8953
  1441.5000    106.4720      9.5375      6.8810      7.2370    -65.2276      2.5123      8.3477      0.1135      3.1535     28.8145
  1442.0000    104.5036      9.5392      6.8584      7.2361    -62.5102      2.5115      8.3957      0.1020      3.1016     30.8844
  1442.5000    102.0645      9.5357      6.8625      7.2447    -51.8345      2.5200      7.8780      0.0842      3.0558     32.0492
  1443.0000     98.0078      9.5279      6.9253      7.2875    -48.9000      2.5275      7.4266      0.0848      3.0036     31.1137
  1443.5000     94.0665      9.5219      7.0407      7.3851    -57.9391      2.5321      7.1475      0.0875      2.9034     29.1612
  1444.0000     92.2872      9.5204      7.1970      7.5473    -71.5500      2.5409      6.6097      0.0895      2.8633     27.5710
  1444.5000     92.7981      9.5206      7.3982      7.7769    -76.8675      2.5524      5.9123      0.0921      2.8471     27.0047
  1445.0000     93.0078      9.5204      7.6794      8.0996    -67.7760      2.5607      5.4111      0.0862      2.7991     27.6801
  1445.5000     91.4581      9.5205      8.0233      8.4855    -51.8144      2.5670      5.0301      0.0694      2.7763     28.7692
  1446.0000     89.5798      9.5215      8.3126      8.7860    -41.5107      2.5702      4.8371      0.0496      2.7940     28.3897
  1446.5000     89.9530      9.5230      8.3852      8.7940    -40.6726      2.5685      4.9385      0.0382      2.7902     27.6040
  1447.0000     91.4433      9.5238      8.1426      8.4413    -42.2202      2.5671      5.0261      0.0484      2.7496     28.3279
  1447.5000     92.5287      9.5244      7.6726      7.9079    -40.5967      2.5658      5.1047      0.0631      2.7149     29.6732
  1448.0000     95.7501      9.5247      7.2190      7.4606    -36.6214      2.5564      5.6753      0.0737      2.7073     29.6701
  1448.5000     99.8350      9.5241      6.9404      7.2040    -31.3213      2.5405      6.6373      0.0863      2.7173     29.8766
  1449.0000    100.9750      9.5228      6.8179      7.1005    -25.8020      2.5327      7.1087      0.0934      2.7252     31.6969
  1449.5000    100.8532      9.5216      6.7913      7.0939    -22.6831      2.5378      6.7973      0.0880      2.7280     33.1373
  1450.0000    102.1998      9.5205      6.8236      7.1407    -25.5356      2.5471      6.2334      0.0791      2.7359     32.2598
  1450.5000    102.2037      9.5198      6.9120      7.2380    -37.6940      2.5547      5.7753      0.0689      2.7500     29.9415
  1451.0000     99.5299      9.5200      7.0786      7.4066    -53.7856      2.5644      5.1886      0.0613      2.7577     28.1273
  1451.5000     97.7084      9.5207      7.3056      7.6191    -59.2545      2.5764      4.4585      0.0604      2.7534     27.5297
  1452.0000     97.3376      9.5210      7.4918      7.7713    -51.3039      2.5828      4.0698      0.0603      2.7695     27.5988
  1452.5000     94.9943      9.5209      7.5365      7.7731    -43.1135      2.5792      4.2931      0.0650      2.8017     28.2124
  1453.0000     91.6554      9.5215      7.4272      7.6351    -47.2115      2.5719      4.7317      0.0847      2.8365     29.3371
  1453.5000     91.2667      9.5232      7.2408      7.4646    -61.0565      2.5663      5.0712      0.0977      2.8927     30.8263
  1454.0000     93.5853      9.5246      7.1062      7.3850    -66.8521      2.5581      5.5709      0.0911      2.9268     31.3434
  1454.5000     95.0114      9.5236      7.1205      7.4369    -50.8768      2.5462      6.2887      0.0839      2.9155     29.9173
  1455.0000     95.7215      9.5211      7.2505      7.5558    -20.7138      2.5387      6.7442      0.0844      2.9025     28.1672
  1455.5000     95.7339      9.5198      7.3840      7.6550      0.4604      2.5371      6.8452      0.0712      2.9040     27.5027
  1456.0000     94.9805      9.5199      7.4641      7.6990     -8.5559      2.5415      6.5755      0.0573      2.8602     27.7915
  1456.5000     95.5001      9.5199      7.5070      7.7124    -42.0613      2.5504      6.0394      0.0646      2.9052     27.7691
  1457.0000     96.2056      9.5181      7.5554      7.7640    -62.9961      2.5539      5.8218      0.0771      2.9249     27.1710
  1457.5000     94.1179      9.5096      7.6956      7.9569    -52.9178      2.5504      6.0392      0.0792      2.9107     26.9146
  1458.0000     91.7900      9.4943      7.9875      8.3018    -37.5782      2.5533      5.8615      0.0779      2.9038     27.4704
  1458.5000     92.4153      9.4815      8.2781      8.5924    -40.9679      2.5652      5.1376      0.0660      2.9035     28.3439
  1459.0000     95.1853      9.4794      8.3553      8.6032    -52.5829      2.5747      4.5607      0.0411      2.8855     28.5066
  1459.5000    100.3786      9.4911      8.1591      8.2841    -55.8134      2.5755      4.5161      0.0395      2.8556     27.9292
  1460.0000    106.8972      9.5160      7.7627      7.7855    -50.5285      2.5633      5.2519      0.0678      2.8406     27.8018
  1460.5000    111.3831      9.5440      7.3698      7.4058    -44.5793      2.5425      6.5133      0.0961      2.8546     28.0577
  1461.0000    112.1105      9.5611      7.2296      7.3596    -44.8193      2.5317      7.1692      0.1065      2.8689     27.1031
  1461.5000    110.3150      9.5644      7.3645      7.5548    -52.1971      2.5404      6.6400      0.1051      2.8547     25.5119
  1462.0000    106.7450      9.5618      7.5709      7.7470    -61.2249      2.5540      5.8160      0.0913      2.8388     25.5321
  1462.5000    102.3437      9.5609      7.6374      7.7481    -68.9012      2.5604      5.4328      0.0902      2.8551     27.3971
  1463.0000     97.6586      9.5624      7.4879      7.5399    -77.4286      2.5586      5.5407      0.1081      2.8916     28.0492
  1463.5000     93.9714      9.5638      7.2381      7.2777    -80.0158      2.5483      6.1657      0.1148      2.9142     27.1767
  1464.0000     92.7742      9.5657      7.0495      7.1131    -65.0737      2.5345      6.9971      0.0901      2.9491     28.4332
  1464.5000     93.9062      9.5674      7.0035      7.1169    -37.2076      2.5324      7.1253      0.0676      3.0433     31.9268
  1465.0000     95.1488      9.5654      7.1569      7.3445    -14.2818      2.5428      6.4967      0.0647      3.1437     32.0612
  1465.5000     94.6694      9.5548      7.5005      7.7533     -6.3818      2.5551      5.7493      0.0698      3.2587     29.4466
  1466.0000     92.5507      9.5387      7.8751      8.1502    -14.1537      2.5625      5.3044      0.0678      3.2805     28.1275
  1466.5000     92.7543      9.5302      8.1174      8.3541    -34.1247      2.5632      5.2584      0.0740      3.2592     28.3026
