~Version Information
 VERS.                2.00:   CWLS log ASCII Standard -VERSION 2.00
 WRAP.                  NO:   One line per frame
~Well Information Block
#MNEM.UNIT              Data                Description
#--------- -------------------------------  -------------------------------
 STRT.F                          430.0000:   Starting Depth
 STOP.F                         5565.5000:   Ending Depth
 STEP.F                            0.5000:   Level Spacing
 NULL.                          -999.2500:   Absent Value
 COMP.     FLUOR DANIEL (NPOSR), INC.    :   Company
 WELL.     43-2 X 10                     :   Well
 FLD .                                   :   Field
 LOC .                                   :   Location
 CNTY.                                   :   County
 STAT.                                   :   State
 SRVC.                                   :   Service Company
 LIC .                                   :   License Number
 DATE.                                   :   Log Date
 API .                                   :   API Number
~Curve Information Block
#MNEM.UNIT       API Codes    Curve Description
#---------    -------------   -------------------------------
 DEPT.F        0   1  0  1:   Depth
 GR  .API      0 310  1  1:   Gamma ray counts
 CALX.         0   0  0  1:   N/A
 RS  .OHMM     0 220  9  1:   Logarithmic Resistivity from ES, IS
 RD  .OHMM     0 220 10  1:   Logarithmic Resistivity from ED, ID
 TEN .LBF      0 635 99  1:   Differential Tension
 ZDEN.G/C3     0 350  1  1:   ZDL Bulk Density
 PORZ.PU       0 890 99  1:   Porosity from ZDEN
 ZCOR.G/C3     0 356 99  1:   ZDL Correction
 PE  .BARN     0 995 99  1:   Photo Electric cross section
 CNCF.PU       0 995 99  1:   CNC corrected to Field Normalized transform
#  Curve Data
~A   DEPT        GR          CALX        RS          RD          TEN         ZDEN        PORZ        ZCOR        PE          CNCF
# ...
  2443.0000    124.0212      9.6801      7.4433      7.5255      2.5784      2.5615      5.3646      0.0531      2.8386     24.4415
  2443.5000    122.7480      9.6614      7.5317      7.6431      2.3421      2.5627      5.2933      0.0536      2.8317     24.0224
  2444.0000    120.5349      9.6430      7.6684      7.7943      8.6254      2.5625      5.3031      0.0515      2.8199     24.1459
  2444.5000    118.3885      9.6349      7.7416      7.8614     14.4352      2.5616      5.3566      0.0487      2.8465     23.6473
  2445.0000    118.1192      9.6352      7.6908      7.7946     16.4247      2.5578      5.5904      0.0467      2.8844     22.5370
  2445.5000    119.2843      9.6368      7.5945      7.6967     36.9280      2.5523      5.9192      0.0468      2.8973     22.1167
  2446.0000    120.2145      9.6378      7.6089      7.7369     73.3280      2.5484      6.1576      0.0515      2.9223     22.7789
  2446.5000    119.4051      9.6377      7.7771      7.9404     84.8443      2.5474      6.2176      0.0562      2.9691     23.4371
  2447.0000    117.3757      9.6352      7.9483      8.1313     57.1210      2.5504      6.0378      0.0585      2.9854     23.6323
  2447.5000    116.7762      9.6322      7.9263      8.1024     23.6821      2.5570      5.6376      0.0606      2.9751     24.1265
  2448.0000    120.3902      9.6319      7.5699      7.7005      2.6349      2.5611      5.3873      0.0648      2.9977     24.8864
  2448.5000    126.8400      9.6343      6.9498      7.0176     -8.8850      2.5594      5.4908      0.0677      2.9154     25.1240
  2449.0000    132.5540      9.6391      6.4506      6.4871     -7.7530      2.5567      5.6535      0.0720      2.8976     25.0295
  2449.5000    135.4301      9.6445      6.3776      6.4294     -5.0221      2.5579      5.5836      0.0724      2.9056     24.7111
  2450.0000    134.3221      9.6492      6.6166      6.7022    -12.0942      2.5615      5.3611      0.0635      2.9167     23.8389
  2450.5000    130.3683      9.6547      6.8609      6.9528    -25.0281      2.5618      5.3462      0.0507      2.9191     23.1833
  2451.0000    128.1805      9.6639      6.8714      6.9162    -31.5635      2.5555      5.7290      0.0447      2.9225     23.8225
  2451.5000    130.7733      9.6710      6.6215      6.6170    -31.6976      2.5470      6.2408      0.0453      2.9291     25.4358
  2452.0000    135.2179      9.6697      6.3659      6.3752    -29.9689      2.5441      6.4164      0.0487      2.9172     26.4464
  2452.5000    136.7941      9.6640      6.2523      6.3053    -29.3347      2.5477      6.2010      0.0497      2.8829     26.0864
  2453.0000    135.8225      9.6601      6.0863      6.1387    -24.3674      2.5528      5.8884      0.0477      2.8803     25.6383
  2453.5000    135.4817      9.6394      5.7320      5.7413    -15.8071      2.5544      5.7952      0.0470      2.9062     25.3894
  2454.0000    135.6549      9.5745      5.3887      5.3767    -15.9573      2.5517      5.9579      0.0485      3.0183     24.9676
  2454.5000    134.6434      9.4810      5.3487      5.3747    -26.7669      2.5491      6.1170      0.0493      2.9910     24.4425
  2455.0000    131.6516      9.4008      5.6660      5.7648    -37.5585      2.5498      6.0742      0.0484      2.9752     23.8351
  2455.5000    128.3590      9.3544      6.1655      6.3138    -42.7924      2.5527      5.8995      0.0480      2.9822     23.4821
  2456.0000    126.7471      9.3317      6.6090      6.7501    -46.3641      2.5556      5.7228      0.0506      2.9813     23.9105
  2456.5000    126.4880      9.3163      6.8765      6.9877    -46.8082      2.5582      5.5621      0.0566      2.9634     24.2866
  2457.0000    123.8166      9.2982      7.0753      7.1908    -43.3376      2.5611      5.3859      0.0617      2.9536     23.6376
  2457.5000    118.4669      9.2855      7.3648      7.5213    -40.6498      2.5634      5.2462      0.0648      2.9691     22.7402
  2458.0000    114.2653      9.2815      7.6904      7.8823    -42.5916      2.5629      5.2764      0.0618      2.9817     22.6393
  2458.5000    113.3699      9.2806      7.8021      7.9903    -46.4474      2.5602      5.4418      0.0555      2.9779     23.0011
  2459.0000    115.2266      9.2789      7.5687      7.7307    -44.7161      2.5566      5.6591      0.0529      2.9625     23.1180
  2459.5000    118.1651      9.2746      7.2119      7.3705    -39.8583      2.5527      5.8975      0.0582      2.9508     23.0479
  2460.0000    120.5051      9.2595      7.0312      7.2226    -35.9327      2.5516      5.9654      0.0625      2.9523     23.2425
  2460.5000    121.0004      9.2356      7.0964      7.3410    -31.4936      2.5557      5.7167      0.0581      2.9566     23.5019
  2461.0000    120.7414      9.2169      7.3448      7.6420    -27.1403      2.5611      5.3852      0.0500      2.9466     23.8100
  2461.5000    122.3792      9.2106      7.6420      7.9556    -21.9761      2.5636      5.2391      0.0465      2.9247     24.6588
  2462.0000    125.9172      9.2107      7.7919      8.0790    -12.3125      2.5627      5.2921      0.0470      2.9115     25.5807
  2462.5000    127.1822      9.2116      7.7504      8.0071     -1.8794      2.5616      5.3586      0.0505      2.9153     25.6686
  2463.0000    124.5667      9.2113      7.5993      7.8400      4.4246      2.5620      5.3351      0.0568      2.9186     24.8898
  2463.5000    122.1281      9.2090      7.3639      7.5873      3.8625      2.5624      5.3067      0.0599      2.9179     24.0248
  2464.0000    122.8976      9.2051      7.1157      7.3275      1.4461      2.5612      5.3804      0.0568      2.9086     23.6210
  2464.5000    123.3778      9.1961      6.9989      7.2224      5.1432      2.5591      5.5087      0.0540      2.8932     23.3672
  2465.0000    121.2458      9.1760      7.1097      7.3752      6.8627      2.5557      5.7128      0.0522      2.8990     22.4839
  2465.5000    118.7674      9.1486      7.4344      7.7534     -0.0330      2.5522      5.9275      0.0467      2.9200     21.6478
  2466.0000    117.3892      9.1260      7.8378      8.1879     -5.1695      2.5513      5.9809      0.0393      2.9181     21.5283
  2466.5000    115.5265      9.1132      8.1391      8.4815      1.6097      2.5513      5.9811      0.0381      2.8922     21.8779
  2467.0000    113.6075      9.1059      8.2555      8.5703      4.4765      2.5523      5.9223      0.0473      2.9039     21.9915
  2467.5000    113.0783      9.1025      8.2481      8.5455      1.9175      2.5590      5.5131      0.0629      2.9237     21.9296
  2468.0000    113.1742      9.1045      8.1978      8.4932     16.3533      2.5686      4.9336      0.0752      2.9472     22.0785
  2468.5000    113.1525      9.1096      8.1164      8.4150     38.4523      2.5710      4.7858      0.0766      2.9539     22.2030
  2469.0000    114.6396      9.1149      7.9995      8.3049     30.8416      2.5667      5.0460      0.0695      2.9773     22.2075
  2469.5000    117.0342      9.1187      7.8717      8.1910      5.3910      2.5635      5.2400      0.0623      2.9774     22.6119
  2470.0000    118.2076      9.1205      7.7165      8.0486      4.6324      2.5635      5.2448      0.0573      2.9528     23.7457
  2470.5000    119.5546      9.1211      7.4864      7.8257     16.2378      2.5635      5.2401      0.0538      2.9764     24.7596
  2471.0000    122.3735      9.1228      7.2250      7.5694     13.5752      2.5604      5.4292      0.0494      2.9893     24.6380
  2471.5000    123.5755      9.1222      7.0331      7.3873     -2.9240      2.5555      5.7288      0.0468      2.9634     23.6928
  2472.0000    121.8170      9.1145      6.9571      7.3387    -20.3906      2.5541      5.8126      0.0485      2.9378     23.3133
  2472.5000    120.2004      9.1003      6.9917      7.4203    -29.4973      2.5582      5.5614      0.0533      2.9241     23.9539
  2473.0000    120.0256      9.0843      7.0732      7.5394    -31.4481      2.5650      5.1493      0.0606      2.8923     24.8137
