~VERSION INFORMATION
 VERS.               2.10:   CWLS LOG ASCII STANDARD - VERSION 2.10
 WRAP.                 NO:   ONE LINE PER DEPTH STEP
~WELL INFORMATION
#MNEM.UNIT      DATA TYPE    INFORMATION
#----------   ------------   ------------------------------
 STRT.F         2399.3489:   START DEPTH
 STOP.F         5518.8403:   STOP DEPTH
 STEP.F            0.5000:   STEP LENGTH
 NULL.          -999.2500:   NO VALUE
 COMP. Fluor Daniel (NPOSR), Inc.:   COMPANY
 WELL.        43-2 TPX 10:   WELL
 FLD .           N.P.R. 3:   FIELD
 LOC . 10-38N-78W-NATRONA-WY:   LOCATION
 STAT.                 WY:   STATE
 COUN.            Natrona:   COUNTY
 SRVC.      Western Atlas:   SERVICE COMPANY
 DATE.                   :   LOGDATE
 APIN.         4902522843:   API NUMBER
~CURVE INFORMATION
#MNEM.UNIT       API CODE    CURVE DESCRIPTION
#----------   ------------   ------------------------------
 DEPT.F                  :
 DPHI.none   42 890 03 00:   Den. Porosity, Ss [%]
 NPHI.none   42 890 03 00:   Neu. Porosity, Ss [%]
 GR  .gAPI   42 310 00 00:   Gamma Ray
 RHOB.gm/cc  42 350 01 00:   Bulk Density
~PARAMETER INFORMATION
#MNEM.UNIT          VALUE    DESCRIPTION
#----------   ------------   ------------------------------
 EKB .F         5209.0000:   Kelly bushing
 EGL .F         5199.0000:   Ground level
 EDF .F         5208.0000:   Drilling floor
 EPD .F           10.0000:   Permanent datum
 TD  .F         3150.0000:   Total depth
 NRUN.             1.0000:   Number of Runs
#--RUN 1---   ------------   The following are for Run 1---
 RUN .             1.0000:   Run 1
 DATE.mm/dd/yyyy 02/13/1997:   Date Logged
 DD  .ft             5540:   Depth Driller
 DL  .ft             5541:   Depth Logger
 BLI .ft             5535:   Bottom Log Interval
 TLI .ft             2400:   Top Log Interval
 CSS .inch          9.625:   Casing Size
 CTD1.ft              439:   Casing Driller 1
 CTL1.ft              436:   Casing Logger 1
 BS  .inch           8.75:   Bit Size
 DFT .           Gel/Chem:   Type Fluid In Hole
 DFD .lb/gal          9.6:   Mud Weight
 DFV .sec              50:   Viscosity
 DFPH.                9.5:   pH
 DFL .cc              8.0:   Fluid Loss
 WSS .               tank:   Source Of Sample
 RM  .ohmm            .68:   Rm
 EMT .F                94:   Rm Meas. Temp.
 RMF .ohmm            .51:   Rmf
 MFT .F                94:   Rmf Meas. Temp.
 RMC .ohmm            .95:   Rmc
 MCST.F                94:   Rmc Meas. Temp.
 MFSS.              calc.:   Source Rmf.
 MCSS.              calc.:   Source Rmc.
 RMB .ohmm            .38:   Rm. At BHT
 BHT .F               168:   BHT.
 TCS .hh:mm         6 hrs:   Time Circ. Stopped
 MRT .F               168:   Maximum Recorded Temp.
 LUL .          Rk. Spgs.:   Logging Unit Location
 ENGI.               Rall:   Recorded By
 WITN.      Lebeau/ Hardy:   Witnessed By
 DGBY.              Burke:   Digitized By
~OTHER INFORMATION
# Rho M=2.65, Rho F=1.0
# CNCF=Sandstone
# Cement Volume Based on 7" casing
~A  DEPTH     DPHI       NPHI         GR       RHOB
# ...
 2983.3490    10.7346    25.3841   114.3018     2.4708
 2983.8490    10.7021    24.3727   112.1091     2.4724
 2984.3490    10.5142    23.6273   110.9123     2.4779
 2984.8490    10.4195    23.6563   110.3016     2.4802
 2985.3490    10.5422    23.9331   109.6888     2.4772
 2985.8490    10.6960    23.9762   107.8338     2.4726
 2986.3490    10.7567    24.5793   106.9104     2.4718
 2986.8490    10.5377    24.4534   106.2977     2.4765
 2987.3490    10.2209    23.8937   105.0634     2.4828
 2987.8490     9.9038    23.2046   106.6249     2.4859
 2988.3490     9.8189    22.2976   109.4583     2.4875
 2988.8490     9.9412    21.3906   111.6108     2.4860
 2989.3490    10.1260    20.8179   109.1364     2.4805
 2989.8490    10.3419    21.0018   107.9004     2.4775
 2990.3490    10.4340    21.8054   107.5982     2.4791
 2990.8490    10.3389    22.2582   107.6086     2.4807
 2991.3490    10.2442    22.9734   107.9275     2.4807
 2991.8490    10.4320    23.6886   108.2463     2.4723
 2992.3490    10.8933    24.4038   110.1180     2.4615
 2992.8490    11.3545    25.2033   111.9897     2.4545
 2993.3490    11.8158    25.7590   111.9982     2.4476
 2993.8490    12.3017    25.7885   112.3190     2.4429
 2994.3490    12.6260    25.7245   113.8801     2.4391
 2994.8490    12.5002    25.8155   114.8180     2.4462
 2995.3490    11.8465    25.4102   113.5862     2.4563
 2995.8490    11.2550    25.1603   111.4206     2.4656
 2996.3490    10.7876    25.1583   110.1867     2.4726
 2996.8490    10.4755    25.1173   109.8824     2.4773
 2997.3490    10.0392    24.0694   110.8245     2.4835
 2997.8490     9.8203    22.9210   112.0795     2.4929
 2998.3490     9.3219    22.7641   112.7045     2.4991
 2998.8490     9.2894    22.8240   110.2304     2.4953
 2999.3490     9.4431    23.0084   109.3050     2.4930
 2999.8490     9.5348    23.0684   109.3154     2.4915
 3000.3490     9.6261    23.1357   110.2602     2.4938
 3000.8490     9.7488    23.7846   114.3133     2.4923
 3001.3490     9.9647    24.4336   117.1455     2.4867
 3001.8490    10.4911    24.8967   118.8017     2.4761
 3002.3490    10.7070    25.0189   119.6439     2.4730
 3002.8490    10.7365    25.2724   118.7280     2.4723
 3003.3490    10.7710    25.8290   113.1537     2.4715
 3003.8490    10.9505    25.9743   109.7533     2.4700
 3004.3490    11.0115    26.0031   109.7690     2.4677
 3004.8490    11.0410    26.2493   110.7164     2.4662
 3005.3490    11.2565    26.8983   113.8378     2.4631
 3005.8490    11.4724    26.9280   115.4063     2.4600
 3006.3490    11.5334    26.2442   115.7326     2.4593
 3006.8490    11.4383    25.3440   115.4378     2.4616
 3007.3490    11.3436    25.1852   116.0786     2.4624
 3007.8490    11.3077    25.9452   117.9577     2.4648
 3008.3490    10.8744    27.9883   119.8368     2.4718
 3008.8490    10.0344    28.1257   120.1631     2.4788
 3009.3490     9.5360    27.7518   119.8643     2.4928
 3009.8490     9.2239    28.5046   119.5728     2.4974
 3010.3490     9.3777    29.9481   119.2786     2.4944
 3010.8490    10.2623  -999.2500   118.0521     2.4752
 3011.3490    11.6949   -49.8074   119.3530     2.4464
 3011.8490    12.3546   -49.9331   122.1248     2.4449
 3012.3490    12.2596   -49.5320   123.6934     2.4534
 3012.8490    11.8233   -49.4403   122.1563     2.4581
 3013.3490    11.7596    29.3571   116.5780     2.4589
 3013.8490    11.9755  -999.2500   117.2188     2.4512
 3014.3490    12.2224  -999.2500   118.4768     2.4473
 3014.8490    12.2831   -49.5008   120.6665     2.4474
 3015.3490    12.0007   -49.2014   120.6822     2.4505
 3015.8490    11.8762   -49.6373   119.7254     2.4536
 3016.3490    11.9055    29.5979   117.8670     2.4513
 3016.8490    12.1213  -999.2500   117.6239     2.4459
 3017.3490    12.8031   -49.0535   117.9502     2.4382
 3017.8490    13.3605   -48.3417   116.7237     2.4297
 3018.3490    13.7938   -48.4801   117.3645     2.4164
 3018.8490    14.5687   -49.6168   119.5541     2.4041
 3019.3490    14.5051   -49.9666   121.7438     2.4166
 3019.8490    13.6651  -999.2500   123.6229     2.4283
 3020.3490    13.1937  -999.2500   123.6386     2.4337
 3020.8490    13.3367  -999.2500   123.3130     2.4322
 3021.3490    15.5594   -49.6564   121.8067     2.3997
 3021.8490    17.8615   -48.9455   123.3792     2.3672
 3022.3490    20.1635   -47.6458   129.6061     2.3045
 3022.8490    22.3201   -47.5852   134.9014     2.2820
 3023.3490    21.5111   -48.2689   133.8067     2.2927
 3023.8490    19.7083   -48.4630   127.0688     2.3278
 3024.3490    18.6199   -48.3959   120.0418     2.3472
 3024.8490    18.2461   -49.1223   116.3308     2.3488
 3025.3490    18.3688  -999.2500   115.7168     2.3542
 3025.8490    16.6588  -999.2500   116.0523     2.3930
 3026.3490    13.9644  -999.2500   115.7609     2.4369
 3026.8490    11.1930    24.0351   114.8449     2.4914
 3027.3490     8.8589    23.8165   116.1029     2.5046
 3027.8490     8.7956    25.4875   119.2242     2.4976
 3028.3490    10.8414    25.2999   126.3828     2.4703
 3028.8490    13.1913    24.8024   132.2992     2.4292
 3029.3490    14.8777    24.9247   131.0727     2.4102
 3029.8490    14.1995    24.7680   120.2189     2.4162
 3030.3490    11.7758    23.2897   114.5480     2.4733
 3030.8490     9.3521    22.2878   110.5720     2.5134
 3031.3490     7.7545    21.5406   109.4005     2.5213
 3031.8490     7.3454    21.9417   108.4845     2.5358
 3032.3490     6.3899    21.5678   102.5997     2.5482
 3032.8490     5.9847    21.1645    97.6465     2.5537
 3033.3490     5.8283    20.5728    98.5939     2.5475
 3033.8490     6.6338    19.9514    99.8519     2.5359
 3034.3490     7.1603    19.9191   100.7993     2.5290
 3034.8490     7.4693    21.0944   101.1256     2.5267
 3035.3490     7.5921    21.4955   100.4907     2.5259
 3035.8490     7.6526    21.4318    99.9148     2.5228
 3036.3490     7.8833    21.3372   102.1084     2.5105
 3036.8490     8.9846    21.3974   104.2981     2.5036
 3037.3490     9.1073    21.2408   107.1088     2.5005
 3037.8490     8.9816    20.6072   110.2302     2.5036
 3038.3490     8.3590    19.3789   113.3515     2.5199
 3038.8490     7.3016    18.3218   115.8517     2.5300
 3039.3490     7.2069    17.7945   115.5569     2.5331
 3039.8490     7.3917    18.5767   114.0199     2.5269
 3040.3490     7.7629    20.9513   114.3866     2.5231
 3040.8490     7.9499    21.6003   116.2292     2.5199
 3041.3490     8.1103    22.1253   115.0027     2.5154
 3041.8490     8.2552    22.9292   115.3290     2.5123
 3042.3490     8.2848    24.1668   116.5870     2.5116
 3042.8490     8.2522    24.5068   118.1555     2.5124
 3043.3490     8.4366    24.5352   117.8568     2.5109
 3043.8490     8.0314    24.4402   117.2553     2.5163
 3044.3490     7.5951    24.0047   114.4760     2.5241
 3044.8490     7.6246    23.8171   111.0756     2.5241
 3045.3490     8.3659    24.2801   112.4352     2.5072
 3045.8490     9.3246    24.8362   114.5272     2.4895
 3046.3490    10.2833    25.4851   115.1641     2.4718
 3046.8490    11.2419    26.0411   109.9003     2.4561
 3047.3490    11.7783    26.5042   106.8104     2.4522
 3047.8490    11.5905    27.0741   105.5840     2.4577
 3048.3490    11.2784    29.1744   104.9786     2.4623
 3048.8490    11.5817  -999.2500   102.8204     2.4539
 3049.3490    13.7345  -999.2500   101.5939     2.4291
 3049.8490    15.1557   -49.6935   101.9206     2.4036
 3050.3490    14.4339    29.4373   101.6254     2.4051
 3050.8490    13.2516    29.3112   103.1979     2.4354
 3051.3490    11.9409    28.9997   107.2509     2.4610
 3051.8490    10.7705    26.7672   110.9933     2.4711
 3052.3490    10.2411    25.7094   111.9408     2.4811
 3052.8490     9.1215    23.5526   112.5776     2.4992
 3053.3490     7.5051    21.3959   111.9722     2.5214
 3053.8490     6.7430    20.2225   106.9765     2.5378
 3054.3490     6.2595    20.0973   102.6482     2.5463
 3054.8490     6.0406    20.3121    98.0456     2.5495
 3055.3490     5.9148    20.9300    97.0970     2.5510
 3055.8490     5.9754    21.2382    99.6300     2.5487
