~Version Information
 VERS.                1.20:   CWLS log ASCII Standard -VERSION 1.20
 WRAP.                  NO:   One line per frame
~Well Information Block
#MNEM.UNIT       Data Type    Information
#---------    -------------   -------------------------------
 STRT.F           687.0000:   Starting Depth
 STOP.F            -0.7500:   Ending Depth
 STEP.F            -0.5000:   Level Spacing
 NULL.           -999.2500:   Absent Value
 COMP.             COMPANY:   FLUOR DANIEL (NPOSR),INC.
 WELL.                WELL:   51-1 X 3
 FLD .               FIELD:   N.P.R. #3
 LOC .            LOCATION:   3-38N-78W
 CNTY.              COUNTY:   NATRONA
 STAT.               STATE:   WYOMING
 SRVC.     SERVICE COMPANY:   WESTERN ATLAS LOGGING SERVICES
 LIC .      LICENSE NUMBER:   
 DATE.            LOG DATE:   12-DECEMBER-1995
 API .          API NUMBER:   4902522735
~Curve Information Block
#MNEM.UNIT       API Codes    Curve Description
#---------    -------------   -------------------------------
 DEPT.F        0   1  0  1:   Depth
 CILD.MMHO     0 110 46  1:   Conductivity of Deep Induction
 GR  .API      0 310  1  1:   Gamma ray counts
 TEN .LBF      0 635 99  1:   Differential Tension
 RILM.OHMM     0 120 44  1:   Resistivity from CILM
 RILD.OHMM     0 120 46  1:   Resistivity from CILD
#  Curve Data
~A   DEPT        CILD        GR          TEN         RILM        RILD
# ...
   295.0000     99.6972    117.7843    -31.8890     10.1932     10.0304
   294.5000     98.9548    116.2236    -33.3633     10.2592     10.1056
   294.0000     98.0424    118.5526    -35.8756     10.3324     10.1997
   293.5000     96.9198    119.5340    -34.8466     10.4122     10.3178
   293.0000     95.6368    114.9682    -32.3385     10.5050     10.4562
   292.5000     94.2651    109.6924    -35.9439     10.6240     10.6084
   292.0000     92.7542    109.4759    -39.8580     10.7932     10.7812
   291.5000     91.1124    112.4238    -34.5955     11.0242     10.9755
   291.0000     89.5795    113.5431    -27.3335     11.2675     11.1633
   290.5000     88.5509    110.7413    -28.8985     11.4329     11.2929
   290.0000     88.1728    107.3807    -31.2704     11.5250     11.3414
   289.5000     88.1617    106.8605    -26.9541     11.6343     11.3428
   289.0000     88.0849    109.9919    -24.4576     11.7507     11.3527
   288.5000     87.9935    113.6349    -26.2446     11.7455     11.3645
   288.0000     88.3294    114.7745    -25.9494     11.5776     11.3213
   287.5000     89.1298    114.1752    -23.1312     11.3682     11.2196
   287.0000     89.8732    113.0751    -22.5349     11.2513     11.1268
   286.5000     90.0452    113.5184    -26.1293     11.2656     11.1055
   286.0000     89.6783    115.7548    -33.3460     11.3587     11.1510
   285.5000     89.0730    117.5431    -38.5035     11.4552     11.2267
   285.0000     88.3775    117.9743    -36.7696     11.5242     11.3151
   284.5000     87.6351    119.7010    -31.7703     11.5886     11.4110
   284.0000     86.8867    121.3292    -27.2606     11.6687     11.5092
   283.5000     86.0884    120.5317    -22.9458     11.7682     11.6160
   283.0000     85.1365    118.6831    -18.2070     11.8743     11.7458
   282.5000     84.0329    118.1010    -16.1089     11.9848     11.9001
   282.0000     82.9800    117.7669    -19.0155     12.1050     12.0511
   281.5000     82.2342    115.7692    -25.9390     12.2307     12.1604
   281.0000     81.9044    111.5429    -34.6654     12.3332     12.2094
   280.5000     81.9685    108.9712    -40.1786     12.3995     12.1998
   280.0000     82.3450    111.2180    -35.9540     12.4452     12.1440
   279.5000     82.9454    115.8115    -24.1898     12.4562     12.0561
   279.0000     83.6695    118.6664    -16.3013     12.3593     11.9518
   278.5000     84.7447    120.9649    -15.7621     12.1077     11.8002
   278.0000     86.5128    123.4897    -17.4518     11.7619     11.5590
   277.5000     88.7735    124.2565    -20.4502     11.4354     11.2646
   277.0000     90.8564    123.8229    -28.6837     11.1818     11.0064
   276.5000     92.4781    124.4665    -36.3447     10.9796     10.8134
   276.0000     93.8284    125.7671    -34.6010     10.8006     10.6578
   275.5000     95.1462    126.4610    -28.0435     10.6409     10.5101
   275.0000     96.5396    126.8338    -27.2389     10.4948     10.3584
   274.5000     97.9802    127.5846    -31.0877     10.3469     10.2061
   274.0000     99.4831    129.3264    -31.7224     10.1921     10.0520
   273.5000    101.3027    131.1966    -31.2000     10.0334      9.8714
   273.0000    103.5849    132.4538    -35.4987      9.8590      9.6539
   272.5000    106.1160    133.6039    -40.1783      9.6666      9.4236
   272.0000    108.4981    133.7760    -37.8298      9.4638      9.2168
   271.5000    110.5931    133.3365    -32.3214      9.2624      9.0422
   271.0000    112.5830    134.2821    -29.6280      9.0616      8.8823
   270.5000    114.5653    136.0122    -29.9592      8.8574      8.7286
   270.0000    116.4296    137.1904    -32.8619      8.6675      8.5889
   269.5000    117.9735    138.1380    -36.0739      8.5390      8.4765
   269.0000    119.0104    138.1928    -33.7205      8.4909      8.4026
   268.5000    119.4725    138.5275    -26.3996      8.4782      8.3701
   268.0000    119.5143    138.9242    -22.0847      8.4567      8.3672
   267.5000    119.3885    137.4135    -24.9469      8.4387      8.3760
   267.0000    119.1088    135.3594    -31.7413      8.4478      8.3957
   266.5000    118.5198    136.5918    -35.5383      8.4872      8.4374
   266.0000    117.6550    138.2546    -30.7336      8.5469      8.4994
   265.5000    116.7705    135.6751    -22.9421      8.6105      8.5638
   265.0000    116.0265    131.2470    -21.9542      8.6719      8.6187
   264.5000    115.3616    130.5863    -28.0286      8.7416      8.6684
   264.0000    114.6450    132.8917    -35.7899      8.8255      8.7226
   263.5000    113.9330    134.3912    -44.2985      8.9002      8.7771
   263.0000    113.5134    134.8355    -51.4023      8.9352      8.8095
   262.5000    113.5891    136.3482    -50.7584      8.9223      8.8037
   262.0000    114.1894    137.0670    -41.7585      8.8709      8.7574
   261.5000    115.1745    134.6345    -31.8679      8.8013      8.6825
   261.0000    116.2303    132.1450    -28.9662      8.7336      8.6036
   260.5000    117.1677    134.6279    -33.6772      8.6735      8.5348
   260.0000    118.1681    137.9293    -38.7091      8.6058      8.4625
   259.5000    119.4945    136.1340    -36.8406      8.5157      8.3686
   259.0000    121.1626    132.4440    -30.9590      8.4103      8.2534
   258.5000    122.9843    133.5220    -26.2468      8.3123      8.1311
   258.0000    124.6820    137.2465    -22.8521      8.2236      8.0204
   257.5000    126.0917    137.4856    -21.7800      8.1246      7.9307
   257.0000    127.2832    133.8911    -24.6464      8.0098      7.8565
   256.5000    128.3428    132.3560    -28.0383      7.8997      7.7916
   256.0000    129.0957    133.9026    -29.3309      7.8208      7.7462
   255.5000    129.3292    135.0445    -31.4882      7.7896      7.7322
   255.0000    128.9652    134.3264    -35.8561      7.8095      7.7540
   254.5000    128.0120    134.4297    -38.6258      7.8767      7.8118
   254.0000    126.5021    136.4120    -36.0644      7.9808      7.9050
   253.5000    124.5025    137.9850    -31.3378      8.1089      8.0320
   253.0000    122.0797    136.4590    -31.8082      8.2586      8.1914
   252.5000    119.4300    132.3632    -38.2488      8.4277      8.3731
   252.0000    117.0468    128.3016    -43.0071      8.6025      8.5436
   251.5000    115.2046    127.1305    -41.9918      8.7721      8.6802
   251.0000    113.6587    129.8307    -40.5580      8.9348      8.7983
   250.5000    112.2755    133.4310    -42.3764      9.0852      8.9067
   250.0000    111.2731    134.1460    -44.1927      9.2042      8.9869
   249.5000    110.7011    133.9372    -46.0269      9.2622      9.0333
   249.0000    110.4476    135.5039    -46.4280      9.2549      9.0541
   248.5000    110.4238    137.4174    -38.8149      9.2189      9.0560
   248.0000    110.3941    138.1171    -28.4333      9.1870      9.0585
   247.5000    110.2802    140.2707    -28.7920      9.1593      9.0678
   247.0000    110.3247    142.0463    -37.0816      9.1289      9.0642
   246.5000    110.7272    139.0127    -40.3893      9.0954      9.0312
   246.0000    111.4731    133.1710    -37.6169      9.0645      8.9708
   245.5000    112.3847    129.3417    -36.8547      9.0526      8.8980
   245.0000    113.1954    127.3118    -39.9428      9.0660      8.8343
   244.5000    114.0263    127.3493    -40.0947      9.0601      8.7699
   244.0000    115.2304    130.9067    -35.1787      8.9706      8.6783
   243.5000    116.7973    135.6394    -32.6969      8.7968      8.5618
   243.0000    118.4190    137.3019    -36.3502      8.6116      8.4446
   242.5000    119.8539    135.9192    -39.0238      8.4753      8.3435
   242.0000    120.8871    133.9376    -35.3147      8.3967      8.2722
   241.5000    121.3689    132.9641    -28.3659      8.3554      8.2393
   241.0000    121.4032    134.9385    -23.8193      8.3401      8.2370
   240.5000    121.1520    138.2076    -23.9513      8.3467      8.2541
   240.0000    120.6918    140.4879    -29.7887      8.3681      8.2856
   239.5000    120.0532    143.3079    -38.9814      8.4021      8.3296
