~Version Information
 VERS.                1.20:   CWLS log ASCII Standard -VERSION 1.20
 WRAP.                  NO:   One line per frame
~Well Information Block
#MNEM.UNIT       Data Type    Information
#---------    -------------   -------------------------------
 STRT.F           687.0000:   Starting Depth
 STOP.F            -0.7500:   Ending Depth
 STEP.F            -0.5000:   Level Spacing
 NULL.           -999.2500:   Absent Value
 COMP.             COMPANY:   FLUOR DANIEL (NPOSR),INC.
 WELL.                WELL:   51-1 X 3
 FLD .               FIELD:   N.P.R. #3
 LOC .            LOCATION:   3-38N-78W
 CNTY.              COUNTY:   NATRONA
 STAT.               STATE:   WYOMING
 SRVC.     SERVICE COMPANY:   WESTERN ATLAS LOGGING SERVICES
 LIC .      LICENSE NUMBER:   
 DATE.            LOG DATE:   12-DECEMBER-1995
 API .          API NUMBER:   4902522735
~Curve Information Block
#MNEM.UNIT       API Codes    Curve Description
#---------    -------------   -------------------------------
 DEPT.F        0   1  0  1:   Depth
 CILD.MMHO     0 110 46  1:   Conductivity of Deep Induction
 GR  .API      0 310  1  1:   Gamma ray counts
 TEN .LBF      0 635 99  1:   Differential Tension
 RILM.OHMM     0 120 44  1:   Resistivity from CILM
 RILD.OHMM     0 120 46  1:   Resistivity from CILD
#  Curve Data
~A   DEPT        CILD        GR          TEN         RILM        RILD
# ...
   183.0000    110.0289    135.8694    -40.9975      9.2869      9.0885
   182.5000    111.3328    138.7327    -35.8128      9.1419      8.9821
   182.0000    112.2613    141.0214    -33.2264      9.0469      8.9078
   181.5000    112.7847    139.9814    -33.6324      9.0034      8.8665
   181.0000    112.9794    137.8326    -37.1075      8.9888      8.8512
   180.5000    113.1609    139.1858    -39.7729      8.9820      8.8370
   180.0000    113.6636    142.1545    -38.2793      8.9762      8.7979
   179.5000    114.4545    140.0336    -37.3192      8.9675      8.7371
   179.0000    115.2500    135.6461    -42.2919      8.9361      8.6768
   178.5000    115.9614    134.5736    -46.0248      8.8634      8.6236
   178.0000    116.7471    134.4476    -39.2117      8.7549      8.5655
   177.5000    117.7799    132.6182    -29.6881      8.6328      8.4904
   177.0000    119.0872    130.4243    -30.8834      8.5181      8.3972
   176.5000    120.5021    130.8619    -39.5890      8.4230      8.2986
   176.0000    121.7061    133.7024    -45.1531      8.3553      8.2165
   175.5000    122.4812    135.4206    -46.2838      8.3192      8.1645
   175.0000    122.9308    133.5708    -44.2930      8.3036      8.1347
   174.5000    123.2434    129.7884    -40.7334      8.2822      8.1140
   174.0000    123.5099    127.1908    -40.1328      8.2426      8.0965
   173.5000    123.7675    126.7489    -42.7689      8.2066      8.0797
   173.0000    124.0993    126.0311    -43.0999      8.1903      8.0581
   172.5000    124.6264    124.8569    -40.3317      8.1747      8.0240
   172.0000    125.3581    127.6669    -33.8431      8.1453      7.9771
   171.5000    126.1560    134.2766    -24.0733      8.1234      7.9267
   171.0000    126.8129    137.2173    -17.9398      8.1216      7.8856
   170.5000    127.2805    134.1702    -20.1151      8.1041      7.8567
   170.0000    127.7121    131.3335    -26.5121      8.0391      7.8301
   169.5000    128.3526    131.9314    -34.4241      7.9501      7.7910
   169.0000    129.1577    132.9374    -42.5362      7.8808      7.7425
   168.5000    129.8221    133.4449    -46.9075      7.8385      7.7028
   168.0000    130.2019    134.7335    -44.4153      7.8098      7.6804
   167.5000    130.4490    135.8722    -35.4154      7.7919      7.6658
   167.0000    130.6744    134.9627    -26.2684      7.7905      7.6526
   166.5000    130.8021    130.3719    -26.1675      7.8046      7.6451
   166.0000    130.7204    124.3321    -32.0955      7.8246      7.6499
   165.5000    130.3535    121.6487    -33.3569      7.8450      7.6714
   165.0000    129.7322    124.0608    -28.6105      7.8631      7.7082
   164.5000    128.9190    127.1987    -24.8767      7.8772      7.7568
   164.0000    127.9401    127.2126    -24.4997      7.8938      7.8162
   163.5000    126.8894    125.6442    -23.6717      7.9314      7.8809
   163.0000    125.8791    126.3418    -21.7160      8.0046      7.9441
   162.5000    124.7945    127.8781    -22.3882      8.1144      8.0132
   162.0000    123.4202    128.0255    -25.9680      8.2468      8.1024
   161.5000    121.8863    127.6826    -29.0845      8.3696      8.2044
   161.0000    120.5948    128.3417    -32.8638      8.4547      8.2922
   160.5000    119.8704    128.8286    -38.9942      8.4927      8.3423
   160.0000    119.7951    128.8578    -44.5727      8.4896      8.3476
   159.5000    120.2967    128.5454    -45.9931      8.4612      8.3128
   159.0000    121.0431    126.9125    -44.0539      8.4312      8.2615
   158.5000    121.6208    124.4852    -40.9706      8.4097      8.2223
   158.0000    121.9304    121.5046    -39.1187      8.3784      8.2014
   157.5000    122.2317    120.5036    -39.5317      8.3213      8.1812
   157.0000    122.7082    122.6268    -42.9965      8.2491      8.1494
   156.5000    123.4365    125.1972    -47.0993      8.1839      8.1013
   156.0000    124.5463    124.3676    -48.1192      8.1296      8.0291
   155.5000    126.0628    120.8167    -46.1718      8.0859      7.9326
   155.0000    127.8710    118.4119    -41.4910      8.0492      7.8204
   154.5000    129.8463    118.7065    -36.3737      8.0026      7.7014
   154.0000    131.8364    121.0390    -33.5076      7.9216      7.5852
   153.5000    133.7786    124.8554    -30.0809      7.7941      7.4750
   153.0000    135.7356    130.5514    -24.1777      7.6343      7.3673
   152.5000    137.6006    133.8174    -20.8095      7.4768      7.2674
   152.0000    138.9257    133.6978    -21.7798      7.3540      7.1981
   151.5000    139.3131    133.2694    -22.9119      7.2851      7.1781
   151.0000    138.6681    131.9713    -22.5047      7.2811      7.2115
   150.5000    137.1225    128.9490    -22.7286      7.3415      7.2928
   150.0000    134.7764    126.7546    -27.6785      7.4544      7.4197
   149.5000    131.7654    126.7195    -33.8336      7.6079      7.5892
   149.0000    128.5384    127.9850    -32.6820      7.7972      7.7798
   148.5000    125.5804    128.8622    -24.0493      8.0115      7.9630
   148.0000    123.0393    128.0973    -14.9718      8.2268      8.1275
   147.5000    120.8870    126.6529    -14.1862      8.4230      8.2722
   147.0000    119.0873    124.1584    -25.4867      8.5946      8.3972
   146.5000    117.6046    120.5978    -39.5158      8.7328      8.5031
   146.0000    116.6595    118.7226    -44.1488      8.8132      8.5720
   145.5000    116.7980    120.2912    -39.7287      8.8094      8.5618
   145.0000    118.2833    122.7108    -34.2594      8.7223      8.4543
   144.5000    120.7906    124.0495    -31.7752      8.5865      8.2788
   144.0000    123.5858    124.8254    -33.7906      8.4385      8.0915
   143.5000    126.1476    124.7411    -38.9366      8.2810      7.9272
   143.0000    128.5656    124.1492    -42.1800      8.0838      7.7781
   142.5000    131.2227    124.1961    -38.0109      7.8363      7.6206
   142.0000    134.0743    125.7211    -29.5789      7.5937      7.4586
   141.5000    136.5170    126.8952    -26.1357      7.4274      7.3251
   141.0000    137.9486    126.7861    -27.9621      7.3552      7.2491
   140.5000    138.2157    126.5321    -29.5627      7.3530      7.2351
   140.0000    137.5704    127.4562    -30.0193      7.3947      7.2690
   139.5000    136.3776    129.0678    -31.1972      7.4602      7.3326
   139.0000    134.9132    129.5603    -32.8598      7.5359      7.4122
   138.5000    133.3616    128.3841    -33.9084      7.6194      7.4984
   138.0000    131.9291    126.8959    -34.0389      7.7075      7.5798
   137.5000    130.8040    126.7952    -33.5018      7.7932      7.6450
   137.0000    130.0018    127.8992    -33.5055      7.8745      7.6922
   136.5000    129.3903    128.0325    -33.7272      7.9466      7.7286
   136.0000    128.9693    125.4632    -34.0136      7.9905      7.7538
   135.5000    128.8719    122.8385    -33.4637      7.9849      7.7596
   135.0000    129.2989    123.7135    -32.7369      7.9285      7.7340
   134.5000    130.5168    128.0946    -35.4626      7.8403      7.6618
   134.0000    132.5401    132.2443    -40.9036      7.7401      7.5449
   133.5000    134.9669    133.4770    -45.2764      7.6383      7.4092
   133.0000    137.4372    132.9072    -47.4748      7.5365      7.2761
   132.5000    139.7785    133.1848    -45.0671      7.4262      7.1542
   132.0000    141.8384    133.6790    -37.3351      7.2949      7.0503
   131.5000    143.6478    134.3920    -28.8987      7.1476      6.9615
   131.0000    145.3127    134.2862    -24.1786      7.0127      6.8817
   130.5000    146.6034    131.9364    -23.7885      6.9215      6.8211
   130.0000    147.1942    129.3463    -25.6453      6.8872      6.7937
   129.5000    147.2120    130.2918    -25.2354      6.8972      6.7929
   129.0000    147.0054    131.8755    -25.5776      6.9274      6.8025
   128.5000    146.6918    129.2650    -32.2788      6.9684      6.8170
   128.0000    146.2545    124.6521    -39.0199      7.0285      6.8374
   127.5000    145.7990    122.7836    -38.8399      7.1003      6.8588
