~Version Information
 VERS.                1.20:   CWLS log ASCII Standard -VERSION 1.20
 WRAP.                  NO:   One line per frame
~Well Information Block
#MNEM.UNIT       Data Type    Information
#---------    -------------   -------------------------------
 STRT.F           687.0000:   Starting Depth
 STOP.F            -0.7500:   Ending Depth
 STEP.F            -0.5000:   Level Spacing
 NULL.           -999.2500:   Absent Value
 COMP.             COMPANY:   FLUOR DANIEL (NPOSR),INC.
 WELL.                WELL:   51-1 X 3
 FLD .               FIELD:   N.P.R. #3
 LOC .            LOCATION:   3-38N-78W
 CNTY.              COUNTY:   NATRONA
 STAT.               STATE:   WYOMING
 SRVC.     SERVICE COMPANY:   WESTERN ATLAS LOGGING SERVICES
 LIC .      LICENSE NUMBER:   
 DATE.            LOG DATE:   12-DECEMBER-1995
 API .          API NUMBER:   4902522735
~Curve Information Block
#MNEM.UNIT       API Codes    Curve Description
#---------    -------------   -------------------------------
 DEPT.F        0   1  0  1:   Depth
 CILD.MMHO     0 110 46  1:   Conductivity of Deep Induction
 GR  .API      0 310  1  1:   Gamma ray counts
 TEN .LBF      0 635 99  1:   Differential Tension
 RILM.OHMM     0 120 44  1:   Resistivity from CILM
 RILD.OHMM     0 120 46  1:   Resistivity from CILD
#  Curve Data
~A   DEPT        CILD        GR          TEN         RILM        RILD
# ...
   407.0000    179.0769    154.2590    -33.0117      6.1496      5.5842
   406.5000    178.8235    155.6388    -35.2858      6.0024      5.5921
   406.0000    176.8578    156.2180    -34.5303      5.8369      5.6543
   405.5000    174.8199    156.3062    -29.5106      5.6465      5.7202
   405.0000    173.2506    154.9477    -23.8626      5.5115      5.7720
   404.5000    170.8318    151.5562    -25.1015      5.6020      5.8537
   404.0000    165.1120    148.6211    -31.3296      6.0089      6.0565
   403.5000    155.7064    147.4452    -33.0940      6.6347      6.4223
   403.0000    145.5230    147.9895    -30.9529      7.2479      6.8718
   402.5000    137.4688    148.7937    -30.4658      7.6764      7.2744
   402.0000    132.2180    149.0550    -29.6631      7.9078      7.5633
   401.5000    129.5265    148.5479    -28.9652      8.0072      7.7204
   401.0000    128.7327    148.4579    -31.2945      8.0463      7.7680
   400.5000    128.5420    149.5061    -32.6454      8.0610      7.7796
   400.0000    128.1094    150.5627    -30.3121      8.0566      7.8058
   399.5000    127.6659    149.5659    -30.3969      8.0453      7.8329
   399.0000    127.3183    145.9790    -31.7496      8.0476      7.8543
   398.5000    126.7325    143.0868    -28.0365      8.0736      7.8906
   398.0000    125.8028    142.6030    -22.9814      8.1244      7.9489
   397.5000    124.7715    144.6896    -23.9407      8.1949      8.0146
   397.0000    123.8790    147.8948    -27.5150      8.2680      8.0724
   396.5000    123.4265    148.8769    -30.6443      8.3241      8.1020
   396.0000    123.5406    147.8606    -33.7348      8.3521      8.0945
   395.5000    124.1687    147.0261    -35.0143      8.3445      8.0536
   395.0000    125.1794    146.4276    -33.2560      8.3022      7.9885
   394.5000    126.3155    144.3907    -29.7113      8.2385      7.9167
   394.0000    127.3025    144.3579    -26.3868      8.1713      7.8553
   393.5000    128.0776    147.5616    -24.3204      8.1145      7.8078
   393.0000    128.7137    150.8530    -25.2433      8.0542      7.7692
   392.5000    129.9572    149.0163    -29.3608      7.9452      7.6948
   392.0000    133.4431    143.4473    -31.2241      7.7670      7.4938
   391.5000    140.3644    139.8336    -28.0832      7.5356      7.1243
   391.0000    150.8418    140.2054    -27.6876      7.2367      6.6295
   390.5000    163.9138    141.1942    -33.2905      6.8435      6.1008
   390.0000    176.6751    139.6093    -35.5697      6.4009      5.6601
   389.5000    185.7624    138.8175    -32.2464      5.9862      5.3832
   389.0000    190.9871    142.5963    -31.5861      5.6003      5.2360
   388.5000    194.3648    147.2292    -34.0743      5.2108      5.1450
   388.0000    197.1671    148.5965    -32.8790      4.8843      5.0718
   387.5000    198.3737    148.4549    -30.0156      4.7743      5.0410
   387.0000    194.9878    147.8570    -31.2820      4.9730      5.1285
   386.5000    185.5604    145.2268    -33.1846      5.4188      5.3891
   386.0000    172.6968    141.9814    -30.9404      5.9714      5.7905
   385.5000    160.2341    139.0262    -27.0956      6.4832      6.2409
   385.0000    150.2528    135.5864    -27.8434      6.8858      6.6555
   384.5000    142.9485    134.3780    -32.3977      7.1811      6.9955
   384.0000    137.8281    136.7823    -37.5583      7.4054      7.2554
   383.5000    133.9440    139.6409    -39.7354      7.5978      7.4658
   383.0000    130.6406    138.4236    -37.0343      7.7889      7.6546
   382.5000    127.7740    134.8126    -31.3455      7.9808      7.8263
   382.0000    125.4144    134.7504    -29.3138      8.1479      7.9736
   381.5000    123.6241    139.3344    -29.9705      8.2707      8.0890
   381.0000    122.6611    143.3180    -30.7510      8.3466      8.1525
   380.5000    122.9920    143.2399    -34.1136      8.3745      8.1306
   380.0000    124.8831    141.9099    -35.3855      8.3387      8.0075
   379.5000    128.3000    142.2105    -29.5600      8.2216      7.7942
   379.0000    133.1047    143.6313    -23.4819      8.0206      7.5129
   378.5000    138.9087    144.4994    -23.7717      7.7525      7.1990
   378.0000    145.2299    145.1699    -28.2271      7.4385      6.8856
   377.5000    152.1807    147.9076    -32.3132      7.0848      6.5711
   377.0000    159.8238    150.8844    -33.7296      6.7108      6.2569
   376.5000    167.4796    149.3729    -33.7211      6.3707      5.9709
   376.0000    173.7849    144.7454    -33.0126      6.1131      5.7542
   375.5000    177.9127    141.1085    -29.5499      5.9318      5.6207
   375.0000    179.4345    140.5800    -27.2694      5.8025      5.5731
   374.5000    178.4970    144.2145    -31.3558      5.7357      5.6023
   374.0000    175.5939    148.2148    -36.0958      5.7547      5.6950
   373.5000    171.1203    147.1469    -36.7193      5.8512      5.8438
   373.0000    165.4839    142.4436    -36.8894      6.0110      6.0429
   372.5000    159.2393    139.1411    -36.3712      6.2542      6.2799
   372.0000    152.5553    138.9897    -31.1795      6.5938      6.5550
   371.5000    145.5650    140.7777    -26.1541      6.9631      6.8698
   371.0000    139.4911    141.0500    -25.0856      7.2531      7.1689
   370.5000    135.3394    138.6073    -22.5544      7.4090      7.3888
   370.0000    133.2824    136.6691    -17.0169      7.4435      7.5029
   369.5000    133.6824    136.4407    -14.5171      7.3890      7.4804
   369.0000    137.3266    137.5783    -19.1235      7.2759      7.2819
   368.5000    145.0219    139.4450    -28.2903      7.0793      6.8955
   368.0000    157.3278    140.6123    -36.6488      6.7412      6.3562
   367.5000    173.7841    138.8282    -37.6635      6.2793      5.7543
   367.0000    193.4707    136.7682    -30.9203      5.7561      5.1687
   366.5000    218.1250    137.0846    -27.0141      5.1654      4.5845
   366.0000    249.9140    135.7285    -29.9815      4.4854      4.0014
   365.5000    289.6487    128.2802    -33.3100      3.8470      3.4525
   365.0000    327.5781    119.7845    -34.9194      3.3770      3.0527
   364.5000    355.0925    116.9897    -38.8817      3.0769      2.8162
   364.0000    368.1677    119.2954    -43.1853      2.8732      2.7162
   363.5000    370.0903    123.6937    -44.1664      2.7142      2.7020
   363.0000    366.0330    126.3628    -41.0923      2.6197      2.7320
   362.5000    355.8950    126.7699    -34.5452      2.6467      2.8098
   362.0000    335.9280    127.9681    -27.9871      2.8396      2.9768
   361.5000    305.3579    130.7339    -25.4449      3.2154      3.2748
   361.0000    268.6587    131.6134    -28.7798      3.7614      3.7222
   360.5000    233.0030    128.8627    -34.8191      4.4290      4.2918
   360.0000    202.5400    126.1930    -38.0128      5.1288      4.9373
   359.5000    178.2706    127.5712    -37.6541      5.7621      5.6095
   359.0000    160.3911    130.8256    -38.0119      6.3165      6.2348
   358.5000    147.4335    130.9814    -37.5293      6.7971      6.7827
   358.0000    137.6006    129.7453    -31.8368      7.2203      7.2674
   357.5000    130.2188    130.2545    -22.3315      7.5967      7.6794
   357.0000    124.8678    129.0927    -16.2952      7.9271      8.0085
   356.5000    120.9199    125.7902    -15.5446      8.2110      8.2699
   356.0000    117.8235    124.9498    -18.4961      8.4458      8.4873
   355.5000    115.5325    127.4478    -23.8364      8.6222      8.6556
   355.0000    114.1831    130.0051    -31.1350      8.7449      8.7579
   354.5000    113.5894    131.0309    -35.2379      8.8381      8.8036
   354.0000    113.4489    130.5008    -31.2244      8.9149      8.8145
   353.5000    113.5576    129.4354    -24.2612      8.9859      8.8061
   353.0000    113.5781    129.3889    -22.3172      9.0808      8.8045
   352.5000    113.1483    130.1934    -24.7931      9.2102      8.8380
   352.0000    112.3115    130.2112    -25.9704      9.3325      8.9038
   351.5000    111.4145    128.1166    -25.5752      9.4078      8.9755
