~Version Information
 VERS.                1.20:   CWLS log ASCII Standard -VERSION 1.20
 WRAP.                  NO:   One line per frame
~Well Information Block
#MNEM.UNIT       Data Type    Information
#---------    -------------   -------------------------------
 STRT.F           687.0000:   Starting Depth
 STOP.F            -0.7500:   Ending Depth
 STEP.F            -0.5000:   Level Spacing
 NULL.           -999.2500:   Absent Value
 COMP.             COMPANY:   FLUOR DANIEL (NPOSR),INC.
 WELL.                WELL:   51-1 X 3
 FLD .               FIELD:   N.P.R. #3
 LOC .            LOCATION:   3-38N-78W
 CNTY.              COUNTY:   NATRONA
 STAT.               STATE:   WYOMING
 SRVC.     SERVICE COMPANY:   WESTERN ATLAS LOGGING SERVICES
 LIC .      LICENSE NUMBER:   
 DATE.            LOG DATE:   12-DECEMBER-1995
 API .          API NUMBER:   4902522735
~Curve Information Block
#MNEM.UNIT       API Codes    Curve Description
#---------    -------------   -------------------------------
 DEPT.F        0   1  0  1:   Depth
 CILD.MMHO     0 110 46  1:   Conductivity of Deep Induction
 GR  .API      0 310  1  1:   Gamma ray counts
 TEN .LBF      0 635 99  1:   Differential Tension
 RILM.OHMM     0 120 44  1:   Resistivity from CILM
 RILD.OHMM     0 120 46  1:   Resistivity from CILD
#  Curve Data
~A   DEPT        CILD        GR          TEN         RILM        RILD
# ...
   239.0000    119.3491    145.1436    -44.7310      8.4511      8.3788
   238.5000    118.6851    142.3769    -43.4747      8.5118      8.4257
   238.0000    118.1754    137.9203    -38.5639      8.5681      8.4620
   237.5000    117.8144    135.4529    -34.9015      8.6039      8.4879
   237.0000    117.5119    134.5048    -34.9012      8.6113      8.5098
   236.5000    117.2510    134.1448    -37.6175      8.6041      8.5287
   236.0000    117.0322    136.1127    -38.4288      8.6085      8.5447
   235.5000    116.7348    140.0387    -38.2360      8.6304      8.5664
   235.0000    116.3589    141.5247    -39.2367      8.6593      8.5941
   234.5000    115.9219    139.9097    -39.2395      8.6909      8.6265
   234.0000    115.2359    138.2981    -35.4886      8.7341      8.6779
   233.5000    114.2923    137.3318    -30.7290      8.7863      8.7495
   233.0000    113.4469    136.5307    -26.9803      8.8414      8.8147
   232.5000    112.8620    137.1220    -25.6069      8.9069      8.8604
   232.0000    112.3011    136.9656    -29.9806      9.0010      8.9046
   231.5000    111.6017    134.4404    -38.8515      9.1101      8.9604
   231.0000    110.9427    131.4636    -42.4734      9.1863      9.0137
   230.5000    110.6185    129.2520    -37.6718      9.2061      9.0401
   230.0000    110.6920    128.2572    -33.7763      9.1876      9.0341
   229.5000    111.0300    129.2594    -35.4657      9.1552      9.0066
   229.0000    111.4389    132.3180    -35.7134      9.1133      8.9735
   228.5000    111.6790    133.5037    -31.9057      9.0679      8.9542
   228.0000    111.6057    131.8992    -28.9161      9.0378      8.9601
   227.5000    111.2408    131.0424    -31.7624      9.0354      8.9895
   227.0000    110.7448    132.2771    -38.1729      9.0463      9.0298
   226.5000    110.3682    134.4845    -42.1483      9.0640      9.0606
   226.0000    110.1552    137.1251    -38.6700      9.1039      9.0781
   225.5000    109.9005    135.9349    -30.3692      9.1708      9.0991
   225.0000    109.5794    130.6573    -23.7256      9.2409      9.1258
   224.5000    109.5205    127.1269    -23.4075      9.2879      9.1307
   224.0000    109.8890    126.6169    -26.4258      9.2997      9.1001
   223.5000    110.5104    127.5069    -30.0446      9.2700      9.0489
   223.0000    111.1406    130.3549    -34.0941      9.2056      8.9976
   222.5000    111.7376    133.9333    -36.4402      9.1229      8.9495
   222.0000    112.3482    134.4750    -38.5163      9.0305      8.9009
   221.5000    112.9867    131.9742    -43.4747      8.9395      8.8506
   221.0000    113.4904    130.1483    -47.4370      8.8730      8.8113
   220.5000    113.6017    131.4754    -45.6576      8.8442      8.8027
   220.0000    113.2083    131.6790    -40.4628      8.8511      8.8333
   219.5000    112.4632    128.3994    -34.9481      8.8872      8.8918
   219.0000    111.6105    126.0729    -30.0523      8.9364      8.9597
   218.5000    110.7857    127.7799    -26.1129      8.9890      9.0264
   218.0000    110.0852    131.2636    -24.5128      9.0545      9.0839
   217.5000    109.5325    132.6028    -29.2260      9.1397      9.1297
   217.0000    109.1110    131.6302    -38.5773      9.2304      9.1650
   216.5000    109.0757    130.9557    -44.5642      9.2921      9.1679
   216.0000    110.0016    130.8139    -45.6637      9.2857      9.0908
   215.5000    112.0032    130.8907    -43.9831      9.1890      8.9283
   215.0000    114.6952    133.3925    -35.5291      9.0168      8.7188
   214.5000    117.6312    137.2680    -23.9605      8.8052      8.5011
   214.0000    120.5706    138.6920    -19.7796      8.5758      8.2939
   213.5000    123.3533    139.9330    -23.5698      8.3300      8.1068
   213.0000    125.7202    142.9761    -26.1724      8.0855      7.9542
   212.5000    127.3501    144.8244    -28.3229      7.8959      7.8524
   212.0000    127.9251    144.4554    -33.5616      7.8098      7.8171
   211.5000    127.1409    144.5733    -37.2579      7.8375      7.8653
   211.0000    125.0394    143.5052    -34.3366      7.9563      7.9975
   210.5000    122.1115    141.4127    -27.9920      8.1379      8.1892
   210.0000    118.8451    142.6586    -22.0710      8.3723      8.4143
   209.5000    115.5759    145.4836    -20.6442      8.6578      8.6523
   209.0000    112.5524    142.7649    -23.9340      8.9719      8.8847
   208.5000    109.8236    136.9554    -26.5100      9.2670      9.1055
   208.0000    107.3957    136.4595    -26.7845      9.4969      9.3114
   207.5000    105.4134    141.0114    -32.1125      9.6482      9.4865
   207.0000    103.9446    143.6311    -39.8922      9.7391      9.6205
   206.5000    102.9404    143.4207    -40.5958      9.7906      9.7144
   206.0000    102.2177    142.9560    -38.6667      9.8206      9.7830
   205.5000    101.5600    142.0168    -41.2839      9.8521      9.8464
   205.0000    100.9002    140.2915    -43.3356      9.9078      9.9108
   204.5000    100.2842    140.1491    -40.5257      9.9952      9.9717
   204.0000     99.7662    140.1453    -40.5043     10.0891     10.0234
   203.5000     99.3510    137.5392    -43.6306     10.1523     10.0653
   203.0000     98.9498    135.4727    -43.4479     10.1899     10.1061
   202.5000     98.4471    137.3538    -38.1994     10.2344     10.1577
   202.0000     97.8302    139.1382    -31.8255     10.2786     10.2218
   201.5000     97.2301    136.5280    -27.2286     10.2993     10.2849
   201.0000     96.7131    132.4822    -24.0605     10.3243     10.3399
   200.5000     96.1851    129.6335    -21.3421     10.3898     10.3966
   200.0000     95.5273    129.3092    -21.0246     10.4931     10.4682
   199.5000     94.7449    130.9461    -26.5615     10.6000     10.5547
   199.0000     94.1301    133.1722    -35.9708     10.6797     10.6236
   198.5000     93.9735    134.8150    -41.4946     10.7191     10.6413
   198.0000     94.1601    134.6402    -41.0984     10.7408     10.6202
   197.5000     94.2794    132.3004    -42.7799     10.7671     10.6068
   197.0000     94.2072    130.8772    -47.9905     10.7921     10.6149
   196.5000     94.0155    133.3354    -50.5144     10.7929     10.6365
   196.0000     93.8608    136.3662    -49.2325     10.7703     10.6541
   195.5000     93.8991    134.9844    -46.7330     10.7543     10.6497
   195.0000     93.9136    132.0607    -40.7257     10.7650     10.6481
   194.5000     93.6607    131.4409    -33.4375     10.7924     10.6768
   194.0000     93.2198    131.4193    -30.9953     10.8227     10.7273
   193.5000     92.6969    129.8051    -34.7837     10.8607     10.7878
   193.0000     91.9900    128.1022    -40.7700     10.9159     10.8708
   192.5000     91.1706    125.7754    -40.9344     11.0003     10.9684
   192.0000     90.3616    123.7324    -33.3829     11.1193     11.0666
   191.5000     89.5996    124.8674    -23.3072     11.2511     11.1608
   191.0000     89.1173    127.6270    -16.6008     11.3515     11.2212
   190.5000     89.1398    128.5563    -17.9910     11.3983     11.2183
   190.0000     89.5591    127.3218    -28.6041     11.4131     11.1658
   189.5000     90.1377    126.6568    -38.7036     11.4078     11.0941
   189.0000     90.8936    128.7804    -41.4382     11.3370     11.0019
   188.5000     91.9296    131.4549    -42.2529     11.1614     10.8779
   188.0000     93.2521    130.6418    -43.8367     10.9297     10.7236
   187.5000     94.7693    126.9023    -44.5352     10.7104     10.5519
   187.0000     96.3668    124.8361    -43.0846     10.5259     10.3770
   186.5000     97.9582    127.0334    -38.4199     10.3683     10.2084
   186.0000     99.5302    132.6035    -31.4543     10.2313     10.0472
   185.5000    101.2646    138.2558    -27.2286     10.1004      9.8751
   185.0000    103.1833    140.5060    -27.4286      9.9555      9.6915
   184.5000    105.0833    139.2413    -32.4279      9.7915      9.5163
   184.0000    106.8315    136.5442    -40.6135      9.6237      9.3605
   183.5000    108.4780    134.8965    -44.5541      9.4555      9.2185
