~Version Information
 VERS.                1.20:   CWLS log ASCII Standard -VERSION 1.20
 WRAP.                  NO:   One line per frame
~Well Information Block
#MNEM.UNIT       Data Type    Information
#---------    -------------   -------------------------------
 STRT.F           687.0000:   Starting Depth
 STOP.F            -0.7500:   Ending Depth
 STEP.F            -0.5000:   Level Spacing
 NULL.           -999.2500:   Absent Value
 COMP.             COMPANY:   FLUOR DANIEL (NPOSR),INC.
 WELL.                WELL:   51-1 X 3
 FLD .               FIELD:   N.P.R. #3
 LOC .            LOCATION:   3-38N-78W
 CNTY.              COUNTY:   NATRONA
 STAT.               STATE:   WYOMING
 SRVC.     SERVICE COMPANY:   WESTERN ATLAS LOGGING SERVICES
 LIC .      LICENSE NUMBER:   
 DATE.            LOG DATE:   12-DECEMBER-1995
 API .          API NUMBER:   4902522735
~Curve Information Block
#MNEM.UNIT       API Codes    Curve Description
#---------    -------------   -------------------------------
 DEPT.F        0   1  0  1:   Depth
 CILD.MMHO     0 110 46  1:   Conductivity of Deep Induction
 GR  .API      0 310  1  1:   Gamma ray counts
 TEN .LBF      0 635 99  1:   Differential Tension
 RILM.OHMM     0 120 44  1:   Resistivity from CILM
 RILD.OHMM     0 120 46  1:   Resistivity from CILD
#  Curve Data
~A   DEPT        CILD        GR          TEN         RILM        RILD
# ...
   463.0000     42.6602     87.9040     -9.8006     23.7105     23.4410
   462.5000     41.9622     90.0059    -12.2595     23.8787     23.8310
   462.0000     41.0194     91.3294    -20.6375     24.1611     24.3787
   461.5000     39.9583     92.8461    -26.2266     24.4430     25.0261
   461.0000     39.0540     92.9733    -21.2927     24.6846     25.6056
   460.5000     38.4495     89.7090    -14.9355     25.1340     26.0081
   460.0000     38.1559     85.1532    -15.7758     25.9093     26.2083
   459.5000     37.9721     80.7917    -16.7695     26.7392     26.3351
   459.0000     37.8956     77.9844    -13.6057     27.3407     26.3883
   458.5000     38.1216     78.3136    -15.2140     27.6416     26.2319
   458.0000     38.6580     78.5790    -20.0830     27.4389     25.8678
   457.5000     39.5871     77.1307    -19.9979     26.5440     25.2607
   457.0000     41.0634     77.1570    -14.7437     25.2706     24.3526
   456.5000     42.7976     78.7136    -11.8974     24.1093     23.3658
   456.0000     44.3899     78.4383    -15.8600     23.2158     22.5276
   455.5000     45.6956     77.4115    -23.3682     22.5072     21.8839
   455.0000     46.6434     79.1427    -26.0839     21.9048     21.4393
   454.5000     47.2592     82.9697    -21.6812     21.4656     21.1599
   454.0000     47.6152     86.3065    -17.5473     21.2729     21.0017
   453.5000     47.5428     87.7192    -17.2218     21.2959     21.0337
   453.0000     46.8568     86.8660    -17.4009     21.4762     21.3416
   452.5000     45.6390     85.0268    -16.4852     21.8567     21.9111
   452.0000     44.2149     83.0010    -16.0088     22.4457     22.6168
   451.5000     42.9005     80.0415    -16.9174     23.1094     23.3097
   451.0000     41.8222     76.1113    -23.7955     23.7483     23.9108
   450.5000     40.8927     73.0206    -32.9854     24.4672     24.4543
   450.0000     39.9278     72.5665    -33.5125     25.4348     25.0452
   449.5000     38.9393     74.8130    -25.8109     26.4555     25.6810
   449.0000     38.2044     76.8345    -18.4638     26.9463     26.1750
   448.5000     38.1236     75.9055    -15.5297     26.7798     26.2305
   448.0000     38.6814     74.5422    -16.9613     26.5348     25.8522
   447.5000     39.5890     76.3863    -19.5279     26.4827     25.2595
   447.0000     41.0229     79.9480    -21.2927     26.1290     24.3766
   446.5000     43.6038     80.8794    -23.8602     24.8907     22.9338
   446.0000     47.7570     79.1687    -26.4539     22.9001     20.9393
   445.5000     53.1625     79.6073    -27.4902     20.7555     18.8103
   445.0000     58.9663     85.7480    -27.2957     18.8023     16.9588
   444.5000     64.5804     98.5389    -30.6845     16.9870     15.4846
   444.0000     70.0046    114.4690    -37.2243     15.2142     14.2848
   443.5000     75.4488    126.2123    -37.8529     13.6037     13.2540
   443.0000     80.7907    130.9811    -28.7368     12.3449     12.3777
   442.5000     85.5282    131.8432    -21.3195     11.5247     11.6921
   442.0000     88.9957    130.9828    -20.3182     11.1192     11.2365
   441.5000     90.8381    129.5181    -17.4884     11.0458     11.0086
   441.0000     91.2414    130.1279    -11.2100     11.1921     10.9599
   440.5000     90.7978    131.9727    -10.0717     11.4246     11.0135
   440.0000     90.5672    132.7672    -13.4685     11.5888     11.0415
   439.5000     92.0577    132.0269    -15.1426     11.5497     10.8628
   439.0000     96.6603    130.1033    -19.3827     11.2447     10.3455
   438.5000    105.0657    127.8210    -28.7896     10.6732      9.5179
   438.0000    116.4145    125.6193    -35.3821      9.8925      8.5900
   437.5000    127.8136    122.3112    -33.3722      9.0333      7.8239
   437.0000    136.0246    122.1158    -27.4787      8.2694      7.3516
   436.5000    140.2060    129.8336    -23.2349      7.6355      7.1324
   436.0000    142.2878    139.6771    -23.5683      7.0789      7.0280
   435.5000    144.0454    141.4386    -27.1230      6.6376      6.9423
   435.0000    145.1973    134.9603    -28.1936      6.4840      6.8872
   434.5000    143.7767    128.6623    -23.9120      6.7672      6.9552
   434.0000    138.4063    128.6665    -19.4227      7.4562      7.2251
   433.5000    130.7189    132.6314    -19.3114      8.2779      7.6500
   433.0000    124.0013    135.2381    -21.9115      8.8643      8.0644
   432.5000    120.0451    136.5505    -25.6987      9.0607      8.3302
   432.0000    118.7988    137.4487    -26.8763      8.9553      8.4176
   431.5000    119.4418    137.2479    -21.6172      8.7146      8.3723
   431.0000    120.7136    136.9444    -15.3625      8.4728      8.2841
   430.5000    121.7484    138.2611    -15.7368      8.2996      8.2137
   430.0000    122.3589    138.0387    -19.6945      8.2261      8.1727
   429.5000    122.4844    134.8077    -21.4122      8.2541      8.1643
   429.0000    121.8832    132.7902    -21.5260      8.3567      8.2046
   428.5000    120.4628    133.3655    -25.1832      8.4834      8.3013
   428.0000    118.6751    132.6717    -29.1852      8.5831      8.4264
   427.5000    117.2029    131.2574    -28.8149      8.6390      8.5322
   427.0000    116.3600    131.5048    -26.2138      8.6664      8.5940
   426.5000    116.0132    132.6038    -25.9342      8.6833      8.6197
   426.0000    116.0302    133.8581    -26.9132      8.7008      8.6184
   425.5000    116.2686    136.3246    -28.2143      8.7290      8.6008
   425.0000    116.4925    137.8673    -29.8324      8.7678      8.5842
   424.5000    116.5270    138.3933    -31.8347      8.7960      8.5817
   424.0000    116.3907    138.4813    -30.4887      8.7857      8.5917
   423.5000    116.4357    140.2770    -24.8727      8.7421      8.5884
   423.0000    117.1065    144.1255    -19.9711      8.7067      8.5392
   422.5000    118.5037    145.2563    -21.3436      8.6734      8.4386
   422.0000    121.0249    140.6200    -26.0293      8.5688      8.2628
   421.5000    125.8009    136.8969    -27.9429      8.3381      7.9491
   421.0000    133.3197    139.0211    -28.9521      8.0000      7.5008
   420.5000    142.9781    142.9164    -29.7793      7.5944      6.9941
   420.0000    153.7748    145.7314    -24.6254      7.1379      6.5030
   419.5000    163.5177    148.9305    -14.4643      6.6633      6.1155
   419.0000    169.4006    152.8388    -12.1478      6.2450      5.9032
   418.5000    171.2653    154.2733    -17.8895      5.9251      5.8389
   418.0000    171.3382    152.1941    -23.5863      5.6766      5.8364
   417.5000    171.0246    148.9438    -26.5673      5.5024      5.8471
   417.0000    170.0722    145.7808    -25.1485      5.5144      5.8799
   416.5000    166.6197    143.1840    -22.1994      5.8272      6.0017
   416.0000    159.1248    141.8243    -22.6981      6.4050      6.2844
   415.5000    149.5548    140.6304    -23.8043      7.0283      6.6865
   415.0000    141.3295    139.0303    -23.7872      7.4675      7.0757
   414.5000    136.0520    139.2185    -25.2500      7.6607      7.3501
   414.0000    134.0679    140.5652    -25.7588      7.6606      7.4589
   413.5000    135.4927    140.6010    -28.0829      7.5574      7.3805
   413.0000    139.6938    142.4778    -36.4944      7.4089      7.1585
   412.5000    145.8691    147.6305    -41.9268      7.2100      6.8555
   412.0000    153.1956    151.0602    -39.7702      6.9455      6.5276
   411.5000    159.6679    149.1142    -33.9120      6.6600      6.2630
   411.0000    163.4244    144.4944    -30.5528      6.4189      6.1190
   410.5000    164.7317    141.6566    -31.2347      6.2241      6.0705
   410.0000    165.5901    140.4963    -30.1190      6.0309      6.0390
   409.5000    167.4431    140.1300    -24.8663      5.8574      5.9722
   409.0000    170.2592    142.5401    -25.3476      5.7982      5.8734
   408.5000    172.9044    147.6673    -31.6547      5.9111      5.7835
   408.0000    175.0245    151.0549    -33.5024      6.1105      5.7135
   407.5000    177.2963    152.4682    -31.7166      6.2154      5.6403
