~Version Information
 VERS.                1.20:   CWLS log ASCII Standard -VERSION 1.20
 WRAP.                  NO:   One line per frame
~Well Information Block
#MNEM.UNIT       Data Type    Information
#---------    -------------   -------------------------------
 STRT.F           687.0000:   Starting Depth
 STOP.F            -0.7500:   Ending Depth
 STEP.F            -0.5000:   Level Spacing
 NULL.           -999.2500:   Absent Value
 COMP.             COMPANY:   FLUOR DANIEL (NPOSR),INC.
 WELL.                WELL:   51-1 X 3
 FLD .               FIELD:   N.P.R. #3
 LOC .            LOCATION:   3-38N-78W
 CNTY.              COUNTY:   NATRONA
 STAT.               STATE:   WYOMING
 SRVC.     SERVICE COMPANY:   WESTERN ATLAS LOGGING SERVICES
 LIC .      LICENSE NUMBER:   
 DATE.            LOG DATE:   12-DECEMBER-1995
 API .          API NUMBER:   4902522735
~Curve Information Block
#MNEM.UNIT       API Codes    Curve Description
#---------    -------------   -------------------------------
 DEPT.F        0   1  0  1:   Depth
 CILD.MMHO     0 110 46  1:   Conductivity of Deep Induction
 GR  .API      0 310  1  1:   Gamma ray counts
 TEN .LBF      0 635 99  1:   Differential Tension
 RILM.OHMM     0 120 44  1:   Resistivity from CILM
 RILD.OHMM     0 120 46  1:   Resistivity from CILD
#  Curve Data
~A   DEPT        CILD        GR          TEN         RILM        RILD
# ...
   631.0000    146.5224    128.8921    173.2256      7.1208      6.8249
   630.5000    148.0060    133.3310    177.1281      6.8298      6.7565
   630.0000    148.9034    135.1620    176.1317      6.5335      6.7158
   629.5000    149.9647    135.8924    168.5308      6.3644      6.6682
   629.0000    149.9459    135.3943    166.3604      6.4761      6.6691
   628.5000    146.8221    133.2694    173.6807      6.8609      6.8110
   628.0000    140.8246    131.4906    177.2062      7.3407      7.1010
   627.5000    134.5276    130.7858    171.4621      7.7252      7.4334
   627.0000    129.8169    129.7747    162.5836      7.9554      7.7032
   626.5000    126.9280    129.1143    156.4583      8.0576      7.8785
   626.0000    125.4619    130.4853    157.8304      8.0830      7.9705
   625.5000    124.7374    131.1328    162.5388      8.0973      8.0168
   625.0000    124.0558    128.7376    160.5071      8.1436      8.0609
   624.5000    123.1012    125.8400    154.0893      8.2198      8.1234
   624.0000    121.8612    125.9964    154.4004      8.3013      8.2061
   623.5000    120.3294    128.4750    162.1987      8.3835      8.3105
   623.0000    118.6027    131.3069    169.0234      8.4762      8.4315
   622.5000    116.8783    132.6396    169.3217      8.5750      8.5559
   622.0000    115.3661    131.0027    165.9535      8.6741      8.6681
   621.5000    114.1241    127.4467    163.1826      8.7865      8.7624
   621.0000    113.0231    124.3145    158.0104      8.9311      8.8477
   620.5000    111.9510    123.7421    151.5362      9.0913      8.9325
   620.0000    110.9441    126.3182    153.2451      9.2218      9.0136
   619.5000    110.1136    128.9451    160.5830      9.2929      9.0815
   619.0000    109.6525    129.6746    158.9330      9.3196      9.1197
   618.5000    109.6116    130.4835    148.6091      9.3267      9.1231
   618.0000    109.6736    131.2301    140.4732      9.3203      9.1180
   617.5000    109.5574    130.1515    141.3486      9.3072      9.1276
   617.0000    109.2662    128.5706    149.3707      9.2998      9.1520
   616.5000    108.8087    129.3469    154.3952      9.3088      9.1904
   616.0000    108.0963    131.9121    147.8472      9.3480      9.2510
   615.5000    107.0874    132.4550    137.0048      9.4301      9.3382
   615.0000    105.8114    129.8912    132.8000      9.5457      9.4508
   614.5000    104.4268    126.5819    132.8339      9.6778      9.5761
   614.0000    103.1566    122.3538    130.8983      9.8073      9.6940
   613.5000    102.0692    117.4519    131.2930      9.9166      9.7973
   613.0000    101.0405    115.1548    134.0561     10.0179      9.8970
   612.5000     99.9573    115.8943    132.0781     10.1207     10.0043
   612.0000     98.8192    117.9167    126.1785     10.2284     10.1195
   611.5000     97.5981    120.9876    121.9548     10.3317     10.2461
   611.0000     96.3762    122.7804    117.5805     10.4339     10.3760
   610.5000     95.2317    120.3491    111.1981     10.5432     10.5007
   610.0000     94.0067    114.9551    107.9239     10.6900     10.6375
   609.5000     92.5564    110.6256    108.5565     10.8852     10.8042
   609.0000     90.9813    110.4648    111.0779     11.1156     10.9913
   608.5000     89.4410    112.9661    115.3302     11.3480     11.1806
   608.0000     88.0472    113.6268    119.3459     11.5487     11.3575
   607.5000     87.0455    111.4234    116.7637     11.6957     11.4882
   607.0000     86.6840    109.3741    107.2224     11.7693     11.5361
   606.5000     86.7496    109.9337    102.8414     11.7737     11.5274
   606.0000     86.7072    112.1516    107.9770     11.7704     11.5331
   605.5000     86.2746    114.2390    112.7225     11.7887     11.5909
   605.0000     85.7221    114.6969    113.8461     11.7910     11.6656
   604.5000     85.3509    113.8205    118.8567     11.7516     11.7163
   604.0000     85.1328    110.8007    124.0977     11.7300     11.7464
   603.5000     84.9796    106.4669    123.9386     11.7783     11.7675
   603.0000     84.8540    105.5975    120.8578     11.8828     11.7849
   602.5000     84.7608    108.6966    114.1392     11.9941     11.7979
   602.0000     84.7447    110.8771    106.7478     12.0857     11.8002
   601.5000     84.9428    111.3965    105.0334     12.1288     11.7726
   601.0000     85.3533    112.8446    104.4228     12.0820     11.7160
   600.5000     85.8310    114.1080     99.8186     11.9489     11.6508
   600.0000     86.4102    114.8138     96.1860     11.7922     11.5727
   599.5000     87.1999    115.2244     96.4782     11.6609     11.4679
   599.0000     88.0714    115.1553     99.1533     11.5590     11.3544
   598.5000     88.7189    116.5779    103.7588     11.4931     11.2716
   598.0000     89.2199    119.9311    108.6913     11.4593     11.2083
   597.5000     89.9216    121.4499    108.3955     11.4078     11.1208
   597.0000     91.0054    119.1673    100.5634     11.2843     10.9884
   596.5000     92.3494    115.9899     93.0305     11.1165     10.8284
   596.0000     93.7728    114.0874     93.5108     10.9696     10.6641
   595.5000     94.9574    113.4211     97.1754     10.8408     10.5310
   595.0000     95.7451    112.6344     95.3872     10.6778     10.4444
   594.5000     96.4876    113.1988     89.8255     10.4766     10.3640
   594.0000     97.7058    116.0933     87.9275     10.2788     10.2348
   593.5000     99.5095    119.5025     86.9259     10.1102     10.0493
   593.0000    101.6580    120.8266     83.3989      9.9506      9.8369
   592.5000    103.8085    120.4488     85.7395      9.7548      9.6331
   592.0000    105.8647    120.2697     94.9535      9.5260      9.4460
   591.5000    107.8258    119.3874    100.1358      9.3221      9.2742
   591.0000    109.4780    118.1510     96.9891      9.1890      9.1343
   590.5000    110.6860    118.5906     89.1106      9.1166      9.0346
   590.0000    111.9866    121.0286     82.8166      9.0522      8.9296
   589.5000    114.9350    121.4132     84.2977      8.9221      8.7006
   589.0000    121.5753    118.7964     89.2878      8.6536      8.2254
   588.5000    133.3794    116.0492     87.6634      8.1782      7.4974
   588.0000    149.6895    115.2631     82.5742      7.5169      6.6805
   587.5000    166.7854    116.9992     81.7110      6.8235      5.9957
   587.0000    179.8893    122.5238     80.5606      6.2424      5.5590
   586.5000    187.1411    133.7186     74.2797      5.7696      5.3436
   586.0000    190.3902    145.0334     66.7663      5.3236      5.2524
   585.5000    192.1019    145.8518     62.2163      4.9251      5.2056
   585.0000    192.6951    137.0831     62.1556      4.7273      5.1895
   584.5000    189.4872    129.0361     67.2391      4.8862      5.2774
   584.0000    179.3755    125.3600     72.9920      5.4255      5.5749
   583.5000    163.4297    122.3498     73.4614      6.2451      6.1188
   583.0000    146.7010    120.2637     69.5677      7.1306      6.8166
   582.5000    132.9230    121.4787     66.9844      7.8695      7.5232
   582.0000    123.2847    123.8629     68.0055      8.3676      8.1113
   581.5000    117.3726    123.3314     68.3822      8.6616      8.5199
   581.0000    113.7528    120.5137     66.4238      8.8525      8.7910
   580.5000    110.9523    119.0480     65.4277      9.0139      9.0129
   580.0000    108.3955    117.8105     67.7204      9.1720      9.2255
   579.5000    106.0038    115.1626     70.9164      9.3509      9.4336
   579.0000    103.6911    112.8512     73.0084      9.5592      9.6440
   578.5000    101.4100    110.6909     70.8716      9.7722      9.8610
   578.0000     99.3590    108.5216     64.6277      9.9438     10.0645
   577.5000     97.8792    107.6352     59.7190     10.0736     10.2167
   577.0000     97.1402    109.5826     59.9288     10.2012     10.2944
   576.5000     96.8905    112.6344     62.1480     10.3399     10.3209
   576.0000     96.6564    113.6384     62.8614     10.4633     10.3459
   575.5000     96.1847    110.2325     60.0289     10.5592     10.3967
