~Version Information
 VERS.                1.20:   CWLS log ASCII Standard -VERSION 1.20
 WRAP.                  NO:   One line per frame
~Well Information Block
#MNEM.UNIT       Data Type    Information
#---------    -------------   -------------------------------
 STRT.F           687.0000:   Starting Depth
 STOP.F            -0.7500:   Ending Depth
 STEP.F            -0.5000:   Level Spacing
 NULL.           -999.2500:   Absent Value
 COMP.             COMPANY:   FLUOR DANIEL (NPOSR),INC.
 WELL.                WELL:   51-1 X 3
 FLD .               FIELD:   N.P.R. #3
 LOC .            LOCATION:   3-38N-78W
 CNTY.              COUNTY:   NATRONA
 STAT.               STATE:   WYOMING
 SRVC.     SERVICE COMPANY:   WESTERN ATLAS LOGGING SERVICES
 LIC .      LICENSE NUMBER:   
 DATE.            LOG DATE:   12-DECEMBER-1995
 API .          API NUMBER:   4902522735
~Curve Information Block
#MNEM.UNIT       API Codes    Curve Description
#---------    -------------   -------------------------------
 DEPT.F        0   1  0  1:   Depth
 CILD.MMHO     0 110 46  1:   Conductivity of Deep Induction
 GR  .API      0 310  1  1:   Gamma ray counts
 TEN .LBF      0 635 99  1:   Differential Tension
 RILM.OHMM     0 120 44  1:   Resistivity from CILM
 RILD.OHMM     0 120 46  1:   Resistivity from CILD
#  Curve Data
~A   DEPT        CILD        GR          TEN         RILM        RILD
# ...
   127.0000    145.3657    124.1450    -37.5858      7.1462      6.8792
   126.5000    144.9332    127.6630    -37.7681      7.1369      6.8997
   126.0000    144.5814    131.5983    -34.4812      7.0976      6.9165
   125.5000    144.2168    132.6637    -28.9460      7.0763      6.9340
   125.0000    143.4703    130.3069    -27.5751      7.0908      6.9701
   124.5000    141.9778    128.8126    -32.3934      7.1366      7.0434
   124.0000    139.7744    129.7427    -39.2471      7.2194      7.1544
   123.5000    137.0476    129.1692    -42.3971      7.3468      7.2967
   123.0000    134.0550    125.4211    -41.4260      7.5073      7.4596
   122.5000    131.1644    124.3917    -39.9181      7.6840      7.6240
   122.0000    128.7733    127.5283    -40.4897      7.8666      7.7656
   121.5000    127.0707    128.7583    -40.1850      8.0443      7.8696
   121.0000    126.0659    127.0999    -35.7960      8.1912      7.9324
   120.5000    125.6843    126.2600    -30.3698      8.2724      7.9564
   120.0000    125.8440    124.3921    -29.1937      8.2617      7.9463
   119.5000    126.4988    121.4274    -29.8949      8.1675      7.9052
   119.0000    127.4251    121.0155    -30.0642      8.0370      7.8477
   118.5000    128.3041    122.9842    -33.8928      7.9270      7.7940
   118.0000    129.0051    124.8140    -39.9571      7.8668      7.7516
   117.5000    129.4608    125.4720    -41.0033      7.8445      7.7243
   117.0000    129.7147    126.0800    -35.3056      7.8418      7.7092
   116.5000    130.0203    127.5564    -28.8008      7.8600      7.6911
   116.0000    130.5154    130.4126    -25.6856      7.8935      7.6619
   115.5000    131.0512    131.5882    -26.1775      7.9137      7.6306
   115.0000    131.5593    131.3215    -29.5362      7.8946      7.6011
   114.5000    132.2850    132.9355    -35.8875      7.8345      7.5594
   114.0000    133.3040    134.5557    -41.3400      7.7520      7.5017
   113.5000    134.3512    129.7389    -42.5338      7.6646      7.4432
   113.0000    135.2867    121.8378    -41.4004      7.5798      7.3917
   112.5000    136.2650    119.7140    -38.3211      7.5059      7.3386
   112.0000    137.1999    122.2029    -28.8811      7.4624      7.2886
   111.5000    137.6489    123.2383    -20.2059      7.4612      7.2649
   111.0000    137.3112    123.2511    -22.1845      7.4878      7.2827
   110.5000    136.3956    124.0377    -29.4014      7.5094      7.3316
   110.0000    135.4576    125.4063    -31.6017      7.5134      7.3824
   109.5000    134.6478    127.6419    -29.7046      7.5249      7.4268
   109.0000    133.6207    129.9320    -30.0394      7.5823      7.4839
   108.5000    132.0912    128.2374    -34.7895      7.6950      7.5705
   108.0000    130.1608    122.7849    -40.1801      7.8335      7.6828
   107.5000    128.2035    119.7476    -40.6223      7.9592      7.8001
   107.0000    126.5574    121.0330    -38.6917      8.0673      7.9016
   106.5000    125.2141    123.0676    -38.1784      8.1736      7.9863
   106.0000    124.0959    124.5481    -39.2928      8.2783      8.0583
   105.5000    123.1522    125.6066    -40.6745      8.3675      8.1200
   105.0000    122.4260    126.7747    -40.7876      8.4291      8.1682
   104.5000    122.1338    127.9311    -39.0748      8.4468      8.1877
   104.0000    122.5386    127.0131    -41.4458      8.4044      8.1607
   103.5000    123.6812    124.2031    -50.0093      8.3135      8.0853
   103.0000    125.4510    124.0914    -57.6465      8.2102      7.9712
   102.5000    127.4304    127.5173    -58.3444      8.1164      7.8474
   102.0000    129.0123    131.0302    -54.9232      8.0272      7.7512
   101.5000    130.0341    130.6785    -50.7544      7.9299      7.6903
   101.0000    130.9459    125.9759    -45.6350      7.8183      7.6367
   100.5000    132.2565    121.9084    -36.8696      7.7003      7.5611
   100.0000    134.1285    122.5854    -24.7050      7.5972      7.4555
    99.5000    136.3315    125.3812    -16.9312      7.5293      7.3351
    99.0000    138.3309    126.5938    -19.0659      7.4950      7.2290
    98.5000    139.8034    128.3986    -25.3928      7.4596      7.1529
    98.0000    141.0513    131.9316    -28.6029      7.3751      7.0896
    97.5000    142.5975    133.3145    -28.2970      7.2304      7.0127
    97.0000    144.5667    130.5172    -28.3604      7.0621      6.9172
    96.5000    146.6160    128.8022    -30.1416      6.9210      6.8205
    96.0000    148.1644    129.5428    -31.7703      6.8397      6.7493
    95.5000    148.7438    129.0677    -30.5943      6.8186      6.7230
    95.0000    148.3376    129.4369    -29.2763      6.8349      6.7414
    94.5000    147.3403    132.9804    -28.9067      6.8675      6.7870
    94.0000    146.1502    133.3951    -30.4396      6.9158      6.8423
    93.5000    144.8559    127.0620    -32.9485      6.9871      6.9034
    93.0000    143.3865    121.5975    -31.3101      7.0770      6.9742
    92.5000    141.9265    123.0789    -27.5052      7.1678      7.0459
    92.0000    140.8918    129.2699    -28.6117      7.2382      7.0976
    91.5000    140.6244    133.6335    -31.6352      7.2751      7.1111
    91.0000    141.2076    133.6201    -30.3441      7.2735      7.0818
    90.5000    142.4764    131.4685    -28.6075      7.2326      7.0187
    90.0000    144.1839    131.7259    -26.8586      7.1555      6.9356
    89.5000    146.1283    134.1841    -22.2202      7.0524      6.8433
    89.0000    148.0064    134.6089    -19.0668      6.9322      6.7565
    88.5000    149.5933    132.8068    -20.9541      6.8067      6.6848
    88.0000    151.0174    132.8335    -22.6630      6.7005      6.6218
    87.5000    152.3803    135.1978    -21.3402      6.6382      6.5625
    87.0000    153.5512    135.6732    -22.6246      6.6218      6.5125
    86.5000    154.5913    133.1759    -26.2218      6.6303      6.4687
    86.0000    156.0395    129.3201    -26.6838      6.6329      6.4086
    85.5000    158.5716    126.9824    -24.8334      6.5985      6.3063
    85.0000    162.3788    125.7157    -24.5253      6.5016      6.1584
    84.5000    166.6614    126.2690    -27.0889      6.3482      6.0002
    84.0000    170.0739    130.7994    -30.1846      6.1803      5.8798
    83.5000    171.3582    135.7880    -30.3219      6.0399      5.8357
    83.0000    169.8176    134.1618    -28.9829      5.9506      5.8887
    82.5000    165.8948    129.1075    -30.0995      5.9290      6.0279
    82.0000    160.6943    126.9568    -32.1617      5.9994      6.2230
    81.5000    154.7776    124.6714    -32.2303      6.2034      6.4609
    81.0000    147.8621    119.7209    -29.4462      6.5927      6.7631
    80.5000    139.8326    117.0634    -24.8450      7.1813      7.1514
    80.0000    131.2773    116.3883    -21.2926      7.8758      7.6175
    79.5000    123.6471    111.7416    -21.5824      8.4686      8.0875
    79.0000    118.4216    104.7694    -25.0018      8.7998      8.4444
    78.5000    115.7040    101.4964    -29.0918      8.9077      8.6427
    78.0000    114.3727    101.3989    -30.2258      8.9278      8.7433
    77.5000    113.4205    101.3074    -26.8058      8.9444      8.8167
    77.0000    112.3144    102.2166    -22.2613      8.9802      8.9036
    76.5000    110.8164    103.7537    -22.1052      9.0392      9.0239
    76.0000    108.9638    105.9435    -27.4866      9.1365      9.1774
    75.5000    106.8750    108.4790    -32.8503      9.2942      9.3567
    75.0000    104.4529    109.5536    -31.7401      9.5128      9.5737
    74.5000    101.5198    107.9069    -27.7272      9.7651      9.8503
    74.0000     98.2655    106.0298    -28.5465     10.0309     10.1765
    73.5000     95.0453    105.4517    -35.2071     10.3050     10.5213
    73.0000     92.0911    106.1089    -39.6820     10.6055     10.8588
    72.5000     89.5471    105.9622    -39.3294     10.9274     11.1673
    72.0000     87.5042    103.8791    -35.2775     11.2553     11.4280
    71.5000     85.8309    102.4862    -30.0654     11.5954     11.6508
