~Version Information
 VERS.                1.20:   CWLS log ASCII Standard -VERSION 1.20
 WRAP.                  NO:   One line per frame
~Well Information Block
#MNEM.UNIT       Data Type    Information
#---------    -------------   -------------------------------
 STRT.F           687.0000:   Starting Depth
 STOP.F            -0.7500:   Ending Depth
 STEP.F            -0.5000:   Level Spacing
 NULL.           -999.2500:   Absent Value
 COMP.             COMPANY:   FLUOR DANIEL (NPOSR),INC.
 WELL.                WELL:   51-1 X 3
 FLD .               FIELD:   N.P.R. #3
 LOC .            LOCATION:   3-38N-78W
 CNTY.              COUNTY:   NATRONA
 STAT.               STATE:   WYOMING
 SRVC.     SERVICE COMPANY:   WESTERN ATLAS LOGGING SERVICES
 LIC .      LICENSE NUMBER:   
 DATE.            LOG DATE:   12-DECEMBER-1995
 API .          API NUMBER:   4902522735
~Curve Information Block
#MNEM.UNIT       API Codes    Curve Description
#---------    -------------   -------------------------------
 DEPT.F        0   1  0  1:   Depth
 CILD.MMHO     0 110 46  1:   Conductivity of Deep Induction
 GR  .API      0 310  1  1:   Gamma ray counts
 TEN .LBF      0 635 99  1:   Differential Tension
 RILM.OHMM     0 120 44  1:   Resistivity from CILM
 RILD.OHMM     0 120 46  1:   Resistivity from CILD
#  Curve Data
~A   DEPT        CILD        GR          TEN         RILM        RILD
# ...
   351.0000    110.8627    124.7260    -26.8327      9.4337      9.0202
   350.5000    110.8628    123.9096    -32.0820      9.4335      9.0202
   350.0000    111.3318    126.9662    -36.4408      9.4125      8.9822
   349.5000    112.0320    130.5921    -34.2802      9.3606      8.9260
   349.0000    112.8534    131.3130    -32.0076      9.2764      8.8611
   348.5000    113.7042    130.7605    -38.0091      9.1795      8.7948
   348.0000    114.4800    131.5454    -44.5178      9.0758      8.7351
   347.5000    115.2665    133.5623    -41.9332      8.9699      8.6755
   347.0000    116.3011    135.1038    -36.9291      8.8708      8.5984
   346.5000    117.6757    134.4490    -34.9926      8.7808      8.4979
   346.0000    119.1708    131.2175    -31.7395      8.6881      8.3913
   345.5000    120.4931    128.7491    -27.9478      8.5835      8.2992
   345.0000    121.5851    129.8600    -28.2137      8.4781      8.2247
   344.5000    122.6243    131.8180    -31.4440      8.3920      8.1550
   344.0000    123.6249    130.2145    -33.4939      8.3188      8.0890
   343.5000    124.6392    127.2033    -32.5264      8.2299      8.0232
   343.0000    126.2326    127.4825    -30.8141      8.1185      7.9219
   342.5000    129.1487    130.8051    -34.2573      7.9948      7.7430
   342.0000    133.8432    133.9731    -39.1236      7.8332      7.4714
   341.5000    140.5856    134.8534    -35.1345      7.5753      7.1131
   341.0000    148.5145    133.9320    -22.6716      7.2356      6.7333
   340.5000    155.1969    130.5389    -16.4038      6.9162      6.4434
   340.0000    158.9064    126.6324    -22.4611      6.6699      6.2930
   339.5000    160.2280    124.4952    -30.8074      6.4342      6.2411
   339.0000    160.7109    125.2060    -33.0702      6.1629      6.2224
   338.5000    161.2050    127.5768    -31.8508      5.9560      6.2033
   338.0000    160.8395    130.2001    -33.3112      5.9713      6.2174
   337.5000    157.6466    132.2018    -37.9106      6.2586      6.3433
   337.0000    151.2494    133.0935    -39.1980      6.7165      6.6116
   336.5000    143.5292    133.5719    -33.6897      7.1821      6.9672
   336.0000    136.5034    134.5228    -27.6068      7.5549      7.3258
   335.5000    131.0841    134.8575    -24.7861      7.8084      7.6287
   335.0000    127.3815    132.9731    -25.4809      7.9568      7.8504
   334.5000    125.0088    131.0237    -26.8461      8.0555      7.9994
   334.0000    123.3843    131.1768    -25.9158      8.1637      8.1048
   333.5000    122.0539    132.0826    -26.8860      8.2959      8.1931
   333.0000    120.7174    131.6195    -32.3273      8.4288      8.2838
   332.5000    119.4688    131.2069    -36.1208      8.5350      8.3704
   332.0000    118.6449    130.6870    -34.5666      8.5964      8.4285
   331.5000    118.4715    127.3086    -34.2838      8.6074      8.4409
   331.0000    119.0304    122.7484    -37.0731      8.5808      8.4012
   330.5000    120.4236    122.3403    -37.3042      8.5290      8.3040
   330.0000    122.8138    125.3157    -34.9213      8.4401      8.1424
   329.5000    126.4150    127.0665    -35.5746      8.2812      7.9105
   329.0000    131.2206    126.8483    -35.6036      8.0406      7.6208
   328.5000    136.2294    127.4287    -32.3684      7.7704      7.3406
   328.0000    139.9156    130.1647    -30.3887      7.5449      7.1472
   327.5000    141.6904    133.4401    -28.7899      7.3700      7.0576
   327.0000    142.0482    135.0335    -24.4198      7.1883      7.0399
   326.5000    141.7512    134.1765    -22.5313      6.9958      7.0546
   326.0000    141.1619    130.2496    -25.1957      6.9009      7.0841
   325.5000    139.5668    125.3870    -27.7898      7.0133      7.1650
   325.0000    136.0229    124.5152    -29.4895      7.3358      7.3517
   324.5000    130.8120    128.0751    -32.2992      7.7814      7.6446
   324.0000    125.0123    130.4297    -36.1428      8.2400      7.9992
   323.5000    119.6597    128.0422    -39.6192      8.6202      8.3570
   323.0000    115.5328    125.1738    -39.9818      8.8828      8.6555
   322.5000    112.7624    125.7963    -35.9601      9.0511      8.8682
   322.0000    110.7799    126.7108    -28.8567      9.1770      9.0269
   321.5000    109.1677    126.0994    -22.0808      9.3058      9.1602
   321.0000    107.7862    126.9955    -21.8767      9.4513      9.2776
   320.5000    106.5082    128.1404    -26.2876      9.5881      9.3890
   320.0000    105.1733    125.5012    -26.1711      9.7021      9.5081
   319.5000    103.7232    122.2194    -25.3769      9.8102      9.6410
   319.0000    102.1572    122.7328    -32.5481      9.9376      9.7888
   318.5000    100.5337    126.0999    -38.4669     10.0762      9.9469
   318.0000     99.0328    130.1068    -31.9728     10.2055     10.0977
   317.5000     97.7326    132.1694    -19.3391     10.3211     10.2320
   317.0000     96.7808    131.8311    -13.5033     10.4330     10.3326
   316.5000     96.2997    131.5094    -18.2164     10.5474     10.3842
   316.0000     96.1989    132.0625    -26.3002     10.6598     10.3951
   315.5000     96.3540    131.4635    -30.4604     10.7352     10.3784
   315.0000     96.8053    129.6729    -29.7927     10.7377     10.3300
   314.5000     97.5551    126.4635    -24.9048     10.6703     10.2506
   314.0000     98.6006    122.5442    -19.6054     10.5523     10.1419
   313.5000    100.0937    121.3504    -16.0762     10.3887      9.9906
   313.0000    102.1405    122.1566    -14.0202     10.1872      9.7904
   312.5000    104.3973    121.4614    -17.0403      9.9631      9.5788
   312.0000    106.7313    119.6899    -27.9554      9.7299      9.3693
   311.5000    109.4452    118.9586    -38.6883      9.4924      9.1370
   311.0000    112.5923    119.1675    -38.1460      9.2405      8.8816
   310.5000    115.6065    119.3471    -28.5675      8.9952      8.6500
   310.0000    117.8663    120.5267    -24.4503      8.7977      8.4842
   309.5000    119.2345    122.4377    -28.3388      8.6374      8.3868
   309.0000    119.8991    124.9522    -27.0602      8.4693      8.3403
   308.5000    120.1186    126.0705    -17.3063      8.3100      8.3251
   308.0000    119.9303    123.6749    -12.7954      8.2408      8.3382
   307.5000    118.9972    119.0061    -20.4219      8.3117      8.4036
   307.0000    117.1888    117.5443    -29.3169      8.4989      8.5332
   306.5000    114.8281    118.1620    -30.5107      8.7480      8.7087
   306.0000    112.2767    115.5688    -27.3246      9.0128      8.9066
   305.5000    109.7981    112.4601    -24.8718      9.2553      9.1076
   305.0000    107.6214    114.2771    -25.6526      9.4444      9.2918
   304.5000    105.7436    117.6043    -30.8913      9.5819      9.4568
   304.0000    104.0175    118.6367    -36.2749      9.7014      9.6138
   303.5000    102.6231    117.0936    -35.1311      9.8168      9.7444
   303.0000    101.8417    112.4339    -29.4886      9.8937      9.8192
   302.5000    101.6911    107.3538    -25.8341      9.9361      9.8337
   302.0000    101.7833    107.5264    -25.9561     10.0104      9.8248
   301.5000    101.7498    112.1439    -25.6740     10.1235      9.8280
   301.0000    101.6559    115.7388    -21.8566     10.1753      9.8371
   300.5000    101.8378    117.8059    -18.9801     10.0792      9.8195
   300.0000    102.4205    120.6341    -23.5024      9.8941      9.7637
   299.5000    103.1524    121.2073    -32.6405      9.7452      9.6944
   299.0000    103.6958    119.0404    -39.0912      9.6975      9.6436
   298.5000    103.8065    118.5134    -41.2092      9.7388      9.6333
   298.0000    103.4322    119.7737    -38.8472      9.8235      9.6682
   297.5000    102.7370    119.5384    -34.3970      9.9071      9.7336
   297.0000    101.9806    117.4856    -32.8119      9.9772      9.8058
   296.5000    101.3355    116.4605    -33.8965     10.0383      9.8682
   296.0000    100.8025    117.8981    -33.7287     10.0886      9.9204
   295.5000    100.2832    119.6951    -32.4447     10.1373      9.9718
