~Version Information
 VERS.                1.20:   CWLS log ASCII Standard -VERSION 1.20
 WRAP.                  NO:   One line per frame
~Well Information Block
#MNEM.UNIT       Data Type    Information
#---------    -------------   -------------------------------
 STRT.F           687.0000:   Starting Depth
 STOP.F            -0.7500:   Ending Depth
 STEP.F            -0.5000:   Level Spacing
 NULL.           -999.2500:   Absent Value
 COMP.             COMPANY:   FLUOR DANIEL (NPOSR),INC.
 WELL.                WELL:   51-1 X 3
 FLD .               FIELD:   N.P.R. #3
 LOC .            LOCATION:   3-38N-78W
 CNTY.              COUNTY:   NATRONA
 STAT.               STATE:   WYOMING
 SRVC.     SERVICE COMPANY:   WESTERN ATLAS LOGGING SERVICES
 LIC .      LICENSE NUMBER:   
 DATE.            LOG DATE:   12-DECEMBER-1995
 API .          API NUMBER:   4902522735
~Curve Information Block
#MNEM.UNIT       API Codes    Curve Description
#---------    -------------   -------------------------------
 DEPT.F        0   1  0  1:   Depth
 CILD.MMHO     0 110 46  1:   Conductivity of Deep Induction
 GR  .API      0 310  1  1:   Gamma ray counts
 TEN .LBF      0 635 99  1:   Differential Tension
 RILM.OHMM     0 120 44  1:   Resistivity from CILM
 RILD.OHMM     0 120 46  1:   Resistivity from CILD
#  Curve Data
~A   DEPT        CILD        GR          TEN         RILM        RILD
# ...
   575.0000     95.5231    106.0677     55.7168     10.6361     10.4687
   574.5000     94.9086    104.9940     53.8301     10.6844     10.5365
   574.0000     94.4916    105.4518     54.8308     10.7124     10.5830
   573.5000     94.1360    105.9437     56.4399     10.7385     10.6229
   573.0000     93.7124    107.2568     59.8001     10.7983     10.6709
   572.5000     93.3080    108.2909     64.6216     10.8867     10.7172
   572.0000     92.9108    108.4264     64.1299     10.9666     10.7630
   571.5000     92.5405    109.6144     55.8113     11.0186     10.8061
   571.0000     92.2892    113.4008     48.0762     11.0709     10.8355
   570.5000     92.1314    116.0167     49.5927     11.1304     10.8541
   570.0000     91.9534    112.8650     52.6735     11.1711     10.8751
   569.5000     91.8062    105.7019     49.5521     11.1702     10.8925
   569.0000     91.8507    101.8183     45.9833     11.1456     10.8872
   568.5000     92.0691    103.7262     45.5554     11.1322     10.8614
   568.0000     92.2597    106.2644     42.2535     11.1251     10.8390
   567.5000     92.2390    106.3472     38.9714     11.0931     10.8414
   567.0000     92.0872    106.0199     42.9952     11.0341     10.8593
   566.5000     91.9367    105.8599     48.0817     10.9895     10.8770
   566.0000     91.7257    104.2272     48.4618     11.0058     10.9021
   565.5000     91.3660    101.3940     47.8576     11.0846     10.9450
   565.0000     90.8849     99.3409     46.2725     11.1919     11.0029
   564.5000     90.3301     98.9133     43.9401     11.2947     11.0705
   564.0000     89.7011     99.2855     45.0842     11.3799     11.1481
   563.5000     89.0932     99.6405     47.1130     11.4481     11.2242
   563.0000     88.5702    100.3960     46.3106     11.5043     11.2905
   562.5000     88.0539    101.1860     44.7575     11.5529     11.3567
   562.0000     87.5477    101.0662     42.2553     11.5946     11.4223
   561.5000     87.1301    101.1117     37.1127     11.6350     11.4771
   561.0000     86.8198    100.9848     33.7321     11.6794     11.5181
   560.5000     86.5833     99.0087     34.1075     11.7293     11.5496
   560.0000     86.4010     96.6520     34.2295     11.7834     11.5739
   559.5000     86.2351     97.4915     30.7968     11.8400     11.5962
   559.0000     86.1203    100.4968     29.7381     11.8811     11.6117
   558.5000     86.1298    101.0482     36.3947     11.8839     11.6104
   558.0000     86.2706     97.5294     44.7359     11.8498     11.5914
   557.5000     86.5271     94.9527     45.2797     11.7978     11.5571
   557.0000     86.8228     96.1808     41.6194     11.7421     11.5177
   556.5000     87.0286     97.7801     43.6373     11.6995     11.4905
   556.0000     87.0525     95.1433     48.2940     11.6833     11.4873
   555.5000     86.9457     90.7409     45.8586     11.6880     11.5014
   555.0000     86.8695     89.8054     37.0395     11.6950     11.5115
   554.5000     86.8250     92.6464     29.6673     11.7050     11.5174
   554.0000     86.6714     95.3746     27.4765     11.7312     11.5378
   553.5000     86.3790     95.8882     30.9151     11.7718     11.5769
   553.0000     86.0073     94.9447     36.5247     11.8175     11.6269
   552.5000     85.5921     93.6611     36.4819     11.8708     11.6833
   552.0000     85.2444     93.0983     34.8923     11.9280     11.7310
   551.5000     84.9503     92.8786     39.1690     11.9814     11.7716
   551.0000     84.4750     92.9182     42.9117     12.0443     11.8378
   550.5000     83.7646     94.3656     39.8784     12.1242     11.9382
   550.0000     82.9820     95.4206     34.8115     12.2197     12.0508
   549.5000     82.2811     94.8139     29.6869     12.3193     12.1535
   549.0000     81.6915     94.1287     22.6969     12.4188     12.2412
   548.5000     81.0091     94.1774     20.7007     12.5253     12.3443
   548.0000     79.9146     93.4175     24.6425     12.6416     12.5134
   547.5000     78.3150     92.2229     28.9335     12.7741     12.7689
   547.0000     76.4604     91.6132     30.4256     12.9474     13.0787
   546.5000     74.7184     92.4772     27.3893     13.1584     13.3836
   546.0000     73.3034     96.6104     21.2414     13.3934     13.6419
   545.5000     72.0147    100.3183     20.9514     13.7079     13.8860
   545.0000     70.5698     99.2366     27.8758     14.1463     14.1704
   544.5000     68.9876     96.7596     34.5730     14.6139     14.4954
   544.0000     67.5327     95.9255     35.8747     14.9380     14.8077
   543.5000     66.4027     94.0302     33.9724     15.0677     15.0596
   543.0000     65.5667     90.2690     34.0606     15.1306     15.2516
   542.5000     64.7849     88.7693     37.2009     15.2795     15.4357
   542.0000     63.8810     89.4445     38.0579     15.5062     15.6541
   541.5000     62.9629     89.3676     35.2174     15.6968     15.8824
   541.0000     62.2336     88.2753     29.3993     15.8419     16.0685
   540.5000     61.5560     88.4612     23.3789     16.0548     16.2454
   540.0000     60.8156     90.1742     22.8250     16.3388     16.4431
   539.5000     60.2406     93.4571     25.3046     16.5618     16.6001
   539.0000     59.8735     96.8671     23.2105     16.6829     16.7019
   538.5000     59.4682     96.4232     20.4503     16.7436     16.8157
   538.0000     59.0518     92.7882     21.0099     16.7448     16.9343
   537.5000     58.8210     90.0503     22.4965     16.7572     17.0007
   537.0000     58.6486     88.9166     24.2024     16.8804     17.0507
   536.5000     58.3754     88.4013     26.6158     17.1057     17.1305
   536.0000     57.9473     88.8090     27.1728     17.3704     17.2571
   535.5000     57.3324     89.6595     25.5862     17.6529     17.4421
   535.0000     56.7067     90.8343     22.6395     17.8846     17.6346
   534.5000     56.2923     92.2434     20.0266     17.9901     17.7644
   534.0000     56.1001     92.9051     20.9953     17.9854     17.8253
   533.5000     55.9429     92.0661     24.6318     17.9965     17.8754
   533.0000     55.6586     89.5063     23.7891     18.1293     17.9667
   532.5000     55.2043     87.3535     18.1545     18.3373     18.1145
   532.0000     54.6615     87.7190     15.0182     18.4997     18.2944
   531.5000     54.1737     88.6266     18.3217     18.5912     18.4592
   531.0000     53.8008     88.2816     20.9745     18.6969     18.5871
   530.5000     53.4915     88.4515     19.6874     18.8737     18.6945
   530.0000     53.0971     88.4408     19.3690     19.0895     18.8334
   529.5000     52.5258     86.5203     23.8284     19.3138     19.0383
   529.0000     51.6838     84.3926     26.5557     19.6089     19.3484
   528.5000     50.4083     83.5942     22.4974     20.0288     19.8380
   528.0000     48.8619     82.7020     18.9030     20.5016     20.4659
   527.5000     47.4334     80.3639     19.2925     20.9564     21.0822
   527.0000     46.2948     76.6965     19.1619     21.5072     21.6007
   526.5000     45.3263     73.9804     18.6992     22.3564     22.0622
   526.0000     44.3471     74.5785     21.3649     23.5224     22.5494
   525.5000     43.2953     78.6190     22.4819     24.6365     23.0972
   525.0000     42.4621     83.8610     21.1173     25.1799     23.5504
   524.5000     42.2582     86.8750     21.1026     25.0631     23.6640
   524.0000     42.6771     84.7107     23.1187     24.6278     23.4318
   523.5000     43.4359     80.9239     26.6366     24.1356     23.0224
   523.0000     44.2111     81.4144     28.3199     23.6758     22.6188
   522.5000     44.6062     85.2424     23.1123     23.3877     22.4184
   522.0000     44.3566     86.0695     16.1058     23.3911     22.5445
   521.5000     43.5325     83.0336     12.7215     23.6067     22.9713
   521.0000     42.4257     80.9360     10.2422     23.8853     23.5706
   520.5000     41.3736     82.1956     10.0595     24.2407     24.1700
   520.0000     40.5638     83.7111     12.7734     24.8867     24.6525
   519.5000     39.8873     81.4165     14.2621     25.9816     25.0706
