~Version Information
 VERS.                1.20:   CWLS log ASCII Standard -VERSION 1.20
 WRAP.                  NO:   One line per frame
~Well Information Block
#MNEM.UNIT       Data Type    Information
#---------    -------------   -------------------------------
 STRT.F           687.0000:   Starting Depth
 STOP.F            -0.7500:   Ending Depth
 STEP.F            -0.5000:   Level Spacing
 NULL.           -999.2500:   Absent Value
 COMP.             COMPANY:   FLUOR DANIEL (NPOSR),INC.
 WELL.                WELL:   51-1 X 3
 FLD .               FIELD:   N.P.R. #3
 LOC .            LOCATION:   3-38N-78W
 CNTY.              COUNTY:   NATRONA
 STAT.               STATE:   WYOMING
 SRVC.     SERVICE COMPANY:   WESTERN ATLAS LOGGING SERVICES
 LIC .      LICENSE NUMBER:   
 DATE.            LOG DATE:   12-DECEMBER-1995
 API .          API NUMBER:   4902522735
~Curve Information Block
#MNEM.UNIT       API Codes    Curve Description
#---------    -------------   -------------------------------
 DEPT.F        0   1  0  1:   Depth
 CILD.MMHO     0 110 46  1:   Conductivity of Deep Induction
 GR  .API      0 310  1  1:   Gamma ray counts
 TEN .LBF      0 635 99  1:   Differential Tension
 RILM.OHMM     0 120 44  1:   Resistivity from CILM
 RILD.OHMM     0 120 46  1:   Resistivity from CILD
#  Curve Data
~A   DEPT        CILD        GR          TEN         RILM        RILD
# ...
    71.0000     84.2559    103.5111    -25.3336     11.9364     11.8686
    70.5000     82.7165    103.7709    -25.3607     12.1914     12.0895
    70.0000     81.5484    101.3943    -31.1146     12.2657     12.2627
    69.5000     81.2514     99.3511    -35.1973     12.1738     12.3075
    69.0000     82.3440     98.6316    -33.0782     12.0140     12.1442
    68.5000     86.3234     98.9371    -30.5805     11.8931     11.5843
    68.0000     93.3667    101.3334    -31.6669     11.8735     10.7105
    67.5000     98.7834    104.3853    -32.2967     11.9431     10.1232
    67.0000     98.8197    105.0448    -31.1219     12.0292     10.1194
    66.5000     94.5240    104.0525    -31.1304     12.0541     10.5793
    66.0000     87.0034    103.1610    -32.9370     12.0182     11.4938
    65.5000     80.4744    101.1336    -35.5099     12.1786     12.4263
    65.0000     81.5571     97.9723    -38.2559     13.8580     12.2614
    64.5000     85.3673     95.9446    -38.4913     18.9153     11.7141
    64.0000     82.8674     97.7702    -36.3005     23.9962     12.0675
    63.5000     75.8843    102.1524    -34.0722     21.5284     13.1780
    63.0000     72.2955    105.7384    -33.0172     19.6997     13.8321
    62.5000     75.0990    106.1358    -35.3376     23.7902     13.3157
    62.0000     68.0529    103.4237    -37.5336     43.6690     14.6945
    61.5000     20.0145    100.5099    -36.9145    126.1457     49.9638
    61.0000    -43.9236    100.5280    -36.1080     74.0832  10000.0000
    60.5000    -72.3100    101.9319    -38.0506     31.3629  10000.0000
    60.0000    -51.0551    101.1490    -37.0465     24.8940  10000.0000
    59.5000     22.8106    100.2050    -34.2448     18.0275     43.8393
    59.0000    160.2399    100.5487    -30.2353      8.3776      6.2406
    58.5000    229.5793    102.1719    -27.0413      5.6339      4.3558
    58.0000    168.9084    103.8124    -28.5651      7.7626      5.9204
    57.5000    130.6701    100.4383    -31.7981  10000.0000      7.6529
    57.0000    206.7818     89.0930    -29.3004  10000.0000      4.8360
    56.5000    304.9258     75.6615    -25.9308  10000.0000      3.2795
    56.0000    303.3069     67.1031    -30.3036  10000.0000      3.2970
    55.5000    182.9419     64.0657    -37.8923  10000.0000      5.4662
    55.0000     64.2168     64.3341    -40.4756  10000.0000     15.5723
    54.5000     42.8610     65.2503    -38.9653  10000.0000     23.3312
    54.0000     71.9427     65.2234    -37.5385  10000.0000     13.8999
    53.5000     81.1336     63.9352    -35.7643  10000.0000     12.3254
    53.0000     74.3816     62.2148    -34.0664  10000.0000     13.4442
    52.5000     62.2151     63.0767    -33.3066  10000.0000     16.0733
    52.0000     52.6577     66.0859    -30.6571  10000.0000     18.9906
    51.5000     53.5791     68.6903    -25.5511  10000.0000     18.6640
    51.0000     57.4779     68.8932    -22.3339  10000.0000     17.3980
    50.5000     53.8643     66.9301    -23.6775  10000.0000     18.5652
    50.0000     46.1734     64.4149    -25.7347  10000.0000     21.6575
    49.5000     39.5069     64.4250    -26.1983  10000.0000     25.3120
    49.0000     31.7423     66.8141    -28.9552  10000.0000     31.5037
    48.5000     22.7940     66.9681    -34.7581  10000.0000     43.8713
    48.0000     16.0756     63.6961    -38.5834  10000.0000     62.2062
    47.5000     16.2251     60.9387    -39.1159  10000.0000     61.6330
    47.0000     28.6989     62.5891    -37.3030  10000.0000     34.8445
    46.5000     43.9937     68.5745    -33.7842  10000.0000     22.7305
    46.0000     43.5956     75.3519    -29.3825  10000.0000     22.9381
    45.5000     27.1160     78.0550    -24.3777  10000.0000     36.8787
    45.0000     11.6727     74.7653    -19.9439  10000.0000     85.6701
    44.5000     12.4443     69.3054    -17.3386  10000.0000     80.3582
    44.0000     30.9685     64.9020    -17.8291  10000.0000     32.2908
    43.5000     55.0610     61.2991    -22.1262  10000.0000     18.1617
    43.0000     70.2396     58.2464    -28.2329  10000.0000     14.2370
    42.5000     76.5123     57.6513    -31.6837  10000.0000     13.0698
    42.0000     79.7759     58.8107    -30.3518  10000.0000     12.5351
    41.5000     74.9865     59.9383    -28.8927  10000.0000     13.3357
    41.0000     53.2488     59.8689    -28.9869  10000.0000     18.7798
    40.5000     22.7688     58.7231    -26.5731  10000.0000     43.9197
    40.0000      4.4710     58.1325    -21.6614  10000.0000    223.6637
    39.5000      5.1691     59.2128    -19.9189  10000.0000    193.4581
    39.0000     18.7781     61.0933    -21.9463  10000.0000     53.2536
    38.5000     34.6319     63.0783    -23.5375  10000.0000     28.8751
    38.0000     36.4903     64.9146    -23.8818  10000.0000     27.4045
    37.5000     19.6177     67.0552    -23.3368  10000.0000     50.9743
    37.0000     -2.2237     71.0983    -21.7273  10000.0000  10000.0000
    36.5000    -17.0615     76.7165    -21.7761  10000.0000  10000.0000
    36.0000    -23.5707     80.4065    -26.2221  10000.0000  10000.0000
    35.5000    -18.1029     81.9808    -31.5532  10000.0000  10000.0000
    35.0000      1.8566     84.3594    -34.0651  10000.0000    538.6255
    34.5000     29.9079     87.0011    -35.6551  10000.0000     33.4360
    34.0000     47.1225     87.1365    -37.6342  10000.0000     21.2213
    33.5000     41.8935     83.7729    -38.0250  10000.0000     23.8701
    33.0000     22.1888     76.7861    -36.4161  10000.0000     45.0678
    32.5000     -0.6272     67.7831    -32.0948  10000.0000  10000.0000
    32.0000    -18.3219     62.1815    -25.9439  10000.0000  10000.0000
    31.5000    -21.1227     62.4280    -24.1929    981.5325  10000.0000
    31.0000     -3.3145     65.1729    -30.2789   1082.5005  10000.0000
    30.5000     21.9230     66.1307    -36.8321   1120.7991     45.6143
    30.0000     28.3156     65.0256    -37.6794   1225.8984     35.3163
    29.5000     15.2530     63.7287    -33.8440   1273.9836     65.5609
    29.0000      4.0831     64.1074    -29.3190   1233.2549    244.9092
    28.5000      2.4745     65.0947    -25.4568   1189.1411    404.1167
    28.0000      2.4963     66.0184    -23.3578   1170.9141    400.5991
    27.5000      1.8746     68.7197   -250.0000   1158.6812    533.4397
    27.0000      1.7051     72.3120   -250.0000   1159.6511    586.4792
    26.5000      1.8606     73.2010   -250.0000   1207.7361    537.4619
    26.0000      2.5192     70.7908   -250.0000   1270.2583    396.9583
    25.5000      3.8305     68.0303   -250.0000   1283.8362    261.0657
    25.0000      0.0000     66.2428   -250.0000   1260.2024      0.2000
    24.5000      0.0000     65.8630   -250.0000   1229.1257      0.2000
    24.0000      0.0000     67.4362   -250.0000   1210.9702      0.2000
    23.5000      0.0000     71.4692   -250.0000   1222.5530      0.2000
    23.0000      0.0000     75.5654   -250.0000   1250.7627      0.2000
    22.5000      0.0000     77.0136   -250.0000   1234.1365      0.2000
    22.0000      0.0000     76.2019   -250.0000   1177.8850      0.2000
    21.5000      0.0000     76.0071   -250.0000      0.2000      0.2000
    21.0000      0.0000     75.2325   -250.0000      0.2000      0.2000
    20.5000      0.0000     71.5813   -250.0000      0.2000      0.2000
    20.0000      0.0000     67.8809   -250.0000      0.2000      0.2000
    19.5000      0.0000     68.2282   -250.0000      0.2000      0.2000
    19.0000      0.0000     70.5555   -250.0000      0.2000      0.2000
    18.5000      0.0000     71.8074   -250.0000      0.2000      0.2000
    18.0000      0.0000     72.5107   -250.0000      0.2000      0.2000
    17.5000      0.0000     73.9830   -250.0000      0.2000      0.2000
    17.0000      0.0000     75.6389   -250.0000      0.2000      0.2000
    16.5000      0.0000     75.5908   -250.0000      0.2000      0.2000
    16.0000      0.0000     70.9763   -250.0000      0.2000      0.2000
    15.5000      0.0000     58.5339   -250.0000      0.2000      0.2000
