~Version Information
 VERS.                1.20:   CWLS log ASCII Standard -VERSION 1.20
 WRAP.                  NO:   One line per frame
~Well Information Block
#MNEM.UNIT       Data Type    Information
#---------    -------------   -------------------------------
 STRT.F           687.0000:   Starting Depth
 STOP.F            -0.7500:   Ending Depth
 STEP.F            -0.5000:   Level Spacing
 NULL.           -999.2500:   Absent Value
 COMP.             COMPANY:   FLUOR DANIEL (NPOSR),INC.
 WELL.                WELL:   51-1 X 3
 FLD .               FIELD:   N.P.R. #3
 LOC .            LOCATION:   3-38N-78W
 CNTY.              COUNTY:   NATRONA
 STAT.               STATE:   WYOMING
 SRVC.     SERVICE COMPANY:   WESTERN ATLAS LOGGING SERVICES
 LIC .      LICENSE NUMBER:   
 DATE.            LOG DATE:   12-DECEMBER-1995
 API .          API NUMBER:   4902522735
~Curve Information Block
#MNEM.UNIT       API Codes    Curve Description
#---------    -------------   -------------------------------
 DEPT.F        0   1  0  1:   Depth
 CILD.MMHO     0 110 46  1:   Conductivity of Deep Induction
 GR  .API      0 310  1  1:   Gamma ray counts
 TEN .LBF      0 635 99  1:   Differential Tension
 RILM.OHMM     0 120 44  1:   Resistivity from CILM
 RILD.OHMM     0 120 46  1:   Resistivity from CILD
#  Curve Data
~A   DEPT        CILD        GR          TEN         RILM        RILD
   687.0000      0.0000      0.0000   -250.0000      0.2000      0.2000
   686.5000      0.0000      0.0000   -250.0000      0.2000      0.2000
   686.0000      0.0000      0.0000   -250.0000      0.2000      0.2000
   685.5000      0.0000      0.0000   -250.0000      0.2000      0.2000
   685.0000      0.0000      0.0000   -250.0000      0.2000      0.2000
   684.5000      0.0000      0.0000   -250.0000      0.2000      0.2000
   684.0000      0.0000      0.0000   -250.0000      0.2000      0.2000
   683.5000      0.0000      0.0000   -250.0000      0.2000      0.2000
   683.0000      0.0000      0.0000   -250.0000      0.2000      0.2000
   682.5000      0.0000      0.0000   -250.0000      0.2000      0.2000
   682.0000      0.0000      0.0000   -250.0000      0.2000      0.2000
   681.5000      0.0000      0.0000   -250.0000      0.2000      0.2000
   681.0000      0.0000      0.0000   -250.0000      0.2000      0.2000
   680.5000      0.0000      0.0000   -250.0000      0.2000      0.2000
   680.0000      0.0000      0.0000   -250.0000      0.2000      0.2000
   679.5000      0.0000      0.0000   -250.0000      0.2000      0.2000
   679.0000      0.0000      0.0000   -250.0000      0.2000      0.2000
   678.5000      0.0000      0.0000   -250.0000      0.2000      0.2000
   678.0000      0.0000      0.0000   -250.0000      0.2000      0.2000
   677.5000      0.0000      0.0000   -250.0000      0.2000      0.2000
   677.0000      0.0000      0.0000   -278.6763      0.2000      0.2000
   676.5000      0.0000      0.0000   -273.3728      0.2000      0.2000
   676.0000      0.0000      0.0000   -263.5530      0.2000      0.2000
   675.5000      0.0000      0.0000   -251.2547      0.2000      0.2000
   675.0000      0.0000      0.0000   -243.1069      0.2000      0.2000
   674.5000      0.0000      0.0000   -241.3065      0.2000      0.2000
   674.0000      0.0000      0.0000   -239.4179      0.2000      0.2000
   673.5000      0.0000      0.0000   -230.6318      0.2000      0.2000
   673.0000      0.0000      0.0000   -213.7446      0.2000      0.2000
   672.5000      0.0000      0.0000   -198.8917      0.2000      0.2000
   672.0000      0.0000      0.0000   -195.0917      0.2000      0.2000
   671.5000      0.0000      0.0000   -196.8378      0.2000      0.2000
   671.0000      0.0000      0.0000   -195.9109      7.9448      0.2000
   670.5000      0.0000      0.0000   -191.9160      7.9464      0.2000
   670.0000      0.0000      0.0000   -184.4472      7.9488      0.2000
   669.5000      0.0000      0.0000   -174.2135      7.9476      0.2000
   669.0000      0.0000      0.0000   -164.7729      7.9422      0.2000
   668.5000      0.0000      0.0000   -144.1729      7.9380      0.2000
   668.0000      0.0000      0.0000    -72.0395      7.9380      0.2000
   667.5000      0.0000      0.0000     63.3607      7.9397      0.2000
   667.0000      0.0000      0.0000    202.3101      7.9410      0.2000
   666.5000      0.0000      0.0000    282.5845      7.9391      0.2000
   666.0000      0.0000      0.0000    305.9448      7.9350      0.2000
   665.5000      0.0000      0.0000    306.4980      7.9343      0.2000
   665.0000      0.0000      0.0000    301.7598      7.9371      0.2000
   664.5000      0.0000      0.0000    300.6599      7.9353      0.2000
   664.0000      0.0000      0.0000    301.1709      7.9275      0.2000
   663.5000      0.0000      0.0000    302.5505      7.9222      0.2000
   663.0000      0.0000      0.0000    301.2224      7.9251      0.2000
   662.5000      0.0000      0.0000    293.9761      7.9324      0.2000
   662.0000      0.0000      0.0000    289.8994      7.9371      0.2000
   661.5000      0.0000      0.0000    293.8906      7.9370      0.2000
   661.0000    135.0855      0.0000    294.1726      7.9329      7.4027
   660.5000    132.8805      0.0000    286.0642      7.9175      7.5256
   660.0000    131.3413      0.0000    278.7339      7.8810      7.6138
   659.5000    130.6107      0.0000    272.9092      7.8220      7.6563
   659.0000    130.8244      0.0000    269.0833      7.7388      7.6438
   658.5000    132.2049      0.0000    270.0171      7.6159      7.5640
   658.0000    135.4721      0.0000    272.1726      7.4381      7.3816
   657.5000    141.8184      0.0000    269.8801      7.1932      7.0513
   657.0000    153.0330      0.0000    267.1655      6.8503      6.5345
   656.5000    172.1274      0.0000    266.6243      6.3515      5.8096
   656.0000    201.2120      0.0000    266.8853      5.6923      4.9699
   655.5000    238.3716      0.0000    265.8621      4.9826      4.1951
   655.0000    281.4158      0.0000    262.1943      4.3133      3.5535
   654.5000    324.9768      0.0000    253.5074      3.7261      3.0771
   654.0000    363.0891      0.0000    243.9453      3.2107      2.7541
   653.5000    390.7969    121.9016    242.4319      2.7979      2.5589
   653.0000    406.9885    120.8223    249.6232      2.5187      2.4571
   652.5000    411.7410    121.0527    255.7166      2.3619      2.4287
   652.0000    403.6809    124.2583    251.0027      2.3282      2.4772
   651.5000    382.7461    129.0320    238.0467      2.4313      2.6127
   651.0000    349.7795    131.8480    229.9297      2.7050      2.8589
   650.5000    306.2646    130.9340    231.9720      3.1918      3.2652
   650.0000    258.1760    127.9049    235.8678      3.8992      3.8733
   649.5000    216.5932    124.8179    234.9561      4.7647      4.6169
   649.0000    183.7597    121.2337    232.4518      5.6356      5.4419
   648.5000    160.0211    120.2021    231.1722      6.3678      6.2492
   648.0000    144.5121    124.0575    231.8283      6.9019      6.9198
   647.5000    134.2874    128.0630    234.9976      7.2985      7.4467
   647.0000    126.7180    127.4536    237.9472      7.6399      7.8915
   646.5000    120.3464    124.9669    236.8562      7.9735      8.3093
   646.0000    114.8097    124.7210    229.5289      8.3168      8.7101
   645.5000    110.2306    125.1085    219.7420      8.6630      9.0719
   645.0000    106.6835    123.8895    216.3764      8.9948      9.3735
   644.5000    104.1487    122.0260    220.5647      9.2910      9.6017
   644.0000    102.8925    121.8823    223.9105      9.5228      9.7189
   643.5000    103.0016    122.8940    219.9403      9.6726      9.7086
   643.0000    103.9601    124.2993    214.9146      9.7497      9.6191
   642.5000    105.1114    126.2652    214.2676      9.7835      9.5137
   642.0000    105.9910    127.1643    211.7038      9.8021      9.4348
   641.5000    106.3777    126.8590    205.0139      9.8072      9.4005
   641.0000    106.3946    126.6192    202.8719      9.7810      9.3990
   640.5000    106.3164    126.8625    207.0553      9.7237      9.4059
   640.0000    106.0996    126.1353    208.5730      9.6777      9.4251
   639.5000    105.5793    125.6270    205.1085      9.6800      9.4716
   639.0000    104.8139    126.5825    201.0892      9.7201      9.5407
   638.5000    104.0348    128.4431    199.7845      9.7713      9.6122
   638.0000    103.4732    130.7646    198.9737      9.8333      9.6643
   637.5000    103.3050    133.0675    195.1991      9.8971      9.6801
   637.0000    103.4384    133.1179    191.0202      9.9252      9.6676
   636.5000    103.6492    128.9808    188.2880      9.8999      9.6479
   636.0000    104.0201    124.9922    183.5325      9.8484      9.6135
   635.5000    104.8281    125.1996    178.4082      9.7953      9.5394
   635.0000    106.0592    127.6056    177.8043      9.7179      9.4287
   634.5000    107.7451    129.0756    178.5823      9.5775      9.2812
   634.0000    110.3929    130.6664    175.5562      9.3651      9.0586
   633.5000    114.5495    131.6613    174.4319      9.0960      8.7298
   633.0000    120.5697    130.5219    179.1237      8.7592      8.2940
   632.5000    128.3590    127.4019    181.7147      8.3288      7.7906
   632.0000    136.5549    124.4921    177.7993      7.8515      7.3231
   631.5000    142.9666    124.6777    173.2814      7.4360      6.9946
