~Version Information
 VERS.                1.20:   CWLS log ASCII Standard -VERSION 1.20
 WRAP.                  NO:   One line per frame
~Well Information Block
#MNEM.UNIT       Data Type    Information
#---------    -------------   -------------------------------
 STRT.F           687.0000:   Starting Depth
 STOP.F            -0.7500:   Ending Depth
 STEP.F            -0.5000:   Level Spacing
 NULL.           -999.2500:   Absent Value
 COMP.             COMPANY:   FLUOR DANIEL (NPOSR),INC.
 WELL.                WELL:   51-1 X 3
 FLD .               FIELD:   N.P.R. #3
 LOC .            LOCATION:   3-38N-78W
 CNTY.              COUNTY:   NATRONA
 STAT.               STATE:   WYOMING
 SRVC.     SERVICE COMPANY:   WESTERN ATLAS LOGGING SERVICES
 LIC .      LICENSE NUMBER:   
 DATE.            LOG DATE:   12-DECEMBER-1995
 API .          API NUMBER:   4902522735
~Curve Information Block
#MNEM.UNIT       API Codes    Curve Description
#---------    -------------   -------------------------------
 DEPT.F        0   1  0  1:   Depth
 CILD.MMHO     0 110 46  1:   Conductivity of Deep Induction
 GR  .API      0 310  1  1:   Gamma ray counts
 TEN .LBF      0 635 99  1:   Differential Tension
 RILM.OHMM     0 120 44  1:   Resistivity from CILM
 RILD.OHMM     0 120 46  1:   Resistivity from CILD
#  Curve Data
~A   DEPT        CILD        GR          TEN         RILM        RILD
# ...
   519.0000     39.1904     76.4127     12.8134     27.3581     25.5165
   518.5000     38.5078     74.4026     12.0057     28.4576     25.9687
   518.0000     38.0454     77.9451     13.3682     28.7390     26.2844
   517.5000     37.9875     81.1977     16.3535     28.1885     26.3244
   517.0000     38.4110     79.4675     19.5584     27.3129     26.0342
   516.5000     39.2586     77.3827     17.6119     26.5579     25.4722
   516.0000     40.5378     78.8524      9.5993     25.9137     24.6683
   515.5000     42.6473     81.6716      2.4665     25.0947     23.4481
   515.0000     46.0140     83.4313      2.4458     23.9047     21.7325
   514.5000     50.6648     84.6880      6.4782     22.3762     19.7376
   514.0000     56.2561     87.2972      9.6606     20.5387     17.7758
   513.5000     62.4907     92.5264     10.6960     18.4972     16.0024
   513.0000     69.0019     99.7679      7.8409     16.4485     14.4924
   512.5000     75.4487    104.9707      5.4281     14.5272     13.2540
   512.0000     81.7048    105.2851      8.5098     12.8880     12.2392
   511.5000     87.6029    104.4388     14.6488     11.6747     11.4151
   511.0000     92.6952    105.0959     14.4841     10.8995     10.7880
   510.5000     96.5500    104.9391      5.5714     10.4571     10.3573
   510.0000     98.9826    103.8086     -2.5071     10.2429     10.1028
   509.5000    100.0788    104.4407      0.4300     10.1605      9.9921
   509.0000    100.2365    106.0045      6.0774     10.1495      9.9764
   508.5000     99.9665    106.0766      1.4914     10.1737     10.0034
   508.0000     99.6369    104.8559     -4.8599     10.1940     10.0364
   507.5000     99.1967    103.6478     -3.7054     10.1960     10.0810
   507.0000     98.4145    102.5502      1.0580     10.2232     10.1611
   506.5000     97.3425    101.1981      4.9742     10.3022     10.2730
   506.0000     96.1731    100.7231      5.4086     10.4099     10.3979
   505.5000     94.8743    100.8340      0.5694     10.5269     10.5403
   505.0000     93.4165    100.4110     -4.4039     10.6660     10.7047
   504.5000     91.9825     98.7487     -4.6631     10.8347     10.8716
   504.0000     90.5672     96.3779     -0.8503     11.0231     11.0415
   503.5000     89.0758     95.7674      1.2953     11.2113     11.2264
   503.0000     87.7672     96.2692     -1.0474     11.3644     11.3938
   502.5000     87.0296     95.4010     -2.0386     11.4532     11.4903
   502.0000     86.9276     93.4836     -0.0296     11.4884     11.5038
   501.5000     87.1928     93.9557      0.0540     11.5107     11.4688
   501.0000     87.5352     97.6524     -2.1936     11.5197     11.4240
   500.5000     87.9141    102.5524     -3.0845     11.4628     11.3747
   500.0000     88.4748    105.1598     -2.6062     11.3100     11.3027
   499.5000     89.2195    104.6950     -0.9089     11.1091     11.2083
   499.0000     90.0553    104.1140      0.2306     10.9396     11.1043
   498.5000     90.7897    104.9755      0.6188     10.8356     11.0145
   498.0000     91.0846    105.8488      0.1132     10.7796     10.9788
   497.5000     90.7408    105.0942     -1.9941     10.7596     11.0204
   497.0000     89.9242    103.5804     -0.3812     10.7825     11.1205
   496.5000     88.8669    102.7627      6.3788     10.8412     11.2528
   496.0000     87.8916    101.3643      8.6406     10.9228     11.3776
   495.5000     87.0656     97.4732      2.3558     11.0135     11.4856
   495.0000     86.1634     92.1339     -5.0758     11.0888     11.6059
   494.5000     85.1072     88.9419     -7.9151     11.2099     11.7499
   494.0000     84.0798     89.5441     -9.3946     11.4699     11.8935
   493.5000     83.0058     91.5281     -9.6776     11.7960     12.0474
   493.0000     81.8548     91.8573     -7.0357     11.9861     12.2168
   492.5000     80.6479     91.6175     -2.0148     12.0583     12.3996
   492.0000     79.1552     91.8837      0.8314     12.1944     12.6334
   491.5000     77.3013     91.8659     -0.2437     12.4506     12.9364
   491.0000     75.4211     92.0440     -5.2716     12.7290     13.2589
   490.5000     73.6162     92.5013     -8.1298     13.0073     13.5840
   490.0000     71.5362     91.8597     -4.1321     13.3490     13.9789
   489.5000     69.1933     91.9445     -1.6211     13.8121     14.4523
   489.0000     66.9267     95.0198     -3.3208     14.4091     14.9417
   488.5000     64.9527     98.6997     -1.5229     15.0699     15.3958
   488.0000     63.2173     99.9482      0.4483     15.6574     15.8185
   487.5000     62.0581     98.5912     -5.2570     16.1245     16.1139
   487.0000     61.5277     97.1158    -13.5246     16.5392     16.2528
   486.5000     61.3036     95.2365    -18.1231     16.7392     16.3122
   486.0000     61.1992     92.3487    -18.0798     16.6061     16.3401
   485.5000     61.4529     90.9577    -11.2688     16.5154     16.2726
   485.0000     61.5644     92.7647     -4.1727     16.8251     16.2431
   484.5000     61.0696     94.3391     -2.4061     17.1683     16.3748
   484.0000     60.3311     94.2914     -1.6369     17.2417     16.5752
   483.5000     59.7510     95.8552     -1.4039     17.3143     16.7361
   483.0000     59.1711     98.7710     -5.1884     17.5640     16.9001
   482.5000     58.6757    100.3920     -8.1960     17.8213     17.0428
   482.0000     58.1104     99.4117     -7.0211     18.1414     17.2086
   481.5000     56.7586     97.0660     -6.2409     18.5998     17.6185
   481.0000     54.4741     94.7389     -8.4018     19.1458     18.3573
   480.5000     51.8373     93.0759     -8.9569     19.7502     19.2911
   480.0000     49.3606     91.0352     -5.4217     20.4713     20.2591
   479.5000     47.2189     88.2512     -3.3541     21.3629     21.1780
   479.0000     45.6161     86.4383     -5.6550     22.4093     21.9221
   478.5000     44.5399     84.9819     -5.4308     23.5985     22.4518
   478.0000     43.9188     84.8781     -3.3943     24.7780     22.7693
   477.5000     43.7281     87.9529     -5.5903     25.4337     22.8686
   477.0000     44.0557     90.5442    -10.6588     25.0792     22.6985
   476.5000     44.9268     89.5274    -13.7720     23.8701     22.2584
   476.0000     46.3668     88.5681    -15.4016     22.3869     21.5671
   475.5000     48.2083     88.6994    -17.4628     21.1587     20.7433
   475.0000     49.9851     88.6649    -20.9230     20.4075     20.0060
   474.5000     51.2463     89.8429    -23.7473     20.0624     19.5136
   474.0000     51.9870     91.6437    -22.2863     19.9163     19.2356
   473.5000     52.4946     91.7793    -14.9090     19.8177     19.0496
   473.0000     52.9661     90.4551     -6.3391     19.7133     18.8800
   472.5000     53.4174     89.0720     -6.9619     19.5735     18.7205
   472.0000     53.7874     89.3836    -12.1692     19.3728     18.5917
   471.5000     54.0451     91.6289     -9.2607     19.1328     18.5031
   471.0000     54.3136     93.6127     -3.8863     18.9218     18.4116
   470.5000     54.6545     93.5201     -5.2399     18.7778     18.2967
   470.0000     54.9469     92.8356     -6.4751     18.7107     18.1994
   469.5000     55.1069     94.9697     -3.4987     18.6851     18.1466
   469.0000     55.1694     99.4019     -0.9092     18.6527     18.1260
   468.5000     55.0349    101.0349      0.0820     18.6388     18.1703
   468.0000     54.5211     98.1846     -2.8124     18.7200     18.3415
   467.5000     53.6124     95.0225    -10.5271     18.8828     18.6524
   467.0000     52.4576     93.4103    -14.8023     19.0903     19.0630
   466.5000     51.2480     93.7646    -12.1146     19.3830     19.5130
   466.0000     50.0098     94.7719     -9.7835     19.8094     19.9961
   465.5000     48.6657     93.4617    -10.1528     20.3974     20.5483
   465.0000     47.2014     90.4019    -11.7696     21.1648     21.1858
   464.5000     45.7129     88.9262    -13.9745     22.0683     21.8757
   464.0000     44.3617     88.0383    -15.7597     22.9226     22.5420
   463.5000     43.3438     86.7740    -12.9451     23.4808     23.0713
