~Version Information Block
 VERS.                1.20:     CWLS LOG ASCII STANDARD - VERSION 1.20
 WRAP.                  NO:     One Line Per Depth Step
     
~Well Information Block
#MNEM.UNIT       Data Type     Information
#컴컴컴컴컴    컴컴컴컴컴컴�   컴컴컴컴컴컴컴컴컴컴컴컴컴컴컴컴컴컴컴컴컴컴�
 STRT.FT            0.0000:
 STOP.FT         5650.0000:
 STEP.FT            0.5000:
 NULL.          -9999.0000:
 COMP.             COMPANY:    FLUOR DANIEL (NPOSR)INC.
 WELL.                WELL:    75-X-10                 
 FLD .               FIELD:    N.P.R. # 3              
 LOC .            LOCATION:    SEC 10 T38N R78W                        
 CNTY.              COUNTY:    NATRONA                       
 STAT.               STATE:    WYOMING   
 SRVC.     SERVICE COMPANY:    WESTERN ATLAS                        
 DATE.                DATE:    07/04/1996
 UWI .      UNIQUE WELL ID:          10.0
 API .          API NUMBER:    4902522807                
     
~Curve Information Block
#MNEM.UNIT       API CODE      Curve Description
#컴컴컴컴컴    컴컴컴컴컴컴�   컴컴컴컴컴컴컴컴컴컴컴컴컴컴컴컴컴컴컴컴컴컴�
 DEPTH.F        95 995 99 1:   Depth                                                        
 GR  .API       31 310 01 1:   Gamma Ray Counts                                             
 CAL .IN        28 280 99 1:   Caliper                                                      
 RD  .OHMM      22 220 10 1:   Logarithmic Resistivity from ED, ID                          
 RS  .OHMM      22 220 09 1:   Logarithmic Resistivity from ES, IS                          
 CNC .%         95 995 99 1:   Corrected Neutron Porosity from CN                           
 PORZ.%         95 890 99 1:   Porosity from Z-Densilog                                     
 ZDEN.G/C3      95 350 01 1:   Z-Densilog Bulk Density                                      
 PE  .BARN      95 358 01 1:   Photo Electric Cross Section                                 
 ZCOR.G/C3      39 356 99 1:   Z-Densilog Bulk Density Correction                           
 SP  .MV        95 010 01 1:   Spontaneous Potential from Tool Electrode                    
 CDLL.MMHO      95 995 99 1:   Conductivity from RD                                         
     
~Parameter Information Block
#MNEM.UNIT         Value       Description
#컴컴컴컴컴    컴컴컴컴컴컴�   컴컴컴컴컴컴컴컴컴컴컴컴컴컴컴컴컴컴컴컴컴컴�
 EKB .FT            0.0000:    ELEVATION KELLY BUSHING
 EGL .FT            0.0000:    ELEVATION GROUND LEVEL
 RUN .              1.0000:    RUN NUMBER
 SON .               00000:    SERVICE ORDER NUMBER
 DD  .FT            0.0000:    DEPTH-DRILLER
 DL  .FT            0.0000:    DEPTH-LOGGER
 BLI .FT            0.0000:    BOTTOM LOGGED INTERVAL
 TLI .FT            0.0000:    TOP LOGGED INTERVAL
 CS  .  IN          0.0000:    CASING SIZE 
 CDD .FT            0.0000:    CASING DEPTH-DRILLER
 CDL .FT            0.0000:    CASING DEPTH-LOGGER
 BS  .IN            0.0000:    BIT SIZE
 DFT .               LIGNO:    MUD TYPE   
 DFD .LB/G          0.0000:    MUD WEIGHT
 DFV .S             0.0000:    MUD VISCOSITY
 DFPH.              0.0000:    MUD PH
 DFL .CC            0.0000:    MUD FLUID LOSS
 RMS .           FLOW LINE:    MUD SAMPLE SOURCE
 RM  .OHMM          0.0000:    MUD RESISTIVITY          
 RMT .DEGF          0.0000:    RM TEMPERATURE
 RMBH.OHMM          0.0000:    MUD RESISTIVITY AT BHT
 BHT .DEGF          0.0000:    BOTTOM HOLE TEMPERATURE
 RMFS.            MEASURED:    MUD FILTRATE SOURCE
 RMF .OHMM          0.0000:    MUD FILTRATE RESISTIVITY
 RMFT.DEGF          0.0000:    RMF TEMPERATURE
 RMCS.            MEASURED:    MUD CAKE SOURCE
 RMC .OHMM          0.0000:    MUD CAKE RESISTIVITY
 RMCT.DEGF          0.0000:    RMC TEMPERATURE
     
#      Computation Parameters Used
#MNEM.UNIT         Value       Description
#컴컴컴컴컴    컴컴컴컴컴컴�   컴컴컴컴컴컴컴컴컴컴컴컴컴컴컴컴컴컴컴컴컴컴�
 MDEN.G/CC          2.6500:    LOGGING MATRIX DENSITY
 MATR.              1.0000:    NEUTRON MATRIX (0=LIME,1=SAND,2=DOLO)
 FNUM.              0.6200:    TORTUOSITY CONSTANT ARCHIES (a)
 FEXP.              2.1500:    CEMENTATION EXPONENT ARCHIES (m)
     
~Other Information
     
#컴컴컴컴컴컴컴컴컴컴컴컴컴컴컴컴컴컴컴컴컴컴컴컴컴컴컴컴컴컴컴컴컴컴컴컴컴컴컴�
# In Making Interpretations Of Logs Our Employees Will Give Customer The Benefit
# Of Their Best Judgement,  But  Since All Interpretations Are Opinions Based On
# Inferences From Electrical Or  Other  Measurements,  We Cannot,  And We Do Not
# Guarantee The Accuracy Or  Correctness Of Any Interpretation.  We Shall Not Be
# Liable Or  Responsible For Any Loss,  Cost,  Damages, Or  Expenses  Whatsoever
# Incurred Or  Sustained By The Customer  Resulting  From Any Interpretaion Made
# By Any Of Our Employees.  ATLAS WIRELINE SERVICES-WESTERN ATLAS INTERNATIONAL
#컴컴컴컴컴컴컴컴컴컴컴컴컴컴컴컴컴컴컴컴컴컴컴컴컴컴컴컴컴컴컴컴컴컴컴컴컴컴컴�
     
~A  DEPTH      GR        CAL       RD        RS        CNC       PORZ      ZDEN      PE        ZCOR      SP        CDLL      
# ...
  5610.000     0.000     8.648   136.462   119.315   -10.000     0.129     2.648     3.697     0.022     0.000     7.328 
  5610.500     0.000     8.648   154.000   132.587   -10.000    -1.067     2.668     3.728     0.038     0.000     6.494 
  5611.000     0.000     8.648   189.857   159.879   -10.000    -2.911     2.698     3.750     0.059     0.000     5.267 
  5611.500     0.000     8.641   249.164   203.618   -10.000    -4.848     2.730     3.764     0.075     0.000     4.013 
  5612.000     0.000     8.632   320.765   253.161   -10.000    -5.832     2.746     3.692     0.070     0.000     3.118 
  5612.500     0.000     8.632   363.172   279.668   -10.000    -5.319     2.738     3.605     0.042     0.000     2.754 
  5613.000     0.000     8.641   350.608   269.315   -10.000    -4.034     2.717     3.548     0.019     0.000     2.852 
  5613.500     0.000     8.648   309.711   239.962   -10.000    -2.953     2.699     3.680     0.013     0.000     3.229 
  5614.000     0.000     8.648   271.292   212.117   -10.000    -2.212     2.686     3.996     0.013     0.000     3.686 
  5614.500     0.000     8.648   239.688   189.300   -10.000    -1.440     2.674     4.230     0.011     0.000     4.172 
  5615.000     0.000     8.645   215.196   171.219   -10.000    -0.562     2.659     4.115     0.009     0.000     4.647 
  5615.500     0.000     8.626   200.792   159.603   -10.000    -0.013     2.650     3.757     0.022     0.000     4.980 
  5616.000     0.000     8.592   196.409   154.499   -10.000    -0.008     2.650     3.496     0.053     0.000     5.091 
  5616.500     0.000     8.563   200.504   154.970   -10.000    -0.275     2.655     3.555     0.085     0.000     4.987 
  5617.000     0.000     8.553   211.603   160.221   -10.000    -0.462     2.658     3.923     0.093     0.000     4.726 
  5617.500     0.000     8.553   230.013   170.723   -10.000    -0.478     2.658     4.319     0.084     0.000     4.348 
  5618.000     0.000     8.553   261.165   190.436   -10.000    -0.623     2.660     4.412     0.078     0.000     3.829 
  5618.500     0.000     8.553   310.143   223.283   -10.000    -1.045     2.667     4.189     0.082     0.000     3.224 
  5619.000     0.000     8.553   369.066   265.522   -10.000    -1.609     2.677     3.865     0.090     0.000     2.710 
  5619.500     0.000     8.553   421.613   307.716   -10.000    -2.151     2.685     3.632     0.093     0.000     2.372 
  5620.000     0.000     8.553   455.257   340.374   -10.000    -2.512     2.691     3.533     0.094     0.000     2.197 
  5620.500     0.000     8.553   451.588   347.125   -10.000    -2.628     2.693     3.501     0.094     0.000     2.214 
  5621.000     0.000     8.553   399.700   317.007   -10.000    -2.557     2.692     3.501     0.091     0.000     2.502 
  5621.500     0.000     8.553   321.268   263.450   -10.000   -10.000     2.000     3.516    -1.500     0.000     3.113 
  5622.000     0.000     8.553   252.915   212.806   -10.000   -10.000     2.000     0.000    -1.500     0.000     3.954 
  5622.500     0.000     8.553   208.772   178.284   -10.000   -10.000     2.000     0.000    -1.500     0.000     4.790 
  5623.000     0.000     8.553   185.258   159.250   -10.000   -10.000     2.000     0.000    -1.500     0.000     5.398 
  5623.500     0.000     8.553   176.667   152.065   -10.000   -10.000     2.000     0.000    -1.500     0.000     5.660 
  5624.000     0.000     8.553   180.554   154.861   -10.000   -10.000     2.000     0.000    -1.500     0.000     5.539 
  5624.500     0.000     8.553   197.082   167.495   -10.000   -10.000     2.000     0.000    -1.500     0.000     5.074 
  5625.000     0.000     8.553   224.386   188.000   -10.000   -10.000     2.000     0.000    -1.500     0.000     4.457 
  5625.500     0.000     8.553   253.515   208.635   -10.000   -10.000     2.000     0.000    -1.500     0.000     3.945 
  5626.000     0.000     6.000   276.558   222.933   -10.000   -10.000     2.000     0.000    -1.500     0.000     3.616 
  5626.500     0.000     6.000   300.248   236.417   -10.000   -10.000     2.000     0.000    -1.500     0.000     3.331 
  5627.000     0.000     6.000   337.218   258.375   -10.000   -10.000     2.000     0.000    -1.500     0.000     2.965 
  5627.500     0.000     6.000   403.068   299.591   -10.000   -10.000     2.000     0.000    -1.500     0.000     2.481 
  5628.000     0.000     6.000   517.912   375.422   -10.000   -10.000     2.000     0.000    -1.500     0.000     1.931 
  5628.500     0.000     6.000   670.743   484.496   -10.000   -10.000     2.000     0.000    -1.500     0.000     1.491 
  5629.000     0.000     6.000   732.798   542.879   -10.000   -10.000     2.000     0.000    -1.500     0.000     1.365 
  5629.500     0.000     6.000   626.807   475.720   -10.000   -10.000     2.000     0.000    -1.500     0.000     1.595 
  5630.000     0.000     6.000   492.405   374.354   -10.000   -10.000     2.000     0.000    -1.500     0.000     2.031 
  5630.500     0.000     6.000   414.440   310.336   -10.000   -10.000     2.000     0.000    -1.500     0.000     2.413 
  5631.000     0.000     6.000   400.988   293.105   -10.000   -10.000     2.000     0.000    -1.500     0.000     2.494 
  5631.500     0.000     6.000   443.237   315.239   -10.000   -10.000     2.000     0.000    -1.500     0.000     2.256 
  5632.000     0.000     6.000   519.803   360.694   -10.000   -10.000     2.000     0.000    -1.500     0.000     1.924 
  5632.500     0.000     6.000   590.119   403.054   -10.000   -10.000     2.000     0.000    -1.500     0.000     1.695 
  5633.000     0.000     6.000   623.765   423.099   -10.000   -10.000     2.000     0.000    -1.500     0.000     1.603 
  5633.500     0.000     6.000   616.881   416.385   -10.000   -10.000     2.000     0.000    -1.500     0.000     1.621 
  5634.000     0.000     6.000   591.542   395.991   -10.000   -10.000     2.000     0.000    -1.500     0.000     1.690 
  5634.500     0.000     6.000   567.146   376.675   -10.000   -10.000     2.000     0.000    -1.500     0.000     1.763 
  5635.000     0.000     6.000   535.438   354.858   -10.000   -10.000     2.000     0.000    -1.500     0.000     1.868 
  5635.500     0.000     6.000   478.114   318.533   -10.000   -10.000     2.000     0.000    -1.500     0.000     2.092 
  5636.000     0.000     6.000   405.630   272.577   -10.000   -10.000     2.000     0.000    -1.500     0.000     2.465 
  5636.500     0.000     6.000   350.833   237.100   -10.000   -10.000     2.000     0.000    -1.500     0.000     2.850 
  5637.000     0.000     6.000   325.186   220.111   -10.000   -10.000     2.000     0.000    -1.500     0.000     3.075 
  5637.500     0.000     6.000   318.693   215.710   -10.000   -10.000     2.000     0.000    -1.500     0.000     3.138 
  5638.000     0.000     6.000   318.086   215.298   -10.000   -10.000     2.000     0.000    -1.500     0.000     3.144 
  5638.500     0.000     6.000   318.068   215.250   -10.000   -10.000     2.000     0.000    -1.500     0.000     3.144 
  5639.000     0.000     6.000   318.111   215.232   -10.000   -10.000     2.000     0.000    -1.500     0.000     3.144 
  5639.500     0.000     6.000   318.118   215.230   -10.000   -10.000     2.000     0.000    -1.500     0.000     3.143 
  5640.000     0.000     6.000   318.085   215.219   -10.000   -10.000     2.000     0.000    -1.500     0.000     3.144 
  5640.500     0.000     6.000   318.017   215.199   -10.000   -10.000     2.000     0.000    -1.500     0.000     3.144 
  5641.000     0.000     6.000   317.996   215.180   -10.000   -10.000     2.000     0.000    -1.500     0.000     3.145 
  5641.500     0.000     6.000   318.083   215.172   -10.000   -10.000     2.000     0.000    -1.500     0.000     3.144 
  5642.000     0.000     6.000   318.166   215.219   -10.000   -10.000     2.000     0.000    -1.500     0.000     3.143 
  5642.500     0.000     6.000   318.154   215.323   -10.000   -10.000     2.000     0.000    -1.500     0.000     3.143 
