~VERSION INFORMATION
 VERS.               2.10:   CWLS LOG ASCII STANDARD - VERSION 2.10
 WRAP.                 NO:   ONE LINE PER DEPTH STEP
~WELL INFORMATION
#MNEM.UNIT      DATA TYPE    INFORMATION
#----------   ------------   ------------------------------
 STRT.F         4999.7969:   START DEPTH
 STOP.F         5666.3267:   STOP DEPTH
 STEP.F            0.5000:   STEP LENGTH
 NULL.          -999.2500:   NO VALUE
 COMP. Fluor Daniel (NPOSR), Inc.:   COMPANY
 WELL.            75-X-10:   WELL
 FLD .           N.P.R. 3:   FIELD
 LOC . 10-38N-78W-NATRONA-WY:   LOCATION
 STAT.                 WY:   STATE
 COUN.            Natrona:   COUNTY
 SRVC.      Western Atlas:   SERVICE COMPANY
 DATE.                   :   LOGDATE
 APIN.         4902522807:   API NUMBER
~CURVE INFORMATION
#MNEM.UNIT       API CODE    CURVE DESCRIPTION
#----------   ------------   ------------------------------
 DEPT.F                  :
 LLD .ohmm   11 220 04 00:   Dual Laterolog, Deep
 LLS .ohmm   11 220 06 00:   Dual Laterolog, shallow
 SP  .mV     06 010 01 00:   Spontaneous Potential
 GR  .GAPI   06 310 01 00:   Gamma Ray
 CDLL.mho/m              :   Conductivity
~PARAMETER INFORMATION
#MNEM.UNIT          VALUE    DESCRIPTION
#----------   ------------   ------------------------------
 EKB .F         5198.0000:   Kelly bushing
 EGL .F         5188.0000:   Ground level
 EDF .F         5197.0000:   Drilling floor
 EPD .F           10.0000:   Permanent datum
 TD  .F        56500.0000:   Total depth
 NRUN.             1.0000:   Number of Runs
#--RUN 1---   ------------   The following are for Run 1---
 RUN .             1.0000:   Run 1
 DATE.mm/dd/yyyy 07/04/1996:   Date Logged
 DD  .ft             5650:   Depth Driller
 DL  .ft             5647:   Depth Logger
 BLI .ft             5627:   Bottom Log Interval
 TLI .ft            surf.:   Top Log Interval
 CSS .inch          9.875:   Casing Size
 CTD1.ft              445:   Casing Driller 1
 CTL1.ft              444:   Casing Logger 1
 BS  .inch           8.75:   Bit Size
 DFT .           gel/chem:   Type Fluid In Hole
 DFD .lb/gal          9.5:   Mud Weight
 DFV .sec              40:   Viscosity
 DFPH.                9.0:   pH
 DFL .gal             7.6:   Fluid Loss
 WSS .              circ.:   Source Of Sample
 RM  .ohmm            .61:   Rm
 EMT .F                84:   Rm Meas. Temp.
 RMF .ohmm            .48:   Rmf
 MFT .F                84:   Rmf Meas. Temp.
 RMC .ohmm            .75:   Rmc
 MCST.F                84:   Rmc Meas. Temp.
 MFSS.              calc.:   Source Rmf.
 MCSS.              calc.:   Source Rmc.
 RMB .ohmm            .29:   Rm. At BHT
 BHT .F               176:   BHT.
 TCS .hh:mm        6 hrs.:   Time Circ. Stopped
 MRT .F               176:   Maximum Recorded Temp.
 LUN .            hl 6530:   Logging Unit Number
 LUL .             Casper:   Logging Unit Location
 ENGI.           Brownlow:   Recorded By
 WITN.             Lebeau:   Witnessed By
 DGBY.              Burke:   Digitized By
~OTHER INFORMATION
# Borehole Volume Computed for 7" Casing
~A  DEPTH      LLD        LLS         SP         GR       CDLL
# ...
 5121.7970    38.7033    32.9382    60.4003    61.1401    23.7557
 5122.2970    38.4384    32.7119    60.4033    56.1848    24.5390
 5122.7970    38.7274    33.4287    60.7174    44.3865    24.5463
 5123.2970    39.8557    36.5193    61.0315    35.3876    20.5534
 5123.7970    51.4815    61.8194    60.8790    28.2550    10.6550
 5124.2970   111.4993   124.8492    60.8821    21.4334     5.7391
 5124.7970   188.1904   187.8789    60.8852    15.8560     2.9428
 5125.2970   191.2726   200.2284    60.7326    13.3837     9.6646
 5125.7970   144.0012   150.9403    60.7364    18.6981    20.8665
 5126.2970    96.7299   101.6522    60.7394    26.4955    32.0684
 5126.7970    49.4585    52.3641    60.8980    45.1077    43.2703
 5127.2970    16.4476    20.8168    61.0566    62.1464    54.4722
 5127.7970    15.8788    18.4550    61.0596    79.1850    62.1776
 5128.2970    15.8837    18.8560    61.0627    85.9917    65.0098
 5128.7970    16.9373    21.7357    61.0657    80.4143    38.5616
 5129.2970    30.3012    36.2234    61.0687    76.6239    27.9049
 5129.7970    50.4324    68.1140    61.2274    58.5772    22.2157
 5130.2970    70.5635   103.6156    61.2559    37.8727    12.3128
 5130.7970    88.0790   108.9148    62.0117    25.4506    13.8701
 5131.2970    82.0732   102.1979    63.1034    32.9369    16.1925
 5131.7970    76.4709   105.9109    63.8841    39.4901    11.5663
 5132.2970    82.7096   137.7375    64.6647    38.2673    11.5739
 5132.7970   115.5158   153.4168    65.2899    28.3353    12.7147
 5133.2970   102.9603   136.0033    65.6039    22.1358    22.4117
 5133.7970    84.4578    98.2051    65.7625    13.1369    29.1303
 5134.2970    66.5561    77.8075    66.0766    17.8239    33.4770
 5134.7970    48.6545    57.4099    66.5462    20.9557    39.4396
 5135.2970    30.7528    33.1290    66.7048    22.5474    42.3546
 5135.7970    22.4426    31.9792    66.8634    24.7960    43.3193
 5136.2970    22.1313    33.1428    66.8671    26.4221    32.5107
 5136.7970    23.9387    36.3531    66.8702    22.9127    23.1911
 5137.2970    47.0133    43.7275    67.0287    15.4690     8.5697
 5137.7970   193.3372   101.0371    67.3428    12.6910     4.4858
 5138.2970   390.8670   528.1318    67.8124    13.0234     2.9452
 5138.7970   598.0319   747.6623    68.4375    13.3557     2.4134
 5139.2970   577.3505   633.6470    68.9072    13.9992     2.4221
 5139.7970   508.2279   491.5368    69.2212    15.2647     3.4056
 5140.2970   400.4896   383.8510    69.6908    16.8412     6.3039
 5140.7970   302.9419   281.0573    70.1605    19.9730    17.0723
 5141.2970   205.3942   178.2637    70.3414    28.7035    34.8919
 5141.7970   107.8465    75.4700    71.1004    37.5537    52.7115
 5142.2970    14.2209    20.0765    71.7255    49.4307    72.0268
 5142.7970    12.2405    18.1719    72.1951    62.6729    75.5462
 5143.2970    12.8683    19.5369    72.6647    61.4501    76.6793
 5143.7970    16.8598    31.4142    72.8233    55.0879    56.4625
 5144.2970   164.7111   158.4690    72.8264    42.3225    32.8842
 5144.7970   386.8104   312.6114    72.8294    29.5572     6.3828
 5145.2970   608.9096   466.7538    72.8324    14.5735     2.6074
 5145.7970   831.0089   620.8963    72.9910    10.5513     1.7618
 5146.2970  1053.1082   775.0388    73.1558    10.2563     2.5451
 5146.7970  1087.3206   941.4208    73.6398    10.2829     3.1833
 5147.2970   936.5961   816.9501    74.2450    10.6153     9.7064
 5147.7970   785.8718   490.8585    74.5591    12.8140    17.2545
 5148.2970   635.1473   100.7750    74.8732    17.1899    21.2071
 5148.7970   484.4229    81.0542    75.0318    28.7198    25.0636
 5149.2970   333.6985    56.5187    75.1903    30.6074    31.1912
 5149.7970   182.9741    35.7849    75.3489    32.1878    34.5306
 5150.2970    35.7871    30.4027    75.3520    32.8564    38.1621
 5150.7970    28.0395    26.1992    75.3550    43.0345    40.2070
 5151.2970    25.3939    23.2268    75.3580    54.9594    42.0434
 5151.7970    23.9989    22.1059    75.3611    60.2685    42.8252
 5152.2970    23.5004    21.3385    75.2086    61.5340    42.3736
 5152.7970    23.0104    21.1933    75.2124    61.2389    41.1047
 5153.2970    22.6930    21.1988    74.9044    62.8208    39.7603
 5153.7970    23.0266    21.8136    74.5956    66.8857    37.7941
 5154.2970    24.3802    22.9292    74.4432    70.6396    33.8843
 5154.7970    26.9371    24.7958    74.2907    71.5940    29.7402
 5155.2970    30.6881    28.1798    73.8279    71.3037    27.8043
 5155.7970    34.5617    30.6908    73.5192    70.3926    27.4376
 5156.2970    35.0643    32.0323    73.3673    68.8587    28.2209
 5156.7970    34.0956    31.1424    73.3705    67.9469    29.3686
 5157.2970    30.6600    28.6983    73.2180    68.9067    31.6279
 5157.7970    27.6846    25.7785    72.8926    71.7275    35.9752
 5158.2970    24.3413    22.8588    72.6028    77.9696    40.7570
 5158.7970    20.9979    19.9391    72.4495    79.5462    46.3127
 5159.2970    17.0279    17.0193    72.2970    82.6780    54.5486
 5159.7970    16.3227    15.2291    72.1446    83.0104    57.9526
 5160.2970    16.5614    14.9107    72.1484    82.4096    51.9837
 5160.7970    21.1797    17.8095    72.1514    72.8757    43.7558
 5161.2970    28.4285    25.2199    72.1545    50.2678    39.2981
 5161.7970    29.4652    26.8886    72.1575    39.2388    33.6937
 5162.2970    29.8960    27.8655    72.3161    43.9447    29.3580
 5162.7970    30.5492    29.0835    72.4746    49.2353    26.8719
 5163.2970    33.0849    36.2467    72.4777    48.3223    19.0683
 5163.7970    65.7370    70.7207    72.4815    35.9257    12.8092
 5164.2970   124.3459   115.1448    72.6400    22.7918     8.6128
 5164.7970   165.7930   140.6467    72.7986    14.1274     6.7298
 5165.2970   149.4807   119.4754    72.9572    17.1894     7.1882
 5165.7970   117.0411    98.7132    73.1157    28.2922    11.4791
 5166.2970    84.6014    77.9509    73.2743    42.9033    23.7577
 5166.7970    52.1618    57.1887    73.5884    57.5144    28.5352
 5167.2970    28.4692    36.4265    73.4357    72.1255    32.5775
 5167.7970    27.1633    29.1455    73.1279    82.1148    35.3759
 5168.2970    26.5969    28.5374    71.7312    82.7583    36.9333
 5168.7970    26.2300    28.1356    71.4232    83.0907    37.7109
 5169.2970    26.2403    27.3594    71.2708    83.1120    36.1750
 5169.7970    28.9921    28.1544    71.2746    81.2671    32.7930
 5170.2970    34.2405    30.2310    71.2776    77.5559    28.1042
 5170.7970    40.1440    39.5955    71.2806    67.2794    23.0638
 5171.2970    46.0475    45.6425    71.2837    58.4811    20.5473
 5171.7970    52.3369    48.6625    71.4422    60.5180    18.3856
 5172.2970    52.8492    50.4305    71.4453    74.5362    16.9077
 5172.7970    49.4774    51.8931    71.7594    82.0226    16.9149
 5173.2970    49.1426    51.5368    72.0735    83.5992    17.6964
 5173.7970    49.5567    52.3025    72.2320    83.6205    17.7068
 5174.2970    51.6834    54.2415    72.0671    82.3977    17.7138
 5174.7970    55.5043    56.5553    71.7715    76.7789    16.9497
 5175.2970    60.4604    62.4750    71.6191    65.3240    13.1379
 5175.7970    73.2614    82.9972    71.6229    53.8690     8.5423
 5176.2970   133.0092   124.5780    71.6259    42.4141     5.3841
 5176.7970   266.5606   204.4383    71.6290    30.9592     3.3774
 5177.2970   397.5225   284.2985    71.0099    19.5042     4.2596
 5177.7970   349.8873   311.1492    71.0130    15.6182     6.9560
 5178.2970   269.7927   208.8870    71.0160    18.4956     9.3874
 5178.7970   207.4977    99.9390    71.0190    30.1843    12.2941
 5179.2970   145.2028    69.8408    71.0221    44.6018    19.3470
 5179.7970    82.9078    37.0252    70.8584    59.0194    23.6712
 5180.2970    30.8932    29.7205    70.2506    73.4370    28.5640
 5180.7970    24.9734    26.5362    70.2544    87.9664    36.3748
 5181.2970    23.7698    25.2556    70.2574    90.5212    39.0968
 5181.7970    24.3011    24.7275    70.4152    92.6754    37.8272
 5182.2970    25.2358    25.0875    70.1080    92.7014    35.6283
