~VERSION INFORMATION
 VERS.               2.10:   CWLS LOG ASCII STANDARD - VERSION 2.10
 WRAP.                 NO:   ONE LINE PER DEPTH STEP
~WELL INFORMATION
#MNEM.UNIT      DATA TYPE    INFORMATION
#----------   ------------   ------------------------------
 STRT.F         4999.7969:   START DEPTH
 STOP.F         5666.3267:   STOP DEPTH
 STEP.F            0.5000:   STEP LENGTH
 NULL.          -999.2500:   NO VALUE
 COMP. Fluor Daniel (NPOSR), Inc.:   COMPANY
 WELL.            75-X-10:   WELL
 FLD .           N.P.R. 3:   FIELD
 LOC . 10-38N-78W-NATRONA-WY:   LOCATION
 STAT.                 WY:   STATE
 COUN.            Natrona:   COUNTY
 SRVC.      Western Atlas:   SERVICE COMPANY
 DATE.                   :   LOGDATE
 APIN.         4902522807:   API NUMBER
~CURVE INFORMATION
#MNEM.UNIT       API CODE    CURVE DESCRIPTION
#----------   ------------   ------------------------------
 DEPT.F                  :
 LLD .ohmm   11 220 04 00:   Dual Laterolog, Deep
 LLS .ohmm   11 220 06 00:   Dual Laterolog, shallow
 SP  .mV     06 010 01 00:   Spontaneous Potential
 GR  .GAPI   06 310 01 00:   Gamma Ray
 CDLL.mho/m              :   Conductivity
~PARAMETER INFORMATION
#MNEM.UNIT          VALUE    DESCRIPTION
#----------   ------------   ------------------------------
 EKB .F         5198.0000:   Kelly bushing
 EGL .F         5188.0000:   Ground level
 EDF .F         5197.0000:   Drilling floor
 EPD .F           10.0000:   Permanent datum
 TD  .F        56500.0000:   Total depth
 NRUN.             1.0000:   Number of Runs
#--RUN 1---   ------------   The following are for Run 1---
 RUN .             1.0000:   Run 1
 DATE.mm/dd/yyyy 07/04/1996:   Date Logged
 DD  .ft             5650:   Depth Driller
 DL  .ft             5647:   Depth Logger
 BLI .ft             5627:   Bottom Log Interval
 TLI .ft            surf.:   Top Log Interval
 CSS .inch          9.875:   Casing Size
 CTD1.ft              445:   Casing Driller 1
 CTL1.ft              444:   Casing Logger 1
 BS  .inch           8.75:   Bit Size
 DFT .           gel/chem:   Type Fluid In Hole
 DFD .lb/gal          9.5:   Mud Weight
 DFV .sec              40:   Viscosity
 DFPH.                9.0:   pH
 DFL .gal             7.6:   Fluid Loss
 WSS .              circ.:   Source Of Sample
 RM  .ohmm            .61:   Rm
 EMT .F                84:   Rm Meas. Temp.
 RMF .ohmm            .48:   Rmf
 MFT .F                84:   Rmf Meas. Temp.
 RMC .ohmm            .75:   Rmc
 MCST.F                84:   Rmc Meas. Temp.
 MFSS.              calc.:   Source Rmf.
 MCSS.              calc.:   Source Rmc.
 RMB .ohmm            .29:   Rm. At BHT
 BHT .F               176:   BHT.
 TCS .hh:mm        6 hrs.:   Time Circ. Stopped
 MRT .F               176:   Maximum Recorded Temp.
 LUN .            hl 6530:   Logging Unit Number
 LUL .             Casper:   Logging Unit Location
 ENGI.           Brownlow:   Recorded By
 WITN.             Lebeau:   Witnessed By
 DGBY.              Burke:   Digitized By
~OTHER INFORMATION
# Borehole Volume Computed for 7" Casing
~A  DEPTH      LLD        LLS         SP         GR       CDLL
# ...
 5548.7970   251.5346   322.4770    59.5005    24.7026  -999.2500
 5549.2970   239.4382   311.3976    59.5124    29.3788     0.2177
 5549.7970   236.1366   288.1655    59.5219    32.1889     0.2003
 5550.2970   244.8011   225.6569    59.5314    36.8651     0.1829
 5550.7970   259.2208   192.5277    59.5412    39.3642     0.9361
 5551.2970   280.7168   174.4114    59.5527    39.3364     1.2626
 5551.7970   306.1767   156.8826    59.7178    35.9666     2.5189
 5552.2970   330.4647   151.4926    60.0383    33.1778     3.9745
 5552.7970   340.1302   150.4994    60.3588    32.2527     5.0315
 5553.2970   314.7059   156.0156    60.8349    34.4433     5.4885
 5553.7970   254.4295   168.7684    61.6220    36.0064     5.4674
 5554.2970   216.1815   172.4889    62.5646    31.9762     5.4534
 5554.7970   187.7381   172.5804    63.6628    26.0568     4.6630
 5555.2970   156.9836   172.6900    64.1388    20.0987     4.6458
 5555.7970   126.2291   181.5783    64.1485    14.2805     3.8556
 5556.2970    95.9726   195.0318    64.1582    13.9801     3.8374
 5556.7970    83.0690   218.5934    64.0118    13.9907     3.0480
 5557.2970    77.9591   241.5490    63.8657    14.0013     3.0306
 5557.7970    74.2100   250.4025    63.8776    14.3230     3.0119
 5558.2970    73.1868   250.5321    63.8871    13.4005     2.9959
 5558.7970    73.2255   250.6619    63.4300    12.4777     2.9785
 5559.2970    82.6561   245.3649    63.4395    13.1107     2.9591
 5559.7970   130.3688   235.4288    63.4490    13.4551     2.9437
 5560.2970   283.5665   216.3239    63.4585    14.7398     3.7850
 5560.7970   436.7642   195.0680    63.4681    15.9447     5.2248
 5561.2970   535.9557   167.8883    63.4778    16.5774     5.5261
 5561.7970   536.1829   140.7086    63.3338    17.2101     6.7829
 5562.2970   524.6296   113.5288    62.8768    19.3980     7.4935
 5562.7970   498.0455    92.5613    62.1086    20.6528     7.7496
 5563.2970   456.0137    88.7492    61.4961    21.2856     9.0044
 5563.7970   407.2089    89.4284    61.1945    23.1624     8.9870
 5564.2970   379.4556    90.7644    60.5819    25.0393     8.9696
 5564.7970   387.7904    93.4258    59.9693    27.2336     8.9516
 5565.2970   419.4743    96.1654    59.2012    29.7627     8.9348
 5565.7970   463.5174    96.9004    58.5886    30.9837     8.7294
 5566.2970   490.8201    94.9086    58.2871    30.9943     8.1261
 5566.7970   491.0294    91.6478    58.1141    30.0718     6.9188
 5567.2970   490.7834    89.1275    57.8419    28.8383     5.7741
 5567.7970   477.6812    86.6799    57.6935    27.2937     6.5278
 5568.2970   481.3402    83.0309    57.7053    26.6796     8.0342
 5568.7970   468.0584    74.3888    58.0259    26.6929     9.6891
 5569.2970   433.0714    67.2527    58.0354    26.7035    11.1118
 5569.7970   369.5526    64.9421    58.5114    26.7142    11.0967
 5570.2970   306.0621    63.5989    58.6764    28.2802    11.0183
 5570.7970   275.2536    65.0094    58.9970    27.8804     9.5135
 5571.2970   249.3104    69.3324    59.1683    25.1935     8.1461
 5571.7970   221.9111    77.7083    59.3273    22.7158     5.6176
 5572.2970   200.2392    81.7079    59.4944    21.7933     4.8239
 5572.7970   198.8854    85.3431    59.8149    22.0437     4.8100
 5573.2970   209.1324    86.6760    60.1354    21.8682     4.7923
 5573.7970   224.6186    88.4899    60.4560    21.6927     4.7752
 5574.2970   239.5444    93.0444    61.0876    21.5172     3.9850
 5574.7970   250.0773   101.3667    62.0302    21.3416     3.9667
 5575.2970   251.9662   129.3732    62.8173    21.1661     3.5159
 5575.7970   263.0453   161.3076    63.4489    20.9906     2.2245
 5576.2970   287.4446   188.6524    63.7694    20.6348     0.0500
 5576.7970   343.9327   181.7727    63.7791    16.9132    -1.1301
 5577.2970   394.8379   168.2114    63.7907    15.3501    -1.5289
 5577.7970   427.0978   167.0869    63.8002    13.1538    -1.5483
 5578.2970   433.3904   173.2336    64.1208    11.3490    -1.5636
 5578.7970   436.6640   190.0721    64.2858    11.9818    -1.5810
 5579.2970   427.6410   233.6209    64.1398    12.9255    -1.6011
 5579.7970   401.3348   232.0892    63.8358    13.8693    -0.8430
 5580.2970   356.1081   200.9750    63.8477    14.5020    -0.8604
 5580.7970   312.0073   148.8227    64.0127    14.5126    -0.8810
 5581.2970   267.9066   118.4753    64.1777    14.4669    -0.8952
 5581.7970   223.8058   113.5813    64.1873    14.2226     0.6329
 5582.2970   179.7051   116.9269    64.0185    12.0524     3.1470
 5582.7970   136.5269   137.7266    63.8952    11.4448     4.4653
 5583.2970   132.0127   145.8465    64.2181    11.4580     3.6714
 5583.7970   131.1342   152.2688    64.3831    11.4687     3.6547
 5584.2970   132.1386   160.1060    64.2347    11.4793     3.4580
 5584.7970   134.0855   164.8013  -999.2500    12.1120     2.8458
 5585.2970   139.9813   164.8891  -999.2500    13.3668     2.8297
 5585.7970   144.0755   163.8262  -999.2500    13.9995     3.5870
 5586.2970   140.1000   155.9685  -999.2500    15.5654     3.5659
 5586.7970   131.4818   149.5450  -999.2500    15.8871     3.5503
 5587.2970   124.1610   143.3860  -999.2500    17.7640     3.5330
 5587.7970   117.1755   142.4275  -999.2500    18.3968     4.2859
 5588.2970   104.1575   148.7185  -999.2500    16.5411     3.9466
 5588.7970    93.0100   153.0793  -999.2500    15.3075     4.2543
 5589.2970    86.6709   135.5083  -999.2500    15.6319     4.2332
 5589.7970    82.5029   118.8371  -999.2500    16.5756     4.2188
 5590.2970    80.2178   102.1658  -999.2500    19.0746     4.2015
 5590.7970    80.2603    85.4945  -999.2500    20.9515     9.0560
 5591.2970    84.3865    69.2685  -999.2500    22.8284    10.5880
 5591.7970    91.9964    68.3872  -999.2500    26.5715    11.1044
 5592.2970   110.1530    72.4286  -999.2500    27.8263     9.3783
 5592.7970   118.8242    89.6571  -999.2500    27.8369     6.8148
 5593.2970   122.2997    99.0724  -999.2500    29.1232     5.6417
 5593.7970   127.6772   101.9775  -999.2500    32.2154     6.3981
 5594.2970   136.1613   102.0303  -999.2500    34.0923     6.3807
 5594.7970   158.1258   108.0457  -999.2500    35.0361     6.3617
 5595.2970   219.3069   116.9195  -999.2500    36.2909     4.4176
 5595.7970   281.3052   143.2436  -999.2500    35.6794     3.0157
 5596.2970   315.2873   172.8735  -999.2500    34.4459     1.6722
 5596.7970   308.0063   235.3371  -999.2500    34.1428  -999.2500
 5597.2970   277.7204   301.2878  -999.2500    34.1561  -999.2500
 5597.7970   268.1177   349.5177  -999.2500    34.1668  -999.2500
 5598.2970   283.9408   352.1890  -999.2500    34.4886  -999.2500
 5598.7970   346.5492   327.4849  -999.2500    34.4995  -999.2500
 5599.2970   388.4129   299.5048  -999.2500    34.1987  -999.2500
 5599.7970   383.0976   287.1698  -999.2500    34.2120  -999.2500
 5600.2970   303.1937   286.4348  -999.2500    34.5336  -999.2500
 5600.7970   249.1393   291.6355  -999.2500    34.8553  -999.2500
 5601.2970   194.0100   376.7415  -999.2500    36.1101  -999.2500
 5601.7970   183.3732   437.5438  -999.2500    36.4318  -999.2500
 5602.2970   187.4011   490.4461  -999.2500    36.7535  -999.2500
 5602.7970   213.0438   497.6819  -999.2500    17.8317  -999.2500
 5603.2970   225.5927   444.6046  -999.2500  -999.2500  -999.2500
 5603.7970   235.5121   405.6724  -999.2500  -999.2500  -999.2500
 5604.2970   247.7502   397.3627  -999.2500  -999.2500  -999.2500
 5604.7970   264.5773   432.9500  -999.2500  -999.2500  -999.2500
 5605.2970   277.6798   439.4096  -999.2500  -999.2500  -999.2500
 5605.7970   283.7490   424.4079  -999.2500  -999.2500  -999.2500
 5606.2970   262.5668   371.2758  -999.2500  -999.2500  -999.2500
 5606.7970   237.8194   318.1682  -999.2500  -999.2500    -0.5756
 5607.2970   223.1900   265.0605  -999.2500  -999.2500     1.4434
 5607.7970   226.4785   211.9529  -999.2500  -999.2500     4.2524
 5608.2970   226.7658   158.8453  -999.2500  -999.2500     4.8788
 5608.7970   214.1523   120.4613  -999.2500  -999.2500     5.6645
 5609.2970   193.1568   113.8826  -999.2500  -999.2500     5.6790
