~Version Information Block
 VERS.                1.20:     CWLS LOG ASCII STANDARD - VERSION 1.20
 WRAP.                  NO:     One Line Per Depth Step
     
~Well Information Block
#MNEM.UNIT       Data Type     Information
#컴컴컴컴컴    컴컴컴컴컴컴�   컴컴컴컴컴컴컴컴컴컴컴컴컴컴컴컴컴컴컴컴컴컴�
 STRT.FT            0.0000:
 STOP.FT         5650.0000:
 STEP.FT            0.5000:
 NULL.          -9999.0000:
 COMP.             COMPANY:    FLUOR DANIEL (NPOSR)INC.
 WELL.                WELL:    75-X-10                 
 FLD .               FIELD:    N.P.R. # 3              
 LOC .            LOCATION:    SEC 10 T38N R78W                        
 CNTY.              COUNTY:    NATRONA                       
 STAT.               STATE:    WYOMING   
 SRVC.     SERVICE COMPANY:    WESTERN ATLAS                        
 DATE.                DATE:    07/04/1996
 UWI .      UNIQUE WELL ID:          10.0
 API .          API NUMBER:    4902522807                
     
~Curve Information Block
#MNEM.UNIT       API CODE      Curve Description
#컴컴컴컴컴    컴컴컴컴컴컴�   컴컴컴컴컴컴컴컴컴컴컴컴컴컴컴컴컴컴컴컴컴컴�
 DEPTH.F        95 995 99 1:   Depth                                                        
 GR  .API       31 310 01 1:   Gamma Ray Counts                                             
 CAL .IN        28 280 99 1:   Caliper                                                      
 RD  .OHMM      22 220 10 1:   Logarithmic Resistivity from ED, ID                          
 RS  .OHMM      22 220 09 1:   Logarithmic Resistivity from ES, IS                          
 CNC .%         95 995 99 1:   Corrected Neutron Porosity from CN                           
 PORZ.%         95 890 99 1:   Porosity from Z-Densilog                                     
 ZDEN.G/C3      95 350 01 1:   Z-Densilog Bulk Density                                      
 PE  .BARN      95 358 01 1:   Photo Electric Cross Section                                 
 ZCOR.G/C3      39 356 99 1:   Z-Densilog Bulk Density Correction                           
 SP  .MV        95 010 01 1:   Spontaneous Potential from Tool Electrode                    
 CDLL.MMHO      95 995 99 1:   Conductivity from RD                                         
     
~Parameter Information Block
#MNEM.UNIT         Value       Description
#컴컴컴컴컴    컴컴컴컴컴컴�   컴컴컴컴컴컴컴컴컴컴컴컴컴컴컴컴컴컴컴컴컴컴�
 EKB .FT            0.0000:    ELEVATION KELLY BUSHING
 EGL .FT            0.0000:    ELEVATION GROUND LEVEL
 RUN .              1.0000:    RUN NUMBER
 SON .               00000:    SERVICE ORDER NUMBER
 DD  .FT            0.0000:    DEPTH-DRILLER
 DL  .FT            0.0000:    DEPTH-LOGGER
 BLI .FT            0.0000:    BOTTOM LOGGED INTERVAL
 TLI .FT            0.0000:    TOP LOGGED INTERVAL
 CS  .  IN          0.0000:    CASING SIZE 
 CDD .FT            0.0000:    CASING DEPTH-DRILLER
 CDL .FT            0.0000:    CASING DEPTH-LOGGER
 BS  .IN            0.0000:    BIT SIZE
 DFT .               LIGNO:    MUD TYPE   
 DFD .LB/G          0.0000:    MUD WEIGHT
 DFV .S             0.0000:    MUD VISCOSITY
 DFPH.              0.0000:    MUD PH
 DFL .CC            0.0000:    MUD FLUID LOSS
 RMS .           FLOW LINE:    MUD SAMPLE SOURCE
 RM  .OHMM          0.0000:    MUD RESISTIVITY          
 RMT .DEGF          0.0000:    RM TEMPERATURE
 RMBH.OHMM          0.0000:    MUD RESISTIVITY AT BHT
 BHT .DEGF          0.0000:    BOTTOM HOLE TEMPERATURE
 RMFS.            MEASURED:    MUD FILTRATE SOURCE
 RMF .OHMM          0.0000:    MUD FILTRATE RESISTIVITY
 RMFT.DEGF          0.0000:    RMF TEMPERATURE
 RMCS.            MEASURED:    MUD CAKE SOURCE
 RMC .OHMM          0.0000:    MUD CAKE RESISTIVITY
 RMCT.DEGF          0.0000:    RMC TEMPERATURE
     
#      Computation Parameters Used
#MNEM.UNIT         Value       Description
#컴컴컴컴컴    컴컴컴컴컴컴�   컴컴컴컴컴컴컴컴컴컴컴컴컴컴컴컴컴컴컴컴컴컴�
 MDEN.G/CC          2.6500:    LOGGING MATRIX DENSITY
 MATR.              1.0000:    NEUTRON MATRIX (0=LIME,1=SAND,2=DOLO)
 FNUM.              0.6200:    TORTUOSITY CONSTANT ARCHIES (a)
 FEXP.              2.1500:    CEMENTATION EXPONENT ARCHIES (m)
     
~Other Information
     
#컴컴컴컴컴컴컴컴컴컴컴컴컴컴컴컴컴컴컴컴컴컴컴컴컴컴컴컴컴컴컴컴컴컴컴컴컴컴컴�
# In Making Interpretations Of Logs Our Employees Will Give Customer The Benefit
# Of Their Best Judgement,  But  Since All Interpretations Are Opinions Based On
# Inferences From Electrical Or  Other  Measurements,  We Cannot,  And We Do Not
# Guarantee The Accuracy Or  Correctness Of Any Interpretation.  We Shall Not Be
# Liable Or  Responsible For Any Loss,  Cost,  Damages, Or  Expenses  Whatsoever
# Incurred Or  Sustained By The Customer  Resulting  From Any Interpretaion Made
# By Any Of Our Employees.  ATLAS WIRELINE SERVICES-WESTERN ATLAS INTERNATIONAL
#컴컴컴컴컴컴컴컴컴컴컴컴컴컴컴컴컴컴컴컴컴컴컴컴컴컴컴컴컴컴컴컴컴컴컴컴컴컴컴�
     
~A  DEPTH      GR        CAL       RD        RS        CNC       PORZ      ZDEN      PE        ZCOR      SP        CDLL      
# ...
  2607.000    70.668     8.932    14.848    13.330    21.220     7.609     2.524     2.778     0.025   141.640    67.348 
  2607.500    67.335     8.935    16.006    14.293    20.116     6.743     2.539     2.798     0.028   141.762    62.476 
  2608.000    65.659     8.935    15.787    14.087    18.574     5.667     2.556     2.840     0.027   141.936    63.345 
  2608.500    66.879     8.925    14.699    13.072    17.079     4.703     2.572     2.875     0.020   142.107    68.032 
  2609.000    72.321     8.919    13.683    12.071    15.716     3.988     2.584     2.884     0.020   142.287    73.082 
  2609.500    77.681     8.918    13.116    11.470    14.375     3.447     2.593     2.897     0.027   142.512    76.245 
  2610.000    77.233     8.918    12.967    11.261    13.722     3.211     2.597     2.826     0.030   142.697    77.117 
  2610.500    72.893     8.918    13.203    11.407    14.364     3.519     2.592     2.735     0.031   142.770    75.741 
  2611.000    69.547     8.918    13.690    11.812    15.523     4.240     2.580     2.684     0.029   142.793    73.044 
  2611.500    67.560     8.918    14.062    12.184    16.718     4.933     2.569     2.641     0.023   142.893    71.113 
  2612.000    66.826     8.918    14.055    12.281    17.305     5.305     2.562     2.633     0.016   143.144    71.148 
  2612.500    70.511     8.918    13.786    12.163    17.358     5.465     2.560     2.628     0.018   143.449    72.538 
  2613.000    77.223     8.918    13.393    11.927    17.180     5.553     2.558     2.581     0.039   143.587    74.665 
  2613.500    80.712     8.918    12.796    11.494    16.774     5.384     2.561     2.686     0.068   143.525    78.147 
  2614.000    80.420     8.918    11.906    10.799    16.000     5.033     2.567     3.069     0.072   143.415    83.990 
  2614.500    81.156     8.918    10.806     9.914    15.113     4.957     2.568     3.442     0.046   143.340    92.543 
  2615.000    86.062     8.919     9.756     9.038    14.963     5.116     2.566     3.433     0.016   143.322   102.497 
  2615.500    93.419     8.925     8.912     8.311    15.824     5.058     2.567     3.108     0.005   143.397   112.212 
  2616.000   100.004     8.935     8.128     7.635    16.960     4.764     2.571     2.783     0.002   143.483   123.025 
  2616.500   105.763     8.935     7.302     6.911    18.006     4.517     2.575     2.641     0.001   143.461   136.953 
  2617.000   113.659     8.925     6.640     6.303    19.350     4.378     2.578     2.700     0.011   143.369   150.603 
  2617.500   122.386     8.919     6.342     5.996    20.727     4.498     2.576     2.719     0.024   143.264   157.670 
  2618.000   124.599     8.918     6.435     6.025    21.807     5.015     2.567     2.733     0.028   143.149   155.409 
  2618.500   118.852     8.918     6.780     6.298    22.789     5.671     2.556     2.784     0.024   143.009   147.494 
  2619.000   112.109     8.918     7.025     6.533    24.085     6.267     2.547     2.859     0.019   142.905   142.349 
  2619.500   110.514     8.918     6.966     6.505    25.400     6.743     2.539     2.901     0.018   142.897   143.545 
  2620.000   114.352     8.921     6.972     6.482    25.720     6.982     2.535     2.950     0.023   142.966   143.434 
  2620.500   119.037     8.930     7.526     6.884    24.741     6.907     2.536     2.990     0.029   142.969   132.866 
  2621.000   115.997     8.936     8.905     7.957    23.497     6.644     2.540     2.982     0.029   142.883   112.293 
  2621.500   102.406     8.930    11.044     9.688    22.778     6.525     2.542     2.948     0.026   142.803    90.548 
  2622.000    87.953     8.921    12.857    11.260    22.332     6.597     2.541     3.009     0.025   142.761    77.776 
  2622.500    81.189     8.918    12.867    11.353    22.286     6.395     2.544     2.952     0.037   142.736    77.717 
  2623.000    81.113     8.918    11.678    10.318    21.528     5.724     2.556     2.650     0.052   142.801    85.632 
  2623.500    82.897     8.918    10.633     9.345    19.304     4.964     2.568     2.547     0.045   143.007    94.048 
  2624.000    85.952     8.918    10.147     8.863    17.098     4.353     2.578     2.632     0.022   143.249    98.553 
  2624.500    89.731     8.918    10.102     8.786    16.375     3.929     2.585     2.862     0.016   143.372    98.992 
  2625.000    91.956     8.918    10.327     8.957    17.166     3.848     2.587     2.985     0.023   143.277    96.834 
  2625.500    91.145     8.918    10.710     9.284    18.298     4.170     2.581     2.930     0.025   143.022    93.367 
  2626.000    88.854     8.921    11.122     9.671    19.045     4.720     2.572     2.786     0.021   142.764    89.909 
  2626.500    87.180     8.931    11.430     9.997    19.665     5.181     2.565     2.764     0.019   142.571    87.493 
  2627.000    87.625     8.943    11.492    10.136    20.154     5.197     2.564     2.770     0.025   142.479    87.018 
  2627.500    89.853     8.947    10.909     9.755    20.270     4.660     2.573     2.729     0.037   142.533    91.667 
  2628.000    92.344     8.937     9.648     8.738    19.963     3.939     2.585     2.724     0.049   142.607   103.652 
  2628.500    95.522     8.925     8.576     7.791    19.517     3.580     2.591     2.758     0.050   142.526   116.610 
  2629.000    98.778     8.919     8.220     7.418    19.225     3.796     2.587     2.717     0.041   142.347   121.661 
  2629.500    98.961     8.918     8.571     7.639    19.117     4.326     2.579     2.754     0.029   142.200   116.670 
  2630.000    96.095     8.918     9.466     8.367    19.197     5.084     2.566     3.003     0.014   142.127   105.645 
  2630.500    93.673     8.918    10.404     9.280    19.333     6.251     2.547     3.136     0.007   142.179    96.120 
  2631.000    92.641     8.918    10.602     9.656    19.301     7.385     2.528     3.100     0.030   142.360    94.319 
  2631.500    92.846     8.918    10.174     9.379    19.738     7.389     2.528     3.070     0.058   142.544    98.292 
  2632.000    94.043     8.918     9.760     9.014    19.614     6.031     2.550     3.089     0.059   142.640   102.456 
  2632.500    94.495     8.918     9.540     8.802    18.935     4.751     2.572     3.088     0.039   142.656   104.818 
  2633.000    93.846     8.918     9.503     8.755    18.594     4.886     2.569     3.103     0.025   142.597   105.234 
  2633.500    93.812     8.918     9.621     8.848    18.878     5.807     2.554     3.179     0.021   142.574   103.938 
  2634.000    94.740     8.918     9.870     9.050    19.657     6.188     2.548     3.219     0.022   142.708   101.316 
  2634.500    94.556     8.918    10.212     9.337    20.705     5.836     2.554     3.211     0.025   142.891    97.920 
  2635.000    92.682     8.918    10.526     9.630    21.540     5.403     2.561     3.215     0.025   142.932    95.002 
  2635.500    90.797     8.918    10.699     9.835    21.989     5.335     2.562     3.217     0.025   142.865    93.469 
  2636.000    90.862     8.918    10.759     9.955    22.396     5.559     2.558     3.213     0.020   142.736    92.947 
  2636.500    91.137     8.918    10.752    10.009    21.959     5.863     2.553     3.213     0.015   142.478    93.009 
  2637.000    89.508     8.918    10.646     9.964    21.392     6.172     2.548     3.221     0.011   142.131    93.936 
  2637.500    87.650     8.918    10.434     9.817    20.953     6.291     2.546     3.237     0.009   141.833    95.837 
  2638.000    89.397     8.918    10.119     9.566    20.498     5.854     2.553     3.257     0.017   141.675    98.821 
  2638.500    93.531     8.918     9.631     9.144    20.283     5.069     2.566     3.274     0.028   141.642   103.831 
  2639.000    96.102     8.918     9.045     8.600    20.431     4.758     2.572     3.292     0.028   141.716   110.561 
  2639.500    95.815     8.918     8.649     8.205    20.869     5.154     2.565     3.249     0.018   141.830   115.619 
