~VERSION INFORMATION
 VERS.               2.10:   CWLS LOG ASCII STANDARD - VERSION 2.10
 WRAP.                 NO:   ONE LINE PER DEPTH STEP
~WELL INFORMATION
#MNEM.UNIT      DATA TYPE    INFORMATION
#----------   ------------   ------------------------------
 STRT.F         4999.7969:   START DEPTH
 STOP.F         5666.3267:   STOP DEPTH
 STEP.F            0.5000:   STEP LENGTH
 NULL.          -999.2500:   NO VALUE
 COMP. Fluor Daniel (NPOSR), Inc.:   COMPANY
 WELL.            75-X-10:   WELL
 FLD .           N.P.R. 3:   FIELD
 LOC . 10-38N-78W-NATRONA-WY:   LOCATION
 STAT.                 WY:   STATE
 COUN.            Natrona:   COUNTY
 SRVC.      Western Atlas:   SERVICE COMPANY
 DATE.                   :   LOGDATE
 APIN.         4902522807:   API NUMBER
~CURVE INFORMATION
#MNEM.UNIT       API CODE    CURVE DESCRIPTION
#----------   ------------   ------------------------------
 DEPT.F                  :
 LLD .ohmm   11 220 04 00:   Dual Laterolog, Deep
 LLS .ohmm   11 220 06 00:   Dual Laterolog, shallow
 SP  .mV     06 010 01 00:   Spontaneous Potential
 GR  .GAPI   06 310 01 00:   Gamma Ray
 CDLL.mho/m              :   Conductivity
~PARAMETER INFORMATION
#MNEM.UNIT          VALUE    DESCRIPTION
#----------   ------------   ------------------------------
 EKB .F         5198.0000:   Kelly bushing
 EGL .F         5188.0000:   Ground level
 EDF .F         5197.0000:   Drilling floor
 EPD .F           10.0000:   Permanent datum
 TD  .F        56500.0000:   Total depth
 NRUN.             1.0000:   Number of Runs
#--RUN 1---   ------------   The following are for Run 1---
 RUN .             1.0000:   Run 1
 DATE.mm/dd/yyyy 07/04/1996:   Date Logged
 DD  .ft             5650:   Depth Driller
 DL  .ft             5647:   Depth Logger
 BLI .ft             5627:   Bottom Log Interval
 TLI .ft            surf.:   Top Log Interval
 CSS .inch          9.875:   Casing Size
 CTD1.ft              445:   Casing Driller 1
 CTL1.ft              444:   Casing Logger 1
 BS  .inch           8.75:   Bit Size
 DFT .           gel/chem:   Type Fluid In Hole
 DFD .lb/gal          9.5:   Mud Weight
 DFV .sec              40:   Viscosity
 DFPH.                9.0:   pH
 DFL .gal             7.6:   Fluid Loss
 WSS .              circ.:   Source Of Sample
 RM  .ohmm            .61:   Rm
 EMT .F                84:   Rm Meas. Temp.
 RMF .ohmm            .48:   Rmf
 MFT .F                84:   Rmf Meas. Temp.
 RMC .ohmm            .75:   Rmc
 MCST.F                84:   Rmc Meas. Temp.
 MFSS.              calc.:   Source Rmf.
 MCSS.              calc.:   Source Rmc.
 RMB .ohmm            .29:   Rm. At BHT
 BHT .F               176:   BHT.
 TCS .hh:mm        6 hrs.:   Time Circ. Stopped
 MRT .F               176:   Maximum Recorded Temp.
 LUN .            hl 6530:   Logging Unit Number
 LUL .             Casper:   Logging Unit Location
 ENGI.           Brownlow:   Recorded By
 WITN.             Lebeau:   Witnessed By
 DGBY.              Burke:   Digitized By
~OTHER INFORMATION
# Borehole Volume Computed for 7" Casing
~A  DEPTH      LLD        LLS         SP         GR       CDLL
# ...
 5487.7970   293.2973   144.6068    58.6756    15.8794     6.4282
 5488.2970   277.2326   148.8422    58.6832    15.2807     6.4331
 5488.7970   275.3699   149.0434    58.5349    14.9946     6.4763
 5489.2970   287.4943   136.7219    58.3872    15.0194     7.2186
 5489.7970   308.8007   115.5381    58.5505    15.3977     7.4909
 5490.2970   322.3970    94.3544    58.8693    16.9401     8.0019
 5490.7970   329.6342    69.3445    58.8785    16.9644    10.0519
 5491.2970   336.7132    67.9086    58.8861    15.7446    11.1047
 5491.7970   339.2349    67.9498    58.8937    14.8297    11.1107
 5492.2970   320.6924    77.2447    58.5903    14.5430     9.4274
 5492.7970   306.9215   123.4438    58.4404    14.8844     7.8441
 5493.2970   284.4624   142.3355    58.2925    15.2198     6.4915
 5493.7970   272.7277   137.4408    57.9906    15.5551     6.4969
 5494.2970   268.9784   110.3557    57.3765    15.8905     7.4214
 5494.7970   281.7426    97.8131    57.0730    15.9376     8.8274
 5495.2970   295.2752    93.0797    56.7696    17.6996     9.2098
 5495.7970   299.6425    91.8974    56.7790    21.2572     8.8380
 5496.2970   295.5234   108.2542    57.0977    24.0809     8.8450
 5496.7970   296.0816   127.5069    57.8829    26.9046     8.0772
 5497.2970   308.6833   145.9808    58.8236    30.0394     7.2443
 5497.7970   324.5711   162.4544    59.4533    32.5520     5.7714
 5498.2970   327.0410   176.9792    59.9274    30.7101     5.0034
 5498.7970   322.0251   184.7662    60.5571    27.9350     5.0092
 5499.2970   315.8980   183.5488    61.0312    25.7820     5.0162
 5499.7970   307.1618   174.7378    61.5054    26.4298     5.2760
 5500.2970   305.1347   121.7485    62.1508    33.9107     7.3451
 5500.7970   303.1210   117.5656    62.3028    35.7876  -999.2500
 5501.2970   298.9283   121.8746    62.3123    35.1761  -999.2500
 5501.7970   286.6559   131.3007    62.3218    27.6619  -999.2500
 5502.2970   252.3809   149.8952    62.3312    25.1547  -999.2500
 5502.7970   223.7878   179.0830    62.3407    24.3215  -999.2500
 5503.2970   215.9541   223.2600    62.3509    25.2680  -999.2500
 5503.7970   213.1100   262.9747    62.6866    25.2786  -999.2500
 5504.2970   211.6826   342.1059    62.9937    23.4230  -999.2500
 5504.7970   210.2857   402.9617    63.0032    15.0328  -999.2500
 5505.2970   207.2656   520.5093    63.1682    13.8019  -999.2500
 5505.7970   206.0476   543.6141    63.6442    13.4989  -999.2500
 5506.2970   212.0895   446.9057    64.1203    13.8232  -999.2500
 5506.7970   219.8608   381.5631    64.1298    14.1449  -999.2500
 5507.2970   224.9147   358.1430    63.9838    14.8078  -999.2500
 5507.7970   227.9990   358.3284    63.5267    16.6571  -999.2500
 5508.2970   218.5935   355.9791    63.3806    17.6009  -999.2500
 5508.7970   134.9370   322.4826    63.8756    17.9226  -999.2500
 5509.2970   104.8740   288.0213    64.6685    18.5553  -999.2500
 5509.7970    94.6877   241.3280    65.2778    18.8770  -999.2500
 5510.2970    90.1285   170.5420    66.0649    18.5739    -0.7445
 5510.7970    94.7787   110.4855    66.8520    16.4099     0.2114
 5511.2970   101.3384   100.2796    68.2588    15.4874     1.5382
 5511.7970   114.0934    93.8959    67.3375    14.2539     3.1558
 5512.2970   174.7879    85.9535    65.1697    13.9535     5.0728
 5512.7970   191.7841    78.0112    64.2461    14.9412     7.6678
 5513.2970   167.6580    70.0688    63.6335    17.3989    11.5212
 5513.7970   148.5537    62.1265    63.7985    17.4095    14.9377
 5514.2970   133.6903    54.1842    63.8080    17.4201    19.2070
 5514.7970   121.0966    46.2418    63.5088    17.4308    20.6566
 5515.2970   125.5337    38.2995    62.7407    18.0635    23.1118
 5515.7970   142.0571    36.5224    62.5947    18.6935    23.2188
 5516.2970   179.1956    36.8063    62.6042    16.2185    22.3987
 5516.7970   217.1725    42.1404    62.6137    15.9178    19.0287
 5517.2970   246.9029    45.5850    62.4653    16.8618    15.2376
 5517.7970   256.2849    49.3111    62.3192    17.4948    13.6778
 5518.2970   269.0912    51.1185    62.1753    17.5079    15.2059
 5518.7970   273.0714    49.0132    62.1851    16.5854    18.2017
 5519.2970   265.5512    46.3324    62.0390    15.6602    19.8110
 5519.7970   228.7384    43.1445    61.8930    15.6735    19.7899
 5520.2970   166.5819    41.1099    61.9049    15.9952    19.7733
 5520.7970   153.6338    41.1365    61.7565    16.9389    19.7559
 5521.2970   161.5322    41.7461    61.6104    17.8827    18.9644
 5521.7970   181.0455    44.8392    61.6223    19.4485    17.7329
 5522.2970   202.9161    57.0859    61.6318    24.7469    14.5341
 5522.7970   254.7942    79.8480    61.7968    27.2460    10.4109
 5523.2970   306.5905   102.6101    61.8063    26.9455     8.8982
 5523.7970   410.3820   125.3721    61.9713    27.5808     6.4244
 5524.2970   541.5642   136.9689    62.6130    29.4577     5.7214
 5524.7970   737.9661   134.1535    63.2348    30.7125     5.7064
 5525.2970   897.4286   119.8175    63.2463    31.3452     5.6891
 5525.7970   911.3754   114.8411    63.4114    31.3559     5.6686
 5526.2970   799.9726   114.1297    63.5764    30.4334     6.4271
 5526.7970   674.1546   140.2969    63.8969    28.8888     6.4047
 5527.2970   625.8871   157.2460    64.2174    28.8994     5.6195
 5527.7970   648.7839   160.7124    64.5380    29.5322     5.6021
 5528.2970   663.0347   155.1908    64.5475    32.6796     5.5842
 5528.7970   609.1325   146.7026    64.5570    33.2859     5.5673
 5529.2970   528.7069   140.6607    64.2554    31.7440     4.7772
 5529.7970   457.3915   137.7681    64.4206    29.2663     4.7587
 5530.2970   380.2817   138.8629    64.5878    23.9892     4.7424
 5530.7970   303.1719   144.0658    64.7528    21.5089     4.7250
 5531.2970   226.0620   162.4658    64.7623    21.5222     4.7059
 5531.7970   148.9522   178.2578    64.7718    22.1549     3.9174
 5532.2970   108.0251   192.8287    64.6258    22.7876     3.9000
 5532.7970    93.0987   195.6861    64.3242    23.7314     3.8804
 5533.2970    85.5301   186.3002    64.3337    24.3842     3.8653
 5533.7970    75.8358   165.2152    64.1877    26.9830     3.8479
 5534.2970    66.6349   151.8081    63.7306    30.2978     3.8276
 5534.7970    58.3686   142.3773    63.5846    31.8636     4.1068
 5535.2970    51.3867   117.0192    63.5944    31.2495     6.9093
 5535.7970    48.9103    93.8543    63.4504    30.9491     9.1845
 5536.2970    51.4302    85.0229    63.3020    31.2735    10.4462
 5536.7970    56.4280    77.5710    63.0005    32.2172    12.2440
 5537.2970    61.0384    70.7721    63.0123    32.8499    12.2269
 5537.7970    64.6338    65.4700    63.0218    33.1716    12.2095
 5538.2970    65.6118    64.6027    63.0313    35.0485    12.1913
 5538.7970    61.9676    71.3962    63.0408    38.7916    10.9639
 5539.2970    59.7863    80.0215    63.0503    38.0735     9.5059
 5539.7970    57.3869    93.5897    63.0598    32.9058     5.9562
 5540.2970    56.9989   175.5376    63.0851    27.0598     3.9995
 5540.7970    57.8449   298.8055    63.3922    19.9423  -999.2500
 5541.2970    59.5367   377.3052    63.5572    11.4766  -999.2500
 5541.7970    66.2567   382.1895    63.5667    11.4873  -999.2500
 5542.2970    79.7257   353.7216    63.4183    13.3642  -999.2500
 5542.7970   113.9199   332.0103    63.2723    14.3053  -999.2500
 5543.2970   162.7614   305.0678    63.2842    13.3828     1.2526
 5543.7970   211.6028   284.3183    63.1358    13.0824     2.7243
 5544.2970   238.4007   272.6088    63.6142    12.4736     3.7648
 5544.7970   225.3301   270.8178    63.4682    11.8618     4.2383
 5545.2970   204.0922   280.8143    63.1666    11.5617     2.4240
 5545.7970   201.2968   309.0764    63.0206    11.8836    -0.1411
 5546.2970   202.8199   330.9030    62.7214    12.8812  -999.2500
 5546.7970   226.5845   333.4320    61.3312    14.3957  -999.2500
 5547.2970   258.4532   331.2030    60.4076    15.6505  -999.2500
 5547.7970   271.7403   326.7052    59.9505    17.8384  -999.2500
 5548.2970   264.2420   331.5892    59.6489    19.4042  -999.2500
