~Version Information Block
 VERS.                1.20:     CWLS LOG ASCII STANDARD - VERSION 1.20
 WRAP.                  NO:     One Line Per Depth Step
     
~Well Information Block
#MNEM.UNIT       Data Type     Information
#컴컴컴컴컴    컴컴컴컴컴컴�   컴컴컴컴컴컴컴컴컴컴컴컴컴컴컴컴컴컴컴컴컴컴�
 STRT.FT            0.0000:
 STOP.FT         5650.0000:
 STEP.FT            0.5000:
 NULL.          -9999.0000:
 COMP.             COMPANY:    FLUOR DANIEL (NPOSR)INC.
 WELL.                WELL:    75-X-10                 
 FLD .               FIELD:    N.P.R. # 3              
 LOC .            LOCATION:    SEC 10 T38N R78W                        
 CNTY.              COUNTY:    NATRONA                       
 STAT.               STATE:    WYOMING   
 SRVC.     SERVICE COMPANY:    WESTERN ATLAS                        
 DATE.                DATE:    07/04/1996
 UWI .      UNIQUE WELL ID:          10.0
 API .          API NUMBER:    4902522807                
     
~Curve Information Block
#MNEM.UNIT       API CODE      Curve Description
#컴컴컴컴컴    컴컴컴컴컴컴�   컴컴컴컴컴컴컴컴컴컴컴컴컴컴컴컴컴컴컴컴컴컴�
 DEPTH.F        95 995 99 1:   Depth                                                        
 GR  .API       31 310 01 1:   Gamma Ray Counts                                             
 CAL .IN        28 280 99 1:   Caliper                                                      
 RD  .OHMM      22 220 10 1:   Logarithmic Resistivity from ED, ID                          
 RS  .OHMM      22 220 09 1:   Logarithmic Resistivity from ES, IS                          
 CNC .%         95 995 99 1:   Corrected Neutron Porosity from CN                           
 PORZ.%         95 890 99 1:   Porosity from Z-Densilog                                     
 ZDEN.G/C3      95 350 01 1:   Z-Densilog Bulk Density                                      
 PE  .BARN      95 358 01 1:   Photo Electric Cross Section                                 
 ZCOR.G/C3      39 356 99 1:   Z-Densilog Bulk Density Correction                           
 SP  .MV        95 010 01 1:   Spontaneous Potential from Tool Electrode                    
 CDLL.MMHO      95 995 99 1:   Conductivity from RD                                         
     
~Parameter Information Block
#MNEM.UNIT         Value       Description
#컴컴컴컴컴    컴컴컴컴컴컴�   컴컴컴컴컴컴컴컴컴컴컴컴컴컴컴컴컴컴컴컴컴컴�
 EKB .FT            0.0000:    ELEVATION KELLY BUSHING
 EGL .FT            0.0000:    ELEVATION GROUND LEVEL
 RUN .              1.0000:    RUN NUMBER
 SON .               00000:    SERVICE ORDER NUMBER
 DD  .FT            0.0000:    DEPTH-DRILLER
 DL  .FT            0.0000:    DEPTH-LOGGER
 BLI .FT            0.0000:    BOTTOM LOGGED INTERVAL
 TLI .FT            0.0000:    TOP LOGGED INTERVAL
 CS  .  IN          0.0000:    CASING SIZE 
 CDD .FT            0.0000:    CASING DEPTH-DRILLER
 CDL .FT            0.0000:    CASING DEPTH-LOGGER
 BS  .IN            0.0000:    BIT SIZE
 DFT .               LIGNO:    MUD TYPE   
 DFD .LB/G          0.0000:    MUD WEIGHT
 DFV .S             0.0000:    MUD VISCOSITY
 DFPH.              0.0000:    MUD PH
 DFL .CC            0.0000:    MUD FLUID LOSS
 RMS .           FLOW LINE:    MUD SAMPLE SOURCE
 RM  .OHMM          0.0000:    MUD RESISTIVITY          
 RMT .DEGF          0.0000:    RM TEMPERATURE
 RMBH.OHMM          0.0000:    MUD RESISTIVITY AT BHT
 BHT .DEGF          0.0000:    BOTTOM HOLE TEMPERATURE
 RMFS.            MEASURED:    MUD FILTRATE SOURCE
 RMF .OHMM          0.0000:    MUD FILTRATE RESISTIVITY
 RMFT.DEGF          0.0000:    RMF TEMPERATURE
 RMCS.            MEASURED:    MUD CAKE SOURCE
 RMC .OHMM          0.0000:    MUD CAKE RESISTIVITY
 RMCT.DEGF          0.0000:    RMC TEMPERATURE
     
#      Computation Parameters Used
#MNEM.UNIT         Value       Description
#컴컴컴컴컴    컴컴컴컴컴컴�   컴컴컴컴컴컴컴컴컴컴컴컴컴컴컴컴컴컴컴컴컴컴�
 MDEN.G/CC          2.6500:    LOGGING MATRIX DENSITY
 MATR.              1.0000:    NEUTRON MATRIX (0=LIME,1=SAND,2=DOLO)
 FNUM.              0.6200:    TORTUOSITY CONSTANT ARCHIES (a)
 FEXP.              2.1500:    CEMENTATION EXPONENT ARCHIES (m)
     
~Other Information
     
#컴컴컴컴컴컴컴컴컴컴컴컴컴컴컴컴컴컴컴컴컴컴컴컴컴컴컴컴컴컴컴컴컴컴컴컴컴컴컴�
# In Making Interpretations Of Logs Our Employees Will Give Customer The Benefit
# Of Their Best Judgement,  But  Since All Interpretations Are Opinions Based On
# Inferences From Electrical Or  Other  Measurements,  We Cannot,  And We Do Not
# Guarantee The Accuracy Or  Correctness Of Any Interpretation.  We Shall Not Be
# Liable Or  Responsible For Any Loss,  Cost,  Damages, Or  Expenses  Whatsoever
# Incurred Or  Sustained By The Customer  Resulting  From Any Interpretaion Made
# By Any Of Our Employees.  ATLAS WIRELINE SERVICES-WESTERN ATLAS INTERNATIONAL
#컴컴컴컴컴컴컴컴컴컴컴컴컴컴컴컴컴컴컴컴컴컴컴컴컴컴컴컴컴컴컴컴컴컴컴컴컴컴컴�
     
~A  DEPTH      GR        CAL       RD        RS        CNC       PORZ      ZDEN      PE        ZCOR      SP        CDLL      
# ...
  4752.000    78.548     9.510    24.129    24.750    12.178    -1.409     2.673     3.630     0.010   139.528    41.443 
  4752.500    79.825     9.510    23.165    23.635    11.885    -1.723     2.678     3.606     0.011   139.451    43.169 
  4753.000    83.087     9.510    22.643    22.873    12.196    -1.720     2.678     3.587     0.012   139.340    44.165 
  4753.500    86.178     9.510    23.538    23.461    12.526    -1.517     2.675     3.586     0.015   139.222    42.485 
  4754.000    87.389     9.510    26.005    25.619    11.951    -1.700     2.678     3.573     0.024   139.132    38.455 
  4754.500    84.916     9.510    29.359    28.741    10.944    -2.298     2.688     3.549     0.031   139.121    34.061 
  4755.000    79.893     9.510    32.539    31.839    10.184    -2.777     2.696     3.544     0.029   139.197    30.733 
  4755.500    75.821     9.510    34.420    33.820     9.864    -2.749     2.695     3.555     0.022   139.322    29.053 
  4756.000    73.329     9.510    34.392    33.956     9.779    -2.338     2.689     3.558     0.017   139.456    29.076 
  4756.500    70.468     9.506    33.072    32.779     9.784    -2.087     2.684     3.545     0.015   139.525    30.237 
  4757.000    68.170     9.487    30.747    30.674    10.090    -2.295     2.688     3.537     0.016   139.529    32.524 
  4757.500    69.527     9.453    27.733    27.838    10.808    -2.575     2.692     3.552     0.016   139.566    36.058 
  4758.000    75.183     9.424    25.693    25.804    11.725    -2.571     2.692     3.568     0.019   139.679    38.921 
  4758.500    81.435     9.414    25.637    25.672    12.350    -2.424     2.690     3.541     0.024   139.825    39.007 
  4759.000    83.573     9.414    26.974    26.999    12.216    -2.419     2.690     3.601     0.025   139.968    37.073 
  4759.500    81.805     9.424    27.962    28.212    11.736    -2.476     2.691     3.698     0.021   140.071    35.763 
  4760.000    80.084     9.453    26.832    27.570    11.734    -2.041     2.684     3.679     0.015   140.103    37.269 
  4760.500    81.070     9.487    23.617    24.741    12.417    -1.107     2.668     3.691     0.004   140.099    42.343 
  4761.000    84.407     9.506    20.157    21.325    13.940    -0.718     2.662     3.694     0.000   140.145    49.610 
  4761.500    89.403     9.510    17.660    18.715    15.882    -1.068     2.668     3.706     0.007   140.316    56.626 
  4762.000    95.405     9.510    16.099    17.054    17.700    -1.066     2.668     3.783     0.008   140.538    62.117 
  4762.500   101.702     9.510    15.279    16.158    18.805    -0.534     2.659     3.841    -0.003   140.643    65.447 
  4763.000   106.238     9.510    15.312    16.108    19.491    -0.465     2.658     3.916    -0.010   140.562    65.308 
  4763.500   107.029     9.510    16.313    17.019    19.423    -1.261     2.671     4.001    -0.003   140.372    61.300 
  4764.000   103.078     9.510    17.961    18.607    18.357    -2.254     2.687     3.981     0.012   140.172    55.677 
  4764.500    96.989     9.510    19.317    19.996    17.017    -2.811     2.696     3.677     0.026   140.017    51.768 
  4765.000    94.564     9.510    19.549    20.306    16.525    -2.949     2.699     3.345     0.033   139.913    51.153 
  4765.500    96.748     9.510    19.027    19.766    16.841    -2.918     2.698     3.258     0.028   139.811    52.556 
  4766.000    98.041     9.510    18.638    19.251    17.227    -2.761     2.696     3.283     0.018   139.725    53.655 
  4766.500    96.495     9.510    18.678    19.150    17.253    -2.507     2.691     3.336     0.013   139.709    53.538 
  4767.000    93.834     9.510    18.931    19.338    16.810    -2.373     2.689     3.383     0.015   139.813    52.823 
  4767.500    90.892     9.510    19.077    19.525    16.415    -2.704     2.695     3.490     0.017   140.058    52.420 
  4768.000    90.579     9.510    18.939    19.487    16.568    -3.492     2.708     3.689     0.019   140.386    52.800 
  4768.500    95.170     9.510    18.487    19.136    16.953    -4.024     2.716     3.697     0.020   140.639    54.092 
  4769.000   100.478     9.510    17.849    18.601    17.059    -3.697     2.711     3.490     0.019   140.762    56.027 
  4769.500   102.723     9.510    17.172    18.048    17.681    -2.998     2.699     3.338     0.019   140.821    58.235 
  4770.000   102.296     9.510    16.514    17.518    18.506    -2.555     2.692     3.361     0.021   140.879    60.555 
  4770.500   101.535     9.510    15.812    16.922    18.906    -2.285     2.688     3.537     0.021   140.973    63.244 
  4771.000   103.337     9.510    15.005    16.165    19.551    -2.012     2.683     3.680     0.016   141.066    66.644 
  4771.500   106.801     9.510    14.187    15.329    20.491    -1.868     2.681     3.753     0.009   141.078    70.487 
  4772.000   107.822     9.510    13.608    14.683    21.325    -2.035     2.684     3.864     0.005   141.003    73.484 
  4772.500   106.969     9.510    13.636    14.614    21.406    -2.595     2.693     4.015     0.008   140.936    73.336 
  4773.000   106.185     9.510    14.549    15.423    20.485    -3.293     2.704     4.094     0.020   140.949    68.734 
  4773.500   104.166     9.510    16.139    16.949    19.141    -3.561     2.709     4.119     0.032   141.043    61.964 
  4774.000   100.390     9.510    17.454    18.286    18.321    -3.198     2.703     3.934     0.033   141.122    57.293 
  4774.500    97.477     9.510    17.891    18.759    18.050    -2.480     2.691     3.652     0.027   141.089    55.893 
  4775.000    96.653     9.510    18.073    18.905    17.358    -1.840     2.680     3.515     0.025   140.953    55.330 
  4775.500    95.011     9.510    18.645    19.371    16.649    -1.626     2.677     3.573     0.028   140.776    53.632 
  4776.000    89.164     9.510    19.671    20.310    15.360    -1.853     2.681     3.579     0.030   140.624    50.836 
  4776.500    82.310     9.510    20.596    21.290    14.269    -2.265     2.687     3.564     0.031   140.552    48.553 
  4777.000    80.272     9.510    20.554    21.388    13.954    -2.640     2.694     3.568     0.031   140.561    48.651 
  4777.500    82.705     9.510    19.658    20.512    14.278    -2.721     2.695     3.565     0.027   140.587    50.870 
  4778.000    85.362     9.510    19.050    19.805    14.606    -2.501     2.691     3.560     0.022   140.583    52.492 
  4778.500    87.262     9.509    19.350    19.997    14.633    -2.121     2.685     3.524     0.015   140.556    51.679 
  4779.000    88.669     9.500    20.391    20.943    14.040    -1.587     2.676     3.636     0.008   140.556    49.040 
  4779.500    87.726     9.478    21.852    22.282    12.987    -1.233     2.670     3.866     0.007   140.646    45.762 
  4780.000    83.175     9.460    23.481    23.753    12.042    -1.458     2.674     4.156     0.015   140.836    42.587 
  4780.500    77.415     9.450    24.985    25.067    11.670    -1.866     2.681     4.230     0.021   141.053    40.025 
  4781.000    74.288     9.437    26.541    26.354    11.479    -1.974     2.683     3.902     0.024   141.215    37.677 
  4781.500    73.247     9.422    28.691    28.139    10.946    -1.869     2.681     3.496     0.028   141.323    34.854 
  4782.000    71.127     9.414    31.144    30.245    10.428    -1.722     2.678     3.351     0.029   141.413    32.109 
  4782.500    67.938     9.414    32.978    31.895     9.929    -1.705     2.678     3.463     0.022   141.529    30.324 
  4783.000    66.491     9.414    33.817    32.711     9.198    -1.883     2.681     3.488     0.016   141.692    29.571 
  4783.500    67.095     9.414    33.863    32.804     8.721    -2.158     2.686     3.511     0.022   141.859    29.531 
  4784.000    67.899     9.414    33.425    32.458     8.634    -2.301     2.688     3.562     0.032   141.924    29.918 
  4784.500    67.678     9.414    32.410    31.660     8.775    -1.975     2.683     3.608     0.032   141.872    30.855 
