~Version Information Block
 VERS.                1.20:     CWLS LOG ASCII STANDARD - VERSION 1.20
 WRAP.                  NO:     One Line Per Depth Step
     
~Well Information Block
#MNEM.UNIT       Data Type     Information
#컴컴컴컴컴    컴컴컴컴컴컴�   컴컴컴컴컴컴컴컴컴컴컴컴컴컴컴컴컴컴컴컴컴컴�
 STRT.FT            0.0000:
 STOP.FT         5650.0000:
 STEP.FT            0.5000:
 NULL.          -9999.0000:
 COMP.             COMPANY:    FLUOR DANIEL (NPOSR)INC.
 WELL.                WELL:    75-X-10                 
 FLD .               FIELD:    N.P.R. # 3              
 LOC .            LOCATION:    SEC 10 T38N R78W                        
 CNTY.              COUNTY:    NATRONA                       
 STAT.               STATE:    WYOMING   
 SRVC.     SERVICE COMPANY:    WESTERN ATLAS                        
 DATE.                DATE:    07/04/1996
 UWI .      UNIQUE WELL ID:          10.0
 API .          API NUMBER:    4902522807                
     
~Curve Information Block
#MNEM.UNIT       API CODE      Curve Description
#컴컴컴컴컴    컴컴컴컴컴컴�   컴컴컴컴컴컴컴컴컴컴컴컴컴컴컴컴컴컴컴컴컴컴�
 DEPTH.F        95 995 99 1:   Depth                                                        
 GR  .API       31 310 01 1:   Gamma Ray Counts                                             
 CAL .IN        28 280 99 1:   Caliper                                                      
 RD  .OHMM      22 220 10 1:   Logarithmic Resistivity from ED, ID                          
 RS  .OHMM      22 220 09 1:   Logarithmic Resistivity from ES, IS                          
 CNC .%         95 995 99 1:   Corrected Neutron Porosity from CN                           
 PORZ.%         95 890 99 1:   Porosity from Z-Densilog                                     
 ZDEN.G/C3      95 350 01 1:   Z-Densilog Bulk Density                                      
 PE  .BARN      95 358 01 1:   Photo Electric Cross Section                                 
 ZCOR.G/C3      39 356 99 1:   Z-Densilog Bulk Density Correction                           
 SP  .MV        95 010 01 1:   Spontaneous Potential from Tool Electrode                    
 CDLL.MMHO      95 995 99 1:   Conductivity from RD                                         
     
~Parameter Information Block
#MNEM.UNIT         Value       Description
#컴컴컴컴컴    컴컴컴컴컴컴�   컴컴컴컴컴컴컴컴컴컴컴컴컴컴컴컴컴컴컴컴컴컴�
 EKB .FT            0.0000:    ELEVATION KELLY BUSHING
 EGL .FT            0.0000:    ELEVATION GROUND LEVEL
 RUN .              1.0000:    RUN NUMBER
 SON .               00000:    SERVICE ORDER NUMBER
 DD  .FT            0.0000:    DEPTH-DRILLER
 DL  .FT            0.0000:    DEPTH-LOGGER
 BLI .FT            0.0000:    BOTTOM LOGGED INTERVAL
 TLI .FT            0.0000:    TOP LOGGED INTERVAL
 CS  .  IN          0.0000:    CASING SIZE 
 CDD .FT            0.0000:    CASING DEPTH-DRILLER
 CDL .FT            0.0000:    CASING DEPTH-LOGGER
 BS  .IN            0.0000:    BIT SIZE
 DFT .               LIGNO:    MUD TYPE   
 DFD .LB/G          0.0000:    MUD WEIGHT
 DFV .S             0.0000:    MUD VISCOSITY
 DFPH.              0.0000:    MUD PH
 DFL .CC            0.0000:    MUD FLUID LOSS
 RMS .           FLOW LINE:    MUD SAMPLE SOURCE
 RM  .OHMM          0.0000:    MUD RESISTIVITY          
 RMT .DEGF          0.0000:    RM TEMPERATURE
 RMBH.OHMM          0.0000:    MUD RESISTIVITY AT BHT
 BHT .DEGF          0.0000:    BOTTOM HOLE TEMPERATURE
 RMFS.            MEASURED:    MUD FILTRATE SOURCE
 RMF .OHMM          0.0000:    MUD FILTRATE RESISTIVITY
 RMFT.DEGF          0.0000:    RMF TEMPERATURE
 RMCS.            MEASURED:    MUD CAKE SOURCE
 RMC .OHMM          0.0000:    MUD CAKE RESISTIVITY
 RMCT.DEGF          0.0000:    RMC TEMPERATURE
     
#      Computation Parameters Used
#MNEM.UNIT         Value       Description
#컴컴컴컴컴    컴컴컴컴컴컴�   컴컴컴컴컴컴컴컴컴컴컴컴컴컴컴컴컴컴컴컴컴컴�
 MDEN.G/CC          2.6500:    LOGGING MATRIX DENSITY
 MATR.              1.0000:    NEUTRON MATRIX (0=LIME,1=SAND,2=DOLO)
 FNUM.              0.6200:    TORTUOSITY CONSTANT ARCHIES (a)
 FEXP.              2.1500:    CEMENTATION EXPONENT ARCHIES (m)
     
~Other Information
     
#컴컴컴컴컴컴컴컴컴컴컴컴컴컴컴컴컴컴컴컴컴컴컴컴컴컴컴컴컴컴컴컴컴컴컴컴컴컴컴�
# In Making Interpretations Of Logs Our Employees Will Give Customer The Benefit
# Of Their Best Judgement,  But  Since All Interpretations Are Opinions Based On
# Inferences From Electrical Or  Other  Measurements,  We Cannot,  And We Do Not
# Guarantee The Accuracy Or  Correctness Of Any Interpretation.  We Shall Not Be
# Liable Or  Responsible For Any Loss,  Cost,  Damages, Or  Expenses  Whatsoever
# Incurred Or  Sustained By The Customer  Resulting  From Any Interpretaion Made
# By Any Of Our Employees.  ATLAS WIRELINE SERVICES-WESTERN ATLAS INTERNATIONAL
#컴컴컴컴컴컴컴컴컴컴컴컴컴컴컴컴컴컴컴컴컴컴컴컴컴컴컴컴컴컴컴컴컴컴컴컴컴컴컴�
     
~A  DEPTH      GR        CAL       RD        RS        CNC       PORZ      ZDEN      PE        ZCOR      SP        CDLL      
# ...
  4521.000    93.086     9.310    23.228    20.177    12.761     0.536     2.641     3.570     0.008   134.318    43.052 
  4521.500    86.811     9.310    25.003    21.805    11.930     0.572     2.641     3.213     0.014   134.258    39.996 
  4522.000    83.258     9.310    26.024    22.843    11.652     0.816     2.637     3.102     0.023   134.187    38.426 
  4522.500    81.536     9.310    26.398    23.352    11.591     1.051     2.633     3.177     0.026   134.139    37.882 
  4523.000    79.581     9.310    25.626    22.993    11.866     0.928     2.635     3.327     0.023   134.136    39.022 
  4523.500    78.755     9.310    22.712    20.840    12.829     0.648     2.639     3.449     0.013   134.224    44.029 
  4524.000    84.487     9.310    18.410    17.236    14.908     0.487     2.642     3.493     0.004   134.349    54.317 
  4524.500    98.388     9.310    14.744    13.949    17.285     0.267     2.646     3.689     0.002   134.410    67.826 
  4525.000   114.113     9.320    12.492    11.857    20.345     0.046     2.649     4.134     0.001   134.389    80.048 
  4525.500   123.867     9.348    11.450    10.867    24.181     0.156     2.647     4.430    -0.004   134.290    87.335 
  4526.000   125.319     9.383    11.254    10.681    25.188     0.423     2.643     4.371    -0.008   134.141    88.859 
  4526.500   122.542     9.402    11.584    11.031    24.210     0.431     2.643     4.301    -0.006   133.991    86.327 
  4527.000   120.025     9.405    12.045    11.567    24.008     0.151     2.648     4.301    -0.004   133.830    83.024 
  4527.500   118.731     9.405    12.271    11.917    24.231    -0.339     2.656     4.336    -0.005   133.632    81.496 
  4528.000   118.533     9.405    12.234    12.001    24.492    -1.051     2.667     4.284    -0.003   133.422    81.739 
  4528.500   119.019     9.405    12.149    11.999    24.717    -1.539     2.675     3.998    -0.001   133.250    82.310 
  4529.000   117.658     9.405    12.132    12.029    24.674    -1.169     2.669     3.650    -0.008   133.143    82.424 
  4529.500   114.925     9.405    12.096    12.024    24.480     0.082     2.649     3.507    -0.011   133.080    82.671 
  4530.000   114.461     9.405    11.854    11.811    24.572     1.424     2.627     3.607     0.030   133.020    84.362 
  4530.500   116.719     9.395    11.445    11.400    25.176     2.458     2.609     3.747     0.096   132.994    87.374 
  4531.000   118.526     9.367    11.139    11.042    25.805     2.564     2.608     3.813     0.116   133.051    89.775 
  4531.500   118.380     9.340    10.992    10.825    25.800     1.232     2.630     3.806     0.076   133.147    90.974 
  4532.000   117.274     9.336    10.832    10.614    25.210    -0.672     2.661     3.800     0.035   133.228    92.320 
  4532.500   116.810     9.343    10.624    10.375    24.617    -1.789     2.680     3.787     0.021   133.313    94.129 
  4533.000   118.137     9.343    10.645    10.342    23.982    -1.592     2.676     3.681     0.012   133.421    93.944 
  4533.500   120.147     9.356    11.360    10.922    22.501    -0.546     2.659     3.546     0.003   133.518    88.032 
  4534.000   118.636     9.383    13.234    12.525    19.517     0.418     2.643     3.491     0.007   133.588    75.562 
  4534.500   108.867     9.402    16.549    15.419    16.096     0.700     2.638     3.439     0.021   133.688    60.427 
  4535.000    91.766     9.405    20.688    19.128    13.762     0.523     2.641     3.391     0.034   133.855    48.336 
  4535.500    74.853     9.405    23.270    21.544    12.886     0.322     2.645     3.315     0.035   134.031    42.974 
  4536.000    67.070     9.402    22.595    20.953    12.852     0.015     2.650     3.239     0.025   134.112    44.258 
  4536.500    71.203     9.383    20.508    18.917    13.432    -0.372     2.656     3.229     0.014   134.055    48.760 
  4537.000    81.955     9.348    19.188    17.466    14.373    -0.356     2.656     3.213     0.007   133.971    52.115 
  4537.500    91.132     9.320    19.333    17.285    14.638     0.201     2.647     3.184     0.005   134.004    51.724 
  4538.000    93.526     9.310    20.886    18.347    13.713     0.719     2.638     3.190     0.011   134.138    47.880 
  4538.500    89.157     9.310    23.565    20.414    12.289     0.788     2.637     3.215     0.024   134.227    42.435 
  4539.000    81.421     9.310    27.043    23.181    10.977     0.512     2.642     3.150     0.037   134.163    36.979 
  4539.500    73.330     9.310    30.764    26.149    10.030     0.278     2.645     2.864     0.044   133.952    32.505 
  4540.000    65.799     9.310    34.239    28.896     9.386     0.483     2.642     2.563     0.039   133.693    29.206 
  4540.500    59.189     9.310    37.605    31.562     8.833     0.992     2.634     2.563     0.020   133.478    26.592 
  4541.000    54.659     9.310    40.341    33.849     8.281     1.212     2.630     3.021     0.006   133.357    24.789 
  4541.500    52.613     9.310    40.995    34.618     8.007     1.054     2.633     3.632     0.010   133.344    24.393 
  4542.000    52.369     9.310    39.670    33.834     8.230     1.001     2.633     3.825     0.024   133.397    25.208 
  4542.500    54.192     9.310    38.036    32.771     8.787     1.093     2.632     3.532     0.033   133.457    26.291 
  4543.000    57.306     9.310    37.220    32.404     9.238     1.035     2.633     3.147     0.032   133.517    26.867 
  4543.500    58.442     9.312    36.972    32.710     9.281     0.957     2.634     2.966     0.026   133.596    27.047 
  4544.000    57.685     9.322    35.288    32.197     9.415     1.117     2.632     2.973     0.024   133.673    28.338 
  4544.500    59.723     9.328    29.662    28.289    10.126     1.284     2.629     3.025     0.023   133.730    33.714 
  4545.000    67.673     9.322    22.497    22.177    11.608     1.053     2.633     3.198     0.014   133.836    44.450 
  4545.500    81.448     9.312    17.587    17.575    13.937     0.468     2.642     3.440     0.000   134.082    56.859 
  4546.000    97.673     9.310    15.199    15.257    16.410     0.014     2.650     3.514    -0.008   134.415    65.794 
  4546.500   109.518     9.310    14.329    14.412    18.721    -0.134     2.652     3.511    -0.004   134.691    69.787 
  4547.000   111.963     9.310    14.163    14.273    19.958    -0.186     2.653     3.559     0.004   134.837    70.607 
  4547.500   107.456     9.310    13.938    14.129    19.409    -0.118     2.652     3.585     0.008   134.874    71.747 
  4548.000   104.209     9.310    13.177    13.445    20.418     0.122     2.648     3.562     0.008   134.871    75.891 
  4548.500   106.635     9.310    12.485    12.708    20.872     0.202     2.647     3.642     0.008   134.887    80.098 
  4549.000   111.972     9.310    12.743    12.787    20.297    -0.010     2.650     3.720     0.007   134.921    78.474 
  4549.500   113.108     9.310    14.446    14.182    17.968    -0.118     2.652     3.393     0.007   134.906    69.224 
  4550.000   106.283     9.310    17.909    17.217    15.534     0.292     2.645     2.943     0.008   134.825    55.837 
  4550.500    93.847     9.310    22.703    21.590    13.163     1.009     2.633     2.755     0.011   134.755    44.047 
  4551.000    82.814     9.310    26.557    25.253    11.996     1.442     2.626     2.843     0.012   134.709    37.655 
  4551.500    74.933     9.310    27.798    26.426    11.562     1.368     2.627     3.085     0.008   134.628    35.974 
  4552.000    69.255     9.310    27.452    26.011    11.366     1.304     2.628     3.268     0.007   134.543    36.427 
  4552.500    66.739     9.310    26.428    24.968    11.199     1.748     2.621     3.224     0.009   134.559    37.838 
  4553.000    67.532     9.310    25.233    23.772    11.075     2.502     2.609     3.213     0.010   134.702    39.631 
  4553.500    67.920     9.310    24.380    22.883    10.876     2.894     2.602     3.235     0.011   134.888    41.017 
