~Version Information Block
 VERS.                1.20:     CWLS LOG ASCII STANDARD - VERSION 1.20
 WRAP.                  NO:     One Line Per Depth Step
     
~Well Information Block
#MNEM.UNIT       Data Type     Information
#컴컴컴컴컴    컴컴컴컴컴컴�   컴컴컴컴컴컴컴컴컴컴컴컴컴컴컴컴컴컴컴컴컴컴�
 STRT.FT            0.0000:
 STOP.FT         5650.0000:
 STEP.FT            0.5000:
 NULL.          -9999.0000:
 COMP.             COMPANY:    FLUOR DANIEL (NPOSR)INC.
 WELL.                WELL:    75-X-10                 
 FLD .               FIELD:    N.P.R. # 3              
 LOC .            LOCATION:    SEC 10 T38N R78W                        
 CNTY.              COUNTY:    NATRONA                       
 STAT.               STATE:    WYOMING   
 SRVC.     SERVICE COMPANY:    WESTERN ATLAS                        
 DATE.                DATE:    07/04/1996
 UWI .      UNIQUE WELL ID:          10.0
 API .          API NUMBER:    4902522807                
     
~Curve Information Block
#MNEM.UNIT       API CODE      Curve Description
#컴컴컴컴컴    컴컴컴컴컴컴�   컴컴컴컴컴컴컴컴컴컴컴컴컴컴컴컴컴컴컴컴컴컴�
 DEPTH.F        95 995 99 1:   Depth                                                        
 GR  .API       31 310 01 1:   Gamma Ray Counts                                             
 CAL .IN        28 280 99 1:   Caliper                                                      
 RD  .OHMM      22 220 10 1:   Logarithmic Resistivity from ED, ID                          
 RS  .OHMM      22 220 09 1:   Logarithmic Resistivity from ES, IS                          
 CNC .%         95 995 99 1:   Corrected Neutron Porosity from CN                           
 PORZ.%         95 890 99 1:   Porosity from Z-Densilog                                     
 ZDEN.G/C3      95 350 01 1:   Z-Densilog Bulk Density                                      
 PE  .BARN      95 358 01 1:   Photo Electric Cross Section                                 
 ZCOR.G/C3      39 356 99 1:   Z-Densilog Bulk Density Correction                           
 SP  .MV        95 010 01 1:   Spontaneous Potential from Tool Electrode                    
 CDLL.MMHO      95 995 99 1:   Conductivity from RD                                         
     
~Parameter Information Block
#MNEM.UNIT         Value       Description
#컴컴컴컴컴    컴컴컴컴컴컴�   컴컴컴컴컴컴컴컴컴컴컴컴컴컴컴컴컴컴컴컴컴컴�
 EKB .FT            0.0000:    ELEVATION KELLY BUSHING
 EGL .FT            0.0000:    ELEVATION GROUND LEVEL
 RUN .              1.0000:    RUN NUMBER
 SON .               00000:    SERVICE ORDER NUMBER
 DD  .FT            0.0000:    DEPTH-DRILLER
 DL  .FT            0.0000:    DEPTH-LOGGER
 BLI .FT            0.0000:    BOTTOM LOGGED INTERVAL
 TLI .FT            0.0000:    TOP LOGGED INTERVAL
 CS  .  IN          0.0000:    CASING SIZE 
 CDD .FT            0.0000:    CASING DEPTH-DRILLER
 CDL .FT            0.0000:    CASING DEPTH-LOGGER
 BS  .IN            0.0000:    BIT SIZE
 DFT .               LIGNO:    MUD TYPE   
 DFD .LB/G          0.0000:    MUD WEIGHT
 DFV .S             0.0000:    MUD VISCOSITY
 DFPH.              0.0000:    MUD PH
 DFL .CC            0.0000:    MUD FLUID LOSS
 RMS .           FLOW LINE:    MUD SAMPLE SOURCE
 RM  .OHMM          0.0000:    MUD RESISTIVITY          
 RMT .DEGF          0.0000:    RM TEMPERATURE
 RMBH.OHMM          0.0000:    MUD RESISTIVITY AT BHT
 BHT .DEGF          0.0000:    BOTTOM HOLE TEMPERATURE
 RMFS.            MEASURED:    MUD FILTRATE SOURCE
 RMF .OHMM          0.0000:    MUD FILTRATE RESISTIVITY
 RMFT.DEGF          0.0000:    RMF TEMPERATURE
 RMCS.            MEASURED:    MUD CAKE SOURCE
 RMC .OHMM          0.0000:    MUD CAKE RESISTIVITY
 RMCT.DEGF          0.0000:    RMC TEMPERATURE
     
#      Computation Parameters Used
#MNEM.UNIT         Value       Description
#컴컴컴컴컴    컴컴컴컴컴컴�   컴컴컴컴컴컴컴컴컴컴컴컴컴컴컴컴컴컴컴컴컴컴�
 MDEN.G/CC          2.6500:    LOGGING MATRIX DENSITY
 MATR.              1.0000:    NEUTRON MATRIX (0=LIME,1=SAND,2=DOLO)
 FNUM.              0.6200:    TORTUOSITY CONSTANT ARCHIES (a)
 FEXP.              2.1500:    CEMENTATION EXPONENT ARCHIES (m)
     
~Other Information
     
#컴컴컴컴컴컴컴컴컴컴컴컴컴컴컴컴컴컴컴컴컴컴컴컴컴컴컴컴컴컴컴컴컴컴컴컴컴컴컴�
# In Making Interpretations Of Logs Our Employees Will Give Customer The Benefit
# Of Their Best Judgement,  But  Since All Interpretations Are Opinions Based On
# Inferences From Electrical Or  Other  Measurements,  We Cannot,  And We Do Not
# Guarantee The Accuracy Or  Correctness Of Any Interpretation.  We Shall Not Be
# Liable Or  Responsible For Any Loss,  Cost,  Damages, Or  Expenses  Whatsoever
# Incurred Or  Sustained By The Customer  Resulting  From Any Interpretaion Made
# By Any Of Our Employees.  ATLAS WIRELINE SERVICES-WESTERN ATLAS INTERNATIONAL
#컴컴컴컴컴컴컴컴컴컴컴컴컴컴컴컴컴컴컴컴컴컴컴컴컴컴컴컴컴컴컴컴컴컴컴컴컴컴컴�
     
~A  DEPTH      GR        CAL       RD        RS        CNC       PORZ      ZDEN      PE        ZCOR      SP        CDLL      
# ...
  3894.000    80.365     9.205     8.403     7.193    22.591     2.140     2.615     3.592     0.017   162.284   119.010 
  3894.500    74.500     9.206     9.800     8.413    20.995     1.786     2.621     3.616     0.010   162.402   102.044 
  3895.000    68.325     9.216    11.181     9.636    19.259     1.327     2.628     3.735     0.003   162.456    89.436 
  3895.500    62.908     9.244    11.943    10.374    18.250     1.813     2.620     3.755     0.006   162.333    83.733 
  3896.000    62.255     9.278    11.509    10.167    18.512     3.295     2.596     3.551     0.026   162.132    86.888 
  3896.500    69.163     9.298    10.219     9.198    19.848     4.896     2.569     3.275     0.051   162.034    97.857 
  3897.000    78.448     9.301     8.970     8.161    21.604     5.886     2.553     3.151     0.073   162.075   111.482 
  3897.500    83.560     9.301     8.119     7.414    23.355     5.774     2.555     3.299     0.093   162.165   123.175 
  3898.000    84.292     9.301     7.588     6.952    25.240     4.731     2.572     3.654     0.089   162.258   131.795 
  3898.500    83.564     9.301     7.197     6.650    26.739     3.453     2.593     3.920     0.054   162.329   138.948 
  3899.000    82.304     9.301     6.843     6.388    27.540     2.549     2.608     3.899     0.021   162.364   146.129 
  3899.500    81.863     9.303     6.510     6.122    27.915     2.562     2.608     3.795     0.011   162.386   153.601 
  3900.000    83.086     9.349     6.117     5.782    28.391     3.784     2.588     3.712     0.011   162.408   163.489 
  3900.500    84.863     9.511     5.755     5.450    28.528     5.540     2.559     3.571     0.026   162.430   173.771 
  3901.000    86.169     9.639     5.767     5.422    27.276     6.425     2.544     3.565     0.067   162.487   173.405 
  3901.500    84.270     9.526     6.432     5.936    25.512     5.486     2.559     3.585     0.092   162.549   155.462 
  3902.000    77.886     9.272     7.858     7.098    22.793     3.176     2.598     3.646     0.072   162.526   127.262 
  3902.500    71.940     9.130     9.817     8.792    20.102     0.991     2.634     3.582     0.040   162.418   101.864 
  3903.000    71.494     9.110    11.434    10.342    17.389     0.096     2.648     3.302     0.029   162.289    87.459 
  3903.500    72.998     9.110    12.122    11.045    14.962     0.263     2.646     3.159     0.026   162.159    82.492 
  3904.000    72.731     9.110    12.907    11.595    13.158     0.711     2.638     3.124     0.024   162.053    77.477 
  3904.500    70.683     9.110    15.052    13.124    11.980     1.127     2.631     3.074     0.022   161.994    66.437 
  3905.000    66.018     9.110    18.880    16.006    10.991     1.661     2.623     3.024     0.020   161.927    52.967 
  3905.500    58.474     9.110    22.587    19.031    10.657     2.623     2.607     2.949     0.021   161.783    44.273 
  3906.000    53.527     9.107    23.057    19.730    11.010     4.137     2.582     2.826     0.020   161.533    43.370 
  3906.500    55.642     9.095    21.058    18.300    11.520     6.023     2.551     2.797     0.015   161.195    47.489 
  3907.000    60.812     9.080    19.209    16.778    11.901     7.742     2.522     2.791     0.018   160.838    52.060 
  3907.500    62.735     9.080    18.663    16.230    12.432     8.970     2.502     2.759     0.028   160.511    53.583 
  3908.000    60.254     9.095    19.795    17.040    12.642    10.197     2.482     2.729     0.029   160.206    50.518 
  3908.500    54.983     9.107    22.628    19.253    12.132    11.711     2.457     2.722     0.026   159.928    44.193 
  3909.000    46.738     9.110    26.654    22.425    11.517    12.890     2.437     2.704     0.022   159.651    37.517 
  3909.500    37.402     9.110    31.025    25.836    11.033    13.315     2.430     2.595     0.018   159.315    32.233 
  3910.000    30.759     9.110    34.634    28.685    10.599    13.251     2.431     2.429     0.018   158.989    28.874 
  3910.500    27.152     9.110    36.513    30.232    10.439    13.021     2.435     2.413     0.027   158.791    27.388 
  3911.000    24.727     9.110    37.117    30.775    10.269    12.713     2.440     2.422     0.035   158.712    26.942 
  3911.500    23.428     9.110    37.340    31.089    10.189    12.110     2.450     2.395     0.034   158.693    26.781 
  3912.000    23.195     9.110    37.640    31.573    10.197    11.204     2.465     2.383     0.029   158.715    26.567 
  3912.500    23.328     9.110    38.822    32.742    10.099    10.745     2.473     2.261     0.026   158.824    25.759 
  3913.000    23.085     9.110    42.036    35.451     9.672    10.348     2.479     2.101     0.026   159.112    23.789 
  3913.500    22.255     9.110    47.032    39.876     9.145     9.341     2.496     2.215     0.029   159.544    21.262 
  3914.000    23.230     9.116    43.571    39.682     9.294    11.261     2.464     2.540     0.013   159.948    22.951 
  3914.500    30.287     9.188    25.306    25.864    10.818    20.132     2.318     2.744    -0.034   160.288    39.517 
  3915.000    45.794     9.390    12.939    13.805    13.808    30.470     2.147     2.838    -0.009   160.737    77.284 
  3915.500    67.449     9.629     7.750     8.344    17.945    33.307     2.100     3.157     0.118   161.371   129.035 
  3916.000    86.091     9.724     5.643     6.077    24.282    32.763     2.109     3.701     0.215   162.078   177.213 
  3916.500    94.849     9.641     4.917     5.248    31.889    25.648     2.227     4.116     0.203   162.676   203.392 
  3917.000    97.038     9.470     5.048     5.314    32.634    14.792     2.406     4.193     0.126   163.049   198.093 
  3917.500    98.816     9.290     5.853     6.116    29.041     7.113     2.533     3.958     0.075   163.168   170.864 
  3918.000    99.261     9.164     7.094     7.424    25.101     3.891     2.586     3.558     0.052   163.079   140.963 
  3918.500    94.285     9.115     8.668     9.043    21.370     2.640     2.606     3.313     0.031   162.862   115.371 
  3919.000    84.073     9.107    10.752    11.065    18.092     2.011     2.617     3.378     0.015   162.642    93.004 
  3919.500    74.062     9.098    13.117    13.255    15.444     1.475     2.626     3.503     0.010   162.561    76.238 
  3920.000    69.029     9.092    15.058    14.892    13.551     1.400     2.627     3.345     0.014   162.609    66.412 
  3920.500    67.077     9.095    16.596    15.960    12.722     1.447     2.626     2.896     0.021   162.625    60.254 
  3921.000    63.901     9.092    17.693    16.562    11.886     2.042     2.616     2.545     0.040   162.549    56.520 
  3921.500    58.862     9.079    17.757    16.368    10.732     3.007     2.600     2.598     0.065   162.485    56.316 
  3922.000    54.964     9.069    16.757    15.452    10.337     3.804     2.587     2.912     0.068   162.464    59.677 
  3922.500    55.272     9.056    15.410    14.404    10.761     4.047     2.583     3.024     0.047   162.410    64.893 
  3923.000    59.104     9.034    14.263    13.626    11.655     3.545     2.592     2.984     0.029   162.324    70.113 
  3923.500    62.929     9.017    13.298    13.034    12.596     2.840     2.603     2.984     0.028   162.289    75.202 
  3924.000    64.556     9.014    12.385    12.460    13.678     2.513     2.609     3.052     0.036   162.321    80.742 
  3924.500    67.254     9.014    11.494    11.842    15.196     2.279     2.612     3.240     0.052   162.369    87.004 
  3925.000    72.454     9.015    10.738    11.248    16.600     1.939     2.618     3.394     0.073   162.374    93.123 
  3925.500    76.176     9.048    10.236    10.797    18.078     1.770     2.621     3.517     0.074   162.285    97.699 
  3926.000    74.574     9.214     9.788    10.355    18.178     2.720     2.605     3.703     0.043   162.219   102.168 
  3926.500    70.137     9.514     8.937     9.491    17.540     5.549     2.558     3.895    -0.015   162.372   111.900 
