~Version Information Block
 VERS.                1.20:     CWLS LOG ASCII STANDARD - VERSION 1.20
 WRAP.                  NO:     One Line Per Depth Step
     
~Well Information Block
#MNEM.UNIT       Data Type     Information
#컴컴컴컴컴    컴컴컴컴컴컴�   컴컴컴컴컴컴컴컴컴컴컴컴컴컴컴컴컴컴컴컴컴컴�
 STRT.FT            0.0000:
 STOP.FT         5650.0000:
 STEP.FT            0.5000:
 NULL.          -9999.0000:
 COMP.             COMPANY:    FLUOR DANIEL (NPOSR)INC.
 WELL.                WELL:    75-X-10                 
 FLD .               FIELD:    N.P.R. # 3              
 LOC .            LOCATION:    SEC 10 T38N R78W                        
 CNTY.              COUNTY:    NATRONA                       
 STAT.               STATE:    WYOMING   
 SRVC.     SERVICE COMPANY:    WESTERN ATLAS                        
 DATE.                DATE:    07/04/1996
 UWI .      UNIQUE WELL ID:          10.0
 API .          API NUMBER:    4902522807                
     
~Curve Information Block
#MNEM.UNIT       API CODE      Curve Description
#컴컴컴컴컴    컴컴컴컴컴컴�   컴컴컴컴컴컴컴컴컴컴컴컴컴컴컴컴컴컴컴컴컴컴�
 DEPTH.F        95 995 99 1:   Depth                                                        
 GR  .API       31 310 01 1:   Gamma Ray Counts                                             
 CAL .IN        28 280 99 1:   Caliper                                                      
 RD  .OHMM      22 220 10 1:   Logarithmic Resistivity from ED, ID                          
 RS  .OHMM      22 220 09 1:   Logarithmic Resistivity from ES, IS                          
 CNC .%         95 995 99 1:   Corrected Neutron Porosity from CN                           
 PORZ.%         95 890 99 1:   Porosity from Z-Densilog                                     
 ZDEN.G/C3      95 350 01 1:   Z-Densilog Bulk Density                                      
 PE  .BARN      95 358 01 1:   Photo Electric Cross Section                                 
 ZCOR.G/C3      39 356 99 1:   Z-Densilog Bulk Density Correction                           
 SP  .MV        95 010 01 1:   Spontaneous Potential from Tool Electrode                    
 CDLL.MMHO      95 995 99 1:   Conductivity from RD                                         
     
~Parameter Information Block
#MNEM.UNIT         Value       Description
#컴컴컴컴컴    컴컴컴컴컴컴�   컴컴컴컴컴컴컴컴컴컴컴컴컴컴컴컴컴컴컴컴컴컴�
 EKB .FT            0.0000:    ELEVATION KELLY BUSHING
 EGL .FT            0.0000:    ELEVATION GROUND LEVEL
 RUN .              1.0000:    RUN NUMBER
 SON .               00000:    SERVICE ORDER NUMBER
 DD  .FT            0.0000:    DEPTH-DRILLER
 DL  .FT            0.0000:    DEPTH-LOGGER
 BLI .FT            0.0000:    BOTTOM LOGGED INTERVAL
 TLI .FT            0.0000:    TOP LOGGED INTERVAL
 CS  .  IN          0.0000:    CASING SIZE 
 CDD .FT            0.0000:    CASING DEPTH-DRILLER
 CDL .FT            0.0000:    CASING DEPTH-LOGGER
 BS  .IN            0.0000:    BIT SIZE
 DFT .               LIGNO:    MUD TYPE   
 DFD .LB/G          0.0000:    MUD WEIGHT
 DFV .S             0.0000:    MUD VISCOSITY
 DFPH.              0.0000:    MUD PH
 DFL .CC            0.0000:    MUD FLUID LOSS
 RMS .           FLOW LINE:    MUD SAMPLE SOURCE
 RM  .OHMM          0.0000:    MUD RESISTIVITY          
 RMT .DEGF          0.0000:    RM TEMPERATURE
 RMBH.OHMM          0.0000:    MUD RESISTIVITY AT BHT
 BHT .DEGF          0.0000:    BOTTOM HOLE TEMPERATURE
 RMFS.            MEASURED:    MUD FILTRATE SOURCE
 RMF .OHMM          0.0000:    MUD FILTRATE RESISTIVITY
 RMFT.DEGF          0.0000:    RMF TEMPERATURE
 RMCS.            MEASURED:    MUD CAKE SOURCE
 RMC .OHMM          0.0000:    MUD CAKE RESISTIVITY
 RMCT.DEGF          0.0000:    RMC TEMPERATURE
     
#      Computation Parameters Used
#MNEM.UNIT         Value       Description
#컴컴컴컴컴    컴컴컴컴컴컴�   컴컴컴컴컴컴컴컴컴컴컴컴컴컴컴컴컴컴컴컴컴컴�
 MDEN.G/CC          2.6500:    LOGGING MATRIX DENSITY
 MATR.              1.0000:    NEUTRON MATRIX (0=LIME,1=SAND,2=DOLO)
 FNUM.              0.6200:    TORTUOSITY CONSTANT ARCHIES (a)
 FEXP.              2.1500:    CEMENTATION EXPONENT ARCHIES (m)
     
~Other Information
     
#컴컴컴컴컴컴컴컴컴컴컴컴컴컴컴컴컴컴컴컴컴컴컴컴컴컴컴컴컴컴컴컴컴컴컴컴컴컴컴�
# In Making Interpretations Of Logs Our Employees Will Give Customer The Benefit
# Of Their Best Judgement,  But  Since All Interpretations Are Opinions Based On
# Inferences From Electrical Or  Other  Measurements,  We Cannot,  And We Do Not
# Guarantee The Accuracy Or  Correctness Of Any Interpretation.  We Shall Not Be
# Liable Or  Responsible For Any Loss,  Cost,  Damages, Or  Expenses  Whatsoever
# Incurred Or  Sustained By The Customer  Resulting  From Any Interpretaion Made
# By Any Of Our Employees.  ATLAS WIRELINE SERVICES-WESTERN ATLAS INTERNATIONAL
#컴컴컴컴컴컴컴컴컴컴컴컴컴컴컴컴컴컴컴컴컴컴컴컴컴컴컴컴컴컴컴컴컴컴컴컴컴컴컴�
     
~A  DEPTH      GR        CAL       RD        RS        CNC       PORZ      ZDEN      PE        ZCOR      SP        CDLL      
# ...
  4092.000    86.526    10.597     3.594     3.495    38.535    28.358     2.182     4.183     0.179   160.374   278.232 
  4092.500    83.609    10.437     3.977     3.770    35.403    20.954     2.304     3.949     0.198   160.407   251.441 
  4093.000    78.797     9.953     5.079     4.666    29.167    12.215     2.448     3.650     0.136   160.269   196.903 
  4093.500    72.260     9.602     7.168     6.408    22.785     6.712     2.539     3.438     0.049   159.867   139.502 
  4094.000    65.677     9.552    10.379     9.106    18.379     3.804     2.587     3.316     0.022   159.206    96.349 
  4094.500    61.432     9.578    13.763    11.986    16.429     4.017     2.584     3.290     0.006   158.279    72.657 
  4095.000    59.107     9.588    14.107    12.357    16.087     7.200     2.531     3.299    -0.017   157.254    70.886 
  4095.500    57.673     9.588    11.380    10.022    17.062    11.024     2.468     3.278     0.015   156.489    87.875 
  4096.000    58.674     9.588     9.150     8.023    17.396    11.515     2.460     3.264     0.108   156.209   109.289 
  4096.500    61.953     9.588     8.340     7.189    17.510    11.638     2.458     3.250     0.160   156.315   119.901 
  4097.000    64.230     9.588     8.786     7.374    18.589     8.486     2.510     3.227     0.122   156.528   113.813 
  4097.500    63.121     9.588    10.234     8.407    18.541     4.935     2.569     3.095     0.056   156.657    97.717 
  4098.000    60.505     9.588    11.823     9.703    16.426     3.635     2.590     2.854     0.028   156.671    84.584 
  4098.500    58.556     9.588    12.458    10.328    15.183     3.844     2.587     2.711     0.024   156.612    80.269 
  4099.000    57.340     9.588    12.517    10.405    14.801     4.104     2.582     2.725     0.021   156.559    79.890 
  4099.500    55.323     9.588    12.628    10.470    14.099     4.141     2.582     2.757     0.020   156.594    79.191 
  4100.000    52.641     9.588    12.712    10.519    13.464     3.970     2.584     2.757     0.017   156.672    78.664 
  4100.500    51.996     9.588    12.631    10.449    13.224     3.609     2.590     2.768     0.011   156.696    79.168 
  4101.000    54.842     9.588    12.437    10.271    13.608     3.199     2.597     2.778     0.009   156.657    80.405 
  4101.500    58.880     9.588    12.251    10.075    14.317     3.201     2.597     2.768     0.014   156.595    81.627 
  4102.000    61.206     9.588    12.072     9.902    14.821     3.948     2.585     2.771     0.014   156.542    82.838 
  4102.500    62.049     9.588    11.770     9.683    14.834     5.208     2.564     2.785     0.007   156.520    84.962 
  4103.000    62.412     9.588    11.309     9.366    14.497     6.370     2.545     2.786     0.006   156.523    88.423 
  4103.500    61.309     9.588    10.902     9.063    13.904     7.112     2.533     2.793     0.011   156.484    91.728 
  4104.000    57.527     9.588    10.780     8.941    12.991     7.427     2.527     2.805     0.019   156.329    92.762 
  4104.500    51.784     9.588    10.894     9.012    12.254     7.469     2.527     2.803     0.027   156.064    91.791 
  4105.000    45.711     9.588    11.048     9.159    11.996     7.415     2.528     2.810     0.027   155.775    90.515 
  4105.500    40.677     9.588    11.145     9.287    11.979     7.209     2.531     2.910     0.017   155.502    89.723 
  4106.000    37.249     9.588    11.084     9.282    11.851     6.657     2.540     3.187     0.011   155.234    90.223 
  4106.500    35.839     9.588    10.775     9.060    11.605     5.975     2.551     3.317     0.013   154.981    92.807 
  4107.000    37.448     9.588    10.343     8.725    12.074     5.678     2.556     3.051     0.018   154.802    96.684 
  4107.500    42.251     9.588     9.988     8.448    13.107     5.872     2.553     2.637     0.024   154.754   100.118 
  4108.000    47.418     9.588     9.865     8.343    14.236     6.373     2.545     2.419     0.032   154.768   101.368 
  4108.500    48.375     9.588    10.043     8.468    14.600     6.982     2.535     2.434     0.037   154.731    99.576 
  4109.000    44.366     9.588    10.402     8.769    13.830     7.363     2.529     2.631     0.034   154.625    96.136 
  4109.500    39.771     9.588    10.693     9.053    13.180     7.278     2.530     2.912     0.031   154.577    93.522 
  4110.000    39.055     9.588    10.804     9.178    13.160     6.978     2.535     2.973     0.035   154.650    92.555 
  4110.500    42.359     9.588    10.825     9.198    13.360     6.769     2.538     2.891     0.037   154.754    92.383 
  4111.000    46.337     9.588    10.877     9.245    13.500     6.484     2.543     2.823     0.031   154.816    91.940 
  4111.500    49.485     9.588    11.004     9.366    13.601     5.762     2.555     2.827     0.025   154.954    90.875 
  4112.000    53.591     9.588    11.176     9.512    13.731     4.778     2.571     2.841     0.018   155.215    89.474 
  4112.500    59.135     9.588    11.324     9.632    13.970     4.154     2.581     2.858     0.008   155.484    88.310 
  4113.000    64.324     9.588    11.245     9.591    14.234     3.986     2.584     2.892     0.003   155.710    88.927 
  4113.500    67.227     9.588    10.844     9.298    14.501     3.871     2.586     2.919     0.009   155.943    92.218 
  4114.000    67.905     9.588    10.405     8.961    14.853     3.751     2.588     2.946     0.023   156.149    96.108 
  4114.500    67.383     9.588    10.236     8.822    15.195     3.813     2.587     2.983     0.028   156.268    97.691 
  4115.000    66.644     9.588    10.423     8.956    15.193     3.833     2.587     2.992     0.024   156.279    95.943 
  4115.500    65.552     9.588    10.897     9.341    14.784     3.493     2.592     2.970     0.026   156.191    91.772 
  4116.000    65.311     9.588    11.437     9.829    14.346     3.037     2.600     2.975     0.035   156.057    87.432 
  4116.500    66.485     9.588    11.834    10.216    14.084     2.762     2.604     2.948     0.035   155.925    84.499 
  4117.000    67.514     9.581    12.189    10.532    14.084     2.521     2.608     2.817     0.025   155.762    82.040 
  4117.500    67.714     9.571    12.617    10.889    14.099     2.293     2.612     2.798     0.018   155.574    79.259 
  4118.000    67.859     9.565    12.871    11.129    14.018     2.232     2.613     2.823     0.016   155.421    77.695 
  4118.500    68.654     9.565    12.663    11.019    14.135     2.208     2.614     2.808     0.017   155.326    78.971 
  4119.000    70.610     9.568    12.089    10.593    14.436     2.407     2.610     2.815     0.019   155.268    82.719 
  4119.500    73.175     9.559    11.495    10.107    15.006     3.283     2.596     2.804     0.014   155.223    86.993 
  4120.000    72.595     9.531    10.978     9.665    15.257     4.759     2.571     2.786     0.005   155.169    91.089 
  4120.500    65.231     9.503    10.498     9.254    14.682     6.185     2.548     2.763     0.006   155.083    95.258 
  4121.000    53.816     9.493    10.138     8.945    13.796     6.875     2.537     2.739     0.019   154.978    98.644 
  4121.500    44.422     9.492     9.993     8.805    12.994     6.832     2.537     2.726     0.027   154.907   100.069 
  4122.000    39.689     9.492    10.118     8.874    12.550     6.722     2.539     2.718     0.022   154.909    98.834 
  4122.500    38.364     9.492    10.531     9.179    12.379     6.784     2.538     2.719     0.019   154.958    94.957 
  4123.000    39.522     9.482    11.090     9.618    12.435     6.669     2.540     2.726     0.028   154.999    90.168 
  4123.500    41.444     9.454    11.558     9.982    12.620     6.347     2.545     2.715     0.034   155.009    86.519 
  4124.000    41.548     9.419    11.924    10.242    12.735     5.909     2.553     2.689     0.034   155.040    83.861 
  4124.500    39.429     9.400    12.311    10.509    12.791     5.276     2.563     2.679     0.033   155.148    81.229 
