~VERSION INFORMATION
 VERS.               2.10:   CWLS LOG ASCII STANDARD - VERSION 2.10
 WRAP.                 NO:   ONE LINE PER DEPTH STEP
~WELL INFORMATION
#MNEM.UNIT      DATA TYPE    INFORMATION
#----------   ------------   ------------------------------
 STRT.F         5259.7544:   START DEPTH
 STOP.F         5507.2764:   STOP DEPTH
 STEP.F            0.5000:   STEP LENGTH
 NULL.          -999.2500:   NO VALUE
 COMP. Fluor Daniel (NPOSR), Inc.:   COMPANY
 WELL.            75-X-10:   WELL
 FLD .           N.P.R. 3:   FIELD
 LOC . 10-38N-78W-NATRONA-WY:   LOCATION
 STAT.                 WY:   STATE
 COUN.            Natrona:   COUNTY
 SRVC.      Western Atlas:   SERVICE COMPANY
 DATE.                   :   LOGDATE
 APIN.         4902522807:   API NUMBER
~CURVE INFORMATION
#MNEM.UNIT       API CODE    CURVE DESCRIPTION
#----------   ------------   ------------------------------
 DEPT.F                  :
 R4SL.OHM-M              :   
 D4EC.DIM                :   
 P4HS.DEQ                :   
 R4AT.DIM                :   
 GR  .GAPI   09 310 00 00:   Gamma Ray
~PARAMETER INFORMATION
#MNEM.UNIT          VALUE    DESCRIPTION
#----------   ------------   ------------------------------
 EKB .F         5198.0000:   Kelly bushing
 EGL .F         5188.0000:   Ground level
 EDF .F         5197.0000:   Drilling floor
 EPD .F           10.0000:   Permanent datum
 TD  .F         5650.0000:   Total depth
 NRUN.             1.0000:   Number of Runs
#--RUN 1---   ------------   The following are for Run 1---
 RUN .             1.0000:   Run 1
 DATE.mm/dd/yyyy 07/04/1996:   Date Logged
 DD  .ft             5650:   Depth Driller
 DL  .ft             5647:   Depth Logger
 BLI .ft             5627:   Bottom Log Interval
 TLI .ft             2400:   Top Log Interval
 CSS .inch          9.875:   Casing Size
 CTD1.ft              445:   Casing Driller 1
 CTL1.ft              444:   Casing Logger 1
 BS  .inch           8.75:   Bit Size
 DFT .           gel/chem:   Type Fluid In Hole
 DFD .lb/gal          9.5:   Mud Weight
 DFV .sec              40:   Viscosity
 DFPH.                9.0:   pH
 DFL .gal             7.6:   Fluid Loss
 WSS .              circ.:   Source Of Sample
 RM  .ohmm            .61:   Rm
 EMT .F                84:   Rm Meas. Temp.
 RMF .ohmm            .48:   Rmf
 MFT .F                84:   Rmf Meas. Temp.
 RMC .ohmm            .75:   Rmc
 MCST.F                84:   Rmc Meas. Temp.
 MFSS.              calc.:   Source Rmf.
 MCSS.              calc.:   Source Rmc.
 RMB .ohmm            .29:   Rm. At BHT
 BHT .F               176:   BHT.
 TCS .hh:mm       13 hrs.:   Time Circ. Stopped
 MRT .F               176:   Maximum Recorded Temp.
 LUN .            hl 6530:   Logging Unit Number
 LUL .             Casper:   Logging Unit Location
 ENGI.           Brownlow:   Recorded By
 WITN.             Lebeau:   Witnessed By
 DGBY.              Burke:   Digitized By
~A  DEPTH     R4SL       D4EC       P4HS       R4AT         GR
# ...
 5381.7540   164.0886    13.6716    39.1059     0.5569    17.3623
 5382.2540   166.8809    13.4354    38.7190     0.5645    19.5494
 5382.7540   172.0971    12.8089    37.2205     0.5691    20.8033
 5383.2540   178.3072    11.1706    36.0572     0.5690    18.3247
 5383.7540   177.3979     9.0877    34.7779     0.5640    16.4683
 5384.2540   176.7930     8.3875    31.7934     0.5547    15.5449
 5384.7540   178.3519     8.3070    28.9947     0.5562    15.2436
 5385.2540   176.5184     8.9236    29.3539     0.5576    14.9423
 5385.7540   175.9172    10.3923    31.9421     0.5606    14.6411
 5386.2540   176.5922    11.1666    33.6016     0.5683    14.9643
 5386.7540   177.4909    11.7797    34.7247     0.5713    15.5962
 5387.2540   177.5058    12.2414    36.1745     0.5712    16.2280
 5387.7540   176.9008    12.4715    36.9082     0.5711    16.2378
 5388.2540   178.1516    11.7705    36.1498     0.5710    16.2478
 5388.7540   177.5504    10.9154    35.0229     0.5693    17.1929
 5389.2540   175.1009    11.2996    35.3820     0.5692    17.5137
 5389.7540   171.2967    11.7695    36.2985     0.5660    16.5903
 5390.2540   168.9734    12.0681    36.6621     0.5612    15.0449
 5390.7540   168.3685    11.9868    37.0168     0.5596    15.3657
 5391.2540   168.6951    11.5190    36.4441     0.5562    15.9976
 5391.7540   170.8663    10.2766    35.1315     0.5562    16.3185
 5392.2540   173.9617     9.4215    33.0758     0.5577    14.7754
 5392.7540   175.2088     8.7988    31.3916     0.5544    14.4717
 5393.2540   173.6065     8.4027    30.0789     0.5528    15.7280
 5393.7540   170.9295     8.0173    29.6951     0.5496    20.7145
 5394.2540   169.7122     7.8593    29.4735     0.5401    22.2795
 5394.7540   170.3432     7.7788    28.9243     0.5385    22.2892
 5395.2540   170.9742     7.6991    29.1008     0.5401    21.3659
 5395.7540   170.6810     7.9276    29.6426     0.5460    19.5118
 5396.2540   171.3120     8.3893    30.9306     0.5521    17.9664
 5396.7540   173.8615     9.2814    32.0328     0.5613    16.1099
 5397.2540   176.5823    11.5583    34.8068     0.5659    15.1865
 5397.7540   183.3742    11.7876    36.1103     0.5782    15.5073
 5398.2540   189.8582    11.7071    36.4539     0.5906    15.5171
 5398.7540  -999.2500    11.0843    34.7667     0.5920    15.2096
 5399.2540  -999.2500    10.1518    32.5252     0.5919    13.9316
 5399.7540   199.7579     9.6065    31.9556     0.5903    13.0581
 5400.2540   200.8481     9.4483    31.5718     0.5901    14.0012
 5400.7540  -394.4509     9.2133    30.6323     0.5885    14.6335
 5401.2540   201.7812     8.6685    30.2500     0.5820    17.7522
 5401.7540   182.9116     7.9687    29.3105     0.5626    20.2488
 5402.2540   173.1256     7.2690    27.9993     0.5430    20.5660
 5402.7540   163.1980     7.6530    29.2863     0.5351    18.3991
 5403.2540   162.5832     8.9672    32.9908     0.5412    18.4074
 5403.7540   166.9106    11.8910    36.5095     0.5550    19.0491
 5404.2540   170.3107    12.7579    37.4275     0.5596    20.3434
 5404.7540   164.4047    10.1210    37.0453     0.5532    20.9226
 5405.2540   150.4875     7.2524    32.7621     0.5033    20.3088
 5405.7540   136.5703     6.0105    31.4265     0.4527    19.3839
 5406.2540   122.6531     5.1558    33.1094     0.4020    20.0143
 5406.7540   106.7245     9.8965    42.2009     0.3910    20.3336
 5407.2540   103.6396    15.9469    47.2056     0.4033    21.2750
 5407.7540   110.7459    21.9973    51.4673     0.4590    22.2816
 5408.2540   136.1399    26.3690    56.4721     0.5338    25.3372
 5408.7540   164.0268    21.3374    54.6620     0.5896    29.0780
 5409.2540   191.9136    13.9183    40.2861     0.5894    27.5310
 5409.7540  -999.2500     6.3762    28.9546     0.5909    23.4958
 5410.2540  -999.2500     5.5870    22.0611     0.5955    21.3268
 5410.7540  -322.1216     5.5183    22.0504     0.6083    18.8467
 5411.2540  -999.2500     5.4382    21.8539     0.6216    16.9887
 5411.7540  -999.2500     5.1257    21.4717     0.6262    19.5911
 5412.2540  -999.2500     5.2012    20.9033     0.6245    20.4288
 5412.7540  -999.2500     5.8176    21.8190     0.6212    19.5040
 5413.2540  -310.1079     6.7445    24.4089     0.6102    19.1991
 5413.7540  -353.5016     8.9035    27.8081     0.6101    20.1426
 5414.2540  -332.5412    11.0794    31.7457     0.6149    21.7061
 5414.7540  -197.6042    13.2554    35.6832     0.6332    20.7812
 5415.2540  -999.2500    15.4865    39.6207     0.6470    18.6311
 5415.7540  -999.2500    15.7163    41.0735     0.6485    13.9569
 5416.2540  -999.2500    13.2343    36.7876     0.6452    12.0990
 5416.7540  -999.2500    10.6756    33.8048     0.6436    10.8631
 5417.2540  -298.8411    10.9053    32.8652     0.6248    10.5582
 5417.7540  -999.2500    12.7617    33.9691     0.5936    10.5686
 5418.2540   185.0664    15.7026    40.2741     0.5826    10.5769
 5418.7540   188.1599    19.8828    46.3169     0.6026    10.5851
 5419.2540   198.9521    20.0351    48.0545     0.6056     9.6080
 5419.7540   200.8082    16.3912    42.8399     0.5993     9.0465
 5420.2540   175.5612    11.4312    37.8136     0.5796     9.0568
 5420.7540   159.9963     9.9569    35.5738     0.5434     9.3762
 5421.2540   141.3351     9.4120    35.0058     0.5072     9.6955
 5421.7540   124.2155     9.3326    35.3801     0.4710    11.2590
 5422.2540   110.6071    10.4138    38.6968     0.4322    11.8893
 5422.7540   109.6908    12.1607    42.5870     0.4228    10.6210
 5423.2540   114.3245    13.8936    43.3220     0.4413    10.3507
 5423.7540   121.7282    14.8979    43.6801     0.4583    11.2941
 5424.2540   125.4352    14.0433    43.8578     0.4722    12.8576
 5424.7540   126.3698    13.0337    42.1725     0.4736    14.4211
 5425.2540   128.9385    12.8653    40.4474     0.4750    16.2957
 5425.7540   133.4784    13.0285    40.1051     0.4936    17.8591
 5426.2540   144.8867    11.6640    37.8652     0.5074    19.4340
 5426.7540   149.8259     8.9947    35.2539     0.5105    20.3644
 5427.2540   151.0685     8.2175    32.2710     0.5088    19.4413
 5427.7540   150.7709     8.2923    31.7030     0.5071    17.2722
 5428.2540   149.8572     8.6770    31.8780     0.5070    16.0363
 5428.7540   147.6778     9.9137    32.4219     0.5115    14.8005
 5429.2540   142.8927    11.2392    34.4545     0.5051    12.3204
 5429.7540   136.0289    11.8443    37.7874     0.4879    12.3287
 5430.2540   122.7932    12.3065    40.0058     0.4629    12.6482
 5430.7540   118.7990    12.9235    41.8526     0.4503    12.9673
 5431.2540   116.6531    14.8574    43.3280     0.4533    12.9777
 5431.7540   124.0567    15.3977    44.4318     0.4750    13.9191
 5432.2540   132.6925    12.8382    41.2604     0.4952    14.5494
 5432.7540   144.1980    11.1825    36.9773     0.5059    14.5577
 5433.2540   147.5023     9.6565    34.9232     0.5073    14.2547
 5433.7540   149.6691     9.4996    33.6122     0.5071    13.9409
 5434.2540   153.0681     9.8062    33.9733     0.5148    13.5971
 5434.7540   162.0120     9.8817    33.9621     0.5318    13.0377
 5435.2540   168.1834     9.9566    33.2057     0.5379    11.1797
 5435.7540   173.7387     9.5660    32.2662     0.5455    10.8749
 5436.2540   176.2249     9.8826    32.6297     0.5536    11.8183
 5436.7540   178.1251    10.3354    32.8047     0.5608    13.0708
 5437.2540   182.3980    10.2546    32.9797     0.5654    14.3232
 5437.7540   189.8017     9.7098    32.7806     0.5746    15.6074
 5438.2540   194.7409     9.3199    32.5650     0.5791    18.3854
 5438.7540   197.8318     9.0074    31.8276     0.5821    19.6378
 5439.2540   197.2261     8.9274    31.0738     0.5804    19.6461
 5439.7540   193.5400     9.1696    30.8800     0.5772    19.3413
 5440.2540   189.7609     9.3862    31.2381     0.5771    17.4854
 5440.7540   185.2461     9.6935    32.0058     0.5754    16.8714
 5441.2540   180.6358     9.9686    32.8306     0.5690    16.2578
 5441.7540   174.7933    10.2735    33.6208     0.5611    17.1995
 5442.2540   168.3347    10.5785    33.9816     0.5501    16.8964
