~VERSION INFORMATION
 VERS.               2.10:   CWLS LOG ASCII STANDARD - VERSION 2.10
 WRAP.                 NO:   ONE LINE PER DEPTH STEP
~WELL INFORMATION
#MNEM.UNIT      DATA TYPE    INFORMATION
#----------   ------------   ------------------------------
 STRT.F         4999.7969:   START DEPTH
 STOP.F         5666.3267:   STOP DEPTH
 STEP.F            0.5000:   STEP LENGTH
 NULL.          -999.2500:   NO VALUE
 COMP. Fluor Daniel (NPOSR), Inc.:   COMPANY
 WELL.            75-X-10:   WELL
 FLD .           N.P.R. 3:   FIELD
 LOC . 10-38N-78W-NATRONA-WY:   LOCATION
 STAT.                 WY:   STATE
 COUN.            Natrona:   COUNTY
 SRVC.      Western Atlas:   SERVICE COMPANY
 DATE.                   :   LOGDATE
 APIN.         4902522807:   API NUMBER
~CURVE INFORMATION
#MNEM.UNIT       API CODE    CURVE DESCRIPTION
#----------   ------------   ------------------------------
 DEPT.F                  :
 LLD .ohmm   11 220 04 00:   Dual Laterolog, Deep
 LLS .ohmm   11 220 06 00:   Dual Laterolog, shallow
 SP  .mV     06 010 01 00:   Spontaneous Potential
 GR  .GAPI   06 310 01 00:   Gamma Ray
 CDLL.mho/m              :   Conductivity
~PARAMETER INFORMATION
#MNEM.UNIT          VALUE    DESCRIPTION
#----------   ------------   ------------------------------
 EKB .F         5198.0000:   Kelly bushing
 EGL .F         5188.0000:   Ground level
 EDF .F         5197.0000:   Drilling floor
 EPD .F           10.0000:   Permanent datum
 TD  .F        56500.0000:   Total depth
 NRUN.             1.0000:   Number of Runs
#--RUN 1---   ------------   The following are for Run 1---
 RUN .             1.0000:   Run 1
 DATE.mm/dd/yyyy 07/04/1996:   Date Logged
 DD  .ft             5650:   Depth Driller
 DL  .ft             5647:   Depth Logger
 BLI .ft             5627:   Bottom Log Interval
 TLI .ft            surf.:   Top Log Interval
 CSS .inch          9.875:   Casing Size
 CTD1.ft              445:   Casing Driller 1
 CTL1.ft              444:   Casing Logger 1
 BS  .inch           8.75:   Bit Size
 DFT .           gel/chem:   Type Fluid In Hole
 DFD .lb/gal          9.5:   Mud Weight
 DFV .sec              40:   Viscosity
 DFPH.                9.0:   pH
 DFL .gal             7.6:   Fluid Loss
 WSS .              circ.:   Source Of Sample
 RM  .ohmm            .61:   Rm
 EMT .F                84:   Rm Meas. Temp.
 RMF .ohmm            .48:   Rmf
 MFT .F                84:   Rmf Meas. Temp.
 RMC .ohmm            .75:   Rmc
 MCST.F                84:   Rmc Meas. Temp.
 MFSS.              calc.:   Source Rmf.
 MCSS.              calc.:   Source Rmc.
 RMB .ohmm            .29:   Rm. At BHT
 BHT .F               176:   BHT.
 TCS .hh:mm        6 hrs.:   Time Circ. Stopped
 MRT .F               176:   Maximum Recorded Temp.
 LUN .            hl 6530:   Logging Unit Number
 LUL .             Casper:   Logging Unit Location
 ENGI.           Brownlow:   Recorded By
 WITN.             Lebeau:   Witnessed By
 DGBY.              Burke:   Digitized By
~OTHER INFORMATION
# Borehole Volume Computed for 7" Casing
~A  DEPTH      LLD        LLS         SP         GR       CDLL
 4999.7970  -999.2500    15.7112  -999.2500  -999.2500  -999.2500
 5000.2970    14.4807    14.7212    43.5470    81.5050    62.6280
 5000.7970    13.6866    13.9334    43.7049    81.2059    66.5361
 5001.2970    13.7887    13.9368    43.7068    81.8479    70.5703
 5001.7970    14.0902    14.8595    44.0197    82.1749    71.1289
 5002.2970    14.8132    16.1841    44.1771    82.1908    66.9789
 5002.7970    15.9085    17.6268    44.3345    82.8289    62.8410
 5003.2970    17.2067    19.3348    44.3364    86.9074    58.7905
 5003.7970    18.7434    20.6149    44.4938    92.9155    55.6226
 5004.2970    20.5629    21.6699    44.6512    96.2555    50.5632
 5004.7970    22.5915    21.9850    44.6532    97.2045    44.1336
 5005.2970    23.3839    21.6804    44.6555    96.9055    44.1416
 5005.7970    23.3916    21.6870    44.9684    96.3033    43.2476
 5006.2970    23.5660    22.3168    44.9703    92.8978    40.2959
 5006.7970    23.9109    23.1284    44.9722    89.1812    37.6182
 5007.2970    25.4974    23.9695    45.1296    87.9530    37.2205
 5007.7970    27.1891    24.8411    45.4426    88.2800    36.4582
 5008.2970    27.9817    25.0241    45.4445    88.6070    35.6930
 5008.7970    27.7927    24.6775    45.4464    88.3119    35.7704
 5009.2970    27.0066    23.9927    45.2927    88.6396    36.4845
 5009.7970    25.5414    23.1515    45.2947    89.9030    37.5706
 5010.2970    24.3108    21.8483    45.2970    93.9625    38.8940
 5010.7970    23.4704    20.8347    45.1429    93.9784    41.1476
 5011.2970    22.4988    20.1133    45.1453    93.9943    41.7042
 5011.7970    21.5674    19.2797    44.8361    93.3882    44.2735
 5012.2970    20.2388    18.3499    44.6820    91.5379    47.0936
 5012.7970    19.2636    17.9666    44.6844    89.0655    49.1523
 5013.2970    18.9982    17.9721    44.8418    87.5262    50.4632
 5013.7970    19.4244    18.6257    44.8437    87.5561    49.2182
 5014.2970    20.5569    19.8588    44.8456    89.2833    46.7496
 5014.7970    21.7657    21.1893    44.6924    92.5547    44.3071
 5015.2970    22.5598    21.7883    44.5383    92.8817    44.3154
 5015.7970    22.4057    21.3359    44.5407    91.9645    44.5065
 5016.2970    22.4149    21.1889    44.5426    90.1142    45.1062
 5016.7970    22.7430    21.6513    44.5445    88.5750    44.3415
 5017.2970    23.2403    22.7594    44.5464    88.2759    43.4263
 5017.7970    23.7485    23.0889    44.3927    88.2958    41.2685
 5018.2970    23.4107    22.1332    44.2384    88.3118    40.1153
 5018.7970    22.6883    20.1878    43.6189    88.9498    41.1109
 5019.2970    19.3492    18.9434    43.6213    88.9325    49.7956
 5019.7970    18.6788    18.9481    43.6232    84.9421    50.5761
 5020.2970    19.2249    19.6847    43.4691    79.3593    49.5463
 5020.7970    21.3928    21.6946    43.4714    74.3986    44.4123
 5021.2970    23.6367    24.4819    43.4733    72.5483    41.4506
 5021.7970    25.3845    25.7349    43.4752    70.0719    39.7342
 5022.2970    25.5832    25.1990    43.4771    70.7139    39.0276
 5022.7970    24.3128    24.1545    43.4790    77.8838    40.8766
 5023.2970    22.4939    23.8184    43.6365    85.9868    41.3633
 5023.7970    22.5292    25.7598    43.6388    85.3807    41.3737
 5024.2970    25.6095    27.8578    43.6407    81.9078    40.8538
 5024.7970    27.1154    30.3413    44.1091    76.8545    38.2983
 5025.2970    27.7084    29.9226    44.5776    72.6798    35.7599
 5025.7970    28.1140    29.7165    44.7350    73.0068    35.2229
 5026.2970    27.7262    29.9371    45.0479    73.6448    36.7790
 5026.7970    27.5393    30.8065    45.3609    72.4166    35.5451
 5027.2970    28.3521    32.1542    45.3628    65.5896    31.3514
 5027.7970    31.0133    38.6782    45.3647    59.6677    25.9861
 5028.2970    37.6805    44.2713    45.3666    49.3192    21.9207
 5028.7970    50.4318    72.7686    45.5244    38.9706    16.0451
 5029.2970    67.4983   366.8717    45.8374    28.6221    10.5564
 5029.7970   367.8717   928.2235    46.6169    20.0883     5.0672
 5030.2970   831.2156  1507.0895    47.3964    14.9894     1.0198
 5030.7970  1523.2711  2016.4734    48.0203    13.4502  -999.2500
 5031.2970  -999.2500  -999.2500    48.3333    12.8440  -999.2500
 5031.7970  -999.2500  -999.2500    48.8017    12.2379  -999.2500
 5032.2970  -999.2500  2003.6305    49.5812    10.6986  -999.2500
 5032.7970  1987.3839  1289.9663    50.2516     9.7775  -999.2500
 5033.2970  1066.1793   668.5716    51.1407    10.4195     1.5867
 5033.7970   279.2631   274.9807    51.4536    11.6796     4.5889
 5034.2970   196.5042   249.0372    51.6110    15.4332     6.0073
 5034.7970   183.0939   233.6869    52.0795    17.6865     5.2418
 5035.2970   170.5989   194.3642    53.0145    18.2593     5.3256
 5035.7970   145.0933   161.9189    53.7940    18.5903     8.3520
 5036.2970   109.2852   122.3804    54.1070    27.0043    12.5474
 5036.7970    73.4771    82.8419    55.2000    49.3472    17.6603
 5037.2970    37.3754    42.9192    55.9964    72.2961    20.9907
 5037.7970    34.0907    39.9889    56.9125    82.7287    23.5554
 5038.2970    33.3803    42.7843    57.6920    82.7446    25.3956
 5038.7970    38.4901    48.1171    57.6939    82.1385    26.1769
 5039.2970    43.4431    52.4065    57.6958    79.6661    25.2005
 5039.7970    46.6556    52.7924    57.6977    77.4838    23.1035
 5040.2970    47.0340    52.8052    57.8551    76.5359    21.4400
 5040.7970    46.3559    52.0738    58.1680    75.3633    20.0281
 5041.2970    46.3716    50.9862    58.6365    75.3793    20.0386
 5041.7970    46.3901    50.2826    59.2905    76.0173    20.0467
 5042.2970    46.7361    49.5864    60.1959    76.6553    20.0554
 5042.7970    47.7581    49.2477    60.6644    77.2934    20.0649
 5043.2970    49.1502    49.3234    60.3552    77.3093    20.0728
 5043.7970    49.5168    49.6255    59.7350    78.8805    19.3079
 5044.2970    51.3234    49.9910    59.4254    80.1589    19.3184
 5044.7970    52.4457    50.3591    59.4278    76.4129    18.1961
 5045.2970    53.5957    50.7300    59.2742    75.1958    16.9277
 5045.7970    54.7650    50.7423    58.8095    76.1488    16.2523
 5046.2970    54.7870    50.3957    58.3448    77.4090    15.4882
 5046.7970    54.4171    49.6976    58.3472    78.6691    15.5555
 5047.2970    53.6630    47.9770    58.5046    80.2402    17.0526
 5047.7970    52.1772    45.9573    58.8175    82.1224    17.3553
 5048.2970    50.7368    44.0849    59.1305    83.6936    19.3869
 5048.7970    48.9830    42.5585    59.5989    86.5089    20.1701
 5049.2970    46.9552    40.7945    59.7563    87.1763    21.2146
 5049.7970    45.3320    38.8271    59.7582    85.2953    22.5042
 5050.2970    42.9759    36.9546    59.6046    83.1045    23.7876
 5050.7970    40.6198    35.1492    59.2879    83.4662    25.3070
 5051.2970    38.2636    33.5606    58.6278    83.7932    27.9401
 5051.7970    35.9075    31.9720    57.4335    82.8760    28.7214
 5052.2970    33.5514    30.3834    56.9688    80.4037    29.7052
 5052.7970    32.0768    28.7948    56.0376    80.1046    31.0576
 5053.2970    31.4110    27.2062    55.7279    81.3687    32.2782
 5053.7970    29.0603    25.6176    55.2637    83.8730    32.7922
 5054.2970    28.0535    24.3618    55.1096    84.5110    34.1751
 5054.7970    27.2790    23.6858    54.9564    83.5937    35.3648
 5055.2970    26.9029    23.1925    54.8029    84.2720    35.7374
 5055.7970    26.9120    23.0251    54.9603    85.4926    36.5197
 5056.2970    27.1308    22.8768    55.1182    85.2008    36.5276
 5056.7970    27.7078    22.7205    55.2756    83.3505    36.4265
 5057.2970    28.1134    22.2487    55.7440    82.1223    35.7722
 5057.7970    27.9236    21.9392    56.0570    80.8901    35.7809
 5058.2970    27.7351    21.3317    56.0589    81.8431    35.8670
 5058.7970    27.1594    20.7398    55.9052    80.9220    38.1179
 5059.2970    26.5957    19.8801    55.9071    80.9419    39.2128
 5059.7970    25.4947    19.3285    55.4424    85.3124    41.2726
 5060.2970    24.0946    18.6593    54.4944    87.2048    42.7810
