~Version Information Block
 VERS.                1.20:     CWLS LOG ASCII STANDARD - VERSION 1.20
 WRAP.                  NO:     One Line Per Depth Step
     
~Well Information Block
#MNEM.UNIT       Data Type     Information
#컴컴컴컴컴    컴컴컴컴컴컴�   컴컴컴컴컴컴컴컴컴컴컴컴컴컴컴컴컴컴컴컴컴컴�
 STRT.FT            0.0000:
 STOP.FT         5650.0000:
 STEP.FT            0.5000:
 NULL.          -9999.0000:
 COMP.             COMPANY:    FLUOR DANIEL (NPOSR)INC.
 WELL.                WELL:    75-X-10                 
 FLD .               FIELD:    N.P.R. # 3              
 LOC .            LOCATION:    SEC 10 T38N R78W                        
 CNTY.              COUNTY:    NATRONA                       
 STAT.               STATE:    WYOMING   
 SRVC.     SERVICE COMPANY:    WESTERN ATLAS                        
 DATE.                DATE:    07/04/1996
 UWI .      UNIQUE WELL ID:          10.0
 API .          API NUMBER:    4902522807                
     
~Curve Information Block
#MNEM.UNIT       API CODE      Curve Description
#컴컴컴컴컴    컴컴컴컴컴컴�   컴컴컴컴컴컴컴컴컴컴컴컴컴컴컴컴컴컴컴컴컴컴�
 DEPTH.F        95 995 99 1:   Depth                                                        
 GR  .API       31 310 01 1:   Gamma Ray Counts                                             
 CAL .IN        28 280 99 1:   Caliper                                                      
 RD  .OHMM      22 220 10 1:   Logarithmic Resistivity from ED, ID                          
 RS  .OHMM      22 220 09 1:   Logarithmic Resistivity from ES, IS                          
 CNC .%         95 995 99 1:   Corrected Neutron Porosity from CN                           
 PORZ.%         95 890 99 1:   Porosity from Z-Densilog                                     
 ZDEN.G/C3      95 350 01 1:   Z-Densilog Bulk Density                                      
 PE  .BARN      95 358 01 1:   Photo Electric Cross Section                                 
 ZCOR.G/C3      39 356 99 1:   Z-Densilog Bulk Density Correction                           
 SP  .MV        95 010 01 1:   Spontaneous Potential from Tool Electrode                    
 CDLL.MMHO      95 995 99 1:   Conductivity from RD                                         
     
~Parameter Information Block
#MNEM.UNIT         Value       Description
#컴컴컴컴컴    컴컴컴컴컴컴�   컴컴컴컴컴컴컴컴컴컴컴컴컴컴컴컴컴컴컴컴컴컴�
 EKB .FT            0.0000:    ELEVATION KELLY BUSHING
 EGL .FT            0.0000:    ELEVATION GROUND LEVEL
 RUN .              1.0000:    RUN NUMBER
 SON .               00000:    SERVICE ORDER NUMBER
 DD  .FT            0.0000:    DEPTH-DRILLER
 DL  .FT            0.0000:    DEPTH-LOGGER
 BLI .FT            0.0000:    BOTTOM LOGGED INTERVAL
 TLI .FT            0.0000:    TOP LOGGED INTERVAL
 CS  .  IN          0.0000:    CASING SIZE 
 CDD .FT            0.0000:    CASING DEPTH-DRILLER
 CDL .FT            0.0000:    CASING DEPTH-LOGGER
 BS  .IN            0.0000:    BIT SIZE
 DFT .               LIGNO:    MUD TYPE   
 DFD .LB/G          0.0000:    MUD WEIGHT
 DFV .S             0.0000:    MUD VISCOSITY
 DFPH.              0.0000:    MUD PH
 DFL .CC            0.0000:    MUD FLUID LOSS
 RMS .           FLOW LINE:    MUD SAMPLE SOURCE
 RM  .OHMM          0.0000:    MUD RESISTIVITY          
 RMT .DEGF          0.0000:    RM TEMPERATURE
 RMBH.OHMM          0.0000:    MUD RESISTIVITY AT BHT
 BHT .DEGF          0.0000:    BOTTOM HOLE TEMPERATURE
 RMFS.            MEASURED:    MUD FILTRATE SOURCE
 RMF .OHMM          0.0000:    MUD FILTRATE RESISTIVITY
 RMFT.DEGF          0.0000:    RMF TEMPERATURE
 RMCS.            MEASURED:    MUD CAKE SOURCE
 RMC .OHMM          0.0000:    MUD CAKE RESISTIVITY
 RMCT.DEGF          0.0000:    RMC TEMPERATURE
     
#      Computation Parameters Used
#MNEM.UNIT         Value       Description
#컴컴컴컴컴    컴컴컴컴컴컴�   컴컴컴컴컴컴컴컴컴컴컴컴컴컴컴컴컴컴컴컴컴컴�
 MDEN.G/CC          2.6500:    LOGGING MATRIX DENSITY
 MATR.              1.0000:    NEUTRON MATRIX (0=LIME,1=SAND,2=DOLO)
 FNUM.              0.6200:    TORTUOSITY CONSTANT ARCHIES (a)
 FEXP.              2.1500:    CEMENTATION EXPONENT ARCHIES (m)
     
~Other Information
     
#컴컴컴컴컴컴컴컴컴컴컴컴컴컴컴컴컴컴컴컴컴컴컴컴컴컴컴컴컴컴컴컴컴컴컴컴컴컴컴�
# In Making Interpretations Of Logs Our Employees Will Give Customer The Benefit
# Of Their Best Judgement,  But  Since All Interpretations Are Opinions Based On
# Inferences From Electrical Or  Other  Measurements,  We Cannot,  And We Do Not
# Guarantee The Accuracy Or  Correctness Of Any Interpretation.  We Shall Not Be
# Liable Or  Responsible For Any Loss,  Cost,  Damages, Or  Expenses  Whatsoever
# Incurred Or  Sustained By The Customer  Resulting  From Any Interpretaion Made
# By Any Of Our Employees.  ATLAS WIRELINE SERVICES-WESTERN ATLAS INTERNATIONAL
#컴컴컴컴컴컴컴컴컴컴컴컴컴컴컴컴컴컴컴컴컴컴컴컴컴컴컴컴컴컴컴컴컴컴컴컴컴컴컴�
     
~A  DEPTH      GR        CAL       RD        RS        CNC       PORZ      ZDEN      PE        ZCOR      SP        CDLL      
# ...
  3663.000    92.839     9.422     4.763     4.177    33.054     7.262     2.530     3.587     0.071   160.904   209.963 
  3663.500    92.855     9.675     4.921     4.406    34.675    10.175     2.482     3.133     0.110   160.787   203.211 
  3664.000    96.222    10.015     4.547     4.153    36.896    13.774     2.423     3.024     0.125   160.724   219.931 
  3664.500   100.856    10.360     3.990     3.670    38.937    17.174     2.367     3.115     0.126   160.702   250.608 
  3665.000   103.853    10.575     3.530     3.237    42.197    19.721     2.325     3.223     0.150   160.641   283.251 
  3665.500   103.278    10.565     3.219     2.935    45.059    21.133     2.301     3.385     0.177   160.543   310.701 
  3666.000   100.258    10.377     3.039     2.759    46.050    21.546     2.294     3.543     0.174   160.546   329.027 
  3666.500    99.289    10.169     2.965     2.687    45.807    21.184     2.300     3.613     0.152   160.687   337.306 
  3667.000   102.200    10.060     2.952     2.684    46.199    20.604     2.310     3.650     0.150   160.822   338.791 
  3667.500   106.125    10.048     2.952     2.707    47.240    20.466     2.312     3.689     0.162   160.860   338.760 
  3668.000   107.410    10.130     2.932     2.723    47.325    20.754     2.308     3.718     0.178   160.862   341.086 
  3668.500   104.944    10.256     2.958     2.772    44.788    19.980     2.320     3.818     0.200   160.876   338.123 
  3669.000    99.807    10.157     3.178     2.963    42.799    15.809     2.389     4.139     0.191   160.950   314.698 
  3669.500    93.732     9.747     3.691     3.384    41.690     9.679     2.490     4.481     0.119   161.134   270.963 
  3670.000    89.203     9.395     4.398     3.994    35.845     8.874     2.504     4.310     0.067   161.370   227.389 
  3670.500    89.727     9.377     4.853     4.451    37.707    15.120     2.401     3.726     0.132   161.514   206.078 
  3671.000    95.737     9.539     4.654     4.343    39.622    21.084     2.302     3.381     0.219   161.484   214.864 
  3671.500   101.848     9.620     4.172     3.906    44.004    21.991     2.287     3.429     0.248   161.341   239.667 
  3672.000   103.927     9.520     3.899     3.607    45.610    17.310     2.364     3.510     0.215   161.183   256.495 
  3672.500   105.023     9.342     3.907     3.568    44.306    12.374     2.446     3.492     0.155   161.102   255.956 
  3673.000   107.946     9.240     4.125     3.743    42.038    10.365     2.479     3.491     0.138   161.048   242.418 
  3673.500   110.538     9.202     4.520     4.101    38.694     9.967     2.486     3.523     0.155   160.956   221.227 
  3674.000   110.095     9.156     5.050     4.598    34.050     8.439     2.511     3.549     0.121   160.841   198.027 
  3674.500   107.093     9.119     5.582     5.113    30.242     6.744     2.539     3.593     0.057   160.741   179.149 
  3675.000   103.909     9.110     5.914     5.477    28.798     6.021     2.551     3.759     0.024   160.624   169.082 
  3675.500   103.284     9.110     5.866     5.518    29.740     7.234     2.531     3.894    -0.002   160.517   170.484 
  3676.000   105.856     9.112     5.500     5.228    32.268     9.703     2.490     3.709    -0.008   160.451   181.827 
  3676.500   110.206     9.122     5.112     4.854    35.145    11.596     2.459     3.357     0.032   160.505   195.628 
  3677.000   114.382     9.128     4.859     4.581    37.688    11.765     2.456     3.123     0.076   160.745   205.824 
  3677.500   116.431     9.131     4.724     4.436    39.000    11.635     2.458     3.023     0.087   161.020   211.665 
  3678.000   116.341     9.159     4.742     4.452    38.126    10.094     2.483     3.005     0.080   161.126   210.869 
  3678.500   116.428     9.202     5.041     4.727    35.260     7.232     2.531     3.035     0.067   161.049   198.378 
  3679.000   117.413     9.219     5.695     5.327    32.742     4.699     2.572     3.115     0.044   160.910   175.593 
  3679.500   116.051     9.210     6.561     6.155    29.043     4.450     2.577     3.274     0.021   160.831   152.415 
  3680.000   113.933     9.209     7.126     6.785    28.355     6.626     2.541     3.398     0.010   160.850   140.338 
  3680.500   116.125     9.237     6.787     6.591    29.482    11.003     2.468     3.384     0.001   160.895   147.341 
  3681.000   121.831     9.281     5.824     5.696    32.184    15.851     2.388     3.173     0.013   160.949   171.690 
  3681.500   126.890     9.312     4.949     4.809    35.664    19.138     2.334     2.983     0.050   160.992   202.076 
  3682.000   131.636     9.354     4.435     4.253    38.150    20.447     2.313     2.985     0.113   160.913   225.503 
  3682.500   133.528     9.374     4.360     4.107    38.316    18.221     2.349     3.260     0.179   160.714   229.359 
  3683.000   128.454     9.304     4.756     4.398    35.301    11.326     2.463     3.825     0.184   160.503   210.268 
  3683.500   118.487     9.188     5.579     5.104    30.983     4.583     2.574     4.283     0.103   160.316   179.245 
  3684.000   112.733     9.130     6.625     6.068    27.879     3.880     2.586     3.896     0.018   160.189   150.933 
  3684.500   115.998     9.117     7.446     6.895    26.757     5.485     2.560     3.001     0.007   160.134   134.293 
  3685.000   122.144     9.107     7.644     7.164    27.031     6.187     2.548     2.544     0.012   160.129   130.824 
  3685.500   123.213     9.087     7.469     7.012    27.581     6.140     2.549     2.640     0.015   160.160   133.893 
  3686.000   120.954     9.053     7.353     6.853    28.108     5.932     2.552     2.794     0.022   160.198   135.990 
  3686.500   121.783     9.024     7.346     6.794    28.702     5.474     2.560     2.732     0.031   160.209   136.136 
  3687.000   126.357     9.015     7.311     6.729    29.260     5.155     2.565     2.617     0.040   160.217   136.788 
  3687.500   131.856     9.014     7.161     6.570    29.776     5.426     2.560     2.576     0.040   160.266   139.641 
  3688.000   135.156     9.015     6.919     6.331    30.378     6.052     2.550     2.615     0.028   160.319   144.526 
  3688.500   135.815     9.024     6.676     6.093    31.205     6.635     2.541     2.602     0.015   160.407   149.794 
  3689.000   134.429     9.050     6.481     5.902    32.159     6.850     2.537     2.581     0.017   160.553   154.290 
  3689.500   134.120     9.074     6.324     5.758    32.882     6.793     2.538     2.802     0.029   160.650   158.132 
  3690.000   133.780     9.078     6.188     5.653    32.962     6.847     2.537     2.893     0.034   160.596   161.609 
  3690.500   130.127     9.062     6.067     5.572    32.625     7.278     2.530     2.818     0.025   160.492   164.821 
  3691.000   125.299     9.046     5.932     5.483    32.663     8.069     2.517     2.803     0.016   160.569   168.581 
  3691.500   125.275     9.035     5.757     5.367    33.572     8.839     2.504     2.798     0.024   160.863   173.700 
  3692.000   127.375     9.026     5.562     5.229    35.057     9.384     2.495     2.821     0.039   161.240   179.786 
  3692.500   127.543     9.029     5.365     5.077    35.852    10.002     2.485     2.892     0.048   161.500   186.381 
  3693.000   127.397     9.113     5.191     4.926    35.409    10.621     2.475     2.916     0.067   161.498   192.634 
  3693.500   127.239     9.310     5.049     4.792    35.426    11.045     2.468     2.905     0.100   161.286   198.040 
  3694.000   125.752     9.559     4.906     4.652    36.242    12.575     2.443     2.861     0.123   161.110   203.820 
  3694.500   124.654     9.764     4.724     4.469    36.940    16.131     2.384     2.740     0.136   161.085   211.688 
  3695.000   125.062     9.866     4.511     4.250    37.929    20.260     2.316     2.816     0.160   161.119   221.664 
  3695.500   125.279     9.863     4.286     4.025    39.398    22.995     2.271     3.267     0.185   161.135   233.309 
