~Version Information Block
 VERS.                1.20:     CWLS LOG ASCII STANDARD - VERSION 1.20
 WRAP.                  NO:     One Line Per Depth Step
     
~Well Information Block
#MNEM.UNIT       Data Type     Information
#컴컴컴컴컴    컴컴컴컴컴컴�   컴컴컴컴컴컴컴컴컴컴컴컴컴컴컴컴컴컴컴컴컴컴�
 STRT.FT            0.0000:
 STOP.FT         5650.0000:
 STEP.FT            0.5000:
 NULL.          -9999.0000:
 COMP.             COMPANY:    FLUOR DANIEL (NPOSR)INC.
 WELL.                WELL:    75-X-10                 
 FLD .               FIELD:    N.P.R. # 3              
 LOC .            LOCATION:    SEC 10 T38N R78W                        
 CNTY.              COUNTY:    NATRONA                       
 STAT.               STATE:    WYOMING   
 SRVC.     SERVICE COMPANY:    WESTERN ATLAS                        
 DATE.                DATE:    07/04/1996
 UWI .      UNIQUE WELL ID:          10.0
 API .          API NUMBER:    4902522807                
     
~Curve Information Block
#MNEM.UNIT       API CODE      Curve Description
#컴컴컴컴컴    컴컴컴컴컴컴�   컴컴컴컴컴컴컴컴컴컴컴컴컴컴컴컴컴컴컴컴컴컴�
 DEPTH.F        95 995 99 1:   Depth                                                        
 GR  .API       31 310 01 1:   Gamma Ray Counts                                             
 CAL .IN        28 280 99 1:   Caliper                                                      
 RD  .OHMM      22 220 10 1:   Logarithmic Resistivity from ED, ID                          
 RS  .OHMM      22 220 09 1:   Logarithmic Resistivity from ES, IS                          
 CNC .%         95 995 99 1:   Corrected Neutron Porosity from CN                           
 PORZ.%         95 890 99 1:   Porosity from Z-Densilog                                     
 ZDEN.G/C3      95 350 01 1:   Z-Densilog Bulk Density                                      
 PE  .BARN      95 358 01 1:   Photo Electric Cross Section                                 
 ZCOR.G/C3      39 356 99 1:   Z-Densilog Bulk Density Correction                           
 SP  .MV        95 010 01 1:   Spontaneous Potential from Tool Electrode                    
 CDLL.MMHO      95 995 99 1:   Conductivity from RD                                         
     
~Parameter Information Block
#MNEM.UNIT         Value       Description
#컴컴컴컴컴    컴컴컴컴컴컴�   컴컴컴컴컴컴컴컴컴컴컴컴컴컴컴컴컴컴컴컴컴컴�
 EKB .FT            0.0000:    ELEVATION KELLY BUSHING
 EGL .FT            0.0000:    ELEVATION GROUND LEVEL
 RUN .              1.0000:    RUN NUMBER
 SON .               00000:    SERVICE ORDER NUMBER
 DD  .FT            0.0000:    DEPTH-DRILLER
 DL  .FT            0.0000:    DEPTH-LOGGER
 BLI .FT            0.0000:    BOTTOM LOGGED INTERVAL
 TLI .FT            0.0000:    TOP LOGGED INTERVAL
 CS  .  IN          0.0000:    CASING SIZE 
 CDD .FT            0.0000:    CASING DEPTH-DRILLER
 CDL .FT            0.0000:    CASING DEPTH-LOGGER
 BS  .IN            0.0000:    BIT SIZE
 DFT .               LIGNO:    MUD TYPE   
 DFD .LB/G          0.0000:    MUD WEIGHT
 DFV .S             0.0000:    MUD VISCOSITY
 DFPH.              0.0000:    MUD PH
 DFL .CC            0.0000:    MUD FLUID LOSS
 RMS .           FLOW LINE:    MUD SAMPLE SOURCE
 RM  .OHMM          0.0000:    MUD RESISTIVITY          
 RMT .DEGF          0.0000:    RM TEMPERATURE
 RMBH.OHMM          0.0000:    MUD RESISTIVITY AT BHT
 BHT .DEGF          0.0000:    BOTTOM HOLE TEMPERATURE
 RMFS.            MEASURED:    MUD FILTRATE SOURCE
 RMF .OHMM          0.0000:    MUD FILTRATE RESISTIVITY
 RMFT.DEGF          0.0000:    RMF TEMPERATURE
 RMCS.            MEASURED:    MUD CAKE SOURCE
 RMC .OHMM          0.0000:    MUD CAKE RESISTIVITY
 RMCT.DEGF          0.0000:    RMC TEMPERATURE
     
#      Computation Parameters Used
#MNEM.UNIT         Value       Description
#컴컴컴컴컴    컴컴컴컴컴컴�   컴컴컴컴컴컴컴컴컴컴컴컴컴컴컴컴컴컴컴컴컴컴�
 MDEN.G/CC          2.6500:    LOGGING MATRIX DENSITY
 MATR.              1.0000:    NEUTRON MATRIX (0=LIME,1=SAND,2=DOLO)
 FNUM.              0.6200:    TORTUOSITY CONSTANT ARCHIES (a)
 FEXP.              2.1500:    CEMENTATION EXPONENT ARCHIES (m)
     
~Other Information
     
#컴컴컴컴컴컴컴컴컴컴컴컴컴컴컴컴컴컴컴컴컴컴컴컴컴컴컴컴컴컴컴컴컴컴컴컴컴컴컴�
# In Making Interpretations Of Logs Our Employees Will Give Customer The Benefit
# Of Their Best Judgement,  But  Since All Interpretations Are Opinions Based On
# Inferences From Electrical Or  Other  Measurements,  We Cannot,  And We Do Not
# Guarantee The Accuracy Or  Correctness Of Any Interpretation.  We Shall Not Be
# Liable Or  Responsible For Any Loss,  Cost,  Damages, Or  Expenses  Whatsoever
# Incurred Or  Sustained By The Customer  Resulting  From Any Interpretaion Made
# By Any Of Our Employees.  ATLAS WIRELINE SERVICES-WESTERN ATLAS INTERNATIONAL
#컴컴컴컴컴컴컴컴컴컴컴컴컴컴컴컴컴컴컴컴컴컴컴컴컴컴컴컴컴컴컴컴컴컴컴컴컴컴컴�
     
~A  DEPTH      GR        CAL       RD        RS        CNC       PORZ      ZDEN      PE        ZCOR      SP        CDLL      
# ...
  2805.000   146.066     9.083     3.218     2.672    33.863    15.620     2.392     2.780     0.093   141.300   310.782 
  2805.500   122.542     9.022     4.767     3.905    27.640     8.742     2.506     2.784     0.043   141.206   209.784 
  2806.000   103.004     9.014     6.429     5.353    24.781     5.530     2.559     2.799     0.021   141.150   155.548 
  2806.500    94.073     9.014     7.013     5.965    24.176     4.721     2.572     2.810     0.024   141.106   142.588 
  2807.000    93.137     9.014     6.908     5.900    24.568     4.775     2.571     2.810     0.032   141.046   144.763 
  2807.500    94.684     9.017     6.823     5.789    25.159     5.155     2.565     2.807     0.033   140.954   146.554 
  2808.000    96.491     9.026     6.828     5.737    25.460     5.433     2.560     2.804     0.029   140.896   146.455 
  2808.500    98.081     9.032     6.869     5.705    25.517     5.593     2.558     2.796     0.029   140.856   145.576 
  2809.000    99.559     9.026     6.917     5.675    25.518     5.889     2.553     2.781     0.032   140.790   144.573 
  2809.500   103.103     9.017     6.974     5.664    25.740     6.230     2.547     2.769     0.030   140.780   143.390 
  2810.000   106.160     9.014     7.077     5.717    26.230     6.466     2.543     2.763     0.024   140.862   141.311 
  2810.500   106.018     9.014     7.232     5.844    26.425     6.602     2.541     2.760     0.018   140.941   138.276 
  2811.000   105.345     9.014     7.402     6.007    25.937     6.622     2.541     2.771     0.017   140.977   135.105 
  2811.500   107.253     9.014     7.535     6.159    25.426     6.480     2.543     2.773     0.026   141.023   132.715 
  2812.000   109.378     9.014     7.594     6.259    25.741     6.286     2.546     2.744     0.039   141.083   131.688 
  2812.500   110.037     9.014     7.617     6.324    26.257     6.323     2.546     2.727     0.043   141.093   131.279 
  2813.000   110.218     9.013     7.715     6.432    26.172     6.603     2.541     2.741     0.034   141.072   129.626 
  2813.500   110.883     9.003     7.939     6.636    25.824     6.910     2.536     2.750     0.023   141.141   125.963 
  2814.000   112.068     8.975     8.211     6.888    25.804     7.112     2.533     2.759     0.018   141.334   121.785 
  2814.500   111.112     8.941     8.333     7.043    25.735     7.222     2.531     2.825     0.016   141.526   119.998 
  2815.000   108.371     8.922     8.139     6.953    25.476     7.463     2.527     3.038     0.009   141.574   122.864 
  2815.500   107.730     8.918     7.686     6.629    25.947     7.811     2.521     3.158    -0.001   141.446   130.100 
  2816.000   109.849     8.918     7.212     6.253    27.081     8.037     2.517     3.141    -0.004   141.220   138.663 
  2816.500   111.898     8.918     6.908     6.000    27.950     8.285     2.513     3.143    -0.003   141.047   144.759 
  2817.000   114.463     8.918     6.816     5.923    28.104     8.681     2.507     3.143    -0.005   140.990   146.707 
  2817.500   117.946     8.918     6.865     5.974    27.957     8.707     2.506     3.120    -0.006   140.943   145.671 
  2818.000   118.045     8.918     6.933     6.055    27.583     8.182     2.515     3.098     0.008   140.768   144.245 
  2818.500   114.609     8.918     6.956     6.098    27.845     7.698     2.523     3.065     0.023   140.488   143.758 
  2819.000   112.822     8.918     7.024     6.160    28.435     7.504     2.526     2.995     0.025   140.235   142.368 
  2819.500   112.811     8.918     7.300     6.374    27.962     7.139     2.532     2.948     0.020   140.065   136.980 
  2820.000   112.362     8.918     7.871     6.819    26.525     6.462     2.543     2.909     0.021   139.959   127.041 
  2820.500   111.452     8.918     8.630     7.426    24.943     5.771     2.555     2.848     0.031   139.888   115.874 
  2821.000   108.331     8.918     9.253     7.950    23.040     5.323     2.562     2.766     0.040   139.863   108.073 
  2821.500   103.402     8.918     9.470     8.150    22.489     5.323     2.562     2.768     0.041   139.845   105.596 
  2822.000   100.880     8.918     9.386     8.073    23.008     5.813     2.554     2.775     0.031   139.741   106.538 
  2822.500   100.834     8.918     9.291     7.952    23.612     6.329     2.546     2.767     0.019   139.488   107.636 
  2823.000    99.568     8.918     9.350     7.952    24.282     6.361     2.545     2.771     0.021   139.067   106.946 
  2823.500    97.829     8.918     9.544     8.084    24.873     6.106     2.549     2.806     0.036   138.473   104.781 
  2824.000    97.118     8.918     9.736     8.244    24.929     6.137     2.549     2.839     0.038   137.788   102.709 
  2824.500    97.634     8.918     9.862     8.363    24.461     6.420     2.544     2.865     0.022   137.149   101.397 
  2825.000    99.562     8.918     9.929     8.441    24.116     6.587     2.541     2.901     0.011   136.603   100.712 
  2825.500   102.884     8.918     9.950     8.483    24.350     6.613     2.541     2.937     0.011   136.138   100.506 
  2826.000   106.617     8.918     9.943     8.500    24.709     6.612     2.541     2.931     0.014   135.619   100.569 
  2826.500   108.776     8.918     9.948     8.521    24.750     6.601     2.541     2.931     0.015   134.891   100.523 
  2827.000   108.355     8.918     9.991     8.568    24.219     6.576     2.542     2.948     0.019   134.027   100.089 
  2827.500   106.506     8.918     9.998     8.596    23.681     6.515     2.543     2.960     0.023   133.262   100.018 
  2828.000   104.505     8.918     9.811     8.494    23.583     6.414     2.544     2.964     0.029   132.691   101.928 
  2828.500   102.954     8.908     9.397     8.225    23.707     6.361     2.545     2.976     0.039   132.317   106.418 
  2829.000   103.840     8.879     8.893     7.881    23.873     6.402     2.544     2.990     0.041   132.065   112.446 
  2829.500   107.322     8.845     8.469     7.592    24.222     6.400     2.544     2.998     0.036   131.765   118.074 
  2830.000   109.729     8.826     8.272     7.486    24.785     6.309     2.546     3.002     0.033   131.313   120.895 
  2830.500   108.531     8.823     8.333     7.610    25.245     6.225     2.547     3.012     0.032   130.785   120.011 
  2831.000   106.152     8.823     8.534     7.872    25.165     6.181     2.548     3.027     0.029   130.349   117.181 
  2831.500   103.823     8.823     8.706     8.112    24.711     6.134     2.549     3.032     0.025   130.079   114.870 
  2832.000   101.335     8.823     8.747     8.219    24.568     6.054     2.550     3.065     0.027   129.946   114.324 
  2832.500   100.473     8.823     8.678     8.194    24.963     5.922     2.552     3.216     0.033   129.928   115.228 
  2833.000   102.930     8.823     8.595     8.117    25.406     5.635     2.557     3.356     0.039   129.932   116.346 
  2833.500   106.636     8.823     8.573     8.066    25.511     5.296     2.563     3.359     0.041   129.895   116.651 
  2834.000   107.668     8.823     8.654     8.082    25.116     5.300     2.563     3.320     0.034   129.821   115.553 
  2834.500   106.207     8.823     8.920     8.238    24.075     5.778     2.555     3.310     0.022   129.721   112.102 
  2835.000   103.999     8.823     9.591     8.706    22.998     6.184     2.548     3.301     0.018   129.661   104.261 
  2835.500   101.159     8.823    11.109     9.823    22.237     5.888     2.553     3.318     0.029   129.687    90.015 
  2836.000    94.228     8.823    14.237    12.153    21.159     4.862     2.570     3.347     0.042   129.707    70.242 
  2836.500    81.603     8.823    20.145    16.574    19.194     3.922     2.585     3.354     0.042   129.727    49.639 
  2837.000    67.238     8.823    28.575    23.170    17.115     4.336     2.578     3.363     0.034   129.749    34.996 
  2837.500    58.963     8.823    31.551    26.487    16.160     6.401     2.544     3.391     0.035   129.635    31.695 
