~VERSION INFORMATION
 VERS.               2.10:   CWLS LOG ASCII STANDARD - VERSION 2.10
 WRAP.                 NO:   ONE LINE PER DEPTH STEP
~WELL INFORMATION
#MNEM.UNIT      DATA TYPE    INFORMATION
#----------   ------------   ------------------------------
 STRT.F         5259.7544:   START DEPTH
 STOP.F         5507.2764:   STOP DEPTH
 STEP.F            0.5000:   STEP LENGTH
 NULL.          -999.2500:   NO VALUE
 COMP. Fluor Daniel (NPOSR), Inc.:   COMPANY
 WELL.            75-X-10:   WELL
 FLD .           N.P.R. 3:   FIELD
 LOC . 10-38N-78W-NATRONA-WY:   LOCATION
 STAT.                 WY:   STATE
 COUN.            Natrona:   COUNTY
 SRVC.      Western Atlas:   SERVICE COMPANY
 DATE.                   :   LOGDATE
 APIN.         4902522807:   API NUMBER
~CURVE INFORMATION
#MNEM.UNIT       API CODE    CURVE DESCRIPTION
#----------   ------------   ------------------------------
 DEPT.F                  :
 R4SL.OHM-M              :   
 D4EC.DIM                :   
 P4HS.DEQ                :   
 R4AT.DIM                :   
 GR  .GAPI   09 310 00 00:   Gamma Ray
~PARAMETER INFORMATION
#MNEM.UNIT          VALUE    DESCRIPTION
#----------   ------------   ------------------------------
 EKB .F         5198.0000:   Kelly bushing
 EGL .F         5188.0000:   Ground level
 EDF .F         5197.0000:   Drilling floor
 EPD .F           10.0000:   Permanent datum
 TD  .F         5650.0000:   Total depth
 NRUN.             1.0000:   Number of Runs
#--RUN 1---   ------------   The following are for Run 1---
 RUN .             1.0000:   Run 1
 DATE.mm/dd/yyyy 07/04/1996:   Date Logged
 DD  .ft             5650:   Depth Driller
 DL  .ft             5647:   Depth Logger
 BLI .ft             5627:   Bottom Log Interval
 TLI .ft             2400:   Top Log Interval
 CSS .inch          9.875:   Casing Size
 CTD1.ft              445:   Casing Driller 1
 CTL1.ft              444:   Casing Logger 1
 BS  .inch           8.75:   Bit Size
 DFT .           gel/chem:   Type Fluid In Hole
 DFD .lb/gal          9.5:   Mud Weight
 DFV .sec              40:   Viscosity
 DFPH.                9.0:   pH
 DFL .gal             7.6:   Fluid Loss
 WSS .              circ.:   Source Of Sample
 RM  .ohmm            .61:   Rm
 EMT .F                84:   Rm Meas. Temp.
 RMF .ohmm            .48:   Rmf
 MFT .F                84:   Rmf Meas. Temp.
 RMC .ohmm            .75:   Rmc
 MCST.F                84:   Rmc Meas. Temp.
 MFSS.              calc.:   Source Rmf.
 MCSS.              calc.:   Source Rmc.
 RMB .ohmm            .29:   Rm. At BHT
 BHT .F               176:   BHT.
 TCS .hh:mm       13 hrs.:   Time Circ. Stopped
 MRT .F               176:   Maximum Recorded Temp.
 LUN .            hl 6530:   Logging Unit Number
 LUL .             Casper:   Logging Unit Location
 ENGI.           Brownlow:   Recorded By
 WITN.             Lebeau:   Witnessed By
 DGBY.              Burke:   Digitized By
~A  DEPTH     R4SL       D4EC       P4HS       R4AT         GR
# ...
 5442.7540   164.9566    10.8834    33.9682     0.5438    15.6626
 5443.2540   162.8107    11.1523    34.7031     0.5437    14.1157
 5443.7540   161.5889    11.2272    35.0639     0.5435    14.4350
 5444.2540   162.3203    10.9141    34.8648     0.5434    15.0653
 5444.7540   164.6929    10.6016    34.2792     0.5433    16.6288
 5445.2540   163.4711    10.6862    34.6548     0.5432    18.1923
 5445.7540   161.3252    11.2154    35.2041     0.5430    16.9564
 5446.2540   159.7954    11.6776    35.7479     0.5414    16.9668
 5446.7540   159.4974    11.5975    36.1114     0.5428    18.5303
 5447.2540   159.5082    11.4400    36.0980     0.5411    19.7827
 5447.7540   159.1797    11.0500    35.1561     0.5377    21.3462
 5448.2540   157.0673    10.5814    34.5591     0.5300    22.2876
 5448.7540   152.1489    10.2701    34.2055     0.5236    22.2960
 5449.2540   149.0789    10.4219    34.3805     0.5204    22.2516
 5449.7540   145.7008    11.4262    35.4843     0.5156    20.7593
 5450.2540   144.4790    11.9665    37.7027     0.5124    20.1434
 5450.7540   144.7975    12.0413    37.6920     0.5123    20.7759
 5451.2540   146.0627    11.5733    37.3095     0.5153    21.7173
 5451.7540   148.6719    11.4888    37.1106     0.5231    22.0366
 5452.2540   151.3004    11.4125    36.9141     0.5290    21.1117
 5452.7540   151.9270    11.3324    36.9033     0.5288    20.4666
 5453.2540   149.4730    11.4847    35.7780     0.5256    21.4414
 5453.7540   144.2440    11.7152    37.0676     0.5208    23.0049
 5454.2540   145.1812    12.7963    39.1017     0.5223    25.5015
 5454.7540   150.7365    13.4134    39.6468     0.5299    27.3760
 5455.2540   151.6714    13.1009    39.0761     0.5345    28.3174
 5455.7540   152.6083    12.9427    38.6938     0.5343    28.3257
 5456.2540   155.0831    12.5528    38.1258     0.5358    30.2230
 5456.7540   158.1740    12.0855    37.0005     0.5403    34.6164
 5457.2540   177.2835    10.9984    34.7607     0.5511    36.4397
 5457.7540   181.9147     9.8339    32.8922     0.5665    34.2707
 5458.2540   181.0010     9.8313    32.6932     0.5679    32.7237
 5458.7540   177.5670    10.3915    33.2397     0.5631    32.4189
 5459.2540   172.6987    11.5295    34.5293     0.5502    31.4961
 5459.7540   162.5519    13.6669    38.2337     0.5458    31.1933
 5460.2540   160.0980    15.2428    41.1952     0.5565    29.0257
 5460.7540   163.4969    14.9297    41.1844     0.5720    26.8567
 5461.2540   175.5213    13.7652    39.2318     0.5812    24.3767
 5461.7540   190.9342    12.4457    36.8878     0.5935    22.2076
 5462.2540  -392.5003    11.9784    36.3198     0.5965    18.4834
 5462.7540  -391.2603    11.9758    35.7518     0.5964    17.2475
 5463.2540  -393.4036    11.7200    35.5553     0.5944    17.8800
 5463.7540  -392.7657    10.4982    33.8727     0.5930    17.8882
 5464.2540  -388.6049     9.4111    31.0348     0.5991    17.8965
 5464.7540  -376.4156     8.6339    29.5762     0.6021    17.9048
 5465.2540  -360.7379     8.6313    29.3823     0.6035    17.9131
 5465.7540  -345.0602     9.0934    30.2847     0.6190    17.9213
 5466.2540  -329.3825     9.5593    31.6135     0.6204    17.9297
 5466.7540  -321.5541    11.2564    32.9423     0.6202    17.4165
 5467.2540  -339.7195    11.8735    34.9077     0.6185    12.0385
 5467.7540  -360.9674    11.9490    35.4569     0.6138    10.4915
 5468.2540  -378.2013    11.3260    35.2577     0.6043    10.1867
 5468.7540  -375.0428    10.7812    34.1325     0.6011    10.5081
 5469.2540  -365.8058    10.4687    33.1929     0.6103    11.1384
 5469.7540  -368.9259    10.3886    32.4389     0.6039    13.0130
 5470.2540  -386.7824    10.6178    33.1688     0.5976    14.9202
 5470.7540  -393.5490    11.5447    34.8299     0.5927    15.2089
 5471.2540   199.7639    12.1617    35.5622     0.5911    14.2820
 5471.7540   194.6373    12.4696    35.7372     0.5863    13.9792
 5472.2540   188.3896    12.2340    36.4699     0.5846    12.7454
 5472.7540   183.4712    12.2276    36.4588     0.5845    12.7537
 5473.2540   180.0931    13.1583    37.0053     0.5797    14.0061
 5473.7540   176.4070    13.3874    37.5492     0.5718    14.3255
 5474.2540   167.8067    12.9975    38.8387     0.5592    14.3341
 5474.7540   151.1306    12.2202    38.6423     0.5205    14.0309
 5475.2540   134.4545    10.9008    38.6315     0.4819    13.1082
 5475.7540   116.9969    10.2785    38.9923     0.4407    12.8033
 5476.2540   113.0027    10.8181    40.1948     0.4375    11.8805
 5476.7540   111.1648    13.3155    43.9836     0.4374    11.2667
 5477.2540   111.1752    14.2205    44.9017     0.4388    10.6529
 5477.7540   111.4940    14.5277    44.8909     0.4433    10.6941
 5478.2540   112.7390    14.8349    44.6945     0.4603    11.2936
 5478.7540   116.7540    15.3745    44.1264     0.4726    11.3019
 5479.2540   126.0060    15.2944    43.3681     0.4927    11.3102
 5479.7540   137.4142    14.0449    41.0146     0.5097    11.3185
 5480.2540   141.1213    12.9385    38.1473     0.5080    10.0826
 5480.7540   140.5156    11.5554    36.6505     0.5016     9.4688
 5481.2540   136.4991    10.1723    35.7110     0.4855     9.7882
 5481.7540   135.6077     8.7743    34.3999     0.4719    10.1078
 5482.2540   143.6300     8.0667    32.3458     0.4842    10.7399
 5482.7540   154.7302     8.4586    30.8488     0.5105    11.9923
 5483.2540   164.2902     9.1531    31.3929     0.5337    14.1779
 5483.7540   170.4616     9.6927    31.5706     0.5569    15.1193
 5484.2540   170.1640     9.5352    32.1145     0.5475    14.5055
 5484.7540   166.1698     9.0678    31.3607     0.5347    14.5137
 5485.2540   161.4350     8.2132    29.1209     0.5145    15.4880
 5485.7540   153.8713     7.1815    28.9244     0.5020    17.9538
 5486.2540   144.9483     8.2731    30.0557     0.4894    17.9621
 5486.7540   129.8643    10.3301    33.5804     0.4815    17.3483
 5487.2540   124.0218    11.8424    38.3632     0.4658    14.2462
 5487.7540   123.7215    11.1427    38.9124     0.4455    12.0751
 5488.2540   123.7346     8.4290    34.8123     0.4345    11.7742
 5488.7540   118.7827     6.4899    33.5012     0.4281    12.4047
 5489.2540   116.2583     7.8041    35.2605     0.4311  -999.2500
 5489.7540   115.7566    12.5297    40.8411     0.4637  -999.2500
 5490.2540   117.0018    17.0938    46.4694     0.4698  -999.2500
 5490.7540   118.5525    17.4010    46.8329     0.4712  -999.2500
 5491.2540   124.4159    14.9964    42.5471     0.4742  -999.2500
 5491.7540   129.0471    10.5787    39.9357     0.4741  -999.2500
 5492.2540   131.8300     9.8796    37.1386     0.4739  -999.2500
 5492.7540   131.5004    10.3411    36.3848     0.4705  -999.2500
 5493.2540   126.6166    10.1836    37.3029     0.4550  -999.2500
 5493.7540   123.8546     9.2514    36.5464     0.4518  -999.2500
 5494.2540   123.5544     8.6291    35.7927     0.4439  -999.2500
 5494.7540   122.9513     8.3166    35.7819     0.4375  -999.2500
 5495.2540   120.1893     8.3134    35.7712     0.4421  -999.2500
 5495.7540   121.1239     9.2403    36.1439     0.4482  -999.2500
 5496.2540   123.0163    10.8643    37.2331     0.4591  -999.2500
 5496.7540   127.9795    12.1011    38.1538     0.4930  -999.2500
 5497.2540   150.2492    12.2535    36.4686     0.5295  -999.2500
 5497.7540   175.8820    12.0155    35.5291     0.5892  -999.2500
 5498.2540  -999.2500    11.7053    34.5896     0.6186  -999.2500
 5498.7540  -999.2500    11.1605    34.0215     0.6294  -999.2500
 5499.2540  -999.2500    10.5382    32.4987     0.6324  -999.2500
 5499.7540  -999.2500     9.6060    30.2822     0.6307  -999.2500
 5500.2540   199.7740     9.5610    30.2786     0.6228  -999.2500
 5500.7540  -166.6816     9.8248    31.0217     0.6119  -999.2500
 5501.2540  -362.0750    10.5144    32.3220     0.5994  -999.2500
 5501.7540  -379.6190    10.8942    33.2508     0.5961  -999.2500
 5502.2540  -387.1976    11.1190    33.8080     0.5897  -999.2500
 5502.7540  -999.2500    11.1890    34.1796     0.5805  -999.2500
 5503.2540   198.6331    11.1812    34.3653     0.5758  -999.2500
