~VERSION INFORMATION
 VERS.               2.10:   CWLS LOG ASCII STANDARD - VERSION 2.10
 WRAP.                 NO:   ONE LINE PER DEPTH STEP
~WELL INFORMATION
#MNEM.UNIT      DATA TYPE    INFORMATION
#----------   ------------   ------------------------------
 STRT.F         5259.7544:   START DEPTH
 STOP.F         5507.2764:   STOP DEPTH
 STEP.F            0.5000:   STEP LENGTH
 NULL.          -999.2500:   NO VALUE
 COMP. Fluor Daniel (NPOSR), Inc.:   COMPANY
 WELL.            75-X-10:   WELL
 FLD .           N.P.R. 3:   FIELD
 LOC . 10-38N-78W-NATRONA-WY:   LOCATION
 STAT.                 WY:   STATE
 COUN.            Natrona:   COUNTY
 SRVC.      Western Atlas:   SERVICE COMPANY
 DATE.                   :   LOGDATE
 APIN.         4902522807:   API NUMBER
~CURVE INFORMATION
#MNEM.UNIT       API CODE    CURVE DESCRIPTION
#----------   ------------   ------------------------------
 DEPT.F                  :
 R4SL.OHM-M              :   
 D4EC.DIM                :   
 P4HS.DEQ                :   
 R4AT.DIM                :   
 GR  .GAPI   09 310 00 00:   Gamma Ray
~PARAMETER INFORMATION
#MNEM.UNIT          VALUE    DESCRIPTION
#----------   ------------   ------------------------------
 EKB .F         5198.0000:   Kelly bushing
 EGL .F         5188.0000:   Ground level
 EDF .F         5197.0000:   Drilling floor
 EPD .F           10.0000:   Permanent datum
 TD  .F         5650.0000:   Total depth
 NRUN.             1.0000:   Number of Runs
#--RUN 1---   ------------   The following are for Run 1---
 RUN .             1.0000:   Run 1
 DATE.mm/dd/yyyy 07/04/1996:   Date Logged
 DD  .ft             5650:   Depth Driller
 DL  .ft             5647:   Depth Logger
 BLI .ft             5627:   Bottom Log Interval
 TLI .ft             2400:   Top Log Interval
 CSS .inch          9.875:   Casing Size
 CTD1.ft              445:   Casing Driller 1
 CTL1.ft              444:   Casing Logger 1
 BS  .inch           8.75:   Bit Size
 DFT .           gel/chem:   Type Fluid In Hole
 DFD .lb/gal          9.5:   Mud Weight
 DFV .sec              40:   Viscosity
 DFPH.                9.0:   pH
 DFL .gal             7.6:   Fluid Loss
 WSS .              circ.:   Source Of Sample
 RM  .ohmm            .61:   Rm
 EMT .F                84:   Rm Meas. Temp.
 RMF .ohmm            .48:   Rmf
 MFT .F                84:   Rmf Meas. Temp.
 RMC .ohmm            .75:   Rmc
 MCST.F                84:   Rmc Meas. Temp.
 MFSS.              calc.:   Source Rmf.
 MCSS.              calc.:   Source Rmc.
 RMB .ohmm            .29:   Rm. At BHT
 BHT .F               176:   BHT.
 TCS .hh:mm       13 hrs.:   Time Circ. Stopped
 MRT .F               176:   Maximum Recorded Temp.
 LUN .            hl 6530:   Logging Unit Number
 LUL .             Casper:   Logging Unit Location
 ENGI.           Brownlow:   Recorded By
 WITN.             Lebeau:   Witnessed By
 DGBY.              Burke:   Digitized By
~A  DEPTH     R4SL       D4EC       P4HS       R4AT         GR
 5259.7540  -999.2500  -999.2500     0.0000  -999.2500  -999.2500
 5260.2540  -999.2500     0.0000     0.0000  -999.2500  -999.2500
 5260.7540  -999.2500     0.0000     0.0000  -999.2500  -999.2500
 5261.2540  -999.2500     0.0000     0.0000  -999.2500  -999.2500
 5261.7540  -999.2500     0.0000     0.0000  -999.2500  -999.2500
 5262.2540  -999.2500     0.0000     0.0000  -999.2500  -999.2500
 5262.7540  -999.2500     0.0000     0.0000  -999.2500  -999.2500
 5263.2540  -999.2500     0.0000     0.0000  -999.2500  -999.2500
 5263.7540  -999.2500     0.0000     0.0000  -999.2500  -999.2500
 5264.2540  -999.2500     0.0000     0.0000  -999.2500  -999.2500
 5264.7540  -999.2500     0.0000     0.0000  -999.2500  -999.2500
 5265.2540  -999.2500     0.0000     0.0000  -999.2500  -999.2500
 5265.7540  -999.2500     0.0000     0.0000  -999.2500  -999.2500
 5266.2540  -999.2500     0.0000     0.0000  -999.2500  -999.2500
 5266.7540  -999.2500     0.0000     0.0000  -999.2500  -999.2500
 5267.2540  -999.2500     0.0000     0.0000  -999.2500  -999.2500
 5267.7540  -999.2500     0.0000     0.0000  -999.2500  -999.2500
 5268.2540  -999.2500     0.0000     0.0000  -999.2500  -999.2500
 5268.7540  -999.2500     0.0000     0.0000  -999.2500  -999.2500
 5269.2540  -999.2500     0.0000     0.0000  -999.2500  -999.2500
 5269.7540  -999.2500     0.0000     0.0000  -999.2500  -999.2500
 5270.2540  -999.2500     0.0000     0.0000  -999.2500  -999.2500
 5270.7540  -999.2500     0.0000     0.0000  -999.2500  -999.2500
 5271.2540  -999.2500     0.0000     0.0000  -999.2500  -999.2500
 5271.7540  -999.2500     0.0000     0.0000  -999.2500  -999.2500
 5272.2540  -999.2500     0.0000     0.0000  -999.2500    71.0435
 5272.7540  -999.2500     0.0000     0.0000  -999.2500    75.4854
 5273.2540  -999.2500     0.0000     0.0000  -999.2500    86.1661
 5273.7540  -999.2500     0.0000     0.0000  -999.2500    90.8344
 5274.2540  -999.2500     0.0000     0.0000  -999.2500    91.7703
 5274.7540  -999.2500     0.0000     0.0000  -999.2500    91.4620
 5275.2540  -999.2500     0.0000     0.0000  -999.2500    90.5309
 5275.7540  -999.2500     0.0000     0.0000  -999.2500    90.5343
 5276.2540  -999.2500     0.0000     0.0000  -999.2500    91.7812
 5276.7540  -999.2500     0.0000     0.0000  -999.2500    93.9612
 5277.2540  -999.2500     0.0000     0.0000  -999.2500    93.6528
 5277.7540  -999.2500     0.0000     0.0000  -999.2500    94.2777
 5278.2540  -999.2500     0.0000     0.0000  -999.2500    95.6192
 5278.7540  -999.2500     0.0000     0.0000  -999.2500   101.7488
 5279.2540  -999.2500     0.0000     0.0000  -999.2500   104.5509
 5279.7540  -999.2500     0.0000     0.0000  -999.2500   104.5536
 5280.2540  -999.2500     0.0000     0.0000  -999.2500   104.2446
 5280.7540  -999.2500     0.0000     0.0000  -999.2500   101.1375
 5281.2540  -999.2500     0.0000     0.0000  -999.2500    97.4078
 5281.7540  -999.2500     0.0000     0.0000  -999.2500    93.4294
 5282.2540  -999.2500     0.0000     0.0000  -999.2500    89.1230
 5282.7540  -999.2500     0.0000     0.0000  -999.2500    85.9076
 5283.2540  -999.2500     0.0000     0.0000  -999.2500    80.9336
 5283.7540  -999.2500     0.0000     0.0000  -999.2500    72.8493
 5284.2540  -999.2500     0.0000     0.0000  -999.2500    70.6746
 5284.7540  -999.2500     0.0000     0.0000  -999.2500    70.9884
 5285.2540  -999.2500     0.0000     0.0000  -999.2500    71.3022
 5285.7540  -999.2500     0.0000     0.0000  -999.2500    72.5492
 5286.2540  -999.2500     0.0000     0.0000  -999.2500    71.9297
 5286.7540  -999.2500     0.0000     0.0000  -999.2500    70.0668
 5287.2540  -999.2500     0.0000     0.0000  -999.2500    65.7150
 5287.7540  -999.2500     0.0000     0.0000  -999.2500    59.9470
 5288.2540  -999.2500     0.0000     0.0000  -999.2500    52.0749
 5288.7540  -999.2500     0.0000     0.0000  -999.2500    44.2028
 5289.2540  -999.2500     0.0000     0.0000     0.5276    36.3308
 5289.7540  -999.2500     0.0000     0.0000     0.5426    28.4587
 5290.2540   156.4128    15.9556     0.0000     0.5362    21.8744
 5290.7540   156.4458     8.6706    32.3063     0.5329    20.6329
 5291.2540   157.3964     7.5730    29.6968     0.5218    20.8100
 5291.7540   156.4988     7.4251    30.8024     0.5107    24.6826
 5292.2540   149.7482     8.6607    35.2517     0.4966    25.3067
 5292.7540   138.9929    12.2982    38.7721     0.4917    22.1997
 5293.2540   135.6308    15.7808    43.2576     0.5024    20.0251
 5293.7540   133.7774    17.1720    45.1703     0.5022    19.0940
 5294.2540   132.6099    17.2512    45.6176     0.5005    19.0974
 5294.7540   131.4042    15.6809    43.3773     0.4863    19.1001
 5295.2540   128.6582    14.8383    43.3684     0.4799    19.4139
 5295.7540   126.2203    15.4549    44.6598     0.4735    20.0387
 5296.2540   124.3985    17.2334    46.3227     0.4811    21.6165
 5296.7540   123.5008    17.3861    46.1280     0.4794    24.1263
 5297.2540   123.8420    15.6781    43.5184     0.4761    26.8904
 5297.7540   122.0202    11.6472    39.9163     0.4604    29.6925
 5298.2540   118.0420     9.8625    40.3404     0.4322    30.9394
 5298.7540   108.6896    11.7952    45.9042     0.3745    31.2532
 5299.2540    97.3951    13.4188    51.4680     0.3479    30.3227
 5299.7540    86.1005    11.4793    53.5024     0.3337    28.1482
 5300.2540    77.1728    10.3918    53.6998     0.3102    25.6675
 5300.7540    73.1830    11.0084    54.2547     0.2945    22.5668
 5301.2540    67.8564    15.8323    61.2752     0.2867    20.0882
 5301.7540    63.3589    24.1607    65.9102     0.2964    18.5428
 5302.2540    63.9899    28.5820    71.2883     0.3129    17.9305
 5302.7540    66.4691    28.0367    70.7221     0.3159    17.3182
 5303.2540    69.8725    24.5480    66.8122     0.3173    17.3304
 5303.7540    72.6599    20.6408    62.9024     0.3265    17.6512
 5304.2540    75.1391    18.4218    59.1032     0.3311    17.9720
 5304.7540    77.0025    17.1019    56.9380     0.3357    18.6039
 5305.2540    77.3252    15.0075    56.3717     0.3339    19.5467
 5305.7540    73.6472    14.3855    56.7343     0.3183    24.8442
 5306.2540    70.8897    16.5506    58.9545     0.3104    43.3527
 5306.7540    69.3643    20.0332    62.2892     0.3103    61.9518
 5307.2540    69.6872    21.7423    63.9521     0.3102    80.5508
 5307.7540    70.3182    22.1959    63.9409     0.3132    97.6696
 5308.2540    72.2064    22.1146    63.1889     0.3271   100.1677
 5308.7540    74.9724    22.1116    62.2512     0.3364    96.4449
 5309.2540    76.8356    21.8761    61.4992     0.3378    93.0332
 5309.7540    77.7746    20.8661    60.0042     0.3392    91.1768
 5310.2540    78.0975    19.9335    59.4380     0.3391    92.1221
 5310.7540    78.1124    19.9474    59.9863     0.3390    93.9981
 5311.2540    78.0932    20.1598    58.8606     0.3405    96.8073
 5311.7540    78.1423    17.0576    56.4368     0.3388    98.6833
 5312.2540    78.1577    14.0336    55.3133     0.3356   100.2482
 5312.7540    76.9434    14.1855    55.4901     0.3308   101.8132
 5313.2540    74.4939    16.5837    58.2676     0.3240   103.0913
 5313.7540    72.0444    18.1298    60.5223     0.3088   104.3235
 5314.2540    69.5949    18.7671    61.2218     0.3103   100.9118
 5314.7540    70.5339    19.0532    61.3986     0.3102    99.3664
 5315.2540    72.7127    18.5072    59.9014     0.3132    99.3762
 5315.7540    74.3120    18.4274    59.5210     0.3162   100.6301
 5316.2540    73.9708    19.1982    60.4408     0.3223   101.2619
 5316.7540    72.4454    20.9767    61.7427     0.3222    99.6599
 5317.2540    70.6120    22.2130    63.9501     0.3220    92.2637
 5317.7540    69.0866    22.7605    65.6130     0.3157    89.7851
 5318.2540    67.8693    23.0582    66.5351     0.3094    89.1704
 5318.7540    68.8159    21.8158    64.8521     0.3186    89.8047
 5319.2540    71.3855    19.8762    61.8710     0.3263    90.7476
 5319.7540    74.6947    18.7887    57.7754     0.3293    90.4463
 5320.2540    76.5579    13.5959    55.6805     0.3276    89.2119
