~VERSION INFORMATION
 VERS.               2.10:   CWLS LOG ASCII STANDARD - VERSION 2.10
 WRAP.                 NO:   ONE LINE PER DEPTH STEP
~WELL INFORMATION
#MNEM.UNIT      DATA TYPE    INFORMATION
#----------   ------------   ------------------------------
 STRT.F         4999.7969:   START DEPTH
 STOP.F         5666.3267:   STOP DEPTH
 STEP.F            0.5000:   STEP LENGTH
 NULL.          -999.2500:   NO VALUE
 COMP. Fluor Daniel (NPOSR), Inc.:   COMPANY
 WELL.            75-X-10:   WELL
 FLD .           N.P.R. 3:   FIELD
 LOC . 10-38N-78W-NATRONA-WY:   LOCATION
 STAT.                 WY:   STATE
 COUN.            Natrona:   COUNTY
 SRVC.      Western Atlas:   SERVICE COMPANY
 DATE.                   :   LOGDATE
 APIN.         4902522807:   API NUMBER
~CURVE INFORMATION
#MNEM.UNIT       API CODE    CURVE DESCRIPTION
#----------   ------------   ------------------------------
 DEPT.F                  :
 LLD .ohmm   11 220 04 00:   Dual Laterolog, Deep
 LLS .ohmm   11 220 06 00:   Dual Laterolog, shallow
 SP  .mV     06 010 01 00:   Spontaneous Potential
 GR  .GAPI   06 310 01 00:   Gamma Ray
 CDLL.mho/m              :   Conductivity
~PARAMETER INFORMATION
#MNEM.UNIT          VALUE    DESCRIPTION
#----------   ------------   ------------------------------
 EKB .F         5198.0000:   Kelly bushing
 EGL .F         5188.0000:   Ground level
 EDF .F         5197.0000:   Drilling floor
 EPD .F           10.0000:   Permanent datum
 TD  .F        56500.0000:   Total depth
 NRUN.             1.0000:   Number of Runs
#--RUN 1---   ------------   The following are for Run 1---
 RUN .             1.0000:   Run 1
 DATE.mm/dd/yyyy 07/04/1996:   Date Logged
 DD  .ft             5650:   Depth Driller
 DL  .ft             5647:   Depth Logger
 BLI .ft             5627:   Bottom Log Interval
 TLI .ft            surf.:   Top Log Interval
 CSS .inch          9.875:   Casing Size
 CTD1.ft              445:   Casing Driller 1
 CTL1.ft              444:   Casing Logger 1
 BS  .inch           8.75:   Bit Size
 DFT .           gel/chem:   Type Fluid In Hole
 DFD .lb/gal          9.5:   Mud Weight
 DFV .sec              40:   Viscosity
 DFPH.                9.0:   pH
 DFL .gal             7.6:   Fluid Loss
 WSS .              circ.:   Source Of Sample
 RM  .ohmm            .61:   Rm
 EMT .F                84:   Rm Meas. Temp.
 RMF .ohmm            .48:   Rmf
 MFT .F                84:   Rmf Meas. Temp.
 RMC .ohmm            .75:   Rmc
 MCST.F                84:   Rmc Meas. Temp.
 MFSS.              calc.:   Source Rmf.
 MCSS.              calc.:   Source Rmc.
 RMB .ohmm            .29:   Rm. At BHT
 BHT .F               176:   BHT.
 TCS .hh:mm        6 hrs.:   Time Circ. Stopped
 MRT .F               176:   Maximum Recorded Temp.
 LUN .            hl 6530:   Logging Unit Number
 LUL .             Casper:   Logging Unit Location
 ENGI.           Brownlow:   Recorded By
 WITN.             Lebeau:   Witnessed By
 DGBY.              Burke:   Digitized By
~OTHER INFORMATION
# Borehole Volume Computed for 7" Casing
~A  DEPTH      LLD        LLS         SP         GR       CDLL
# ...
 5426.7970   466.1615   198.2548    55.8613    21.2441  -999.2500
 5427.2970   425.2577   201.1615    56.1799    21.8905  -999.2500
 5427.7970   387.7752   192.8938    56.4986    21.6037  -999.2500
 5428.2970   341.5166   174.1848    56.6617    20.0728    -1.2176
 5428.7970   318.2585   145.1651    56.9803    18.5419     0.5633
 5429.2970   292.4018   116.1454    57.2989    16.3890     3.4315
 5429.7970   272.2456    87.1257    57.4620    13.6139     6.1003
 5430.2970   257.5326    75.2445    57.4696    13.9595     6.5336
 5430.7970   248.6683    80.8267    57.4774    15.2559     6.5403
 5431.2970   245.2498    89.9478    57.3293    16.8034     5.4674
 5431.7970   245.3703   110.5527    57.1814    17.7608     4.9717
 5432.2970   248.9968   125.6753    56.7243    18.7182     4.2384
 5432.7970   258.1205   132.1855    56.2634    16.8763     4.5089
 5433.2970   277.2499   128.1142    55.9618    16.5835     5.7956
 5433.7970   292.6296   112.3642    55.6584    16.6139     7.0683
 5434.2970   317.5653    99.4224    55.8215    16.9493     9.1220
 5434.7970   353.4290    88.3600    56.7622    16.3515    10.4499
 5435.2970   374.2681    77.2976    57.3919    16.0645    10.4555
 5435.7970   386.1516    66.2352    56.7651    15.7780    10.4613
 5436.2970   396.4788    59.8706    55.9797    15.4913     9.6947
 5436.7970   399.4961    57.8359    55.0837    15.8328     9.2862
 5437.2970   402.5364    71.8008    54.4692    16.7902     7.2456
 5437.7970   406.1783    86.1843    53.8548    18.0587     5.0755
 5438.2970   426.4247   100.5678    53.3958    19.3272     4.3079
 5438.7970   445.1997   114.9512    53.2460    20.5956     4.2116
 5439.2970   445.4136   129.3347    53.2554    21.5531     2.7747
 5439.7970   448.8033   143.7182    53.2630    20.9553     2.0069
 5440.2970   448.9649   150.3725    53.2706    20.0459     2.7855
 5440.7970   436.6010   152.4322    53.2783    19.4487     3.5651
 5441.2970   398.2913   147.1903    53.2606    19.4736     3.5699
 5441.7970   343.9246   145.1689    52.3622    20.1205     3.5757
 5442.2970   289.2526   146.2914    52.0587    20.4609     3.5826
 5442.7970   234.5807   150.5761    52.0663    20.4852     4.3601
 5443.2970   179.9088   152.8022    52.0739    19.5764     4.3660
 5443.7970   137.5894   149.6564    51.9241    19.2836     4.3717
 5444.2970   130.9643   141.4662    51.9335    18.9969     4.3775
 5444.7970   145.7546   137.5395    51.9411    19.0273     4.3835
 5445.2970   168.0782   133.6662    52.2598    19.6737     5.1619
 5445.7970   202.2577   127.3833    52.5785    20.3201     5.1677
 5446.2970   222.3092   123.8786    52.6087    19.7161     5.1739
 5446.7970   230.0290   122.1775    52.9065    19.7473     5.1793
 5447.2970   218.9792   121.3724    53.3807    20.0881     5.1850
 5447.7970   194.1702   121.4460    53.6993    21.0455     5.1915
 5448.2970   172.2900   121.5049    54.1735    23.2471     5.1966
 5448.7970   108.5566   121.5639    55.4252    24.2045     5.2024
 5449.2970   101.1636   123.3612    56.1483    24.8509     5.2091
 5449.7970    96.9903   120.8179    56.7623    24.5581     5.2140
 5450.2970    94.0373   114.8615    57.3763    23.9604     5.2198
 5450.7970    91.0620   110.2951    57.9904    23.9908     5.2266
 5451.2970    93.7307   108.0244    58.6044    24.0151     5.2314
 5451.7970   116.7853   105.8005    59.2184    23.7283     4.4644
 5452.2970   144.4113   105.0906    59.8336    23.7535     4.4702
 5452.7970   172.0374   105.1543    60.0112    23.7831     4.4760
 5453.2970   199.6634   103.7229    60.4727    23.8074     3.7092
 5453.7970   227.2894   100.1559    61.7245    24.1427     2.4728
 5454.2970   254.9155    99.4945    62.0412    25.1002     2.1741
 5454.7970   276.7233    99.5443    61.5822    25.4355     2.1811
 5455.2970   276.5615    99.5934    61.5917    26.7040     2.1866
 5455.7970   265.4033    99.6429    62.0659    29.2167     2.1924
 5456.2970   252.6542   100.4113    62.0735    32.0404     2.1987
 5456.7970   250.9567    99.7376    62.2366    36.7303     2.9768
 5457.2970   258.6352    98.3918    62.2442    44.0213     3.0986
 5457.7970   262.1319    97.0406    62.2519    51.2606     3.7619
 5458.2970   260.3709    94.3822    62.2597    63.9309     4.8870
 5458.7970   247.8933    91.7855    62.2688    77.5781     6.0912
 5459.2970   235.2553    91.1790    62.2764    71.3816     6.8706
 5459.7970   221.4547    90.5792    62.2840    60.5194     6.8755
 5460.2970   212.3192    92.6167    62.1342    44.0606     6.1084
 5460.7970   200.6898    96.8263    62.1437    38.7972     6.1154
 5461.2970   192.4108   103.8169    62.1513    32.2896     6.1201
 5461.7970   188.4083   111.5053    62.1588    29.5145     6.1260
 5462.2970   187.1744   119.7630    62.1664    27.0479     6.1317
 5462.7970   187.2694   128.6323    62.1741    24.8671     5.3637
 5463.2970   187.3593   127.7847    62.0261    22.4396     5.3707
 5463.7970   187.4279   113.3186    61.8782    21.5247     5.8326
 5464.2970   186.1856   104.8609    62.0432    21.5551     6.9277
 5464.7970   186.2793    99.8280    62.0508    21.8905     6.9339
 5465.2970   179.8676    97.7728    62.0583    21.6037     6.9393
 5465.7970   171.1018   101.4884    61.9085    20.6889     6.1716
 5466.2970   162.9826   117.7106    61.7606    20.0911     6.1787
 5466.7970   156.2591   125.5339    61.7701    20.4325     5.0358
 5467.2970   153.0388   134.8305    61.6221    20.1454     4.5406
 5467.7970   152.0107   143.7917    61.3125    17.3509     3.8771
 5468.2970   152.0836   156.6479    60.5053    15.1799     3.1101
 5468.7970   153.2410   202.3368    60.0897    14.3150     2.3428
 5469.2970   151.1526   212.7440    60.0992    14.3393     2.3498
 5469.7970   147.6693   211.3422    59.7957    15.9189     1.5819
 5470.2970   141.9136   198.3635    59.4923    17.8094     2.3605
 5470.7970   137.0289   177.1673    59.0333    19.0779     2.3674
 5471.2970   136.1083   172.0792    58.5743    17.8581     2.3721
 5471.7970   139.1093   176.0853    58.5819    14.7720     1.6051
 5472.2970   141.1633   189.1807    58.5895    14.4845     1.6109
 5472.7970   144.2721   199.1863    58.5972    14.5096     1.4041
 5473.2970   144.3414   209.1065    58.6049    14.5342     0.8497
 5473.7970   143.1257   215.2309    58.7697    14.5591     0.4124
 5474.2970   137.4498   212.3010    58.7773    14.5886    -0.0836
 5474.7970   130.8542   202.1115    58.9404    15.2350    -0.6786
 5475.2970   128.1421   193.7813    59.2590    16.5035    -1.0754
 5475.7970   126.4109   180.5950    59.2666    17.1499    -1.4404
 5476.2970   126.4571   174.3846    59.4297    16.2411    -1.4333
 5476.7970   127.4188   174.4692    60.0594    15.3322    -1.4282
 5477.2970   133.0289   178.3094    60.0670    14.4174    -1.4224
 5477.7970   142.8877   182.3449    60.0746    14.4478    -1.4158
 5478.2970   152.5511   181.0335    60.0824    14.4721    -1.4108
 5478.7970   169.5808   179.8407    60.0917    14.4969    -1.3540
 5479.2970   183.4466   186.4487    60.4103    14.5218    -0.6254
 5479.7970   186.1376   191.9096    60.8844    14.5511    -0.6206
 5480.2970   175.7226   190.6451    61.3586    12.0871    -0.6148
 5480.7970   154.9052   186.7202    62.4548    11.1783    -0.0975
 5481.2970   146.4206   180.2991    63.5511    10.8855     0.1696
 5481.7970   141.3639   180.3865    64.4918    12.1600     0.9483
 5482.2970   141.7609   176.6729    64.9659    13.4285     1.4252
 5482.7970   154.0862   170.4824    64.8180    15.3191     1.7326
 5483.2970   170.2742   161.7114    64.0070    16.5876     2.5115
 5483.7970   179.0382   150.9747    62.1912    16.9229     2.9471
 5484.2970   195.8734   140.2381    62.0414    15.3920     3.4549
 5484.7970   205.0725   131.4651    61.8954    15.1053     4.0747
 5485.2970   215.6274   130.5989    60.6588    15.4467     5.6255
 5485.7970   265.0634   130.6781    60.0424    16.7152     5.7496
 5486.2970   317.1466   130.7415    59.8964    17.9837     6.4106
 5486.7970   335.3502   131.7364    59.5604    18.0080     6.4157
 5487.2970   316.9743   138.5122    59.1366    18.0323     6.4215
