~VERSION INFORMATION
 VERS.               2.10:   CWLS LOG ASCII STANDARD - VERSION 2.10
 WRAP.                 NO:   ONE LINE PER DEPTH STEP
~WELL INFORMATION
#MNEM.UNIT      DATA TYPE    INFORMATION
#----------   ------------   ------------------------------
 STRT.F         4999.7969:   START DEPTH
 STOP.F         5666.3267:   STOP DEPTH
 STEP.F            0.5000:   STEP LENGTH
 NULL.          -999.2500:   NO VALUE
 COMP. Fluor Daniel (NPOSR), Inc.:   COMPANY
 WELL.            75-X-10:   WELL
 FLD .           N.P.R. 3:   FIELD
 LOC . 10-38N-78W-NATRONA-WY:   LOCATION
 STAT.                 WY:   STATE
 COUN.            Natrona:   COUNTY
 SRVC.      Western Atlas:   SERVICE COMPANY
 DATE.                   :   LOGDATE
 APIN.         4902522807:   API NUMBER
~CURVE INFORMATION
#MNEM.UNIT       API CODE    CURVE DESCRIPTION
#----------   ------------   ------------------------------
 DEPT.F                  :
 LLD .ohmm   11 220 04 00:   Dual Laterolog, Deep
 LLS .ohmm   11 220 06 00:   Dual Laterolog, shallow
 SP  .mV     06 010 01 00:   Spontaneous Potential
 GR  .GAPI   06 310 01 00:   Gamma Ray
 CDLL.mho/m              :   Conductivity
~PARAMETER INFORMATION
#MNEM.UNIT          VALUE    DESCRIPTION
#----------   ------------   ------------------------------
 EKB .F         5198.0000:   Kelly bushing
 EGL .F         5188.0000:   Ground level
 EDF .F         5197.0000:   Drilling floor
 EPD .F           10.0000:   Permanent datum
 TD  .F        56500.0000:   Total depth
 NRUN.             1.0000:   Number of Runs
#--RUN 1---   ------------   The following are for Run 1---
 RUN .             1.0000:   Run 1
 DATE.mm/dd/yyyy 07/04/1996:   Date Logged
 DD  .ft             5650:   Depth Driller
 DL  .ft             5647:   Depth Logger
 BLI .ft             5627:   Bottom Log Interval
 TLI .ft            surf.:   Top Log Interval
 CSS .inch          9.875:   Casing Size
 CTD1.ft              445:   Casing Driller 1
 CTL1.ft              444:   Casing Logger 1
 BS  .inch           8.75:   Bit Size
 DFT .           gel/chem:   Type Fluid In Hole
 DFD .lb/gal          9.5:   Mud Weight
 DFV .sec              40:   Viscosity
 DFPH.                9.0:   pH
 DFL .gal             7.6:   Fluid Loss
 WSS .              circ.:   Source Of Sample
 RM  .ohmm            .61:   Rm
 EMT .F                84:   Rm Meas. Temp.
 RMF .ohmm            .48:   Rmf
 MFT .F                84:   Rmf Meas. Temp.
 RMC .ohmm            .75:   Rmc
 MCST.F                84:   Rmc Meas. Temp.
 MFSS.              calc.:   Source Rmf.
 MCSS.              calc.:   Source Rmc.
 RMB .ohmm            .29:   Rm. At BHT
 BHT .F               176:   BHT.
 TCS .hh:mm        6 hrs.:   Time Circ. Stopped
 MRT .F               176:   Maximum Recorded Temp.
 LUN .            hl 6530:   Logging Unit Number
 LUL .             Casper:   Logging Unit Location
 ENGI.           Brownlow:   Recorded By
 WITN.             Lebeau:   Witnessed By
 DGBY.              Burke:   Digitized By
~OTHER INFORMATION
# Borehole Volume Computed for 7" Casing
~A  DEPTH      LLD        LLS         SP         GR       CDLL
# ...
 5243.7970  1614.3480  1578.0120    89.8055    39.2537  -999.2500
 5244.2970  1547.4771  1331.3995    90.1234    38.3354  -999.2500
 5244.7970  1011.7734   992.5710    90.2858    38.9822     1.1941
 5245.2970   725.0797   674.5473    90.2926    44.9773     4.9519
 5245.7970   438.3860   356.5236    90.2995    56.9670     5.7310
 5246.2970   131.8285   143.6562    90.3063    68.9567     5.7388
 5246.7970   123.7025   147.8458    90.2622    80.9464     4.9737
 5247.2970   131.9082   151.0818    90.1959    89.1587     3.2249
 5247.7970   138.7697   183.0522    90.0170    84.2068     2.6707
 5248.2970   210.5866   279.6673    89.8666    76.3821     2.6785
 5248.7970   309.5873   330.1180    89.4086    67.2367     2.6862
 5249.2970   311.8878   339.9324    89.1027    58.0912     2.6946
 5249.7970   292.6667   331.5324    88.8002    54.4241     3.4744
 5250.2970   255.8043   290.8793    88.3393    55.4074     3.4822
 5250.7970   252.2541   271.0531    88.1907    56.0238     3.4909
 5251.2970   252.3494   269.2100    88.0437    55.1055     3.4976
 5251.7970   256.0363   277.0865    88.0506    54.5081     3.5054
 5252.2970   252.5020   267.5254    87.9008    54.2119     3.5144
 5252.7970   239.4808   222.5358    87.2867    53.9255     3.5208
 5253.2970   220.7819   211.8294    86.5159    50.8348     1.9630
 5253.7970   213.1286   211.9065    85.8895    52.0988    -0.5714
 5254.2970   230.5314   234.4554    85.4225    54.2958    -2.3346
 5254.7970   283.3340   308.8519    84.8274    53.3824    -4.1760
 5255.2970   720.7570   732.5681    84.5233    49.0215  -999.2500
 5255.7970  1304.5403  1428.4661    83.9080    44.1602  -999.2500
 5256.2970  1943.0239  -999.2500    83.6021    36.1946  -999.2500
 5256.7970  -999.2500  -999.2500    83.1441    28.2290  -999.2500
 5257.2970  -999.2500  -999.2500    82.8399    22.3820    -0.2435
 5257.7970  1869.0504  1689.6729    82.3785    22.0858     6.2670
 5258.2970  1422.3666  1173.7817    82.0760    23.3546     9.7892
 5258.7970   975.6829   657.8906    81.7718    28.0713    11.6833
 5259.2970   528.9991   139.0024    81.1566    41.3229    13.7347
 5259.7970    89.1167   109.8133    80.5297    56.0749    15.2222
 5260.2970    76.9568    99.3120    80.0565    60.1382    16.2923
 5260.7970    69.2157    89.0002    79.7775    63.2684    16.7820
 5261.2970    65.4129    84.1193    79.4750    66.0876    16.7898
 5261.7970    62.2596    81.7876    79.3246    67.6625    15.7840
 5262.2970    62.2784    80.6645    79.0221    67.6823    14.4870
 5262.7970    62.2973    80.7012    78.8717    67.0799    12.7913
 5263.2970    63.2074    80.7305    78.7248    66.1715    11.2200
 5263.7970    69.3413    83.0850    78.8871    62.7698     9.8737
 5264.2970    86.2641    88.5963    78.8940    56.8798     8.3353
 5264.7970   104.0106   103.6783    78.7452    47.2572     8.4835
 5265.2970   103.3059   107.3833    78.7522    45.0997    11.4428
 5265.7970    91.8754    93.1280    78.7592    56.0059    16.4080
 5266.2970    81.5043    81.4679    78.7676    62.8753    18.5021
 5266.7970    71.1333    69.8079    79.0855    71.6392    19.9671
 5267.2970    60.7622    58.1479    80.0255    80.4030    19.6593
 5267.7970    53.0753    50.7104    80.9654    89.1669    19.1677
 5268.2970    52.3387    50.0140    82.2164    93.4690    17.6722
 5268.7970    53.4859    50.4305    83.1564    94.6937    16.6414
 5269.2970    55.4358    53.3558    84.2519    88.8086    15.3679
 5269.7970    60.3852    56.8951    85.0364    82.6075    14.1139
 5270.2970    67.7830    59.3913    85.8208    80.4500    13.8364
 5270.7970    72.6793    60.6913    86.7608    78.6035    15.3914
 5271.2970    71.1688    57.3629    87.5560    75.8238    18.2581
 5271.7970    61.3276    49.0899    88.1745    79.2651    21.1442
 5272.2970    49.9287    44.6505    88.9604    85.8011    22.3700
 5272.7970    44.8974    39.8403    89.4338    93.2739    23.1499
 5273.2970    42.1304    35.0300    89.4406   100.7468    23.1576
 5273.7970    40.0995    32.5743    89.2902   107.6522    23.1663
 5274.2970    38.9882    32.3557    89.2988   107.6719    23.1731
 5274.7970    38.7241    32.6009    89.3056   107.3807    24.0169
 5275.2970    38.7387    32.3793    89.1553   101.1796    24.7354
 5275.7970    37.9336    31.9375    89.0080   100.2655    25.5146
 5276.2970    37.1453    31.2762    89.0152   107.1289    25.5224
 5276.7970    36.3733    31.0663    88.8665   110.9089    25.5301
 5277.2970    35.8712    30.8580    88.8573   113.4747    25.5378
 5277.7970    35.3760    30.6509    88.4153   116.2133    25.5458
 5278.2970    34.6404    30.4453    87.3335   116.5441    26.3261
 5278.7970    33.9209    30.4591    86.4073   118.7412    26.5202
 5279.2970    33.9314    30.4702    85.9458   120.0051    27.1149
 5279.7970    34.6749    31.1371    85.7972   120.6469    26.3493
 5280.2970    35.9390    32.2734    85.1836   120.0446    25.5834
 5280.7970    35.9499    32.5121    85.1905   117.5760    27.1383
 5281.2970    35.4509    32.0680    84.8863   111.6860    27.1452
 5281.7970    35.2107    31.6279    84.5821   107.0401    26.2064
 5282.2970    35.9825    32.3262    84.4334   103.8824    23.2978
 5282.7970    39.4744    36.0396    84.4404    99.6146    19.7453
 5283.2970    46.4968    45.1513    84.4250    94.6627    16.2848
 5283.7970    54.2143    52.0549    83.9891    89.3947    14.0478
 5284.2970    61.3679    55.5079    83.2184    85.9930    14.3150
 5284.7970    63.1551    56.7229    82.6031    85.6968    14.8347
 5285.2970    64.5345    56.7435    81.8324    85.7215    14.3577
 5285.7970    65.9440    57.1684    81.3727    85.7412    13.8672
 5286.2970    67.3843    58.8356    80.7574    82.9616    12.5398
 5286.7970    74.4800    74.9161    80.1422    77.3026    11.3401
 5287.2970   105.4747    89.4900    79.5570    67.1892    10.0773
 5287.7970   133.3685    98.9927    78.9561    57.0759     8.6993
 5288.2970   145.2757   108.0459    78.3553    46.9625     8.3223
 5288.7970   154.9104   119.8496    77.7544    38.8941     7.0581
 5289.2970   176.0858   149.3916    77.1536    34.8292     5.6316
 5289.7970   235.3830   222.3672    76.5527    28.7267     4.8655
 5290.2970   337.6562   309.2539    75.3707    24.6454     4.1001
 5290.7970   395.9833   350.4183    74.2889    24.9811     4.1095
 5291.2970   320.5729   347.2536    72.7406    28.7334     4.3992
 5291.7970   261.0908   288.3621    71.3477    29.9973     5.6867
 5292.2970   201.6086   239.5306    70.4215    26.5956     7.7307
 5292.7970   142.1264   190.6991    69.6507    24.4381    10.0152
 5293.2970    86.7767   141.8676    68.1023    21.9695    11.8750
 5293.7970    74.7773    87.4115    66.8650    23.2334    13.5698
 5294.2970    70.1689    82.6177    66.0863    23.2605    14.2075
 5294.7970    72.7271    81.4757    65.1465    22.9619    11.1257
 5295.2970    93.2758   118.5289    64.7083    23.2935     6.4163
 5295.7970   213.7639   242.5662    64.7168    24.2505     3.1470
 5296.2970   334.4818   366.6035    65.0347    26.7586     1.1028
 5296.7970   455.1997   498.3685    65.5081    28.9556    -0.7932
 5297.2970   575.2294   558.4389    66.1371    35.1962    -1.2015
 5297.7970   513.6030   481.3472    66.9215    37.3933     0.3535
 5298.2970   400.6982   394.7569    67.8615    36.1689     1.7468
 5298.7970   368.0783   330.7092    68.9570    32.7672     2.7509
 5299.2970   319.4410   281.0128    70.0525    31.5423     4.2410
 5299.7970   263.7867   258.1537    71.1493    29.3616     4.2472
 5300.2970   234.1687   230.5439    72.4284    26.2692     4.2551
 5300.7970   227.0015   237.2553    72.4059    24.4033     3.4899
 5301.2970   263.6118   275.4649    71.7924    21.9912     3.7036
 5301.7970   284.1567   291.7382    71.7992    21.3858     4.2786
 5302.2970   291.3676   276.8062    71.8061    21.4135     4.2859
 5302.7970   271.5015   230.9219    71.8129    21.7467     5.2228
 5303.2970   182.4893   151.9786    72.1308    23.0130     7.3933
 5303.7970   125.9387   128.2206    72.4487    23.9682     8.5527
 5304.2970    99.1539   115.3104    72.6111    24.3014    10.6048
