~VERSION INFORMATION
 VERS.               2.10:   CWLS LOG ASCII STANDARD - VERSION 2.10
 WRAP.                 NO:   ONE LINE PER DEPTH STEP
~WELL INFORMATION
#MNEM.UNIT      DATA TYPE    INFORMATION
#----------   ------------   ------------------------------
 STRT.F         4999.7969:   START DEPTH
 STOP.F         5666.3267:   STOP DEPTH
 STEP.F            0.5000:   STEP LENGTH
 NULL.          -999.2500:   NO VALUE
 COMP. Fluor Daniel (NPOSR), Inc.:   COMPANY
 WELL.            75-X-10:   WELL
 FLD .           N.P.R. 3:   FIELD
 LOC . 10-38N-78W-NATRONA-WY:   LOCATION
 STAT.                 WY:   STATE
 COUN.            Natrona:   COUNTY
 SRVC.      Western Atlas:   SERVICE COMPANY
 DATE.                   :   LOGDATE
 APIN.         4902522807:   API NUMBER
~CURVE INFORMATION
#MNEM.UNIT       API CODE    CURVE DESCRIPTION
#----------   ------------   ------------------------------
 DEPT.F                  :
 LLD .ohmm   11 220 04 00:   Dual Laterolog, Deep
 LLS .ohmm   11 220 06 00:   Dual Laterolog, shallow
 SP  .mV     06 010 01 00:   Spontaneous Potential
 GR  .GAPI   06 310 01 00:   Gamma Ray
 CDLL.mho/m              :   Conductivity
~PARAMETER INFORMATION
#MNEM.UNIT          VALUE    DESCRIPTION
#----------   ------------   ------------------------------
 EKB .F         5198.0000:   Kelly bushing
 EGL .F         5188.0000:   Ground level
 EDF .F         5197.0000:   Drilling floor
 EPD .F           10.0000:   Permanent datum
 TD  .F        56500.0000:   Total depth
 NRUN.             1.0000:   Number of Runs
#--RUN 1---   ------------   The following are for Run 1---
 RUN .             1.0000:   Run 1
 DATE.mm/dd/yyyy 07/04/1996:   Date Logged
 DD  .ft             5650:   Depth Driller
 DL  .ft             5647:   Depth Logger
 BLI .ft             5627:   Bottom Log Interval
 TLI .ft            surf.:   Top Log Interval
 CSS .inch          9.875:   Casing Size
 CTD1.ft              445:   Casing Driller 1
 CTL1.ft              444:   Casing Logger 1
 BS  .inch           8.75:   Bit Size
 DFT .           gel/chem:   Type Fluid In Hole
 DFD .lb/gal          9.5:   Mud Weight
 DFV .sec              40:   Viscosity
 DFPH.                9.0:   pH
 DFL .gal             7.6:   Fluid Loss
 WSS .              circ.:   Source Of Sample
 RM  .ohmm            .61:   Rm
 EMT .F                84:   Rm Meas. Temp.
 RMF .ohmm            .48:   Rmf
 MFT .F                84:   Rmf Meas. Temp.
 RMC .ohmm            .75:   Rmc
 MCST.F                84:   Rmc Meas. Temp.
 MFSS.              calc.:   Source Rmf.
 MCSS.              calc.:   Source Rmc.
 RMB .ohmm            .29:   Rm. At BHT
 BHT .F               176:   BHT.
 TCS .hh:mm        6 hrs.:   Time Circ. Stopped
 MRT .F               176:   Maximum Recorded Temp.
 LUN .            hl 6530:   Logging Unit Number
 LUL .             Casper:   Logging Unit Location
 ENGI.           Brownlow:   Recorded By
 WITN.             Lebeau:   Witnessed By
 DGBY.              Burke:   Digitized By
~OTHER INFORMATION
# Borehole Volume Computed for 7" Casing
~A  DEPTH      LLD        LLS         SP         GR       CDLL
# ...
 5060.7970    22.9201    17.7509    53.7360    86.8995    43.8452
 5061.2970    21.9861    17.1238    53.1158    88.1636    45.1153
 5061.7970    21.2261    16.5519    51.4069    88.8017    45.1257
 5062.2970    20.9319    16.0926    51.0978    90.3728    45.3862
 5062.7970    20.6435    15.9817    50.7886    90.6998    45.9143
 5063.2970    20.9474    16.1004    50.7905    90.4007    45.9229
 5063.7970    22.4964    16.6859    51.1035    89.1765    44.4919
 5064.2970    24.3321    18.0449    51.4164    85.1489    40.5310
 5064.7970    25.5806    18.9684    51.5739    78.9440    39.3071
 5065.2970    26.3400    19.2442    51.8872    76.4716    38.2283
 5065.7970    26.1507    18.9659    52.6667    79.3472    39.0117
 5066.2970    24.3661    17.8089    53.1352    83.0394    39.8764
 5066.7970    22.3831    16.3874    53.6036    86.7878    42.2806
 5067.2970    20.1281    14.2278    53.6055    90.5362    45.9931
 5067.7970    18.2292    11.9776    53.6074    92.7295    52.6263
 5068.2970    16.7457    11.5629    53.6093    94.6117    57.3486
 5068.7970    16.0524    11.4840    53.7667    96.1828    60.7026
 5069.2970    15.9440    11.4976    53.6044    97.4429    60.7103
 5069.7970    16.5411    11.9052    53.3040    97.8104    59.8475
 5070.2970    17.5193    12.2509    52.9953    92.4982    57.6377
 5070.7970    18.2667    12.6964    51.5975    89.0367    55.8647
 5071.2970    19.0680    13.3462    51.4434    87.5042    52.8799
 5071.7970    19.6239    13.8316    51.2898    89.7506    49.9360
 5072.2970    20.1959    14.3346    50.8256    87.9003    48.8651
 5072.7970    20.4915    14.7509    50.6719    84.1837    47.5961
 5073.2970    20.6443    14.8595    50.6738    81.0641    46.0983
 5073.7970    20.6511    14.8632    50.5202    77.9961    45.3326
 5074.2970    20.6580    14.8825    50.0555    78.3231    45.3413
 5074.7970    21.1346    15.4083    49.9019    78.6501    45.3500
 5075.2970    21.7268    15.8557    49.9043    79.5992    45.3587
 5075.7970    21.5783    15.7474    49.7502    79.6151    45.3676
 5076.2970    21.2810    15.0947    49.1304    78.6979    46.6296
 5076.7970    20.6935    14.7804    49.1323    77.4697    47.9155
 5077.2970    19.9782    14.4726    49.1342    76.5525    50.0307
 5077.7970    19.7027    14.4761    49.1361    74.0281    50.3623
 5078.2970    19.9913    14.7911    49.2935    70.8743    49.8656
 5078.7970    21.1804    15.5697    49.2955    67.2731    48.5113
 5079.2970    22.5356    17.1358    49.7644    62.0013    46.1361
 5079.7970    38.1903    33.3004    50.5438    56.0110    42.2118
 5080.2970    68.1943    79.2813    51.0123    44.4834    30.7633
 5080.7970   117.2908   125.2621    51.1697    32.9558    13.3662
 5081.2970   166.3873   171.2430    51.3271    21.4282     5.0377
 5081.7970   215.4837   217.2239    52.1066    11.3812     2.1961
 5082.2970   195.7943   204.6884    52.5751    11.0859     4.6451
 5082.7970   138.3915   153.0905    52.5770    12.7478    20.9370
 5083.2970    80.9886   103.3189    52.4234    20.5190    24.6335
 5083.7970    32.5216    53.5474    52.4257    31.0440    27.2853
 5084.2970    29.2452    35.2580    52.4276    38.5242    29.4038
 5084.7970    29.9154    39.7882    52.5850    40.7135    32.3878
 5085.2970    44.3585    52.6055    52.7424    31.7132    30.3267
 5085.7970    45.4666    55.1724    53.0554    29.5518    23.1300
 5086.2970    39.7442    47.4648    53.6793    37.7484    30.6803
 5086.7970    32.7414    36.9873    54.1478    48.0547    38.0715
 5087.2970    22.9394    25.1188    55.0828    59.5422    45.4627
 5087.7970    16.0308    22.4284    55.5613    71.0298    52.8538
 5088.2970    15.4767    21.4987    56.0467    77.9146    60.2450
 5088.7970    15.0482    20.9022    56.6442    79.7306    64.9136
 5089.2970    15.1604    21.2060    57.2682    78.8094    63.1726
 5089.7970    16.9902    23.2609    57.2701    68.2539    54.9773
 5090.2970    23.2295    26.3145    57.1160    62.9822    35.5736
 5090.7970    33.1659    30.2422    57.1183    54.5103    24.4440
 5091.2970    53.2316    53.3978    57.1202    43.5749    16.0110
 5091.7970    99.0026   135.6339    57.2776    32.6396     7.7792
 5092.2970   511.6841   613.2392    57.1240    21.7042     3.4694
 5092.7970  1018.3506  1090.8445    56.9704     8.9432     0.8398
 5093.2970  1525.0171  1568.4498    56.9727     8.0221     1.6231
 5093.7970  1612.5732  1993.7931    57.1301     8.0420     3.5388
 5094.2970  1217.2131  1442.1783    57.4431     8.6800     8.7014
 5094.7970   821.8531   944.9706    57.7560     9.6291    25.5221
 5095.2970   426.4930   447.7628    57.7579    11.8223    49.4336
 5095.7970    10.3036    13.0388    57.9153    23.2887    73.3450
 5096.2970     8.3887    10.9997    58.2283    37.2570    97.2564
 5096.7970     8.2146    10.4692    58.3857    51.2253   115.5990
 5097.2970     8.3621    10.4589    58.0390    65.6977   116.8383
 5097.7970    10.1725    11.4053    57.3008    69.7572    99.8473
 5098.2970    15.7269    15.1709    57.4587    70.7202    87.5235
 5098.7970    28.5726    26.5168    57.7716    64.1431    72.6253
 5099.2970    41.4183    47.8568    57.7735    51.9250    57.7270
 5099.7970    54.2640    61.3630    57.7754    39.1675    42.8288
 5100.2970    60.0065    64.0413    57.3108    26.4099    27.9306
 5100.7970    46.5034    49.7790    57.4701    20.0460    30.5312
 5101.2970    33.0003    37.7691    57.7842    32.5464    54.0627
 5101.7970    19.4971    25.7592    58.2538    37.8678    75.5672
 5102.2970     9.2264    13.7493    58.4124    37.5550    97.0716
 5102.7970     7.1050     9.4383    58.8827    37.8859   118.5761
 5103.2970     6.9574     9.1112    59.1968    39.4571   137.3979
 5103.7970     7.0091     9.1780    59.3553    41.6503   140.1362
 5104.2970     7.0613     9.3779    59.3584    41.6663   141.6899
 5104.7970     7.0635     9.4466    59.5169    41.6822   141.5477
 5105.2970     6.7230     8.6160    59.5200    41.6982   140.9345
 5105.7970     6.0456     7.5844    59.2112    42.9583   146.6278
 5106.2970     5.3980     7.1167    58.9040    45.7736   162.8586
 5106.7970     5.4850     6.9190    58.4405    49.8482   179.0894
 5107.2970     6.0377     8.0324    57.9769    52.7237   162.0750
 5107.7970     7.4380     9.1937    57.8245    57.9561   129.6069
 5108.2970    10.8400    12.5505    57.9838    62.0155    97.1388
 5108.7970    14.9821    20.2185    58.4534    64.5198    59.8529
 5109.2970    18.6076    21.4039    58.6120    64.5358    52.1008
 5109.7970    19.9844    22.0247    58.7705    62.9965    49.0495
 5110.2970    20.7270    21.1111    59.2401    66.5992    49.8328
 5110.7970    21.0164    19.1186    59.5542    70.5915    51.6703
 5111.2970    17.6032    15.3432    59.8683    74.5839    59.9217
 5111.7970    15.9423    14.7101    59.8713    78.5762    62.0211
 5112.2970    15.5007    14.9242    60.0299    84.6741    64.1206
 5112.7970    15.5055    15.5766    60.1904    87.4948    64.5579
 5113.2970    16.0709    17.2070    60.5026    90.0045    63.0212
 5113.7970    17.7563    19.0081    60.6619    90.0258    53.0015
 5114.2970    21.0623    22.0319    60.0428    90.6692    43.5656
 5114.7970    29.6062    27.9502    60.0459    84.4979    33.6812
 5115.2970    40.0306    33.8685    60.0489    66.5261    27.4517
 5115.7970    49.4320    39.7868    60.0520    47.7444    22.5149
 5116.2970    49.8110    43.0294    60.3660    30.4125    21.3421
 5116.7970    44.8500    38.7013    60.5246    39.6690    24.2179
 5117.2970    33.5948    31.4834    60.6832    48.3219    34.0093
 5117.7970    26.7000    24.2655    60.9972    56.9749    40.6889
 5118.2970    22.0357    20.1563    61.0003    65.6278    42.2424
 5118.7970    21.7300    20.8897    61.0034    73.1373    42.1312
 5119.2970    24.3542    23.2406    61.0065    73.7807    39.1696
 5119.7970    28.0798    27.7574    61.0102    72.8689    35.4304
 5120.2970    30.7205    30.4460    60.8569    72.5790    30.3304
 5120.7970    36.8035    32.6917    60.8607    72.6008    26.8311
 5121.2970    39.5243    33.4003    61.0193    68.4301    24.6412
