~Version Information Block
 VERS.                1.20:     CWLS LOG ASCII STANDARD - VERSION 1.20
 WRAP.                  NO:     One Line Per Depth Step
     
~Well Information Block
#MNEM.UNIT       Data Type     Information
#컴컴컴컴컴    컴컴컴컴컴컴�   컴컴컴컴컴컴컴컴컴컴컴컴컴컴컴컴컴컴컴컴컴컴�
 STRT.FT            0.0000:
 STOP.FT         5650.0000:
 STEP.FT            0.5000:
 NULL.          -9999.0000:
 COMP.             COMPANY:    FLUOR DANIEL (NPOSR)INC.
 WELL.                WELL:    75-X-10                 
 FLD .               FIELD:    N.P.R. # 3              
 LOC .            LOCATION:    SEC 10 T38N R78W                        
 CNTY.              COUNTY:    NATRONA                       
 STAT.               STATE:    WYOMING   
 SRVC.     SERVICE COMPANY:    WESTERN ATLAS                        
 DATE.                DATE:    07/04/1996
 UWI .      UNIQUE WELL ID:          10.0
 API .          API NUMBER:    4902522807                
     
~Curve Information Block
#MNEM.UNIT       API CODE      Curve Description
#컴컴컴컴컴    컴컴컴컴컴컴�   컴컴컴컴컴컴컴컴컴컴컴컴컴컴컴컴컴컴컴컴컴컴�
 DEPTH.F        95 995 99 1:   Depth                                                        
 GR  .API       31 310 01 1:   Gamma Ray Counts                                             
 CAL .IN        28 280 99 1:   Caliper                                                      
 RD  .OHMM      22 220 10 1:   Logarithmic Resistivity from ED, ID                          
 RS  .OHMM      22 220 09 1:   Logarithmic Resistivity from ES, IS                          
 CNC .%         95 995 99 1:   Corrected Neutron Porosity from CN                           
 PORZ.%         95 890 99 1:   Porosity from Z-Densilog                                     
 ZDEN.G/C3      95 350 01 1:   Z-Densilog Bulk Density                                      
 PE  .BARN      95 358 01 1:   Photo Electric Cross Section                                 
 ZCOR.G/C3      39 356 99 1:   Z-Densilog Bulk Density Correction                           
 SP  .MV        95 010 01 1:   Spontaneous Potential from Tool Electrode                    
 CDLL.MMHO      95 995 99 1:   Conductivity from RD                                         
     
~Parameter Information Block
#MNEM.UNIT         Value       Description
#컴컴컴컴컴    컴컴컴컴컴컴�   컴컴컴컴컴컴컴컴컴컴컴컴컴컴컴컴컴컴컴컴컴컴�
 EKB .FT            0.0000:    ELEVATION KELLY BUSHING
 EGL .FT            0.0000:    ELEVATION GROUND LEVEL
 RUN .              1.0000:    RUN NUMBER
 SON .               00000:    SERVICE ORDER NUMBER
 DD  .FT            0.0000:    DEPTH-DRILLER
 DL  .FT            0.0000:    DEPTH-LOGGER
 BLI .FT            0.0000:    BOTTOM LOGGED INTERVAL
 TLI .FT            0.0000:    TOP LOGGED INTERVAL
 CS  .  IN          0.0000:    CASING SIZE 
 CDD .FT            0.0000:    CASING DEPTH-DRILLER
 CDL .FT            0.0000:    CASING DEPTH-LOGGER
 BS  .IN            0.0000:    BIT SIZE
 DFT .               LIGNO:    MUD TYPE   
 DFD .LB/G          0.0000:    MUD WEIGHT
 DFV .S             0.0000:    MUD VISCOSITY
 DFPH.              0.0000:    MUD PH
 DFL .CC            0.0000:    MUD FLUID LOSS
 RMS .           FLOW LINE:    MUD SAMPLE SOURCE
 RM  .OHMM          0.0000:    MUD RESISTIVITY          
 RMT .DEGF          0.0000:    RM TEMPERATURE
 RMBH.OHMM          0.0000:    MUD RESISTIVITY AT BHT
 BHT .DEGF          0.0000:    BOTTOM HOLE TEMPERATURE
 RMFS.            MEASURED:    MUD FILTRATE SOURCE
 RMF .OHMM          0.0000:    MUD FILTRATE RESISTIVITY
 RMFT.DEGF          0.0000:    RMF TEMPERATURE
 RMCS.            MEASURED:    MUD CAKE SOURCE
 RMC .OHMM          0.0000:    MUD CAKE RESISTIVITY
 RMCT.DEGF          0.0000:    RMC TEMPERATURE
     
#      Computation Parameters Used
#MNEM.UNIT         Value       Description
#컴컴컴컴컴    컴컴컴컴컴컴�   컴컴컴컴컴컴컴컴컴컴컴컴컴컴컴컴컴컴컴컴컴컴�
 MDEN.G/CC          2.6500:    LOGGING MATRIX DENSITY
 MATR.              1.0000:    NEUTRON MATRIX (0=LIME,1=SAND,2=DOLO)
 FNUM.              0.6200:    TORTUOSITY CONSTANT ARCHIES (a)
 FEXP.              2.1500:    CEMENTATION EXPONENT ARCHIES (m)
     
~Other Information
     
#컴컴컴컴컴컴컴컴컴컴컴컴컴컴컴컴컴컴컴컴컴컴컴컴컴컴컴컴컴컴컴컴컴컴컴컴컴컴컴�
# In Making Interpretations Of Logs Our Employees Will Give Customer The Benefit
# Of Their Best Judgement,  But  Since All Interpretations Are Opinions Based On
# Inferences From Electrical Or  Other  Measurements,  We Cannot,  And We Do Not
# Guarantee The Accuracy Or  Correctness Of Any Interpretation.  We Shall Not Be
# Liable Or  Responsible For Any Loss,  Cost,  Damages, Or  Expenses  Whatsoever
# Incurred Or  Sustained By The Customer  Resulting  From Any Interpretaion Made
# By Any Of Our Employees.  ATLAS WIRELINE SERVICES-WESTERN ATLAS INTERNATIONAL
#컴컴컴컴컴컴컴컴컴컴컴컴컴컴컴컴컴컴컴컴컴컴컴컴컴컴컴컴컴컴컴컴컴컴컴컴컴컴컴�
     
~A  DEPTH      GR        CAL       RD        RS        CNC       PORZ      ZDEN      PE        ZCOR      SP        CDLL      
# ...
  4950.000    97.021     9.461    25.677    26.259    13.099    -2.605     2.693     3.881     0.022   144.137    38.945 
  4950.500    96.585     9.461    26.036    26.414    13.031    -2.956     2.699     3.839     0.033   144.072    38.408 
  4951.000    94.460     9.445    26.349    26.543    13.252    -3.227     2.703     3.822     0.041   144.066    37.952 
  4951.500    92.302     9.424    26.355    26.432    13.736    -3.238     2.703     3.853     0.037   144.165    37.943 
  4952.000    90.534     9.414    25.781    25.829    14.293    -3.099     2.701     3.860     0.024   144.294    38.789 
  4952.500    91.491     9.414    24.758    24.833    14.825    -2.887     2.698     3.851     0.012   144.347    40.391 
  4953.000    95.903     9.414    23.710    23.812    15.211    -2.569     2.692     3.845     0.005   144.312    42.177 
  4953.500   100.136     9.417    23.006    23.102    15.133    -2.439     2.690     3.873     0.006   144.269    43.466 
  4954.000   101.848     9.436    22.832    22.896    14.630    -2.839     2.697     3.850     0.017   144.309    43.799 
  4954.500   102.392     9.471    23.031    23.097    14.094    -3.441     2.707     3.790     0.028   144.426    43.420 
  4955.000   101.806     9.499    23.178    23.313    13.767    -3.677     2.711     3.721     0.033   144.515    43.144 
  4955.500   100.690     9.509    23.088    23.296    13.909    -3.552     2.709     3.684     0.036   144.494    43.313 
  4956.000   100.521     9.510    23.037    23.261    14.403    -3.307     2.705     3.662     0.037   144.388    43.408 
  4956.500   101.190     9.510    23.311    23.516    15.133    -3.077     2.701     3.632     0.031   144.222    42.898 
  4957.000    99.955     9.510    23.787    23.997    15.703    -2.901     2.698     3.634     0.021   144.038    42.040 
  4957.500    95.747     9.510    23.973    24.245    15.742    -2.777     2.696     3.670     0.015   143.894    41.714 
  4958.000    91.513     9.510    23.291    23.680    15.963    -2.813     2.696     3.713     0.014   143.801    42.935 
  4958.500    91.684     9.510    21.689    22.167    16.422    -2.945     2.699     3.796     0.012   143.720    46.106 
  4959.000    96.433     9.510    19.915    20.369    17.055    -2.820     2.697     3.900     0.006   143.675    50.215 
  4959.500   102.496     9.510    18.844    19.181    17.609    -2.437     2.690     4.039     0.002   143.694    53.068 
  4960.000   106.575     9.506    18.911    19.082    17.559    -2.242     2.687     4.196     0.006   143.740    52.878 
  4960.500   107.046     9.487    20.191    20.166    16.782    -2.366     2.689     4.210     0.012   143.824    49.527 
  4961.000   103.293     9.453    22.452    22.235    15.527    -2.603     2.693     4.213     0.017   143.991    44.540 
  4961.500    97.397     9.424    24.929    24.574    14.564    -2.938     2.698     4.019     0.022   144.167    40.114 
  4962.000    93.657     9.414    26.556    26.114    14.037    -3.321     2.705     3.894     0.028   144.256    37.657 
  4962.500    93.236     9.414    27.027    26.490    13.755    -3.378     2.706     3.901     0.027   144.295    37.000 
  4963.000    93.241     9.414    27.006    26.344    13.737    -2.976     2.699     3.911     0.020   144.359    37.029 
  4963.500    92.636     9.414    27.183    26.384    13.802    -2.564     2.692     3.884     0.014   144.441    36.787 
  4964.000    92.454     9.414    27.806    26.879    13.818    -2.612     2.693     3.916     0.009   144.497    35.964 
  4964.500    91.921     9.414    28.748    27.720    13.831    -3.020     2.700     3.920     0.011   144.519    34.786 
  4965.000    91.002     9.414    29.718    28.625    13.922    -3.284     2.704     3.742     0.018   144.465    33.650 
  4965.500    90.054     9.414    30.324    29.261    14.100    -3.158     2.702     3.491     0.021   144.306    32.977 
  4966.000    88.806     9.414    29.991    29.118    14.401    -2.885     2.698     3.262     0.015   144.110    33.343 
  4966.500    87.856     9.414    28.471    27.870    14.808    -2.640     2.694     3.161     0.006   143.941    35.124 
  4967.000    89.336     9.414    26.434    26.046    15.087    -2.439     2.690     3.255    -0.001   143.754    37.831 
  4967.500    93.298     9.414    24.718    24.469    15.168    -2.469     2.691     3.549     0.002   143.508    40.456 
  4968.000    97.184     9.414    23.636    23.481    15.224    -2.825     2.697     3.610     0.014   143.242    42.309 
  4968.500    98.937     9.417    23.124    23.042    15.326    -3.171     2.702     3.610     0.022   143.018    43.245 
  4969.000    99.712     9.429    23.074    23.058    15.428    -3.265     2.704     3.618     0.020   142.882    43.339 
  4969.500   100.367     9.447    23.318    23.390    15.456    -3.300     2.704     3.480     0.017   142.790    42.885 
  4970.000   100.041     9.467    23.435    23.624    15.443    -3.576     2.709     3.458     0.022   142.648    42.672 
  4970.500    99.060     9.486    22.898    23.211    15.603    -3.949     2.715     3.477     0.033   142.481    43.672 
  4971.000    98.135     9.502    21.665    22.055    16.078    -3.971     2.716     3.438     0.041   142.380    46.156 
  4971.500    98.130     9.509    20.293    20.673    16.835    -3.654     2.710     3.401     0.037   142.419    49.278 
  4972.000   100.473     9.510    19.456    19.736    17.386    -3.613     2.710     3.426     0.035   142.615    51.399 
  4972.500   103.436     9.513    19.682    19.786    17.221    -3.825     2.713     3.469     0.033   142.917    50.808 
  4973.000   103.221     9.532    21.103    20.999    16.471    -3.668     2.711     3.472     0.020   143.198    47.386 
  4973.500    99.406     9.566    23.300    23.014    15.443    -3.253     2.704     3.485     0.008   143.370    42.918 
  4974.000    94.717     9.595    25.451    25.063    14.378    -3.127     2.702     3.728     0.012   143.441    39.291 
  4974.500    92.368     9.605    26.848    26.442    13.697    -3.262     2.704     3.969     0.021   143.492    37.247 
  4975.000    93.116     9.605    27.266    26.880    13.427    -3.188     2.703     3.981     0.017   143.561    36.676 
  4975.500    94.853     9.605    27.117    26.704    13.403    -2.884     2.698     3.976     0.004   143.619    36.877 
  4976.000    95.919     9.605    27.029    26.538    13.858    -2.955     2.699     3.981     0.003   143.623    36.997 
  4976.500    96.516     9.605    27.118    26.563    13.768    -3.706     2.711     4.015     0.018   143.567    36.876 
  4977.000    96.496     9.605    27.091    26.538    13.852    -4.534     2.725     3.989     0.029   143.486    36.912 
  4977.500    96.556     9.605    26.741    26.247    14.455    -4.843     2.730     3.699     0.033   143.408    37.395 
  4978.000    98.554     9.605    26.165    25.742    15.057    -4.808     2.729     3.509     0.038   143.327    38.218 
  4978.500   102.222     9.605    25.649    25.280    15.267    -4.706     2.728     3.534     0.042   143.242    38.988 
  4979.000   103.942     9.605    25.414    25.106    15.370    -4.599     2.726     3.571     0.039   143.175    39.348 
  4979.500   102.467     9.605    25.495    25.279    15.713    -4.608     2.726     3.608     0.033   143.103    39.223 
  4980.000   100.810     9.605    25.875    25.762    16.020    -4.617     2.726     3.675     0.029   143.020    38.648 
  4980.500   100.859     9.605    26.592    26.578    16.006    -4.267     2.720     3.756     0.024   142.978    37.606 
  4981.000   101.323     9.605    27.515    27.609    15.814    -3.824     2.713     3.826     0.017   143.005    36.344 
  4981.500   101.215     9.605    28.121    28.353    15.589    -4.005     2.716     3.876     0.016   143.093    35.560 
  4982.000   100.390     9.609    27.764    28.130    15.357    -4.731     2.728     3.919     0.021   143.227    36.017 
  4982.500    99.232     9.628    26.433    26.878    15.227    -5.223     2.736     3.931     0.022   143.395    37.832 
