~Version Information Block
 VERS.                1.20:     CWLS LOG ASCII STANDARD - VERSION 1.20
 WRAP.                  NO:     One Line Per Depth Step
     
~Well Information Block
#MNEM.UNIT       Data Type     Information
#컴컴컴컴컴    컴컴컴컴컴컴�   컴컴컴컴컴컴컴컴컴컴컴컴컴컴컴컴컴컴컴컴컴컴�
 STRT.FT            0.0000:
 STOP.FT         5650.0000:
 STEP.FT            0.5000:
 NULL.          -9999.0000:
 COMP.             COMPANY:    FLUOR DANIEL (NPOSR)INC.
 WELL.                WELL:    75-X-10                 
 FLD .               FIELD:    N.P.R. # 3              
 LOC .            LOCATION:    SEC 10 T38N R78W                        
 CNTY.              COUNTY:    NATRONA                       
 STAT.               STATE:    WYOMING   
 SRVC.     SERVICE COMPANY:    WESTERN ATLAS                        
 DATE.                DATE:    07/04/1996
 UWI .      UNIQUE WELL ID:          10.0
 API .          API NUMBER:    4902522807                
     
~Curve Information Block
#MNEM.UNIT       API CODE      Curve Description
#컴컴컴컴컴    컴컴컴컴컴컴�   컴컴컴컴컴컴컴컴컴컴컴컴컴컴컴컴컴컴컴컴컴컴�
 DEPTH.F        95 995 99 1:   Depth                                                        
 GR  .API       31 310 01 1:   Gamma Ray Counts                                             
 CAL .IN        28 280 99 1:   Caliper                                                      
 RD  .OHMM      22 220 10 1:   Logarithmic Resistivity from ED, ID                          
 RS  .OHMM      22 220 09 1:   Logarithmic Resistivity from ES, IS                          
 CNC .%         95 995 99 1:   Corrected Neutron Porosity from CN                           
 PORZ.%         95 890 99 1:   Porosity from Z-Densilog                                     
 ZDEN.G/C3      95 350 01 1:   Z-Densilog Bulk Density                                      
 PE  .BARN      95 358 01 1:   Photo Electric Cross Section                                 
 ZCOR.G/C3      39 356 99 1:   Z-Densilog Bulk Density Correction                           
 SP  .MV        95 010 01 1:   Spontaneous Potential from Tool Electrode                    
 CDLL.MMHO      95 995 99 1:   Conductivity from RD                                         
     
~Parameter Information Block
#MNEM.UNIT         Value       Description
#컴컴컴컴컴    컴컴컴컴컴컴�   컴컴컴컴컴컴컴컴컴컴컴컴컴컴컴컴컴컴컴컴컴컴�
 EKB .FT            0.0000:    ELEVATION KELLY BUSHING
 EGL .FT            0.0000:    ELEVATION GROUND LEVEL
 RUN .              1.0000:    RUN NUMBER
 SON .               00000:    SERVICE ORDER NUMBER
 DD  .FT            0.0000:    DEPTH-DRILLER
 DL  .FT            0.0000:    DEPTH-LOGGER
 BLI .FT            0.0000:    BOTTOM LOGGED INTERVAL
 TLI .FT            0.0000:    TOP LOGGED INTERVAL
 CS  .  IN          0.0000:    CASING SIZE 
 CDD .FT            0.0000:    CASING DEPTH-DRILLER
 CDL .FT            0.0000:    CASING DEPTH-LOGGER
 BS  .IN            0.0000:    BIT SIZE
 DFT .               LIGNO:    MUD TYPE   
 DFD .LB/G          0.0000:    MUD WEIGHT
 DFV .S             0.0000:    MUD VISCOSITY
 DFPH.              0.0000:    MUD PH
 DFL .CC            0.0000:    MUD FLUID LOSS
 RMS .           FLOW LINE:    MUD SAMPLE SOURCE
 RM  .OHMM          0.0000:    MUD RESISTIVITY          
 RMT .DEGF          0.0000:    RM TEMPERATURE
 RMBH.OHMM          0.0000:    MUD RESISTIVITY AT BHT
 BHT .DEGF          0.0000:    BOTTOM HOLE TEMPERATURE
 RMFS.            MEASURED:    MUD FILTRATE SOURCE
 RMF .OHMM          0.0000:    MUD FILTRATE RESISTIVITY
 RMFT.DEGF          0.0000:    RMF TEMPERATURE
 RMCS.            MEASURED:    MUD CAKE SOURCE
 RMC .OHMM          0.0000:    MUD CAKE RESISTIVITY
 RMCT.DEGF          0.0000:    RMC TEMPERATURE
     
#      Computation Parameters Used
#MNEM.UNIT         Value       Description
#컴컴컴컴컴    컴컴컴컴컴컴�   컴컴컴컴컴컴컴컴컴컴컴컴컴컴컴컴컴컴컴컴컴컴�
 MDEN.G/CC          2.6500:    LOGGING MATRIX DENSITY
 MATR.              1.0000:    NEUTRON MATRIX (0=LIME,1=SAND,2=DOLO)
 FNUM.              0.6200:    TORTUOSITY CONSTANT ARCHIES (a)
 FEXP.              2.1500:    CEMENTATION EXPONENT ARCHIES (m)
     
~Other Information
     
#컴컴컴컴컴컴컴컴컴컴컴컴컴컴컴컴컴컴컴컴컴컴컴컴컴컴컴컴컴컴컴컴컴컴컴컴컴컴컴�
# In Making Interpretations Of Logs Our Employees Will Give Customer The Benefit
# Of Their Best Judgement,  But  Since All Interpretations Are Opinions Based On
# Inferences From Electrical Or  Other  Measurements,  We Cannot,  And We Do Not
# Guarantee The Accuracy Or  Correctness Of Any Interpretation.  We Shall Not Be
# Liable Or  Responsible For Any Loss,  Cost,  Damages, Or  Expenses  Whatsoever
# Incurred Or  Sustained By The Customer  Resulting  From Any Interpretaion Made
# By Any Of Our Employees.  ATLAS WIRELINE SERVICES-WESTERN ATLAS INTERNATIONAL
#컴컴컴컴컴컴컴컴컴컴컴컴컴컴컴컴컴컴컴컴컴컴컴컴컴컴컴컴컴컴컴컴컴컴컴컴컴컴컴�
     
~A  DEPTH      GR        CAL       RD        RS        CNC       PORZ      ZDEN      PE        ZCOR      SP        CDLL      
# ...
  5379.000    21.582     8.840   725.609   432.674     4.433     5.032     2.567     3.086     0.051   157.860     1.378 
  5379.500    19.871     8.839   523.453   323.390     5.036     6.321     2.546     2.962     0.053   156.833     1.910 
  5380.000    20.860     8.830   387.150   248.088     5.644     6.789     2.538     2.892     0.067   155.977     2.583 
  5380.500    23.630     8.811   294.182   195.296     6.053     6.476     2.543     2.839     0.074   155.441     3.399 
  5381.000    24.908     8.803   235.866   160.833     6.224     6.245     2.547     2.811     0.064   155.108     4.240 
  5381.500    24.344     8.808   205.197   142.563     6.210     6.471     2.543     2.627     0.051   154.811     4.873 
  5382.000    23.996     8.818   192.251   135.317     6.305     6.743     2.539     2.346     0.048   154.529     5.202 
  5382.500    24.315     8.817   188.462   133.224     6.453     6.879     2.536     2.246     0.049   154.313     5.306 
  5383.000    23.735     8.798   189.133   133.014     6.593     7.310     2.529     2.331     0.055   154.188     5.287 
  5383.500    21.798     8.767   189.933   132.492     6.854     8.152     2.516     2.490     0.067   154.138     5.265 
  5384.000    20.189     8.755   185.479   128.292     7.296     9.000     2.502     2.591     0.076   154.124     5.391 
  5384.500    19.891     8.764   176.828   120.774     7.585     9.580     2.492     2.636     0.074   154.068     5.655 
  5385.000    20.000     8.780   169.922   114.145     7.732     9.710     2.490     2.680     0.066   153.927     5.885 
  5385.500    19.884     8.792   167.392   110.436     8.051     9.218     2.498     2.736     0.063   153.762     5.974 
  5386.000    19.794     8.789   170.440   110.124     7.932     8.484     2.510     2.799     0.070   153.647     5.867 
  5386.500    19.795     8.770   180.212   113.637     7.626     8.129     2.516     2.828     0.081   153.525     5.549 
  5387.000    19.625     8.752   195.304   120.152     7.430     8.124     2.516     2.844     0.083   153.361     5.120 
  5387.500    20.275     8.748   212.802   127.990     7.243     8.026     2.518     2.882     0.076   153.291     4.699 
  5388.000    21.895     8.767   230.956   136.036     7.110     7.885     2.520     2.861     0.069   153.397     4.330 
  5388.500    23.192     8.801   246.095   142.646     7.110     8.109     2.516     2.624     0.069   153.554     4.063 
  5389.000    23.377     8.826   251.372   144.892     7.307     8.713     2.506     2.377     0.071   153.663     3.978 
  5389.500    23.020     8.817   244.252   141.260     7.738     9.364     2.495     2.372     0.071   153.774     4.094 
  5390.000    22.470     8.793   228.411   132.796     8.165     9.898     2.487     2.473     0.066   153.931     4.378 
  5390.500    21.524     8.790   212.201   123.583     8.434    10.207     2.482     2.549     0.065   154.129     4.713 
  5391.000    20.516     8.799   202.940   117.928     8.489    10.234     2.481     2.612     0.073   154.348     4.928 
  5391.500    19.953     8.802   203.130   117.510     8.215    10.107     2.483     2.761     0.078   154.573     4.923 
  5392.000    20.075     8.811   212.883   122.197     7.754     9.799     2.488     2.894     0.067   154.780     4.697 
  5392.500    20.315     8.830   230.900   130.880     7.230     9.178     2.499     2.903     0.050   154.956     4.331 
  5393.000    20.540     8.839   253.276   141.340     6.650     8.412     2.511     2.868     0.045   155.086     3.948 
  5393.500    21.830     8.840   276.522   151.701     6.261     7.740     2.522     2.813     0.042   155.180     3.616 
  5394.000    24.154     8.840   301.465   162.320     6.205     7.251     2.530     2.736     0.035   155.257     3.317 
  5394.500    26.182     8.840   329.151   173.556     6.248     7.083     2.533     2.618     0.027   155.405     3.038 
  5395.000    27.361     8.840   356.456   183.777     6.293     7.297     2.530     2.525     0.022   155.751     2.805 
  5395.500    28.255     8.840   379.516   191.457     6.389     7.842     2.521     2.485     0.021   156.349     2.635 
  5396.000    28.182     8.840   400.721   197.963     6.562     8.627     2.508     2.449     0.020   157.079     2.496 
  5396.500    25.944     8.840   424.579   205.175     6.721     9.248     2.497     2.411     0.019   157.781     2.355 
  5397.000    22.957     8.840   452.856   213.623     6.762     9.375     2.495     2.377     0.025   158.426     2.208 
  5397.500    21.788     8.840   476.984   219.179     6.649     9.094     2.500     2.297     0.034   159.007     2.097 
  5398.000    22.280     8.840   475.852   213.943     6.436     8.656     2.507     2.191     0.039   159.452     2.101 
  5398.500    22.207     8.847   436.486   195.593     6.227     8.386     2.512     2.122     0.039   159.750     2.291 
  5399.000    20.675     8.856   376.848   171.914     6.066     8.473     2.510     2.133     0.034   159.952     2.654 
  5399.500    18.642     8.856   322.447   151.544     5.926     8.483     2.510     2.311     0.032   160.043     3.101 
  5400.000    17.756     8.847   280.117   136.221     5.761     7.879     2.520     2.655     0.038   159.960     3.570 
  5400.500    18.390     8.840   245.656   123.410     5.600     7.061     2.533     3.010     0.043   159.742     4.071 
  5401.000    20.276     8.840   215.885   111.271     5.496     6.719     2.539     3.162     0.039   159.428     4.632 
  5401.500    22.379     8.840   191.461   100.554     5.500     6.661     2.540     3.159     0.035   159.033     5.223 
  5402.000    23.606     8.840   173.772    92.375     5.598     6.368     2.545     3.144     0.034   158.599     5.755 
  5402.500    24.197     8.840   164.065    87.478     5.752     5.995     2.551     3.074     0.027   158.186     6.095 
  5403.000    24.788     8.840   162.208    86.005     5.919     5.873     2.553     2.893     0.013   157.822     6.165 
  5403.500    25.138     8.840   166.248    87.280     6.024     5.913     2.552     2.722     0.003   157.566     6.015 
  5404.000    25.031     8.840   173.842    90.261     5.886     5.799     2.554     2.663     0.000   157.453     5.752 
  5404.500    25.097     8.840   183.908    94.145     5.567     5.095     2.566     2.664     0.010   157.390     5.437 
  5405.000    25.338     8.840   196.265    98.652     5.424     3.728     2.588     2.687     0.026   157.352     5.095 
  5405.500    25.065     8.840   209.900   103.429     5.442     2.533     2.608     2.699     0.031   157.383     4.764 
  5406.000    24.237     8.840   222.969   107.672     5.520     2.321     2.612     2.500     0.023   157.452     4.485 
  5406.500    24.089     8.840   233.873   110.595     5.635     2.809     2.604     2.299     0.019   157.461     4.276 
  5407.000    25.232     8.840   240.285   111.356     5.556     3.325     2.595     2.313     0.030   157.424     4.162 
  5407.500    26.573     8.840   238.822   108.747     5.264     3.490     2.592     2.339     0.048   157.469     4.187 
  5408.000    27.199     8.840   232.409   104.212     5.055     3.019     2.600     2.354     0.060   157.700     4.303 
  5408.500    27.678     8.840   231.036   102.118     5.190     1.651     2.623     2.379     0.054   158.008     4.328 
  5409.000    28.671     8.839   243.801   105.980     5.440    -0.827     2.664     2.544     0.040   158.021     4.102 
  5409.500    30.479     8.829   277.449   117.830     5.449    -4.151     2.718     2.925     0.027   157.426     3.604 
  5410.000    31.742     8.801   331.853   136.840     5.358    -7.147     2.768     3.387     0.016   156.613     3.013 
  5410.500    30.667     8.767   388.153   155.574     5.305    -8.653     2.793     3.754     0.013   156.372     2.576 
  5411.000    27.464     8.747   420.719   164.519     5.396    -8.920     2.797     4.064     0.019   156.624     2.377 
  5411.500    24.216     8.744   437.780   167.047     5.381    -9.158     2.801     4.383     0.022   156.407     2.284 
