~VERSION INFORMATION
 VERS.               2.10:   CWLS LOG ASCII STANDARD - VERSION 2.10
 WRAP.                 NO:   ONE LINE PER DEPTH STEP
~WELL INFORMATION
#MNEM.UNIT      DATA TYPE    INFORMATION
#----------   ------------   ------------------------------
 STRT.F         4999.7969:   START DEPTH
 STOP.F         5666.3267:   STOP DEPTH
 STEP.F            0.5000:   STEP LENGTH
 NULL.          -999.2500:   NO VALUE
 COMP. Fluor Daniel (NPOSR), Inc.:   COMPANY
 WELL.            75-X-10:   WELL
 FLD .           N.P.R. 3:   FIELD
 LOC . 10-38N-78W-NATRONA-WY:   LOCATION
 STAT.                 WY:   STATE
 COUN.            Natrona:   COUNTY
 SRVC.      Western Atlas:   SERVICE COMPANY
 DATE.                   :   LOGDATE
 APIN.         4902522807:   API NUMBER
~CURVE INFORMATION
#MNEM.UNIT       API CODE    CURVE DESCRIPTION
#----------   ------------   ------------------------------
 DEPT.F                  :
 LLD .ohmm   11 220 04 00:   Dual Laterolog, Deep
 LLS .ohmm   11 220 06 00:   Dual Laterolog, shallow
 SP  .mV     06 010 01 00:   Spontaneous Potential
 GR  .GAPI   06 310 01 00:   Gamma Ray
 CDLL.mho/m              :   Conductivity
~PARAMETER INFORMATION
#MNEM.UNIT          VALUE    DESCRIPTION
#----------   ------------   ------------------------------
 EKB .F         5198.0000:   Kelly bushing
 EGL .F         5188.0000:   Ground level
 EDF .F         5197.0000:   Drilling floor
 EPD .F           10.0000:   Permanent datum
 TD  .F        56500.0000:   Total depth
 NRUN.             1.0000:   Number of Runs
#--RUN 1---   ------------   The following are for Run 1---
 RUN .             1.0000:   Run 1
 DATE.mm/dd/yyyy 07/04/1996:   Date Logged
 DD  .ft             5650:   Depth Driller
 DL  .ft             5647:   Depth Logger
 BLI .ft             5627:   Bottom Log Interval
 TLI .ft            surf.:   Top Log Interval
 CSS .inch          9.875:   Casing Size
 CTD1.ft              445:   Casing Driller 1
 CTL1.ft              444:   Casing Logger 1
 BS  .inch           8.75:   Bit Size
 DFT .           gel/chem:   Type Fluid In Hole
 DFD .lb/gal          9.5:   Mud Weight
 DFV .sec              40:   Viscosity
 DFPH.                9.0:   pH
 DFL .gal             7.6:   Fluid Loss
 WSS .              circ.:   Source Of Sample
 RM  .ohmm            .61:   Rm
 EMT .F                84:   Rm Meas. Temp.
 RMF .ohmm            .48:   Rmf
 MFT .F                84:   Rmf Meas. Temp.
 RMC .ohmm            .75:   Rmc
 MCST.F                84:   Rmc Meas. Temp.
 MFSS.              calc.:   Source Rmf.
 MCSS.              calc.:   Source Rmc.
 RMB .ohmm            .29:   Rm. At BHT
 BHT .F               176:   BHT.
 TCS .hh:mm        6 hrs.:   Time Circ. Stopped
 MRT .F               176:   Maximum Recorded Temp.
 LUN .            hl 6530:   Logging Unit Number
 LUL .             Casper:   Logging Unit Location
 ENGI.           Brownlow:   Recorded By
 WITN.             Lebeau:   Witnessed By
 DGBY.              Burke:   Digitized By
~OTHER INFORMATION
# Borehole Volume Computed for 7" Casing
~A  DEPTH      LLD        LLS         SP         GR       CDLL
# ...
 5182.7970    26.8469    26.1840    69.3334    90.2344    33.3986
 5183.2970    29.6623    29.9694    68.5588    84.6570    29.3051
 5183.7970    33.0067    32.1985    68.2508    80.0127    27.1539
 5184.2970    35.4468    32.6484    68.2539    79.0956    26.7039
 5184.7970    36.4795    31.9673    68.2569    80.3665    27.1700
 5185.2970    36.2298    30.8579    68.5711    82.8762    27.1802
 5185.7970    35.9875    31.3070    68.8852    83.2086    27.1873
 5186.2970    36.5136    31.5349    69.1999    80.4305    27.9688
 5186.7970    36.7853    30.2283    69.6695    79.2077    28.7520
 5187.2970    35.8964    28.8846    70.1391    79.2291    30.5581
 5187.7970    30.6051    27.3537    70.4532    79.2509    31.8590
 5188.2970    29.5467    25.8227    70.6118    84.9781    36.1488
 5188.7970    28.1227    24.2918    70.7704    87.3855    41.0466
 5189.2970    26.9580    22.7609    70.7734    90.5173    44.2501
 5189.7970    25.6587    21.2300    70.9320    93.0270    47.4958
 5190.2970    23.4033    19.6991    71.0905    93.9814    49.0959
 5190.7970    21.3462    18.1681    70.9300    95.5580    50.4587
 5191.2970    19.7484    16.6372    70.3190    97.4456    51.2397
 5191.7970    19.2013    15.5478    70.3228    98.4001    50.3145
 5192.2970    19.3444    15.3311    70.3258    98.4214    48.1666
 5192.7970    20.1941    15.6650    70.3289    98.4428    46.6290
 5193.2970    21.0796    16.5834    70.1756    98.1529    46.7676
 5193.7970    22.0041    17.0644    70.1794    98.1747    48.9657
 5194.2970    22.1678    16.3565    70.3380    95.9782    49.3406
 5194.7970    21.8603    15.4571    70.3411    95.1067    49.7550
 5195.2970    21.5604    14.9122    70.4996    95.4444    48.9920
 5195.7970    20.9631    14.5069    70.9692    95.7768    48.9996
 5196.2970    20.2382    14.4073    71.1278    97.3534    47.3252
 5196.7970    20.2544    14.6170    71.1309    98.9299    43.6087
 5197.2970    20.8595    15.3646    71.4457    98.3292    41.7650
 5197.7970    24.7152    16.2654    71.4487    94.6180    39.7233
 5198.2970    26.1681    17.9679    71.1407    91.2179    38.2254
 5198.7970    27.1224    18.3583    71.1438    89.0619    38.2326
 5199.2970    26.1844    17.9754    70.9905    88.7719    38.2412
 5199.7970    25.4571    17.2297    70.6833    87.5469    37.4775
 5200.2970    25.3566    16.9930    70.3761    89.4989    38.7556
 5200.7970    24.8504    16.9992    70.5402    90.7049    40.0351
 5201.2970    24.3340    16.6472    70.5470    91.9689    41.3650
 5201.7970    23.9981    15.8463    70.7126    91.6776    42.5919
 5202.2970    23.4993    14.8714    71.1830    91.3814    44.6441
 5202.7970    21.7401    13.8577    71.0359    93.2723    47.5709
 5203.2970    19.4110    13.3795    70.5761    93.2921    49.9164
 5203.7970    17.9579    12.7187    70.4258    92.3787    53.3608
 5204.2970    17.0922    12.1242    70.4343    91.1543    56.8680
 5204.7970    16.3713    11.7892    70.1301    89.9299    57.9943
 5205.2970    15.8187    11.6263    69.6687    89.6386    58.5001
 5205.7970    15.8234    11.5483    69.6773    88.9596    59.2098
 5206.2970    15.8282    11.5535    69.6841    84.0843    59.5129
 5206.7970    15.8330    11.8064    68.7579    81.3047    59.2239
 5207.2970    15.8378    11.9795    68.7647    80.0803    59.2333
 5207.7970    15.8426    12.3289    68.9272    80.1000    59.2395
 5208.2970    15.9603    12.5987    68.9571    80.1198    59.2474
 5208.7970    16.0789    12.8745    69.4090    79.5175    59.2550
 5209.2970    16.0839    12.9710    69.7269    77.9771    60.0355
 5209.7970    15.7507    12.9768    69.5783    79.2459    61.5893
 5210.2970    15.3142    12.7986    69.4279    80.1988    66.3678
 5210.7970    14.5760    11.5925    69.2792    80.2189    70.3959
 5211.2970    13.6777    10.8793    69.1305    80.2391    72.4320
 5211.7970    13.3924    10.4296    69.1391    79.9470    72.4389
 5212.2970    13.5891    10.2864    69.4570    78.4165    70.1364
 5212.7970    14.2860    10.8911    69.9304    76.2590    56.2267
 5213.2970    15.4568    12.7359    69.9373    71.3536    45.4370
 5213.7970    19.3315    17.6581    69.9443    59.6430    32.6092
 5214.2970    34.4837    22.4130    70.1082    47.9323    19.9287
 5214.7970    50.6310    32.2630    70.5816    36.2216    16.3045
 5215.2970    57.5520    43.8439    71.2105    24.5110    13.7604
 5215.7970    65.4191    55.0403    72.1505    17.9049    12.9953
 5216.2970    71.7996    64.3629    72.6239    22.2793    10.8012
 5216.7970    88.0410    73.1583    73.0973    24.7874     6.8287
 5217.2970   243.2676   125.5580    73.4152    24.1850     3.6305
 5217.7970   498.1523   373.8238    73.4221    19.5392     1.8695
 5218.2970   753.0370   622.0895    73.4289    16.4485    -0.8758
 5218.7970   728.4678   853.3716    73.9023    16.4682    -0.0833
 5219.2970   470.5664   499.0092    74.5476    17.4211     7.4628
 5219.7970   212.6650   167.3364    75.0267    19.6822    13.0581
 5220.2970    75.6174    88.2130    75.6353    22.8509    11.2648
 5220.7970    71.9667    83.9613    75.7977    26.1945     6.6166
 5221.2970   101.9562    90.1765    75.9601    25.9032     2.2624
 5221.7970   280.8810   537.2990    76.1225    19.3911     2.2689
 5222.2970  1293.7424  1258.7480    76.2848    15.6784     2.2941
 5222.7970  1535.7332  1598.0929    76.7582    12.5877     3.5741
 5223.2970  1265.1703  1038.3320    77.0761    11.0473     5.8222
 5223.7970   994.6075   620.1674    77.2385    12.0051    11.5736
 5224.2970   724.0446   202.0026    77.0898    18.2457    22.7301
 5224.7970   453.4818    78.6897    77.2522    29.1439    31.1002
 5225.2970   182.9189    63.1296    77.1035    40.2808    33.2354
 5225.7970    28.8840    44.8199    77.1107    51.4177    36.3338
 5226.2970    26.1585    40.8853    77.1189    62.5546    33.3158
 5226.7970    25.4336    37.5617    77.2813    73.6915    27.8493
 5227.2970    26.4387    41.4998    77.5992    80.0398    23.3010
 5227.7970    29.9665    46.8374    77.9171    80.9100    18.2224
 5228.2970    40.6800    51.0189    78.5460    78.7525    12.4168
 5228.7970    54.0597    58.8196    79.0194    73.7956     8.3853
 5229.2970    85.7961    78.1532    79.4929    65.4172     3.8483
 5229.7970   110.8216   106.7981    79.9663    57.4533     1.6211
 5230.2970   351.9826   210.9070    79.8175    46.3872     0.3236
 5230.7970   851.6655   708.1672    79.8245    35.3211  -999.2500
 5231.2970  1351.3484  1205.4275    79.8315    24.2550  -999.2500
 5231.7970  1851.0313  1702.6877    79.6826    17.3045  -999.2500
 5232.2970  -999.2500  -999.2500    79.3801    21.7915  -999.2500
 5232.7970  -999.2500  -999.2500    78.9204    30.3529  -999.2500
 5233.2970  1638.3446  2006.9865    78.7701    42.2521  -999.2500
 5233.7970  1047.7913  1275.0155    78.9341    47.2485  -999.2500
 5234.2970  1011.4703  1179.7098    79.0965    48.5124  -999.2500
 5234.7970  1109.7104  1214.1154    79.2589    48.8383  -999.2500
 5235.2970  1453.9000  1450.3060    79.4212    42.6421  -999.2500
 5235.7970  -999.2500  -999.2500    79.5836    34.6702  -999.2500
 5236.2970  -999.2500  -999.2500    80.0570    26.8855  -999.2500
 5236.7970  -999.2500  -999.2500    80.2332    22.4870  -999.2500
 5237.2970  -999.2500  -999.2500    80.7204    27.1724  -999.2500
 5237.7970  -999.2500  -999.2500    81.6345    30.3025  -999.2500
 5238.2970  -999.2500  -999.2500    82.2634    31.8775  -999.2500
 5238.7970  -999.2500  -999.2500    82.7369    31.8973  -999.2500
 5239.2970  -999.2500  -999.2500    83.5213    29.4287  -999.2500
 5239.7970  -999.2500  -999.2500    83.9947    27.8883  -999.2500
 5240.2970  -999.2500  -999.2500    84.7792    26.0467  -999.2500
 5240.7970  -999.2500  -999.2500    85.5636    29.1769  -999.2500
 5241.2970  -999.2500  -999.2500    86.1926    32.9296  -999.2500
 5241.7970  -999.2500  -999.2500    87.1325    34.8719  -999.2500
 5242.2970  -999.2500  1816.4777    87.7615    36.0840  -999.2500
 5242.7970  1659.7321  1610.7914    88.4303    37.3480  -999.2500
 5243.2970  1568.5449  1577.4376    89.3321    39.8561  -999.2500
