~Version Information Block
 VERS.                1.20:     CWLS LOG ASCII STANDARD - VERSION 1.20
 WRAP.                  NO:     One Line Per Depth Step
     
~Well Information Block
#MNEM.UNIT       Data Type     Information
#컴컴컴컴컴    컴컴컴컴컴컴�   컴컴컴컴컴컴컴컴컴컴컴컴컴컴컴컴컴컴컴컴컴컴�
 STRT.FT            0.0000:
 STOP.FT         5650.0000:
 STEP.FT            0.5000:
 NULL.          -9999.0000:
 COMP.             COMPANY:    FLUOR DANIEL (NPOSR)INC.
 WELL.                WELL:    75-X-10                 
 FLD .               FIELD:    N.P.R. # 3              
 LOC .            LOCATION:    SEC 10 T38N R78W                        
 CNTY.              COUNTY:    NATRONA                       
 STAT.               STATE:    WYOMING   
 SRVC.     SERVICE COMPANY:    WESTERN ATLAS                        
 DATE.                DATE:    07/04/1996
 UWI .      UNIQUE WELL ID:          10.0
 API .          API NUMBER:    4902522807                
     
~Curve Information Block
#MNEM.UNIT       API CODE      Curve Description
#컴컴컴컴컴    컴컴컴컴컴컴�   컴컴컴컴컴컴컴컴컴컴컴컴컴컴컴컴컴컴컴컴컴컴�
 DEPTH.F        95 995 99 1:   Depth                                                        
 GR  .API       31 310 01 1:   Gamma Ray Counts                                             
 CAL .IN        28 280 99 1:   Caliper                                                      
 RD  .OHMM      22 220 10 1:   Logarithmic Resistivity from ED, ID                          
 RS  .OHMM      22 220 09 1:   Logarithmic Resistivity from ES, IS                          
 CNC .%         95 995 99 1:   Corrected Neutron Porosity from CN                           
 PORZ.%         95 890 99 1:   Porosity from Z-Densilog                                     
 ZDEN.G/C3      95 350 01 1:   Z-Densilog Bulk Density                                      
 PE  .BARN      95 358 01 1:   Photo Electric Cross Section                                 
 ZCOR.G/C3      39 356 99 1:   Z-Densilog Bulk Density Correction                           
 SP  .MV        95 010 01 1:   Spontaneous Potential from Tool Electrode                    
 CDLL.MMHO      95 995 99 1:   Conductivity from RD                                         
     
~Parameter Information Block
#MNEM.UNIT         Value       Description
#컴컴컴컴컴    컴컴컴컴컴컴�   컴컴컴컴컴컴컴컴컴컴컴컴컴컴컴컴컴컴컴컴컴컴�
 EKB .FT            0.0000:    ELEVATION KELLY BUSHING
 EGL .FT            0.0000:    ELEVATION GROUND LEVEL
 RUN .              1.0000:    RUN NUMBER
 SON .               00000:    SERVICE ORDER NUMBER
 DD  .FT            0.0000:    DEPTH-DRILLER
 DL  .FT            0.0000:    DEPTH-LOGGER
 BLI .FT            0.0000:    BOTTOM LOGGED INTERVAL
 TLI .FT            0.0000:    TOP LOGGED INTERVAL
 CS  .  IN          0.0000:    CASING SIZE 
 CDD .FT            0.0000:    CASING DEPTH-DRILLER
 CDL .FT            0.0000:    CASING DEPTH-LOGGER
 BS  .IN            0.0000:    BIT SIZE
 DFT .               LIGNO:    MUD TYPE   
 DFD .LB/G          0.0000:    MUD WEIGHT
 DFV .S             0.0000:    MUD VISCOSITY
 DFPH.              0.0000:    MUD PH
 DFL .CC            0.0000:    MUD FLUID LOSS
 RMS .           FLOW LINE:    MUD SAMPLE SOURCE
 RM  .OHMM          0.0000:    MUD RESISTIVITY          
 RMT .DEGF          0.0000:    RM TEMPERATURE
 RMBH.OHMM          0.0000:    MUD RESISTIVITY AT BHT
 BHT .DEGF          0.0000:    BOTTOM HOLE TEMPERATURE
 RMFS.            MEASURED:    MUD FILTRATE SOURCE
 RMF .OHMM          0.0000:    MUD FILTRATE RESISTIVITY
 RMFT.DEGF          0.0000:    RMF TEMPERATURE
 RMCS.            MEASURED:    MUD CAKE SOURCE
 RMC .OHMM          0.0000:    MUD CAKE RESISTIVITY
 RMCT.DEGF          0.0000:    RMC TEMPERATURE
     
#      Computation Parameters Used
#MNEM.UNIT         Value       Description
#컴컴컴컴컴    컴컴컴컴컴컴�   컴컴컴컴컴컴컴컴컴컴컴컴컴컴컴컴컴컴컴컴컴컴�
 MDEN.G/CC          2.6500:    LOGGING MATRIX DENSITY
 MATR.              1.0000:    NEUTRON MATRIX (0=LIME,1=SAND,2=DOLO)
 FNUM.              0.6200:    TORTUOSITY CONSTANT ARCHIES (a)
 FEXP.              2.1500:    CEMENTATION EXPONENT ARCHIES (m)
     
~Other Information
     
#컴컴컴컴컴컴컴컴컴컴컴컴컴컴컴컴컴컴컴컴컴컴컴컴컴컴컴컴컴컴컴컴컴컴컴컴컴컴컴�
# In Making Interpretations Of Logs Our Employees Will Give Customer The Benefit
# Of Their Best Judgement,  But  Since All Interpretations Are Opinions Based On
# Inferences From Electrical Or  Other  Measurements,  We Cannot,  And We Do Not
# Guarantee The Accuracy Or  Correctness Of Any Interpretation.  We Shall Not Be
# Liable Or  Responsible For Any Loss,  Cost,  Damages, Or  Expenses  Whatsoever
# Incurred Or  Sustained By The Customer  Resulting  From Any Interpretaion Made
# By Any Of Our Employees.  ATLAS WIRELINE SERVICES-WESTERN ATLAS INTERNATIONAL
#컴컴컴컴컴컴컴컴컴컴컴컴컴컴컴컴컴컴컴컴컴컴컴컴컴컴컴컴컴컴컴컴컴컴컴컴컴컴컴�
     
~A  DEPTH      GR        CAL       RD        RS        CNC       PORZ      ZDEN      PE        ZCOR      SP        CDLL      
# ...
  2376.000   105.328 -9999.000     7.863     6.883 -9999.000 -9999.000 -9999.000 -9999.000 -9999.000   144.156   127.182 
  2376.500   105.158 -9999.000     8.007     7.014 -9999.000 -9999.000 -9999.000 -9999.000 -9999.000   144.115   124.898 
  2377.000   103.280 -9999.000     8.143     7.143 -9999.000 -9999.000 -9999.000 -9999.000 -9999.000   143.925   122.802 
  2377.500   101.544 -9999.000     8.129     7.152 -9999.000 -9999.000 -9999.000 -9999.000 -9999.000   143.751   123.017 
  2378.000   100.427 -9999.000     7.873     6.962 -9999.000 -9999.000 -9999.000 -9999.000 -9999.000   143.665   127.023 
  2378.500    98.471 -9999.000     7.468     6.638 -9999.000 -9999.000 -9999.000 -9999.000 -9999.000   143.609   133.902 
  2379.000    96.357 -9999.000     7.107     6.329 -9999.000 -9999.000 -9999.000 -9999.000 -9999.000   143.552   140.711 
  2379.500    98.185 -9999.000     6.926     6.149 -9999.000 -9999.000 -9999.000 -9999.000 -9999.000   143.513   144.391 
  2380.000   103.313 -9999.000     6.971     6.155 -9999.000 -9999.000 -9999.000 -9999.000 -9999.000   143.490   143.452 
  2380.500   106.685 -9999.000     7.197     6.333 -9999.000 -9999.000 -9999.000 -9999.000 -9999.000   143.491   138.955 
  2381.000   107.905 -9999.000     7.481     6.584 -9999.000 -9999.000 -9999.000 -9999.000 -9999.000   143.472   133.670 
  2381.500   108.222 -9999.000     7.688     6.781 -9999.000 -9999.000 -9999.000 -9999.000 -9999.000   143.458   130.068 
  2382.000   106.495 -9999.000     7.744     6.841 -9999.000 -9999.000 -9999.000 -9999.000 -9999.000   143.511   129.137 
  2382.500   104.269 -9999.000     7.686     6.787 -9999.000 -9999.000 -9999.000 -9999.000 -9999.000   143.603   130.111 
  2383.000   104.268 -9999.000     7.627     6.717 -9999.000 -9999.000 -9999.000 -9999.000 -9999.000   143.716   131.109 
  2383.500   104.766 -9999.000     7.652     6.713 -9999.000 -9999.000 -9999.000 -9999.000 -9999.000   143.861   130.678 
  2384.000   104.203 -9999.000     7.773     6.788 -9999.000 -9999.000 -9999.000 -9999.000 -9999.000   143.998   128.653 
  2384.500   103.762 -9999.000     7.926     6.894 -9999.000 -9999.000 -9999.000 -9999.000 -9999.000   144.048   126.168 
  2385.000   103.807 -9999.000     8.008     6.947 -9999.000 -9999.000 -9999.000 -9999.000 -9999.000   144.060   124.868 
  2385.500   103.888 -9999.000     7.997     6.920 -9999.000 -9999.000 -9999.000 -9999.000 -9999.000   144.124   125.054 
  2386.000   103.952 -9999.000     7.982     6.882 -9999.000 -9999.000 -9999.000 -9999.000 -9999.000   144.270   125.278 
  2386.500   104.169 -9999.000     8.056     6.913 -9999.000 -9999.000 -9999.000 -9999.000 -9999.000   144.467   124.138 
  2387.000   103.869 -9999.000     8.210     7.019 -9999.000 -9999.000 -9999.000 -9999.000 -9999.000   144.609   121.796 
  2387.500   102.923 -9999.000     8.348     7.132 -9999.000 -9999.000 -9999.000 -9999.000 -9999.000   144.607   119.791 
  2388.000   102.508 -9999.000     8.373     7.169 -9999.000 -9999.000 -9999.000 -9999.000 -9999.000   144.510   119.431 
  2388.500   102.822 -9999.000     8.312     7.129 -9999.000 -9999.000 -9999.000 -9999.000 -9999.000   144.376   120.301 
  2389.000   103.890 -9999.000     8.292     7.104 -9999.000 -9999.000 -9999.000 -9999.000 -9999.000   144.202   120.602 
  2389.500   105.980 -9999.000     8.395     7.178 -9999.000 -9999.000 -9999.000 -9999.000 -9999.000   144.007   119.125 
  2390.000   107.778 -9999.000     8.559     7.318 -9999.000 -9999.000 -9999.000 -9999.000 -9999.000   143.816   116.837 
  2390.500   106.204 -9999.000     8.610     7.385 -9999.000 -9999.000 -9999.000 -9999.000 -9999.000   143.638   116.137 
  2391.000   103.403 -9999.000     8.382     7.235 -9999.000 -9999.000 -9999.000 -9999.000 -9999.000   143.534   119.308 
  2391.500   103.005 -9999.000     7.827     6.816 -9999.000 -9999.000 -9999.000 -9999.000 -9999.000   143.495   127.760 
  2392.000   105.227 -9999.000     7.224     6.328 -9999.000 -9999.000 -9999.000 -9999.000 -9999.000   143.398   138.426 
  2392.500   108.721 -9999.000     6.936     6.075 -9999.000 -9999.000 -9999.000 -9999.000 -9999.000   143.234   144.169 
  2393.000   110.466 -9999.000     7.037     6.142 -9999.000 -9999.000 -9999.000 -9999.000 -9999.000   143.151   142.103 
  2393.500   107.241 -9999.000     7.328     6.392 -9999.000 -9999.000 -9999.000 -9999.000 -9999.000   143.251   136.464 
  2394.000   101.933 -9999.000     7.504     6.590 -9999.000 -9999.000 -9999.000 -9999.000 -9999.000   143.514   133.258 
  2394.500   100.883 -9999.000     7.378     6.552 -9999.000 -9999.000 -9999.000 -9999.000 -9999.000   143.790   135.536 
  2395.000   105.060 -9999.000     7.088     6.337 -9999.000 -9999.000 -9999.000 -9999.000 -9999.000   143.927   141.082 
  2395.500   110.118 -9999.000     6.903     6.163 -9999.000 -9999.000 -9999.000 -9999.000 -9999.000   143.953   144.867 
  2396.000   112.162 -9999.000     6.801     6.064 -9999.000 -9999.000 -9999.000 -9999.000 -9999.000   144.025   147.030 
  2396.500   111.812 -9999.000     6.499     5.833 -9999.000 -9999.000 -9999.000 -9999.000 -9999.000   144.140   153.873 
  2397.000   113.333 -9999.000     5.981     5.415 -9999.000 -9999.000 -9999.000 -9999.000 -9999.000   144.263   167.195 
  2397.500   118.432 -9999.000     5.615     5.084 -9999.000 -9999.000 -9999.000 -9999.000 -9999.000   144.432   178.092 
  2398.000   121.961 -9999.000     5.636     5.046 -9999.000 -9999.000 -9999.000 -9999.000 -9999.000   144.605   177.437 
  2398.500   118.522 -9999.000     6.039     5.322 -9999.000 -9999.000 -9999.000 -9999.000 -9999.000   144.637   165.583 
  2399.000   111.246 -9999.000     6.669     5.820 -9999.000 -9999.000 -9999.000 -9999.000 -9999.000   144.467   149.937 
  2399.500   108.142 -9999.000     7.233     6.318 -9999.000 -9999.000 -9999.000 -9999.000 -9999.000   144.183   138.263 
  2400.000   107.342     8.918     7.513     6.591    26.886     6.017     2.551     2.897     0.030   143.981   133.105 
  2400.500   103.235     8.918     7.641     6.695    28.225     5.919     2.552     2.911     0.039   144.002   130.878 
  2401.000    97.891     8.918     7.805     6.812    28.886     5.544     2.559     2.910     0.043   144.125   128.126 
  2401.500    96.899     8.918     8.075     7.024    28.938     5.251     2.563     2.905     0.046   144.168   123.842 
  2402.000    97.532     8.918     8.665     7.488    29.207     5.470     2.560     2.909     0.049   144.100   115.412 
  2402.500    93.745     8.915     9.867     8.427    29.735     6.077     2.550     2.935     0.049   143.985   101.345 
  2403.000    84.100     8.906    11.599     9.815    29.833     6.318     2.546     2.946     0.047   143.888    86.212 
  2403.500    72.310     8.900    12.854    10.928    28.839     5.855     2.553     2.924     0.040   143.862    77.798 
  2404.000    66.158     8.906    12.411    10.717    27.404     5.279     2.563     2.907     0.030   143.905    80.571 
  2404.500    70.706     8.916    10.841     9.444    26.785     4.984     2.568     2.916     0.022   143.931    92.244 
  2405.000    81.524     8.928     9.498     8.234    26.749     4.715     2.572     2.944     0.017   143.914   105.284 
  2405.500    90.694     8.947     8.827     7.562    26.190     4.478     2.576     3.043     0.013   143.883   113.285 
  2406.000    98.059     8.962     8.606     7.305    25.072     4.457     2.576     3.149     0.022   143.845   116.194 
  2406.500   104.794     8.969     8.471     7.177    24.222     4.315     2.579     3.216     0.047   143.819   118.043 
  2407.000   109.006     8.968     8.243     7.001    23.297     3.732     2.588     3.272     0.081   143.837   121.319 
  2407.500   110.426     8.955     8.001     6.805    22.274     2.964     2.601     3.373     0.108   143.851   124.978 
  2408.000   109.524     8.937     7.909     6.714    21.053     2.214     2.613     3.672     0.112   143.821   126.435 
  2408.500   108.663     8.944     8.053     6.811    19.197     1.645     2.623     4.126     0.090   143.890   124.179 
