~VERSION INFORMATION
 VERS.               2.10:   CWLS LOG ASCII STANDARD - VERSION 2.10
 WRAP.                 NO:   ONE LINE PER DEPTH STEP
~WELL INFORMATION
#MNEM.UNIT      DATA TYPE    INFORMATION
#----------   ------------   ------------------------------
 STRT.F         4999.7969:   START DEPTH
 STOP.F         5666.3267:   STOP DEPTH
 STEP.F            0.5000:   STEP LENGTH
 NULL.          -999.2500:   NO VALUE
 COMP. Fluor Daniel (NPOSR), Inc.:   COMPANY
 WELL.            75-X-10:   WELL
 FLD .           N.P.R. 3:   FIELD
 LOC . 10-38N-78W-NATRONA-WY:   LOCATION
 STAT.                 WY:   STATE
 COUN.            Natrona:   COUNTY
 SRVC.      Western Atlas:   SERVICE COMPANY
 DATE.                   :   LOGDATE
 APIN.         4902522807:   API NUMBER
~CURVE INFORMATION
#MNEM.UNIT       API CODE    CURVE DESCRIPTION
#----------   ------------   ------------------------------
 DEPT.F                  :
 LLD .ohmm   11 220 04 00:   Dual Laterolog, Deep
 LLS .ohmm   11 220 06 00:   Dual Laterolog, shallow
 SP  .mV     06 010 01 00:   Spontaneous Potential
 GR  .GAPI   06 310 01 00:   Gamma Ray
 CDLL.mho/m              :   Conductivity
~PARAMETER INFORMATION
#MNEM.UNIT          VALUE    DESCRIPTION
#----------   ------------   ------------------------------
 EKB .F         5198.0000:   Kelly bushing
 EGL .F         5188.0000:   Ground level
 EDF .F         5197.0000:   Drilling floor
 EPD .F           10.0000:   Permanent datum
 TD  .F        56500.0000:   Total depth
 NRUN.             1.0000:   Number of Runs
#--RUN 1---   ------------   The following are for Run 1---
 RUN .             1.0000:   Run 1
 DATE.mm/dd/yyyy 07/04/1996:   Date Logged
 DD  .ft             5650:   Depth Driller
 DL  .ft             5647:   Depth Logger
 BLI .ft             5627:   Bottom Log Interval
 TLI .ft            surf.:   Top Log Interval
 CSS .inch          9.875:   Casing Size
 CTD1.ft              445:   Casing Driller 1
 CTL1.ft              444:   Casing Logger 1
 BS  .inch           8.75:   Bit Size
 DFT .           gel/chem:   Type Fluid In Hole
 DFD .lb/gal          9.5:   Mud Weight
 DFV .sec              40:   Viscosity
 DFPH.                9.0:   pH
 DFL .gal             7.6:   Fluid Loss
 WSS .              circ.:   Source Of Sample
 RM  .ohmm            .61:   Rm
 EMT .F                84:   Rm Meas. Temp.
 RMF .ohmm            .48:   Rmf
 MFT .F                84:   Rmf Meas. Temp.
 RMC .ohmm            .75:   Rmc
 MCST.F                84:   Rmc Meas. Temp.
 MFSS.              calc.:   Source Rmf.
 MCSS.              calc.:   Source Rmc.
 RMB .ohmm            .29:   Rm. At BHT
 BHT .F               176:   BHT.
 TCS .hh:mm        6 hrs.:   Time Circ. Stopped
 MRT .F               176:   Maximum Recorded Temp.
 LUN .            hl 6530:   Logging Unit Number
 LUL .             Casper:   Logging Unit Location
 ENGI.           Brownlow:   Recorded By
 WITN.             Lebeau:   Witnessed By
 DGBY.              Burke:   Digitized By
~OTHER INFORMATION
# Borehole Volume Computed for 7" Casing
~A  DEPTH      LLD        LLS         SP         GR       CDLL
# ...
 5304.7970    81.3070    86.2295    72.3069    28.0561    12.8263
 5305.2970    72.3674    75.6360    72.1581    36.5293    16.1431
 5305.7970    59.9387    57.2817    72.1726    57.3186    25.4792
 5306.2970    46.9464    38.9274    72.3487    78.1078    32.9425
 5306.7970    33.9541    30.2081    72.8025    98.8971    35.8266
 5307.2970    27.0940    29.7894    72.9649   111.5810    36.8207
 5307.7970    26.3430    31.7662    73.2828   112.4814    34.8154
 5308.2970    26.8190    33.6321    73.4452   107.2214    32.7426
 5308.7970    28.1037    33.8822    73.4520   103.8221    31.4345
 5309.2970    29.3386    33.6276    73.3016   103.2166    32.1789
 5309.7970    29.7700    31.8084    73.3102   103.5553    34.7300
 5310.2970    29.7811    27.8052    73.4726   106.6879    37.2846
 5310.7970    28.9563    26.2789    73.6349   110.7536    38.3788
 5311.2970    27.5630    25.7335    73.6418   114.1972    39.1572
 5311.7970    26.4097    25.3788    73.6488   116.7077    39.3513
 5312.2970    25.5095    25.2052    73.8113   117.9740    39.9420
 5312.7970    24.8048    24.8578    74.2861   117.9962    39.9474
 5313.2970    24.4401    24.6914    74.6040   118.0183    39.9532
 5313.7970    23.9561    24.3513    74.4537   118.9862    40.7324
 5314.2970    23.7936    23.6700    74.1512   121.2305    41.5104
 5314.7970    23.6346    23.4947    74.0008   121.5072    42.2890
 5315.2970    23.4763    23.5263    73.5411   119.3567    41.5227
 5315.7970    23.4859    24.3836    73.5496   114.2608    38.1975
 5316.2970    23.6626    26.1849    73.5565   107.9818    34.4441
 5316.7970    23.8382    27.1390    73.4077   101.7028    31.4939
 5317.2970    24.0176    27.5355    73.4147    96.4263    31.4988
 5317.7970    24.7194    27.1560    73.4217    96.7595    32.2774
 5318.2970    25.8091    26.0322    73.1190    98.9595    33.0571
 5318.7970    27.1287    24.4293    72.8131   105.2469    34.0910
 5319.2970    28.3208    22.9251    72.8217   104.7804    36.1588
 5319.7970    28.2890    21.3309    72.9841   100.8972    37.9122
 5320.2970    26.7752    19.7182    73.3019   100.6028    40.6814
 5320.7970    24.5978    16.6754    73.6198   106.2292    48.5412
 5321.2970    23.8871    15.3191    73.6267   114.0275    54.8489
 5321.7970    23.2554    15.6536    73.6335   119.9594    55.5069
 5322.2970    21.9797    16.2240    73.6404   125.2693    53.9683
 5322.7970    20.8142    17.1770    73.8028   127.1577    50.4380
 5323.2970    18.9477    18.5772    73.9653   124.6915    45.8481
 5323.7970    17.9084    20.5238    74.4388   119.7370    42.3939
 5324.2970    17.7869    22.0400    74.4471   104.9100    38.2540
 5324.7970    18.0485    22.0469    74.4540    88.9900    33.8095
 5325.2970    19.1110    21.2563    74.7719    86.8348    33.9107
 5325.7970    20.2361    19.4170    74.7787    91.2116    36.1110
 5326.2970    21.4700    17.9646    74.7856    99.3208    39.4383
 5326.7970    27.4815    16.2709    74.4814   104.3196    42.4291
 5327.2970    29.0994    14.4264    74.4882   107.7633    45.3199
 5327.7970    29.7352    13.3474    74.3393   110.2826    49.4361
 5328.2970    29.3266    12.7045    74.1908   111.9135    52.7487
 5328.7970    28.5170    12.4408    74.0422   114.1048    55.0592
 5329.2970    26.6417    12.2692    74.0493   116.2555    56.3676
 5329.7970    25.2915    12.1863    73.9004   117.5219    58.3925
 5330.2970    23.2347    12.1016    73.7517   117.5440    59.6731
 5330.7970    21.1942    11.9269    73.9158   117.5662    61.0219
 5331.2970    20.0296    11.5256    73.7671   116.3442    63.1012
 5331.7970    19.2017    11.2065    73.7740   111.7007    66.1563
 5332.2970    18.2778    10.7428    73.7808   106.9545    73.4042
 5332.7970    17.7662    10.2254    73.7877   100.7137    89.1975
 5333.2970    17.4034     9.4230    73.7945    94.4729   110.3099
 5333.7970    17.1631     8.2331    73.8014    88.7740   131.4223
 5334.2970    16.6636     7.0432    73.6527    87.2410   152.5347
 5334.7970    15.6619     5.8533    73.3374    85.3969   173.6471
 5335.2970    14.1853     5.0375    73.0443    81.9976   189.3582
 5335.7970    13.3542     4.9677    73.0529    77.6754   190.1367
 5336.2970    12.4918     5.0050    73.0597    71.7152   190.9163
 5336.7970    10.9973     4.9011    73.0666    65.7551   192.2640
 5337.2970    10.0848     4.5025    72.2958    59.3820   196.4465
 5337.7970     8.7910     4.2252    71.5251    54.7385   209.7727
 5338.2970     7.4997     3.9933    70.9098    54.1378   227.7039
 5338.7970     6.2084     3.8553    70.2946    53.8497   245.6350
 5339.2970     5.2269     3.9458    69.9904    50.7564   260.5009
 5339.7970     5.0104     4.6388    70.1528    48.5819   170.1649
 5340.2970     5.0481     7.5629    70.0041    48.0063    88.9527
 5340.7970     5.0142     9.8490    69.8383    57.6763    87.0742
 5341.2970     4.8071    10.4338    69.5513    61.7420    89.8999
 5341.7970     4.4354    10.4050    69.7153    63.6304    82.7879
 5342.2970     4.1146    10.8887    70.0332    64.2747    75.7690
 5342.7970     3.9446    11.6931    70.0401    63.3637    66.1209
 5343.2970     4.0420    16.5800    70.0469    57.1442    42.6200
 5343.7970     4.7141    24.4893    70.0538    36.6602    26.3721
 5344.2970     6.3451    32.3986    70.2161    32.0168    21.7650
 5344.7970     8.0269    40.8173    70.3785    33.5941    21.7721
 5345.2970     9.7086    42.9600    70.5409    39.8371    21.7770
 5345.7970    11.5513    42.3176    71.0143    45.1470    21.7828
 5346.2970    11.3123    42.3311    71.3423    53.2562    21.7896
 5346.7970    11.5699    43.6651    71.8059    56.3888    19.9330
 5347.2970    13.0476    49.5177    71.8142    59.2103    15.6165
 5347.7970    16.1212    53.1756    71.8210    58.2994    14.3480
 5348.2970    23.9362    53.5710    71.9834    55.2111    12.0759
 5348.7970    31.7513    56.7177    71.9902    55.2334     9.4530
 5349.2970    39.5664    71.1979    71.9971    51.5328     5.7550
 5349.7970    46.5971    86.2596    72.0039    42.7381     3.0916
 5350.2970    47.9586   177.9255    72.1663    31.6980     0.9698
 5350.7970    45.9034   303.3688    72.1732    22.3551  -999.2500
 5351.2970    44.7015   428.8121    72.4911    21.4386  -999.2500
 5351.7970    44.3987   562.2382    72.6535    23.9546  -999.2500
 5352.2970    46.0262   599.5021    72.9877    28.9534  -999.2500
 5352.7970    49.7803   731.4976    73.2909    33.0191  -999.2500
 5353.2970    54.2298   931.3759    73.4533    32.7001  -999.2500
 5353.7970    59.0769  1030.2177    73.4601    27.1280  -999.2500
 5354.2970    63.0737  1044.0051    73.7780    25.8841  -999.2500
 5354.7970    69.6066   939.9383    74.0959    25.3317  -999.2500
 5355.2970    81.4086   812.0947    74.1028    25.9815  -999.2500
 5355.7970   149.9659   684.2510    74.1096    28.4920  -999.2500
 5356.2970   340.2818   556.4074    74.2720    31.0025  -999.2500
 5356.7970   530.5977   406.9716    73.8121    37.5565  -999.2500
 5357.2970   879.4694   373.8691    73.6636    40.3780  -999.2500
 5357.7970   986.1423   387.4926    73.5149    41.6444  -999.2500
 5358.2970  1121.0466   425.0702    73.5220    41.0389  -999.2500
 5358.7970  1288.4897   529.8193    73.5303    37.6101  -999.2500
 5359.2970  1479.7933   750.3514    73.3800    29.5788  -999.2500
 5359.7970  1589.3250   751.2639    73.3885    21.5171  -999.2500
 5360.2970  1460.0764   729.8088    73.2381    20.2895  -999.2500
 5360.7970  1303.1150   669.8212    73.0895    23.1166  -999.2500
 5361.2970  1164.2682   627.2291    72.6315    23.1388  -999.2500
 5361.7970   998.8802   584.6371    72.6383    23.4719  -999.2500
 5362.2970   833.4923   538.5949    72.6452    24.4272  -999.2500
 5362.7970   668.1043   491.2878    72.6520    25.4077  -999.2500
 5363.2970   493.6800   386.0957    72.5034    28.5852  -999.2500
 5363.7970   463.2981   352.1834    72.5104    31.1978  -999.2500
 5364.2970   480.4584   344.8731    72.6743    34.7858  -999.2500
 5364.7970   557.6291   361.7602    72.8367    34.4914  -999.2500
 5365.2970   620.5509   455.2765    73.7766    31.7829  -999.2500
