~VERSION INFORMATION
 VERS.               2.10:   CWLS LOG ASCII STANDARD - VERSION 2.10
 WRAP.                 NO:   ONE LINE PER DEPTH STEP
~WELL INFORMATION
#MNEM.UNIT      DATA TYPE    INFORMATION
#----------   ------------   ------------------------------
 STRT.F         4999.7969:   START DEPTH
 STOP.F         5666.3267:   STOP DEPTH
 STEP.F            0.5000:   STEP LENGTH
 NULL.          -999.2500:   NO VALUE
 COMP. Fluor Daniel (NPOSR), Inc.:   COMPANY
 WELL.            75-X-10:   WELL
 FLD .           N.P.R. 3:   FIELD
 LOC . 10-38N-78W-NATRONA-WY:   LOCATION
 STAT.                 WY:   STATE
 COUN.            Natrona:   COUNTY
 SRVC.      Western Atlas:   SERVICE COMPANY
 DATE.                   :   LOGDATE
 APIN.         4902522807:   API NUMBER
~CURVE INFORMATION
#MNEM.UNIT       API CODE    CURVE DESCRIPTION
#----------   ------------   ------------------------------
 DEPT.F                  :
 LLD .ohmm   11 220 04 00:   Dual Laterolog, Deep
 LLS .ohmm   11 220 06 00:   Dual Laterolog, shallow
 SP  .mV     06 010 01 00:   Spontaneous Potential
 GR  .GAPI   06 310 01 00:   Gamma Ray
 CDLL.mho/m              :   Conductivity
~PARAMETER INFORMATION
#MNEM.UNIT          VALUE    DESCRIPTION
#----------   ------------   ------------------------------
 EKB .F         5198.0000:   Kelly bushing
 EGL .F         5188.0000:   Ground level
 EDF .F         5197.0000:   Drilling floor
 EPD .F           10.0000:   Permanent datum
 TD  .F        56500.0000:   Total depth
 NRUN.             1.0000:   Number of Runs
#--RUN 1---   ------------   The following are for Run 1---
 RUN .             1.0000:   Run 1
 DATE.mm/dd/yyyy 07/04/1996:   Date Logged
 DD  .ft             5650:   Depth Driller
 DL  .ft             5647:   Depth Logger
 BLI .ft             5627:   Bottom Log Interval
 TLI .ft            surf.:   Top Log Interval
 CSS .inch          9.875:   Casing Size
 CTD1.ft              445:   Casing Driller 1
 CTL1.ft              444:   Casing Logger 1
 BS  .inch           8.75:   Bit Size
 DFT .           gel/chem:   Type Fluid In Hole
 DFD .lb/gal          9.5:   Mud Weight
 DFV .sec              40:   Viscosity
 DFPH.                9.0:   pH
 DFL .gal             7.6:   Fluid Loss
 WSS .              circ.:   Source Of Sample
 RM  .ohmm            .61:   Rm
 EMT .F                84:   Rm Meas. Temp.
 RMF .ohmm            .48:   Rmf
 MFT .F                84:   Rmf Meas. Temp.
 RMC .ohmm            .75:   Rmc
 MCST.F                84:   Rmc Meas. Temp.
 MFSS.              calc.:   Source Rmf.
 MCSS.              calc.:   Source Rmc.
 RMB .ohmm            .29:   Rm. At BHT
 BHT .F               176:   BHT.
 TCS .hh:mm        6 hrs.:   Time Circ. Stopped
 MRT .F               176:   Maximum Recorded Temp.
 LUN .            hl 6530:   Logging Unit Number
 LUL .             Casper:   Logging Unit Location
 ENGI.           Brownlow:   Recorded By
 WITN.             Lebeau:   Witnessed By
 DGBY.              Burke:   Digitized By
~OTHER INFORMATION
# Borehole Volume Computed for 7" Casing
~A  DEPTH      LLD        LLS         SP         GR       CDLL
# ...
 5365.7970   862.0606   630.3360    74.5611    26.1756  -999.2500
 5366.2970   950.8668   805.3955    75.6566    19.9444  -999.2500
 5366.7970   918.0591   907.8526    76.5966    17.7837  -999.2500
 5367.2970   880.1118   881.6523    77.2255    17.8114  -999.2500
 5367.7970   814.0524   857.1805    77.0751    18.1446  -999.2500
 5368.2970   711.7319   839.3882    76.6171    17.8548  -999.2500
 5368.7970   663.2045   863.8909    76.3129    17.8779  -999.2500
 5369.2970   635.0222   927.7075    75.3786    17.5888  -999.2500
 5369.7970   586.4023  1061.9354    74.7714    17.3001  -999.2500
 5370.2970   532.5090  1241.7388    74.4672    17.3229  -999.2500
 5370.7970   478.6158  1709.3882    74.1630    17.3499  -999.2500
 5371.2970   433.8863  -999.2500    74.1716    16.4334  -999.2500
 5371.7970   424.8664  -999.2500    73.7119    13.9728  -999.2500
 5372.2970   487.7195  -999.2500    72.9411    12.1287  -999.2500
 5372.7970   681.3223  -999.2500    72.6369    11.2121  -999.2500
 5373.2970   874.9252  -999.2500    71.2441    10.9233  -999.2500
 5373.7970  1068.5281  -999.2500    68.9181    10.6344  -999.2500
 5374.2970  1226.2759  -999.2500    68.3029    10.6621  -999.2500
 5374.7970  1289.2819  -999.2500    67.2198    10.6842  -999.2500
 5375.2970  1244.7980  -999.2500    65.9553    10.7064  -999.2500
 5375.7970  1227.2035  -999.2500    65.0020    10.1064  -999.2500
 5376.2970  1225.8029  -999.2500    63.9499     9.8174  -999.2500
 5376.7970  1272.9819  -999.2500    62.8673     9.5287  -999.2500
 5377.2970  1341.6971  -999.2500    61.7848    10.6763  -999.2500
 5377.7970  1565.1616  1806.9270    60.7023    16.1104  -999.2500
 5378.2970  -999.2500  1589.6904    59.6197    18.9319  -999.2500
 5378.7970  -999.2500  1372.4539    58.5372    20.1927  -999.2500
 5379.2970  -999.2500  1155.2173    57.4547    18.6652  -999.2500
 5379.7970  -999.2500   937.9807    56.5604    19.9315     2.0847
 5380.2970  -999.2500   720.7441    55.6341    21.8199     2.8628
 5380.7970  -999.2500   503.5076    55.3231    24.0194     3.8908
 5381.2970  -999.2500   286.2710    54.6943    24.0415     5.9662
 5381.7970  -999.2500   135.7302    54.5660    23.4361     5.1986
 5382.2970  -999.2500   131.9731    54.4173    22.8408     5.2044
 5382.7970  -999.2500   129.2337    54.1148    22.8638     5.2110
 5383.2970  -999.2500   128.3500    53.9645    21.0197     5.0745
 5383.7970  -999.2500   127.4823    53.9730    19.1756     6.0382
 5384.2970  -999.2500   124.8361    54.1354    18.5757     6.7742
 5384.7970  -999.2500   117.1587    54.2978    18.6034     6.7789
 5385.2970  -999.2500   111.5163    54.3046    18.6255     6.7847
 5385.7970  -999.2500   109.2016    54.0003    18.9587     6.7905
 5386.2970  -999.2500   110.9157    54.0073    18.6698     6.5623
 5386.7970  1906.7845   116.4847    53.6896    18.0644     6.0293
 5387.2970  1695.6080   123.3269    53.3989    18.4031     5.2623
 5387.7970  1484.4316   131.5007    53.4074    19.9805     4.4945
 5388.2970  1273.2551   137.2631    53.4143    20.9357     3.7287
 5388.7970  1062.0787   140.2601    53.5767    21.5800     3.3103
 5389.2970   850.9022   138.3160    53.7390    21.6021     2.8140
 5389.7970   639.7257   128.8918    54.2124    20.6907     2.2001
 5390.2970   428.5493   122.6843    54.3748    20.0911     2.2059
 5390.7970   202.9475   117.6074    54.3817    19.4913     2.9845
 5391.2970   187.7719   114.3519    54.3885    18.8914     3.7638
 5391.7970   188.0034   115.7906    54.8619    18.9191     3.7689
 5392.2970   189.2407   130.0225    55.0244    19.2523     3.7747
 5392.7970   187.9757   140.6217    55.0314    20.2075     3.0086
 5393.2970   188.0350   151.0096    54.8825    21.7849     1.9382
 5393.7970   186.7745   165.6538    55.0466    23.6733     0.6709
 5394.2970   174.0397   176.6331    55.0534    24.9396    -0.8378
 5394.7970   166.8295   184.3731    55.2158    25.8949    -0.8331
 5395.2970   166.8953   191.0915    56.0002    26.5391  -999.2500
 5395.7970   170.5562   196.6543    56.6292    25.9392  -999.2500
 5396.2970   178.0505   202.4028    57.2581    24.7172  -999.2500
 5396.7970   183.3111   208.4335    57.5760    22.5621  -999.2500
 5397.2970   201.0350   209.8191    58.3605    20.7180  -999.2500
 5397.7970   222.1363   205.4800    59.1461    20.4291  -999.2500
 5398.2970   233.8551   196.9767    59.6195    20.7623  -999.2500
 5398.7970   245.5252   186.6222    60.0929    18.6127  -999.2500
 5399.2970   249.1108   173.1764    60.0997    18.0127     0.7652
 5399.7970   238.8139   159.7306    60.1066    17.4073     3.0840
 5400.2970   215.9347   146.2847    59.6313    16.8084     5.6393
 5400.7970   207.0269   132.8389    58.8767    17.4609     6.9651
 5401.2970   202.6165   119.3931    58.8862    19.3515     7.7430
 5401.7970   201.3943   105.9473    58.7364    22.1752     7.7488
 5402.2970   207.3003    92.5014    58.4329    22.5105     6.9827
 5402.7970   219.5234    85.5085    58.1314    22.8459     6.6846
 5403.2970   236.6150    84.3299    57.8279    23.4923     6.1894
 5403.7970   266.1428    85.0085    57.5245    23.8282     5.4536
 5404.2970   300.4360    88.1665    57.5320    23.8530     5.4594
 5404.7970   325.0010    93.8960    57.5396    23.5652     5.4652
 5405.2970   339.6682    97.3175    57.5474    22.3515     5.9638
 5405.7970   356.7321   101.5819    57.3993    22.0647     6.2486
 5406.2970   377.7661   106.0332    57.4088    22.4001     3.9372
 5406.7970   397.2097   109.8970    57.4164    23.9796     2.5280
 5407.2970   415.8550   110.7141    57.5795    25.8702     4.1300
 5407.7970   435.9907   108.4160    57.5871    25.9457     4.7276
 5408.2970   458.4311   105.4150    57.7502    25.9183     3.5489
 5408.7970   468.5269   101.7723    58.2243    26.8814     1.5069
 5409.2970   450.8333   104.9887    57.9209    27.9017     0.1084
 5409.7970   409.3760   123.3500    57.1509    29.1083  -999.2500
 5410.2970   375.0070   139.2077    56.8474    28.5105  -999.2500
 5410.7970   340.6379   157.1039    56.6995    24.8023  -999.2500
 5411.2970   306.2690   163.9881    56.7090    22.9604  -999.2500
 5411.7970   271.8999   165.2074    56.4055    21.4295  -999.2500
 5412.2970   237.5309   173.6748    55.7910    20.8256  -999.2500
 5412.7970   203.1619   190.5171    55.6412    21.7891  -999.2500
 5413.2970   175.3034   196.0632    54.5620    23.6797  -999.2500
 5413.7970   164.5291   196.1244    53.9475    24.3261  -999.2500
 5414.2970   161.1190   186.5634    52.8665    24.3507  -999.2500
 5414.7970   168.2332   173.6055    51.9409    24.7290  -999.2500
 5415.2970   173.2072   162.0940    51.4740    25.6493  -999.2500
 5415.7970   182.0543   153.1966    51.1785    25.6736    -1.3623
 5416.2970   190.0701   144.7876    51.1880    21.0323    -0.9036
 5416.7970   201.2772   133.0108    51.3511    17.0131     0.1947
 5417.2970   213.4088   128.4145    51.5142    13.9270     0.2009
 5417.7970   228.9139   124.8599    51.6773    13.6342     0.9791
 5418.2970   235.6224   122.2682    51.8405    13.9756     1.8994
 5418.7970   235.7356   119.7303    52.0036    13.9999     2.5369
 5419.2970   235.8205   119.7677    52.1667    13.4020     3.3149
 5419.7970   234.2603   122.3765    52.4853    13.7379     3.3207
 5420.2970   232.6903   126.8578    53.2756    13.4009     3.3272
 5420.7970   249.9650   134.4568    53.9210    12.8530     3.0012
 5421.2970   291.7417   142.7388    54.8428    13.5055     1.7327
 5421.7970   351.7856   156.0881    55.3169    14.1519     0.2536
 5422.2970   385.9927   165.2851    55.0135    14.7983    -0.8048
 5422.7970   408.7521   166.5429    55.0211    16.0668  -999.2500
 5423.2970   427.8039   164.2558    54.8712    15.4690  -999.2500
 5423.7970   451.8574   162.0198    54.8807    14.8702  -999.2500
 5424.2970   468.4143   163.2725    55.0438    13.9619  -999.2500
 5424.7970   503.1284   166.8663    55.3625    14.9212  -999.2500
 5425.2970   521.5151   174.2084    55.5256    16.5599  -999.2500
 5425.7970   518.0584   183.2433    55.5334    18.7071  -999.2500
 5426.2970   507.3835   191.4010    55.6982    19.9756  -999.2500
