~Version Information Block
 VERS.                1.20:     CWLS LOG ASCII STANDARD - VERSION 1.20
 WRAP.                  NO:     One Line Per Depth Step
     
~Well Information Block
#MNEM.UNIT       Data Type     Information
#컴컴컴컴컴    컴컴컴컴컴컴�   컴컴컴컴컴컴컴컴컴컴컴컴컴컴컴컴컴컴컴컴컴컴�
 STRT.FT            0.0000:
 STOP.FT         5650.0000:
 STEP.FT            0.5000:
 NULL.          -9999.0000:
 COMP.             COMPANY:    FLUOR DANIEL (NPOSR)INC.
 WELL.                WELL:    75-X-10                 
 FLD .               FIELD:    N.P.R. # 3              
 LOC .            LOCATION:    SEC 10 T38N R78W                        
 CNTY.              COUNTY:    NATRONA                       
 STAT.               STATE:    WYOMING   
 SRVC.     SERVICE COMPANY:    WESTERN ATLAS                        
 DATE.                DATE:    07/04/1996
 UWI .      UNIQUE WELL ID:          10.0
 API .          API NUMBER:    4902522807                
     
~Curve Information Block
#MNEM.UNIT       API CODE      Curve Description
#컴컴컴컴컴    컴컴컴컴컴컴�   컴컴컴컴컴컴컴컴컴컴컴컴컴컴컴컴컴컴컴컴컴컴�
 DEPTH.F        95 995 99 1:   Depth                                                        
 GR  .API       31 310 01 1:   Gamma Ray Counts                                             
 CAL .IN        28 280 99 1:   Caliper                                                      
 RD  .OHMM      22 220 10 1:   Logarithmic Resistivity from ED, ID                          
 RS  .OHMM      22 220 09 1:   Logarithmic Resistivity from ES, IS                          
 CNC .%         95 995 99 1:   Corrected Neutron Porosity from CN                           
 PORZ.%         95 890 99 1:   Porosity from Z-Densilog                                     
 ZDEN.G/C3      95 350 01 1:   Z-Densilog Bulk Density                                      
 PE  .BARN      95 358 01 1:   Photo Electric Cross Section                                 
 ZCOR.G/C3      39 356 99 1:   Z-Densilog Bulk Density Correction                           
 SP  .MV        95 010 01 1:   Spontaneous Potential from Tool Electrode                    
 CDLL.MMHO      95 995 99 1:   Conductivity from RD                                         
     
~Parameter Information Block
#MNEM.UNIT         Value       Description
#컴컴컴컴컴    컴컴컴컴컴컴�   컴컴컴컴컴컴컴컴컴컴컴컴컴컴컴컴컴컴컴컴컴컴�
 EKB .FT            0.0000:    ELEVATION KELLY BUSHING
 EGL .FT            0.0000:    ELEVATION GROUND LEVEL
 RUN .              1.0000:    RUN NUMBER
 SON .               00000:    SERVICE ORDER NUMBER
 DD  .FT            0.0000:    DEPTH-DRILLER
 DL  .FT            0.0000:    DEPTH-LOGGER
 BLI .FT            0.0000:    BOTTOM LOGGED INTERVAL
 TLI .FT            0.0000:    TOP LOGGED INTERVAL
 CS  .  IN          0.0000:    CASING SIZE 
 CDD .FT            0.0000:    CASING DEPTH-DRILLER
 CDL .FT            0.0000:    CASING DEPTH-LOGGER
 BS  .IN            0.0000:    BIT SIZE
 DFT .               LIGNO:    MUD TYPE   
 DFD .LB/G          0.0000:    MUD WEIGHT
 DFV .S             0.0000:    MUD VISCOSITY
 DFPH.              0.0000:    MUD PH
 DFL .CC            0.0000:    MUD FLUID LOSS
 RMS .           FLOW LINE:    MUD SAMPLE SOURCE
 RM  .OHMM          0.0000:    MUD RESISTIVITY          
 RMT .DEGF          0.0000:    RM TEMPERATURE
 RMBH.OHMM          0.0000:    MUD RESISTIVITY AT BHT
 BHT .DEGF          0.0000:    BOTTOM HOLE TEMPERATURE
 RMFS.            MEASURED:    MUD FILTRATE SOURCE
 RMF .OHMM          0.0000:    MUD FILTRATE RESISTIVITY
 RMFT.DEGF          0.0000:    RMF TEMPERATURE
 RMCS.            MEASURED:    MUD CAKE SOURCE
 RMC .OHMM          0.0000:    MUD CAKE RESISTIVITY
 RMCT.DEGF          0.0000:    RMC TEMPERATURE
     
#      Computation Parameters Used
#MNEM.UNIT         Value       Description
#컴컴컴컴컴    컴컴컴컴컴컴�   컴컴컴컴컴컴컴컴컴컴컴컴컴컴컴컴컴컴컴컴컴컴�
 MDEN.G/CC          2.6500:    LOGGING MATRIX DENSITY
 MATR.              1.0000:    NEUTRON MATRIX (0=LIME,1=SAND,2=DOLO)
 FNUM.              0.6200:    TORTUOSITY CONSTANT ARCHIES (a)
 FEXP.              2.1500:    CEMENTATION EXPONENT ARCHIES (m)
     
~Other Information
     
#컴컴컴컴컴컴컴컴컴컴컴컴컴컴컴컴컴컴컴컴컴컴컴컴컴컴컴컴컴컴컴컴컴컴컴컴컴컴컴�
# In Making Interpretations Of Logs Our Employees Will Give Customer The Benefit
# Of Their Best Judgement,  But  Since All Interpretations Are Opinions Based On
# Inferences From Electrical Or  Other  Measurements,  We Cannot,  And We Do Not
# Guarantee The Accuracy Or  Correctness Of Any Interpretation.  We Shall Not Be
# Liable Or  Responsible For Any Loss,  Cost,  Damages, Or  Expenses  Whatsoever
# Incurred Or  Sustained By The Customer  Resulting  From Any Interpretaion Made
# By Any Of Our Employees.  ATLAS WIRELINE SERVICES-WESTERN ATLAS INTERNATIONAL
#컴컴컴컴컴컴컴컴컴컴컴컴컴컴컴컴컴컴컴컴컴컴컴컴컴컴컴컴컴컴컴컴컴컴컴컴컴컴컴�
     
~A  DEPTH      GR        CAL       RD        RS        CNC       PORZ      ZDEN      PE        ZCOR      SP        CDLL      
# ...
  3234.000   126.022     9.216     4.936     4.819    37.099    10.084     2.484     2.872     0.069   150.842   202.581 
  3234.500   129.001     9.206     4.708     4.603    36.823    11.007     2.468     2.846     0.113   150.884   212.391 
  3235.000   129.835     9.202     4.541     4.431    35.794    10.784     2.472     2.831     0.123   150.913   220.198 
  3235.500   130.053     9.186     4.391     4.282    35.192    10.050     2.484     2.825     0.088   150.925   227.759 
  3236.000   129.285     9.171     4.218     4.125    35.321     9.512     2.493     2.823     0.065   150.996   237.077 
  3236.500   127.660     9.177     4.090     4.003    35.465     9.164     2.499     2.826     0.071   151.205   244.470 
  3237.000   125.818     9.195     4.094     3.986    34.870     9.017     2.501     2.831     0.066   151.480   244.278 
  3237.500   123.869     9.205     4.255     4.100    34.321     9.480     2.494     2.833     0.049   151.713   235.007 
  3238.000   123.316     9.205     4.540     4.327    34.614    10.333     2.479     2.848     0.061   151.987   220.269 
  3238.500   125.029     9.205     4.835     4.571    35.086    10.550     2.476     2.893     0.090   152.308   206.819 
  3239.000   129.388     9.205     5.024     4.716    35.203     9.686     2.490     2.932     0.091   152.519   199.037 
  3239.500   134.430     9.205     5.120     4.762    34.928     8.485     2.510     2.968     0.060   152.562   195.301 
  3240.000   136.291     9.205     5.190     4.785    34.084     7.854     2.520     2.997     0.035   152.506   192.670 
  3240.500   133.807     9.205     5.257     4.817    34.691     7.824     2.521     3.001     0.030   152.355   190.218 
  3241.000   130.354     9.205     5.332     4.857    35.101     7.973     2.518     2.989     0.034   152.111   187.549 
  3241.500   128.252     9.205     5.402     4.889    31.731     8.461     2.510     2.999     0.034   151.894   185.119 
  3242.000   128.590     9.205     5.419     4.878    27.698     9.497     2.493     2.964     0.043   151.811   184.545 
  3242.500   130.007     9.206     5.375     4.821    25.942    10.593     2.475     2.936     0.072   151.758   186.054 
  3243.000   130.082     9.212     5.328     4.764    26.618    10.855     2.471     2.963     0.090   151.568   187.686 
  3243.500   129.667     9.222     5.329     4.742    28.034    10.017     2.485     2.963     0.072   151.273   187.668 
  3244.000   130.721     9.222     5.364     4.750    28.552     8.943     2.502     2.962     0.040   151.075   186.431 
  3244.500   131.376     9.223     5.358     4.742    28.217     8.603     2.508     2.967     0.027   151.037   186.645 
  3245.000   130.047     9.241     5.241     4.670    28.468     8.788     2.505     2.965     0.030   151.069   190.805 
  3245.500   129.366     9.256     5.036     4.545    29.617     8.881     2.503     2.947     0.037   151.081   198.570 
  3246.000   129.121     9.241     4.833     4.426    30.892     9.158     2.499     2.924     0.035   151.025   206.926 
  3246.500   128.548     9.216     4.704     4.359    31.758     9.893     2.487     2.908     0.033   150.976   212.605 
  3247.000   130.119     9.206     4.694     4.372    32.301    10.281     2.480     2.900     0.056   151.000   213.026 
  3247.500   132.168     9.205     4.819     4.482    32.210     9.643     2.491     2.894     0.083   151.041   207.513 
  3248.000   130.195     9.205     5.043     4.681    31.276     8.318     2.513     2.890     0.076   151.087   198.305 
  3248.500   127.084     9.204     5.207     4.859    30.271     7.812     2.521     2.889     0.052   151.224   192.044 
  3249.000   126.991     9.175     4.781     4.563    29.924    10.976     2.469     2.893     0.061   151.384   209.175 
  3249.500   129.577     9.128     3.512     3.454    31.330    18.038     2.352     2.880     0.111   151.481   284.740 
  3250.000   138.236     9.188     2.332     2.334    35.330    24.422     2.247     2.860     0.168   151.580   428.849 
  3250.500   157.411     9.378     1.728     1.746    40.726    25.676     2.226     2.871     0.193   151.655   578.761 
  3251.000   179.734     9.542     1.556     1.559    43.201    21.559     2.294     2.860     0.170   151.682   642.620 
  3251.500   188.233     9.587     1.708     1.654    39.941    15.463     2.395     2.844     0.108   151.738   585.533 
  3252.000   174.296     9.588     2.236     2.078    34.011    11.283     2.464     2.867     0.045   151.827   447.263 
  3252.500   147.911     9.588     3.200     2.919    30.258     9.475     2.494     2.875     0.023   151.818   312.501 
  3253.000   126.623     9.592     4.139     3.828    29.825     9.147     2.499     2.881     0.038   151.748   241.580 
  3253.500   117.127     9.610     4.411     4.153    30.771     9.525     2.493     2.910     0.060   151.689   226.725 
  3254.000   116.921     9.638     4.339     4.102    31.140     9.465     2.494     2.911     0.070   151.583   230.469 
  3254.500   121.859     9.657     4.324     4.076    30.892     8.765     2.505     2.894     0.064   151.401   231.243 
  3255.000   126.526     9.666     4.419     4.147    30.817     8.188     2.515     2.902     0.052   151.224   226.307 
  3255.500   127.375     9.670     4.596     4.285    30.875     8.094     2.516     2.887     0.041   151.148   217.580 
  3256.000   128.492     9.664     4.813     4.439    30.715     8.123     2.516     2.864     0.034   151.163   207.752 
  3256.500   132.052     9.655     5.007     4.566    30.237     8.110     2.516     2.868     0.034   151.248   199.724 
  3257.000   134.818     9.659     5.118     4.643    29.761     8.134     2.516     2.903     0.040   151.389   195.383 
  3257.500   135.444     9.671     5.151     4.667    29.731     8.247     2.514     2.891     0.048   151.488   194.142 
  3258.000   135.355     9.684     5.147     4.660    29.956     8.570     2.509     2.895     0.054   151.495   194.280 
  3258.500   134.054     9.706     5.113     4.633    30.104     9.099     2.500     2.816     0.053   151.559   195.574 
  3259.000   132.529     9.741     5.046     4.585    30.342     9.517     2.493     2.776     0.047   151.734   198.170 
  3259.500   133.200     9.769     4.955     4.516    30.980     9.663     2.491     2.770     0.042   151.809   201.823 
  3260.000   135.877     9.779     4.852     4.434    31.762     9.807     2.488     2.746     0.040   151.733   206.105 
  3260.500   136.917     9.780     4.776     4.368    32.183    10.181     2.482     2.741     0.037   151.661   209.379 
  3261.000   135.675     9.789     4.747     4.340    32.209    10.474     2.477     2.704     0.041   151.639   210.640 
  3261.500   135.312     9.811     4.750     4.348    31.924    10.386     2.479     2.894     0.058   151.662   210.506 
  3262.000   136.673     9.836     4.790     4.392    31.446    10.142     2.483     3.088     0.071   151.779   208.759 
  3262.500   136.807     9.855     4.871     4.478    30.882     9.965     2.486     3.003     0.065   151.947   205.295 
  3263.000   134.173     9.865     4.965     4.586    30.380     9.827     2.488     2.938     0.051   151.983   201.423 
  3263.500   132.554     9.855     5.059     4.683    30.127     9.672     2.490     2.904     0.053   151.834   197.657 
  3264.000   134.293     9.841     5.153     4.760    30.081     9.359     2.496     2.880     0.067   151.624   194.068 
  3264.500   136.798     9.847     5.225     4.820    29.948     8.810     2.505     2.874     0.073   151.548   191.396 
  3265.000   136.444     9.865     5.278     4.871    29.687     8.386     2.512     2.878     0.061   151.614   189.469 
  3265.500   134.485     9.875     5.321     4.913    29.527     8.290     2.513     2.879     0.044   151.628   187.946 
  3266.000   134.419     9.875     5.331     4.931    29.594     8.437     2.511     2.876     0.038   151.534   187.566 
  3266.500   135.903     9.875     5.295     4.908    29.994     8.724     2.506     2.873     0.034   151.446   188.869 
