~VERSION INFORMATION
 VERS.               2.10:   CWLS LOG ASCII STANDARD - VERSION 2.10
 WRAP.                 NO:   ONE LINE PER DEPTH STEP
~WELL INFORMATION
#MNEM.UNIT      DATA TYPE    INFORMATION
#----------   ------------   ------------------------------
 STRT.F         5259.7544:   START DEPTH
 STOP.F         5507.2764:   STOP DEPTH
 STEP.F            0.5000:   STEP LENGTH
 NULL.          -999.2500:   NO VALUE
 COMP. Fluor Daniel (NPOSR), Inc.:   COMPANY
 WELL.            75-X-10:   WELL
 FLD .           N.P.R. 3:   FIELD
 LOC . 10-38N-78W-NATRONA-WY:   LOCATION
 STAT.                 WY:   STATE
 COUN.            Natrona:   COUNTY
 SRVC.      Western Atlas:   SERVICE COMPANY
 DATE.                   :   LOGDATE
 APIN.         4902522807:   API NUMBER
~CURVE INFORMATION
#MNEM.UNIT       API CODE    CURVE DESCRIPTION
#----------   ------------   ------------------------------
 DEPT.F                  :
 R4SL.OHM-M              :   
 D4EC.DIM                :   
 P4HS.DEQ                :   
 R4AT.DIM                :   
 GR  .GAPI   09 310 00 00:   Gamma Ray
~PARAMETER INFORMATION
#MNEM.UNIT          VALUE    DESCRIPTION
#----------   ------------   ------------------------------
 EKB .F         5198.0000:   Kelly bushing
 EGL .F         5188.0000:   Ground level
 EDF .F         5197.0000:   Drilling floor
 EPD .F           10.0000:   Permanent datum
 TD  .F         5650.0000:   Total depth
 NRUN.             1.0000:   Number of Runs
#--RUN 1---   ------------   The following are for Run 1---
 RUN .             1.0000:   Run 1
 DATE.mm/dd/yyyy 07/04/1996:   Date Logged
 DD  .ft             5650:   Depth Driller
 DL  .ft             5647:   Depth Logger
 BLI .ft             5627:   Bottom Log Interval
 TLI .ft             2400:   Top Log Interval
 CSS .inch          9.875:   Casing Size
 CTD1.ft              445:   Casing Driller 1
 CTL1.ft              444:   Casing Logger 1
 BS  .inch           8.75:   Bit Size
 DFT .           gel/chem:   Type Fluid In Hole
 DFD .lb/gal          9.5:   Mud Weight
 DFV .sec              40:   Viscosity
 DFPH.                9.0:   pH
 DFL .gal             7.6:   Fluid Loss
 WSS .              circ.:   Source Of Sample
 RM  .ohmm            .61:   Rm
 EMT .F                84:   Rm Meas. Temp.
 RMF .ohmm            .48:   Rmf
 MFT .F                84:   Rmf Meas. Temp.
 RMC .ohmm            .75:   Rmc
 MCST.F                84:   Rmc Meas. Temp.
 MFSS.              calc.:   Source Rmf.
 MCSS.              calc.:   Source Rmc.
 RMB .ohmm            .29:   Rm. At BHT
 BHT .F               176:   BHT.
 TCS .hh:mm       13 hrs.:   Time Circ. Stopped
 MRT .F               176:   Maximum Recorded Temp.
 LUN .            hl 6530:   Logging Unit Number
 LUL .             Casper:   Logging Unit Location
 ENGI.           Brownlow:   Recorded By
 WITN.             Lebeau:   Witnessed By
 DGBY.              Burke:   Digitized By
~A  DEPTH     R4SL       D4EC       P4HS       R4AT         GR
# ...
 5320.7540    74.7245    10.7268    54.2281     0.3037    89.5351
 5321.2540    69.4682     9.9864    55.8887     0.2792    92.6553
 5321.7540    62.7552     8.7835    58.4804     0.2542    99.5080
 5322.2540    54.4403     8.9353    63.6565     0.2339   106.0497
 5322.7540    51.9908    11.5737    68.1024     0.2275   108.8588
 5323.2540    50.4654    15.6999    71.4337     0.2290   108.5575
 5323.7540    48.9401    19.5378    74.4315     0.2335   107.6216
 5324.2540    47.4147    20.3868    75.6784     0.2334    97.6508
 5324.7540    45.2285    19.4543    76.4090     0.2298    85.8832
 5325.2540    42.8274    17.1274    77.1397     0.2192    80.9163
 5325.7540    40.9940    16.5742    78.0562     0.2098    78.1267
 5326.2540    39.7767    15.2615    78.2327     0.2066    78.1365
 5326.7540    39.7915    14.5613    77.6600     0.1971    79.0794
 5327.2540    40.1145    14.9456    77.4618     0.1939    82.8218
 5327.7540    49.0628    19.9381    77.8520     0.2341    92.2947
 5328.2540    74.3559    40.6916    79.6632     0.3736    97.7736
 5328.7540   122.1239  -999.2500    85.7821     0.5131   100.2717
 5329.2540   134.0788  -999.2500    99.0879     0.6274   102.1477
 5329.7540    32.1696   -51.0656   111.2051     0.6352   103.4017
 5330.2540  -999.2500   -49.9842   112.0152     0.6427   103.7225
 5330.7540  -999.2500   -63.6093   100.6856     0.6426   103.7323
 5331.2540  -999.2500   -89.7449    88.9062     0.6425   102.4616
 5331.7540  -999.2500  -999.2500    77.1269     0.6424   100.0217
 5332.2540   181.0481    36.4482    68.2301     0.5661    96.6092
 5332.7540   124.9574    32.1841    69.8895     0.4363    90.3981
 5333.2540    61.2810    27.2236    86.4438     0.2920    88.8489
 5333.7540    10.4332    26.8154   105.0513     0.1412    86.5420
 5334.2540     3.9791    33.6984   112.7627     0.1162    81.0986
 5334.7540    16.3197    40.5813   111.5663     0.1259    78.6201
 5335.2540    29.8887    45.7239   104.4738     0.1704    76.7636
 5335.7540    38.2209    37.5483    86.1599     0.2169    73.3519
 5336.2540    41.6243    20.6205    79.2108     0.2184    67.4518
 5336.7540    38.8668    23.1736    80.3749     0.2167    61.8629
 5337.2540    35.8012    32.4168    86.3068     0.2182    52.6871
 5337.7540    35.9008    44.1169    94.4678     0.2181    45.3996
 5338.2540    51.2371  -999.2500    96.6846     0.2444    44.4763
 5338.7540    57.4161   -94.6517    95.7434     0.2768    46.3523
 5339.2540    68.8156  -999.2500    93.3163     0.3093    47.2952
 5339.7540    80.2151    32.3842    74.8119     0.3418    46.6828
 5340.2540    89.8040    16.7998    58.0307     0.3730    42.0270
 5340.7540    90.4313    17.9586    52.7828     0.3854    41.3797
 5341.2540    87.0613    17.9555    54.2565     0.3728    46.0925
 5341.7540    81.8394    16.7833    54.4269     0.3463    51.3900
 5342.2540    76.6124    17.7547    55.5291     0.3322    55.1323
 5342.7540    74.4305    23.8880    59.4177     0.3336    57.0083
 5343.2540    75.7267    27.7022    65.1638     0.3475    57.9487
 5343.7540    79.7462    25.2979    66.3385     0.3752    52.3622
 5344.2540    87.7704    22.1964    59.6842     0.4024    40.6119
 5344.7540   105.0361    18.6310    51.1918     0.4296    28.4323
 5345.2540   112.1361    19.7898    50.6222     0.4568    27.5089
 5345.7540   124.4729    18.5467    49.3095     0.4900    35.9193
 5346.2540   142.9344    15.5917    44.2700     0.5303    42.7720
 5346.7540   161.5997    11.3336    37.4114     0.5567    47.1363
 5347.2540   177.6180     7.9248    30.3251     0.5535    50.2565
 5347.7540   179.0585     8.3865    29.0117     0.5471    51.8215
 5348.2540   173.2728     8.5391    30.3512     0.5439    51.5202
 5348.7540   163.5717     7.9931    30.8454     0.5374    47.1691
 5349.2540   153.8707     7.6802    31.0188     0.5134    46.5631
 5349.7540   143.6960     7.8452    31.0033     0.4891    46.5753
 5350.2540   142.7865     9.2669    32.2913     0.4828    42.2305
 5350.7540   142.8019    11.4414    36.9229     0.4890    32.3639
 5351.2540   144.3604    13.3220    39.1397     0.5091    17.0556
 5351.7540   148.9960    13.7062    40.0561     0.5276    15.4670
 5352.2540   159.1765    13.6257    39.6692     0.5384    18.6304
 5352.7540   163.1961    13.7776    40.0314     0.5509    25.0808
 5353.2540   163.8233    14.1618    40.3875     0.5553    30.1609
 5353.7540   159.8373    14.1580    40.1894     0.5458    32.9700
 5354.2540   161.8130    13.1480    39.2483     0.5504    30.1804
 5354.7540   171.5766    10.1240    35.3350     0.5627    23.9693
 5355.2540   189.1503     9.4238    32.1525     0.5673    19.6245
 5355.7540   187.9330     9.7681    31.9666     0.5703    19.6343
 5356.2540   180.2466    10.6563    32.8800     0.5686    21.2726
 5356.7540   168.8637    11.7376    34.7263     0.5570    24.3219
 5357.2540   164.8739    12.8965    37.1288     0.5497    27.7531
 5357.7540   165.8531    13.1266    38.2310     0.5574    32.1175
 5358.2540   164.9074    12.6580    38.0298     0.5542    34.3045
 5358.7540   162.1498    11.8718    36.9029     0.5494    35.5585
 5359.2540   159.7003    11.1019    35.9618     0.5462    31.8357
 5359.7540   155.7105    11.5636    35.7667     0.5399    24.8460
 5360.2540   156.0334    11.9478    37.0516     0.5320    19.1050
 5360.7540   158.2047    13.2616    37.9681     0.5438    18.1792
 5361.2540   168.0489    12.9487    38.1415     0.5660    18.1914
 5361.7540   189.9672    10.3120    32.7390     0.5783    18.5122
 5362.2540   195.8351     8.9024    30.4976     0.5798    19.4551
 5362.7540   190.6131     8.7567    30.3026     0.5688    20.0869
 5363.2540   186.9314     9.1402    31.0333     0.5640    22.3221
 5363.7540   184.4818     9.2154    31.2067     0.5639    25.7077
 5364.2540   189.4255     9.3665    31.1912     0.5656    28.2058
 5364.7540   197.8545     9.5958    31.1789     0.5901    31.9480
 5365.2540  -370.4856     9.5927    31.1661     0.5977    30.7136
 5365.7540  -369.3231     9.2741    31.3400     0.5992    25.1247
 5366.2540  -375.4737     8.7338    30.3957     0.5991    17.9805
 5366.7540  -387.4719     8.4209    29.2688     0.5943    14.5688
 5367.2540  -394.8503     8.4178    29.2565     0.5911    14.5810
 5367.7540   191.6872     8.5705    29.4304     0.5708    14.5907
 5368.2540   175.0325     8.4892    30.3464     0.5546    14.6005
 5368.7540   169.5406     8.5636    29.5906     0.5410    14.6103
 5369.2540   177.8734     9.5950    31.2474     0.5533    14.6200
 5369.7540   185.6299    10.4157    33.0926     0.5750    15.5629
 5370.2540   184.0678    10.2578    33.4549     0.5733    14.9506
 5370.7540   173.9171     9.2477    31.7676     0.5686    14.9628
 5371.2540   169.6192     8.7799    31.0122     0.5467    13.1063
 5371.7540   168.4019     8.7769    30.9999     0.5450    10.6278
 5372.2540   167.1846     8.7738    30.9873     0.5400     8.7713
 5372.7540   164.4270     7.7383    30.0433     0.5308     7.2258
 5373.2540   157.5087     7.0628    28.5449     0.5182     6.3022
 5373.7540   153.0129     6.7499    28.1610     0.5010     7.8738
 5374.2540   148.5171     6.5919    28.3344     0.4854     7.8776
 5374.7540   144.0213     6.5889    30.3654     0.4791     7.2673
 5375.2540   139.5296     7.4379    32.3964     0.4727     6.9636
 5375.7540   137.0518     8.4418    34.4341     0.4711     6.9758
 5376.2540   136.5011     9.6394    35.3749     0.4725     7.2966
 5376.7540   141.4485    10.5271    35.7031     0.4755     6.9950
 5377.2540   147.0083    10.3683    34.5731     0.5065    10.1156
 5377.7540   152.2600    10.0554    33.2604     0.5219    13.6350
 5378.2540   158.7439     9.8975    32.6908     0.5343    16.0473
 5378.7540   165.5559     9.9719    32.6784     0.5451    16.3681
 5379.2540   168.6312    10.5110    33.2234     0.5512    16.6890
 5379.7540   162.1808    11.1614    34.9078     0.5511    16.3852
 5380.2540   160.0393    12.0533    36.5392     0.5478    16.3974
 5380.7540   160.0542    12.6700    37.4557     0.5431    16.4072
 5381.2540   161.9174    13.4415    38.9294     0.5507    16.7283
