~Version Information Block
 VERS.                1.20:     CWLS LOG ASCII STANDARD - VERSION 1.20
 WRAP.                  NO:     One Line Per Depth Step
     
~Well Information Block
#MNEM.UNIT       Data Type     Information
#컴컴컴컴컴    컴컴컴컴컴컴�   컴컴컴컴컴컴컴컴컴컴컴컴컴컴컴컴컴컴컴컴컴컴�
 STRT.FT            0.0000:
 STOP.FT         5650.0000:
 STEP.FT            0.5000:
 NULL.          -9999.0000:
 COMP.             COMPANY:    FLUOR DANIEL (NPOSR)INC.
 WELL.                WELL:    75-X-10                 
 FLD .               FIELD:    N.P.R. # 3              
 LOC .            LOCATION:    SEC 10 T38N R78W                        
 CNTY.              COUNTY:    NATRONA                       
 STAT.               STATE:    WYOMING   
 SRVC.     SERVICE COMPANY:    WESTERN ATLAS                        
 DATE.                DATE:    07/04/1996
 UWI .      UNIQUE WELL ID:          10.0
 API .          API NUMBER:    4902522807                
     
~Curve Information Block
#MNEM.UNIT       API CODE      Curve Description
#컴컴컴컴컴    컴컴컴컴컴컴�   컴컴컴컴컴컴컴컴컴컴컴컴컴컴컴컴컴컴컴컴컴컴�
 DEPTH.F        95 995 99 1:   Depth                                                        
 GR  .API       31 310 01 1:   Gamma Ray Counts                                             
 CAL .IN        28 280 99 1:   Caliper                                                      
 RD  .OHMM      22 220 10 1:   Logarithmic Resistivity from ED, ID                          
 RS  .OHMM      22 220 09 1:   Logarithmic Resistivity from ES, IS                          
 CNC .%         95 995 99 1:   Corrected Neutron Porosity from CN                           
 PORZ.%         95 890 99 1:   Porosity from Z-Densilog                                     
 ZDEN.G/C3      95 350 01 1:   Z-Densilog Bulk Density                                      
 PE  .BARN      95 358 01 1:   Photo Electric Cross Section                                 
 ZCOR.G/C3      39 356 99 1:   Z-Densilog Bulk Density Correction                           
 SP  .MV        95 010 01 1:   Spontaneous Potential from Tool Electrode                    
 CDLL.MMHO      95 995 99 1:   Conductivity from RD                                         
     
~Parameter Information Block
#MNEM.UNIT         Value       Description
#컴컴컴컴컴    컴컴컴컴컴컴�   컴컴컴컴컴컴컴컴컴컴컴컴컴컴컴컴컴컴컴컴컴컴�
 EKB .FT            0.0000:    ELEVATION KELLY BUSHING
 EGL .FT            0.0000:    ELEVATION GROUND LEVEL
 RUN .              1.0000:    RUN NUMBER
 SON .               00000:    SERVICE ORDER NUMBER
 DD  .FT            0.0000:    DEPTH-DRILLER
 DL  .FT            0.0000:    DEPTH-LOGGER
 BLI .FT            0.0000:    BOTTOM LOGGED INTERVAL
 TLI .FT            0.0000:    TOP LOGGED INTERVAL
 CS  .  IN          0.0000:    CASING SIZE 
 CDD .FT            0.0000:    CASING DEPTH-DRILLER
 CDL .FT            0.0000:    CASING DEPTH-LOGGER
 BS  .IN            0.0000:    BIT SIZE
 DFT .               LIGNO:    MUD TYPE   
 DFD .LB/G          0.0000:    MUD WEIGHT
 DFV .S             0.0000:    MUD VISCOSITY
 DFPH.              0.0000:    MUD PH
 DFL .CC            0.0000:    MUD FLUID LOSS
 RMS .           FLOW LINE:    MUD SAMPLE SOURCE
 RM  .OHMM          0.0000:    MUD RESISTIVITY          
 RMT .DEGF          0.0000:    RM TEMPERATURE
 RMBH.OHMM          0.0000:    MUD RESISTIVITY AT BHT
 BHT .DEGF          0.0000:    BOTTOM HOLE TEMPERATURE
 RMFS.            MEASURED:    MUD FILTRATE SOURCE
 RMF .OHMM          0.0000:    MUD FILTRATE RESISTIVITY
 RMFT.DEGF          0.0000:    RMF TEMPERATURE
 RMCS.            MEASURED:    MUD CAKE SOURCE
 RMC .OHMM          0.0000:    MUD CAKE RESISTIVITY
 RMCT.DEGF          0.0000:    RMC TEMPERATURE
     
#      Computation Parameters Used
#MNEM.UNIT         Value       Description
#컴컴컴컴컴    컴컴컴컴컴컴�   컴컴컴컴컴컴컴컴컴컴컴컴컴컴컴컴컴컴컴컴컴컴�
 MDEN.G/CC          2.6500:    LOGGING MATRIX DENSITY
 MATR.              1.0000:    NEUTRON MATRIX (0=LIME,1=SAND,2=DOLO)
 FNUM.              0.6200:    TORTUOSITY CONSTANT ARCHIES (a)
 FEXP.              2.1500:    CEMENTATION EXPONENT ARCHIES (m)
     
~Other Information
     
#컴컴컴컴컴컴컴컴컴컴컴컴컴컴컴컴컴컴컴컴컴컴컴컴컴컴컴컴컴컴컴컴컴컴컴컴컴컴컴�
# In Making Interpretations Of Logs Our Employees Will Give Customer The Benefit
# Of Their Best Judgement,  But  Since All Interpretations Are Opinions Based On
# Inferences From Electrical Or  Other  Measurements,  We Cannot,  And We Do Not
# Guarantee The Accuracy Or  Correctness Of Any Interpretation.  We Shall Not Be
# Liable Or  Responsible For Any Loss,  Cost,  Damages, Or  Expenses  Whatsoever
# Incurred Or  Sustained By The Customer  Resulting  From Any Interpretaion Made
# By Any Of Our Employees.  ATLAS WIRELINE SERVICES-WESTERN ATLAS INTERNATIONAL
#컴컴컴컴컴컴컴컴컴컴컴컴컴컴컴컴컴컴컴컴컴컴컴컴컴컴컴컴컴컴컴컴컴컴컴컴컴컴컴�
     
~A  DEPTH      GR        CAL       RD        RS        CNC       PORZ      ZDEN      PE        ZCOR      SP        CDLL      
# ...
  4323.000    78.705     9.405    21.679    22.044    14.649     9.768     2.489     3.295    -0.007   133.544    46.128 
  4323.500    81.307     9.402    21.098    21.370    14.956     9.186     2.498     3.281    -0.010   133.402    47.399 
  4324.000    82.525     9.383    21.882    21.989    14.206     7.813     2.521     3.264    -0.022   133.317    45.700 
  4324.500    80.095     9.351    23.764    23.701    12.896     6.017     2.551     3.251    -0.012   133.325    42.080 
  4325.000    73.928     9.332    25.864    25.692    11.697     4.534     2.575     3.242     0.002   133.394    38.663 
  4325.500    68.519     9.328    27.213    27.027    11.238     3.743     2.588     3.226     0.004   133.463    36.747 
  4326.000    66.905     9.322    27.501    27.318    11.280     3.454     2.593     3.203     0.002   133.557    36.363 
  4326.500    67.567     9.312    27.363    27.114    11.134     3.334     2.595     3.186     0.008   133.713    36.546 
  4327.000    67.726     9.310    27.460    27.123    10.873     3.253     2.596     3.181     0.017   133.866    36.417 
  4327.500    67.392     9.310    27.744    27.368    10.630     3.261     2.596     3.172     0.027   133.994    36.044 
  4328.000    67.638     9.310    28.023    27.640    10.632     3.251     2.596     3.143     0.035   134.114    35.685 
  4328.500    66.336     9.310    28.349    27.950    10.642     3.104     2.599     3.099     0.035   134.213    35.275 
  4329.000    62.034     9.313    28.634    28.203    10.732     2.960     2.601     3.075     0.023   134.308    34.923 
  4329.500    58.571     9.332    28.721    28.226    10.968     2.807     2.604     3.053     0.013   134.495    34.818 
  4330.000    58.336     9.366    28.457    27.889    10.961     2.562     2.608     2.938     0.015   134.735    35.141 
  4330.500    60.756     9.395    27.634    26.999    11.082     2.251     2.613     2.808     0.017   134.904    36.187 
  4331.000    64.569     9.405    26.659    25.914    11.361     2.058     2.616     2.765     0.018   134.899    37.511 
  4331.500    66.881     9.402    26.334    25.412    11.493     2.503     2.609     2.794     0.018   134.739    37.974 
  4332.000    67.143     9.383    26.726    25.592    11.530     3.888     2.586     2.767     0.030   134.551    37.417 
  4332.500    67.322     9.348    27.349    26.016    11.561     5.599     2.558     2.868     0.079   134.450    36.565 
  4333.000    67.364     9.320    28.009    26.525    11.627     6.415     2.544     2.938     0.120   134.418    35.703 
  4333.500    67.523     9.310    28.741    27.170    11.730     5.820     2.554     2.916     0.102   134.385    34.793 
  4334.000    67.349     9.310    29.466    27.852    11.503     4.817     2.571     2.898     0.055   134.362    33.937 
  4334.500    63.663     9.310    29.886    28.307    11.318     4.712     2.572     2.879     0.034   134.337    33.461 
  4335.000    56.928     9.309    29.099    27.758    11.148     5.562     2.558     2.855     0.028   134.244    34.365 
  4335.500    52.589     9.300    26.447    25.490    10.996     6.585     2.541     2.985     0.018   134.113    37.812 
  4336.000    51.716     9.278    22.800    22.168    11.461     7.435     2.527     3.155     0.012   134.027    43.861 
  4336.500    50.992     9.253    19.441    18.996    12.175     8.006     2.518     3.201     0.021   134.005    51.438 
  4337.000    48.115     9.234    17.043    16.656    12.709     8.383     2.512     3.009     0.039   134.022    58.674 
  4337.500    44.460     9.221    15.522    15.141    13.098     8.693     2.507     2.742     0.054   134.010    64.425 
  4338.000    42.022     9.214    14.322    13.963    13.347     8.921     2.503     2.570     0.055   133.921    69.822 
  4338.500    41.454     9.214    13.288    12.931    13.584     8.950     2.502     2.541     0.047   133.816    75.258 
  4339.000    41.879     9.214    12.915    12.458    14.031     8.307     2.513     2.549     0.045   133.796    77.431 
  4339.500    43.980     9.213    13.630    12.918    14.695     6.679     2.540     2.538     0.049   133.858    73.367 
  4340.000    51.735     9.203    15.063    14.027    15.495     5.197     2.564     2.621     0.045   133.971    66.389 
  4340.500    64.281     9.175    15.051    14.050    16.406     6.251     2.547     2.767     0.022   134.082    66.440 
  4341.000    70.960     9.141    12.029    11.486    17.528    10.521     2.476     2.683     0.003   134.121    83.135 
  4341.500    64.197     9.122     8.660     8.429    18.870    15.717     2.391     2.682     0.009   134.017   115.474 
  4342.000    49.475     9.118     6.595     6.468    20.124    19.411     2.330     2.702     0.026   133.721   151.629 
  4342.500    36.824     9.118     5.586     5.470    21.094    21.115     2.302     2.677     0.032   133.299   179.010 
  4343.000    31.383     9.118     5.189     5.061    21.809    21.838     2.290     2.651     0.028   132.913   192.715 
  4343.500    32.057     9.118     5.094     4.967    22.107    22.482     2.279     2.653     0.019   132.614   196.327 
  4344.000    33.654     9.118     5.073     4.966    21.977    23.008     2.270     2.635     0.017   132.329   197.141 
  4344.500    32.860     9.118     5.006     4.916    21.561    23.173     2.268     2.629     0.021   132.043   199.751 
  4345.000    31.473     9.118     4.900     4.811    20.992    23.088     2.269     2.634     0.023   131.827   204.065 
  4345.500    31.987     9.118     4.803     4.706    20.868    22.945     2.271     2.625     0.022   131.688   208.190 
  4346.000    34.176     9.118     4.767     4.649    21.189    22.820     2.273     2.587     0.022   131.570   209.796 
  4346.500    36.297     9.118     4.848     4.689    21.267    22.670     2.276     2.636     0.022   131.483   206.257 
  4347.000    37.495     9.118     5.045     4.820    21.280    22.329     2.282     2.827     0.025   131.480   198.232 
  4347.500    37.434     9.118     5.244     4.956    21.746    21.798     2.290     2.967     0.034   131.556   190.693 
  4348.000    36.177     9.118     5.340     5.015    22.062    21.335     2.298     2.864     0.039   131.674   187.263 
  4348.500    34.919     9.118     5.335     4.995    22.673    21.061     2.302     2.577     0.036   131.817   187.449 
  4349.000    34.330     9.118     5.266     4.908    23.940    20.924     2.305     2.370     0.031   131.926   189.887 
  4349.500    33.772     9.118     5.179     4.788    24.753    21.005     2.303     2.331     0.027   131.920   193.091 
  4350.000    32.465     9.119     5.115     4.689    24.751    21.552     2.294     2.338     0.027   131.797   195.503 
  4350.500    31.289     9.129     5.076     4.621    24.830    22.453     2.280     2.330     0.028   131.662   196.998 
  4351.000    31.197     9.157     5.049     4.556    25.350    23.074     2.269     2.295     0.030   131.645   198.053 
  4351.500    31.353     9.191     5.036     4.494    24.678    22.934     2.272     2.299     0.036   131.753   198.577 
  4352.000    30.901     9.211     5.091     4.491    23.301    22.087     2.286     2.507     0.046   131.819   196.440 
  4352.500    31.659     9.214     5.394     4.694    22.163    20.300     2.315     2.773     0.059   131.732   185.378 
  4353.000    35.413     9.214     6.180     5.269    21.233    17.168     2.367     2.920     0.066   131.563   161.803 
  4353.500    41.107     9.214     7.637     6.344    19.956    13.425     2.428     2.986     0.062   131.450   130.936 
  4354.000    46.124     9.211     9.852     7.999    18.895    10.875     2.471     3.018     0.058   131.456   101.497 
  4354.500    49.836     9.191    12.497    10.054    18.141    10.329     2.480     3.009     0.065   131.612    80.020 
  4355.000    52.413     9.157    14.242    11.548    17.698    10.898     2.470     3.001     0.077   131.902    70.217 
  4355.500    53.143     9.129    14.294    11.727    17.333    11.531     2.460     2.988     0.078   132.251    69.961 
