~Version Information Block
 VERS.                1.20:     CWLS LOG ASCII STANDARD - VERSION 1.20
 WRAP.                  NO:     One Line Per Depth Step
     
~Well Information Block
#MNEM.UNIT       Data Type     Information
#컴컴컴컴컴    컴컴컴컴컴컴�   컴컴컴컴컴컴컴컴컴컴컴컴컴컴컴컴컴컴컴컴컴컴�
 STRT.FT            0.0000:
 STOP.FT         5650.0000:
 STEP.FT            0.5000:
 NULL.          -9999.0000:
 COMP.             COMPANY:    FLUOR DANIEL (NPOSR)INC.
 WELL.                WELL:    75-X-10                 
 FLD .               FIELD:    N.P.R. # 3              
 LOC .            LOCATION:    SEC 10 T38N R78W                        
 CNTY.              COUNTY:    NATRONA                       
 STAT.               STATE:    WYOMING   
 SRVC.     SERVICE COMPANY:    WESTERN ATLAS                        
 DATE.                DATE:    07/04/1996
 UWI .      UNIQUE WELL ID:          10.0
 API .          API NUMBER:    4902522807                
     
~Curve Information Block
#MNEM.UNIT       API CODE      Curve Description
#컴컴컴컴컴    컴컴컴컴컴컴�   컴컴컴컴컴컴컴컴컴컴컴컴컴컴컴컴컴컴컴컴컴컴�
 DEPTH.F        95 995 99 1:   Depth                                                        
 GR  .API       31 310 01 1:   Gamma Ray Counts                                             
 CAL .IN        28 280 99 1:   Caliper                                                      
 RD  .OHMM      22 220 10 1:   Logarithmic Resistivity from ED, ID                          
 RS  .OHMM      22 220 09 1:   Logarithmic Resistivity from ES, IS                          
 CNC .%         95 995 99 1:   Corrected Neutron Porosity from CN                           
 PORZ.%         95 890 99 1:   Porosity from Z-Densilog                                     
 ZDEN.G/C3      95 350 01 1:   Z-Densilog Bulk Density                                      
 PE  .BARN      95 358 01 1:   Photo Electric Cross Section                                 
 ZCOR.G/C3      39 356 99 1:   Z-Densilog Bulk Density Correction                           
 SP  .MV        95 010 01 1:   Spontaneous Potential from Tool Electrode                    
 CDLL.MMHO      95 995 99 1:   Conductivity from RD                                         
     
~Parameter Information Block
#MNEM.UNIT         Value       Description
#컴컴컴컴컴    컴컴컴컴컴컴�   컴컴컴컴컴컴컴컴컴컴컴컴컴컴컴컴컴컴컴컴컴컴�
 EKB .FT            0.0000:    ELEVATION KELLY BUSHING
 EGL .FT            0.0000:    ELEVATION GROUND LEVEL
 RUN .              1.0000:    RUN NUMBER
 SON .               00000:    SERVICE ORDER NUMBER
 DD  .FT            0.0000:    DEPTH-DRILLER
 DL  .FT            0.0000:    DEPTH-LOGGER
 BLI .FT            0.0000:    BOTTOM LOGGED INTERVAL
 TLI .FT            0.0000:    TOP LOGGED INTERVAL
 CS  .  IN          0.0000:    CASING SIZE 
 CDD .FT            0.0000:    CASING DEPTH-DRILLER
 CDL .FT            0.0000:    CASING DEPTH-LOGGER
 BS  .IN            0.0000:    BIT SIZE
 DFT .               LIGNO:    MUD TYPE   
 DFD .LB/G          0.0000:    MUD WEIGHT
 DFV .S             0.0000:    MUD VISCOSITY
 DFPH.              0.0000:    MUD PH
 DFL .CC            0.0000:    MUD FLUID LOSS
 RMS .           FLOW LINE:    MUD SAMPLE SOURCE
 RM  .OHMM          0.0000:    MUD RESISTIVITY          
 RMT .DEGF          0.0000:    RM TEMPERATURE
 RMBH.OHMM          0.0000:    MUD RESISTIVITY AT BHT
 BHT .DEGF          0.0000:    BOTTOM HOLE TEMPERATURE
 RMFS.            MEASURED:    MUD FILTRATE SOURCE
 RMF .OHMM          0.0000:    MUD FILTRATE RESISTIVITY
 RMFT.DEGF          0.0000:    RMF TEMPERATURE
 RMCS.            MEASURED:    MUD CAKE SOURCE
 RMC .OHMM          0.0000:    MUD CAKE RESISTIVITY
 RMCT.DEGF          0.0000:    RMC TEMPERATURE
     
#      Computation Parameters Used
#MNEM.UNIT         Value       Description
#컴컴컴컴컴    컴컴컴컴컴컴�   컴컴컴컴컴컴컴컴컴컴컴컴컴컴컴컴컴컴컴컴컴컴�
 MDEN.G/CC          2.6500:    LOGGING MATRIX DENSITY
 MATR.              1.0000:    NEUTRON MATRIX (0=LIME,1=SAND,2=DOLO)
 FNUM.              0.6200:    TORTUOSITY CONSTANT ARCHIES (a)
 FEXP.              2.1500:    CEMENTATION EXPONENT ARCHIES (m)
     
~Other Information
     
#컴컴컴컴컴컴컴컴컴컴컴컴컴컴컴컴컴컴컴컴컴컴컴컴컴컴컴컴컴컴컴컴컴컴컴컴컴컴컴�
# In Making Interpretations Of Logs Our Employees Will Give Customer The Benefit
# Of Their Best Judgement,  But  Since All Interpretations Are Opinions Based On
# Inferences From Electrical Or  Other  Measurements,  We Cannot,  And We Do Not
# Guarantee The Accuracy Or  Correctness Of Any Interpretation.  We Shall Not Be
# Liable Or  Responsible For Any Loss,  Cost,  Damages, Or  Expenses  Whatsoever
# Incurred Or  Sustained By The Customer  Resulting  From Any Interpretaion Made
# By Any Of Our Employees.  ATLAS WIRELINE SERVICES-WESTERN ATLAS INTERNATIONAL
#컴컴컴컴컴컴컴컴컴컴컴컴컴컴컴컴컴컴컴컴컴컴컴컴컴컴컴컴컴컴컴컴컴컴컴컴컴컴컴�
     
~A  DEPTH      GR        CAL       RD        RS        CNC       PORZ      ZDEN      PE        ZCOR      SP        CDLL      
# ...
  5181.000    88.398     9.318    26.746    28.198    16.399    -3.116     2.701     3.475     0.034   170.366    37.389 
  5181.500    91.287     9.319    24.885    26.194    16.973    -3.120     2.701     3.493     0.037   170.361    40.184 
  5182.000    92.421     9.329    24.359    25.373    17.056    -3.741     2.712     3.539     0.048   170.125    41.052 
  5182.500    92.343     9.357    25.184    25.762    15.907    -5.147     2.735     3.768     0.053   169.721    39.708 
  5183.000    88.051     9.391    27.350    27.348    13.902    -6.440     2.756     4.154     0.035   169.345    36.563 
  5183.500    81.112     9.410    30.666    29.862    12.422    -6.246     2.753     4.163     0.011   169.094    32.609 
  5184.000    77.291     9.407    34.149    32.333    11.795    -4.687     2.727     3.978     0.003   168.908    29.283 
  5184.500    78.645     9.395    35.983    33.217    11.569    -3.365     2.706     3.927     0.008   168.720    27.791 
  5185.000    82.159     9.385    35.972    32.474    11.695    -3.101     2.701     3.932     0.011   168.586    27.799 
  5185.500    83.836     9.389    35.790    31.644    11.314    -3.314     2.705     3.905     0.009   168.615    27.941 
  5186.000    82.457     9.401    36.360    31.544    10.880    -3.280     2.704     3.882     0.007   168.794    27.503 
  5186.500    79.920     9.412    37.118    31.749    10.705    -3.071     2.701     3.891     0.010   169.097    26.941 
  5187.000    78.280     9.428    36.415    30.961    10.551    -3.050     2.700     3.879     0.017   169.564    27.461 
  5187.500    78.469     9.475    33.791    28.685    10.595    -3.185     2.703     3.730     0.023   170.084    29.593 
  5188.000    81.508     9.544    30.819    26.119    10.753    -3.349     2.705     3.545     0.030   170.449    32.448 
  5188.500    86.024     9.591    28.577    24.172    11.542    -3.606     2.709     3.504     0.038   170.596    34.993 
  5189.000    89.518     9.605    26.845    22.660    12.943    -3.775     2.712     3.473     0.040   170.630    37.250 
  5189.500    91.580     9.605    25.110    21.151    14.187    -3.504     2.708     3.453     0.033   170.667    39.825 
  5190.000    92.959     9.605    23.285    19.587    15.264    -2.921     2.698     3.466     0.028   170.685    42.946 
  5190.500    93.899     9.605    21.561    18.090    16.631    -2.503     2.691     3.483     0.027   170.576    46.380 
  5191.000    95.348     9.605    20.224    16.878    17.753    -2.493     2.691     3.468     0.034   170.377    49.445 
  5191.500    97.675     9.605    19.427    16.108    18.221    -2.590     2.693     3.583     0.043   170.213    51.474 
  5192.000    98.689     9.605    19.143    15.769    18.174    -2.286     2.688     3.603     0.040   170.097    52.238 
  5192.500    98.270     9.605    19.295    15.776    17.742    -1.604     2.676     3.596     0.023   170.001    51.827 
  5193.000    97.815     9.605    19.933    16.139    17.087    -1.177     2.669     3.601     0.014   169.943    50.167 
  5193.500    96.942     9.598    21.018    16.823    16.464    -1.583     2.676     3.597     0.024   169.968    47.577 
  5194.000    94.901     9.589    21.994    17.412    16.060    -2.566     2.692     3.605     0.038   170.117    45.467 
  5194.500    93.782     9.589    22.032    17.270    15.959    -3.245     2.704     3.509     0.039   170.346    45.389 
  5195.000    94.753     9.598    21.109    16.383    16.342    -3.234     2.703     3.438     0.031   170.549    47.372 
  5195.500    96.867     9.605    19.970    15.314    17.086    -3.028     2.700     3.451     0.030   170.689    50.075 
  5196.000    98.922     9.605    19.331    14.594    17.604    -3.082     2.701     3.436     0.037   170.834    51.731 
  5196.500    99.867     9.605    19.545    14.489    17.498    -3.295     2.704     3.454     0.043   171.027    51.163 
  5197.000    99.245     9.605    20.695    15.058    16.810    -3.385     2.706     3.349     0.042   171.206    48.320 
  5197.500    97.223     9.598    22.644    16.193    16.035    -3.225     2.703     3.258     0.034   171.262    44.162 
  5198.000    94.365     9.589    24.902    17.543    15.502    -3.057     2.700     3.201     0.027   171.191    40.158 
  5198.500    91.094     9.589    26.497    18.457    14.969    -3.127     2.702     3.351     0.026   171.085    37.740 
  5199.000    88.615     9.598    26.757    18.483    14.485    -3.353     2.705     3.667     0.031   170.958    37.373 
  5199.500    87.604     9.605    26.102    17.924    14.357    -3.460     2.707     3.726     0.041   170.772    38.311 
  5200.000    87.910     9.606    25.340    17.319    14.639    -3.339     2.705     3.650     0.046   170.565    39.464 
  5200.500    88.773     9.616    24.893    16.948    15.012    -3.013     2.700     3.672     0.040   170.446    40.172 
  5201.000    90.109     9.644    24.582    16.728    15.106    -2.635     2.693     3.682     0.031   170.453    40.680 
  5201.500    91.447     9.678    24.003    16.416    15.089    -2.518     2.692     3.631     0.028   170.509    41.662 
  5202.000    91.727     9.698    22.959    15.841    15.376    -2.762     2.696     3.597     0.031   170.476    43.556 
  5202.500    91.583     9.702    21.555    15.020    15.944    -3.031     2.700     3.599     0.034   170.320    46.393 
  5203.000    92.631     9.711    20.141    14.156    16.792    -3.117     2.701     3.586     0.038   170.139    49.649 
  5203.500    93.625     9.740    18.914    13.400    17.861    -3.103     2.701     3.582     0.042   170.014    52.872 
  5204.000    92.945     9.774    17.826    12.742    18.547    -2.982     2.699     3.587     0.043   169.944    56.097 
  5204.500    91.114     9.793    16.951    12.213    18.855    -2.878     2.697     3.573     0.039   169.891    58.994 
  5205.000    90.133     9.800    16.447    11.912    18.966    -3.066     2.701     3.543     0.033   169.807    60.801 
  5205.500    89.775     9.809    16.283    11.835    18.911    -3.275     2.704     3.554     0.029   169.666    61.414 
  5206.000    88.112     9.825    16.248    11.882    18.817    -3.065     2.701     3.551     0.026   169.507    61.545 
  5206.500    84.728     9.837    16.176    11.967    18.844    -2.742     2.695     3.572     0.023   169.351    61.820 
  5207.000    81.768     9.834    16.098    12.092    18.966    -2.931     2.698     3.578     0.021   169.192    62.119 
  5207.500    80.493     9.816    16.134    12.296    19.152    -3.524     2.708     3.559     0.025   169.094    61.979 
  5208.000    80.276     9.800    16.257    12.544    19.564    -3.916     2.715     3.548     0.031   169.132    61.513 
  5208.500    79.740     9.797    16.383    12.787    20.044    -3.912     2.715     3.495     0.034   169.258    61.038 
  5209.000    78.479     9.807    16.471    13.002    20.472    -3.816     2.713     3.412     0.036   169.341    60.712 
  5209.500    78.183     9.835    16.405    13.084    20.870    -3.735     2.712     3.394     0.036   169.322    60.959 
  5210.000    79.294     9.859    16.068    12.902    21.227    -3.594     2.709     3.386     0.035   169.245    62.235 
  5210.500    80.177     9.851    15.366    12.374    21.388    -3.549     2.709     3.323     0.037   169.186    65.079 
  5211.000    80.230     9.830    14.350    11.548    21.193    -3.735     2.712     3.299     0.043   169.180    69.686 
  5211.500    80.088     9.839    13.480    10.795    20.327    -4.000     2.716     3.273     0.049   169.170    74.183 
  5212.000    79.174     9.870    13.244    10.499    18.829    -4.452     2.723     3.147     0.050   169.128    75.504 
  5212.500    77.621     9.889    13.828    10.806    16.897    -5.799     2.746     3.034     0.056   169.154    72.317 
  5213.000    75.578     9.889    15.403    11.827    14.424    -8.644     2.793     3.216     0.072   169.340    64.921 
  5213.500    70.427     9.866    18.815    14.130    11.179   -12.500     2.856     3.879     0.076   169.612    53.149 
