~Version Information Block
 VERS.                1.20:     CWLS LOG ASCII STANDARD - VERSION 1.20
 WRAP.                  NO:     One Line Per Depth Step
     
~Well Information Block
#MNEM.UNIT       Data Type     Information
#컴컴컴컴컴    컴컴컴컴컴컴�   컴컴컴컴컴컴컴컴컴컴컴컴컴컴컴컴컴컴컴컴컴컴�
 STRT.FT            0.0000:
 STOP.FT         5650.0000:
 STEP.FT            0.5000:
 NULL.          -9999.0000:
 COMP.             COMPANY:    FLUOR DANIEL (NPOSR)INC.
 WELL.                WELL:    75-X-10                 
 FLD .               FIELD:    N.P.R. # 3              
 LOC .            LOCATION:    SEC 10 T38N R78W                        
 CNTY.              COUNTY:    NATRONA                       
 STAT.               STATE:    WYOMING   
 SRVC.     SERVICE COMPANY:    WESTERN ATLAS                        
 DATE.                DATE:    07/04/1996
 UWI .      UNIQUE WELL ID:          10.0
 API .          API NUMBER:    4902522807                
     
~Curve Information Block
#MNEM.UNIT       API CODE      Curve Description
#컴컴컴컴컴    컴컴컴컴컴컴�   컴컴컴컴컴컴컴컴컴컴컴컴컴컴컴컴컴컴컴컴컴컴�
 DEPTH.F        95 995 99 1:   Depth                                                        
 GR  .API       31 310 01 1:   Gamma Ray Counts                                             
 CAL .IN        28 280 99 1:   Caliper                                                      
 RD  .OHMM      22 220 10 1:   Logarithmic Resistivity from ED, ID                          
 RS  .OHMM      22 220 09 1:   Logarithmic Resistivity from ES, IS                          
 CNC .%         95 995 99 1:   Corrected Neutron Porosity from CN                           
 PORZ.%         95 890 99 1:   Porosity from Z-Densilog                                     
 ZDEN.G/C3      95 350 01 1:   Z-Densilog Bulk Density                                      
 PE  .BARN      95 358 01 1:   Photo Electric Cross Section                                 
 ZCOR.G/C3      39 356 99 1:   Z-Densilog Bulk Density Correction                           
 SP  .MV        95 010 01 1:   Spontaneous Potential from Tool Electrode                    
 CDLL.MMHO      95 995 99 1:   Conductivity from RD                                         
     
~Parameter Information Block
#MNEM.UNIT         Value       Description
#컴컴컴컴컴    컴컴컴컴컴컴�   컴컴컴컴컴컴컴컴컴컴컴컴컴컴컴컴컴컴컴컴컴컴�
 EKB .FT            0.0000:    ELEVATION KELLY BUSHING
 EGL .FT            0.0000:    ELEVATION GROUND LEVEL
 RUN .              1.0000:    RUN NUMBER
 SON .               00000:    SERVICE ORDER NUMBER
 DD  .FT            0.0000:    DEPTH-DRILLER
 DL  .FT            0.0000:    DEPTH-LOGGER
 BLI .FT            0.0000:    BOTTOM LOGGED INTERVAL
 TLI .FT            0.0000:    TOP LOGGED INTERVAL
 CS  .  IN          0.0000:    CASING SIZE 
 CDD .FT            0.0000:    CASING DEPTH-DRILLER
 CDL .FT            0.0000:    CASING DEPTH-LOGGER
 BS  .IN            0.0000:    BIT SIZE
 DFT .               LIGNO:    MUD TYPE   
 DFD .LB/G          0.0000:    MUD WEIGHT
 DFV .S             0.0000:    MUD VISCOSITY
 DFPH.              0.0000:    MUD PH
 DFL .CC            0.0000:    MUD FLUID LOSS
 RMS .           FLOW LINE:    MUD SAMPLE SOURCE
 RM  .OHMM          0.0000:    MUD RESISTIVITY          
 RMT .DEGF          0.0000:    RM TEMPERATURE
 RMBH.OHMM          0.0000:    MUD RESISTIVITY AT BHT
 BHT .DEGF          0.0000:    BOTTOM HOLE TEMPERATURE
 RMFS.            MEASURED:    MUD FILTRATE SOURCE
 RMF .OHMM          0.0000:    MUD FILTRATE RESISTIVITY
 RMFT.DEGF          0.0000:    RMF TEMPERATURE
 RMCS.            MEASURED:    MUD CAKE SOURCE
 RMC .OHMM          0.0000:    MUD CAKE RESISTIVITY
 RMCT.DEGF          0.0000:    RMC TEMPERATURE
     
#      Computation Parameters Used
#MNEM.UNIT         Value       Description
#컴컴컴컴컴    컴컴컴컴컴컴�   컴컴컴컴컴컴컴컴컴컴컴컴컴컴컴컴컴컴컴컴컴컴�
 MDEN.G/CC          2.6500:    LOGGING MATRIX DENSITY
 MATR.              1.0000:    NEUTRON MATRIX (0=LIME,1=SAND,2=DOLO)
 FNUM.              0.6200:    TORTUOSITY CONSTANT ARCHIES (a)
 FEXP.              2.1500:    CEMENTATION EXPONENT ARCHIES (m)
     
~Other Information
     
#컴컴컴컴컴컴컴컴컴컴컴컴컴컴컴컴컴컴컴컴컴컴컴컴컴컴컴컴컴컴컴컴컴컴컴컴컴컴컴�
# In Making Interpretations Of Logs Our Employees Will Give Customer The Benefit
# Of Their Best Judgement,  But  Since All Interpretations Are Opinions Based On
# Inferences From Electrical Or  Other  Measurements,  We Cannot,  And We Do Not
# Guarantee The Accuracy Or  Correctness Of Any Interpretation.  We Shall Not Be
# Liable Or  Responsible For Any Loss,  Cost,  Damages, Or  Expenses  Whatsoever
# Incurred Or  Sustained By The Customer  Resulting  From Any Interpretaion Made
# By Any Of Our Employees.  ATLAS WIRELINE SERVICES-WESTERN ATLAS INTERNATIONAL
#컴컴컴컴컴컴컴컴컴컴컴컴컴컴컴컴컴컴컴컴컴컴컴컴컴컴컴컴컴컴컴컴컴컴컴컴컴컴컴�
     
~A  DEPTH      GR        CAL       RD        RS        CNC       PORZ      ZDEN      PE        ZCOR      SP        CDLL      
# ...
  3465.000   128.919     8.918    17.216    15.806    23.924    13.398     2.429     3.169     0.051   156.108    58.086 
  3465.500   120.635     8.918    16.334    15.418    23.333    13.946     2.420     3.220     0.055   156.063    61.223 
  3466.000   116.733     8.918    12.180    11.815    23.228    15.099     2.401     3.226     0.071   155.923    82.101 
  3466.500   122.315     8.918     9.366     9.130    22.780    15.888     2.388     3.248     0.090   155.701   106.766 
  3467.000   134.071     8.918     8.617     8.281    22.116    15.292     2.398     3.303     0.088   155.505   116.047 
  3467.500   137.671     8.918     9.493     8.849    21.366    13.688     2.424     3.128     0.065   155.503   105.344 
  3468.000   126.811     8.918    11.994    10.926    20.783    12.542     2.443     2.971     0.048   155.702    83.374 
  3468.500   114.561     8.918    14.186    13.545    21.032    12.688     2.441     3.002     0.042   155.930    70.491 
  3469.000   114.058     8.918    11.883    12.259    22.884    13.341     2.430     3.040     0.052   156.083    84.157 
  3469.500   123.402     8.918     8.885     9.313    25.701    13.514     2.427     3.031     0.067   156.117   112.556 
  3470.000   133.413     8.918     7.506     7.791    28.165    13.024     2.435     3.030     0.062   156.026   133.220 
  3470.500   138.329     8.918     7.159     7.339    30.209    12.519     2.443     3.004     0.041   155.956   139.688 
  3471.000   140.449     8.918     7.204     7.368    29.538    12.863     2.438     2.948     0.026   156.030   138.813 
  3471.500   143.859     8.918     6.677     7.002    29.535    14.296     2.414     2.909     0.027   156.158   149.759 
  3472.000   147.724     8.918     5.092     5.514    31.937    16.506     2.378     2.868     0.043   156.197   196.367 
  3472.500   153.727     8.918     3.804     4.159    35.021    18.422     2.346     2.793     0.079   156.100   262.894 
  3473.000   165.423     8.918     3.334     3.609    36.362    18.502     2.345     2.772     0.098   155.961   299.969 
  3473.500   176.118     8.918     3.515     3.705    34.381    16.581     2.376     2.803     0.078   155.882   284.476 
  3474.000   176.251     8.918     4.323     4.418    30.891    14.571     2.410     2.803     0.048   155.861   231.296 
  3474.500   169.768     8.918     5.632     5.702    28.999    13.862     2.421     2.886     0.045   155.898   177.543 
  3475.000   168.006     8.918     6.459     6.672    29.161    13.499     2.427     2.919     0.059   156.034   154.824 
  3475.500   175.169     8.918     6.304     6.602    29.745    12.322     2.447     2.897     0.065   156.142   158.636 
  3476.000   181.195     8.918     6.150     6.370    29.558    10.640     2.474     2.893     0.056   156.135   162.611 
  3476.500   176.224     8.922     6.503     6.578    28.628     9.451     2.494     2.892     0.044   156.126   153.769 
  3477.000   163.042     8.937     7.386     7.305    27.539     9.507     2.493     2.894     0.049   156.117   135.397 
  3477.500   151.103     8.956     8.538     8.308    26.589    11.010     2.468     2.927     0.068   155.999   117.123 
  3478.000   144.061     8.969     9.349     8.958    26.233    13.338     2.430     2.925     0.081   155.875   106.959 
  3478.500   141.435     8.985     9.152     8.670    26.489    15.134     2.400     2.927     0.080   155.846   109.270 
  3479.000   145.925     9.004     7.990     7.567    27.699    15.584     2.393     2.930     0.075   155.885   125.156 
  3479.500   160.116     9.013     6.916     6.573    29.240    14.995     2.403     2.935     0.070   156.005   144.589 
  3480.000   176.739     9.014     6.531     6.176    30.231    13.971     2.419     2.947     0.064   156.156   153.108 
  3480.500   181.476     9.014     6.902     6.418    29.835    13.194     2.432     2.944     0.068   156.183   144.889 
  3481.000   172.948     9.014     7.992     7.299    28.703    13.417     2.429     2.931     0.072   156.102   125.127 
  3481.500   163.768     9.014     9.359     8.530    28.491    14.748     2.407     2.932     0.052   156.059   106.843 
  3482.000   161.870     9.014    10.023     9.262    29.077    16.610     2.376     2.947     0.025   156.110    99.773 
  3482.500   163.720     9.017     9.980     9.315    29.849    17.858     2.355     2.959     0.031   156.236   100.204 
  3483.000   165.347     9.026     9.826     9.213    30.180    17.555     2.360     3.008     0.067   156.335   101.770 
  3483.500   163.375     9.032     9.236     8.803    29.998    16.473     2.378     3.151     0.099   156.314   108.274 
  3484.000   158.693     9.023     7.643     7.543    30.104    15.265     2.398     3.310     0.104   156.225   130.842 
  3484.500   157.807     8.997     6.013     6.083    30.995    13.850     2.421     3.349     0.094   156.138   166.295 
  3485.000   164.028     8.969     5.262     5.315    31.211    12.803     2.439     3.319     0.095   156.001   190.051 
  3485.500   169.918     8.947     5.355     5.294    29.518    12.992     2.436     3.207     0.125   155.837   186.755 
  3486.000   165.686     8.931     6.050     5.849    27.368    13.852     2.421     3.174     0.154   155.694   165.290 
  3486.500   155.000     8.921     6.757     6.576    26.637    14.118     2.417     3.177     0.137   155.560   147.995 
  3487.000   151.384     8.918     6.525     6.579    26.624    13.785     2.423     3.183     0.086   155.440   153.268 
  3487.500   159.768     8.918     5.401     5.576    28.669    14.492     2.411     3.174     0.054   155.302   185.134 
  3488.000   172.426     8.911     4.030     4.185    31.542    17.256     2.365     3.053     0.068   155.109   248.149 
  3488.500   181.985     8.903     2.867     2.990    33.406    20.392     2.314     2.963     0.106   155.014   348.749 
  3489.000   190.884     8.909     2.198     2.313    36.913    21.226     2.300     2.948     0.145   155.127   454.946 
  3489.500   201.317     8.928     1.985     2.089    39.060    18.952     2.337     2.927     0.149   155.267   503.681 
  3490.000   205.502     8.934     2.160     2.218    36.900    14.837     2.405     2.895     0.111   155.291   463.052 
  3490.500   192.900     8.925     2.843     2.807    31.939    11.351     2.463     2.876     0.062   155.332   351.756 
  3491.000   166.030     8.919     4.378     4.208    28.015     9.847     2.488     2.871     0.035   155.515   228.400 
  3491.500   140.683     8.918     6.468     6.261    26.597     9.740     2.489     2.855     0.035   155.725   154.609 
  3492.000   129.054     8.918     7.298     7.227    27.051    10.128     2.483     2.849     0.062   155.853   137.028 
  3492.500   129.478     8.918     6.994     6.980    27.986    10.500     2.477     2.868     0.091   155.950   142.990 
  3493.000   132.951     8.918     6.725     6.654    28.475    10.722     2.473     2.867     0.086   156.090   148.689 
  3493.500   136.059     8.918     6.796     6.614    28.591    10.665     2.474     2.827     0.056   156.270   147.143 
  3494.000   138.882     8.918     7.093     6.769    28.510    10.520     2.476     2.899     0.031   156.459   140.977 
  3494.500   138.719     8.918     7.370     6.876    27.987    11.752     2.456     3.204     0.010   156.554   135.686 
  3495.000   134.658     8.922     7.522     6.867    27.875    15.610     2.392     3.499    -0.004   156.449   132.947 
  3495.500   130.008     8.941     7.585     6.837    29.348    20.369     2.314     3.530     0.041   156.232   131.839 
  3496.000   127.033     8.975     7.598     6.820    31.650    23.061     2.270     3.435     0.127   156.079   131.610 
  3496.500   125.717     9.003     7.681     6.866    33.002    25.865     2.223     3.456     0.201   156.056   130.189 
  3497.000   127.520     9.013     7.898     7.031    33.130    27.380     2.198     3.771     0.244   156.138   126.622 
  3497.500   132.161     9.014     8.111     7.222    32.699    25.181     2.235     4.183     0.256   156.197   123.296 
