~Version Information Block
 VERS.                1.20:     CWLS LOG ASCII STANDARD - VERSION 1.20
 WRAP.                  NO:     One Line Per Depth Step
     
~Well Information Block
#MNEM.UNIT       Data Type     Information
#컴컴컴컴컴    컴컴컴컴컴컴�   컴컴컴컴컴컴컴컴컴컴컴컴컴컴컴컴컴컴컴컴컴컴�
 STRT.FT            0.0000:
 STOP.FT         5650.0000:
 STEP.FT            0.5000:
 NULL.          -9999.0000:
 COMP.             COMPANY:    FLUOR DANIEL (NPOSR)INC.
 WELL.                WELL:    75-X-10                 
 FLD .               FIELD:    N.P.R. # 3              
 LOC .            LOCATION:    SEC 10 T38N R78W                        
 CNTY.              COUNTY:    NATRONA                       
 STAT.               STATE:    WYOMING   
 SRVC.     SERVICE COMPANY:    WESTERN ATLAS                        
 DATE.                DATE:    07/04/1996
 UWI .      UNIQUE WELL ID:          10.0
 API .          API NUMBER:    4902522807                
     
~Curve Information Block
#MNEM.UNIT       API CODE      Curve Description
#컴컴컴컴컴    컴컴컴컴컴컴�   컴컴컴컴컴컴컴컴컴컴컴컴컴컴컴컴컴컴컴컴컴컴�
 DEPTH.F        95 995 99 1:   Depth                                                        
 GR  .API       31 310 01 1:   Gamma Ray Counts                                             
 CAL .IN        28 280 99 1:   Caliper                                                      
 RD  .OHMM      22 220 10 1:   Logarithmic Resistivity from ED, ID                          
 RS  .OHMM      22 220 09 1:   Logarithmic Resistivity from ES, IS                          
 CNC .%         95 995 99 1:   Corrected Neutron Porosity from CN                           
 PORZ.%         95 890 99 1:   Porosity from Z-Densilog                                     
 ZDEN.G/C3      95 350 01 1:   Z-Densilog Bulk Density                                      
 PE  .BARN      95 358 01 1:   Photo Electric Cross Section                                 
 ZCOR.G/C3      39 356 99 1:   Z-Densilog Bulk Density Correction                           
 SP  .MV        95 010 01 1:   Spontaneous Potential from Tool Electrode                    
 CDLL.MMHO      95 995 99 1:   Conductivity from RD                                         
     
~Parameter Information Block
#MNEM.UNIT         Value       Description
#컴컴컴컴컴    컴컴컴컴컴컴�   컴컴컴컴컴컴컴컴컴컴컴컴컴컴컴컴컴컴컴컴컴컴�
 EKB .FT            0.0000:    ELEVATION KELLY BUSHING
 EGL .FT            0.0000:    ELEVATION GROUND LEVEL
 RUN .              1.0000:    RUN NUMBER
 SON .               00000:    SERVICE ORDER NUMBER
 DD  .FT            0.0000:    DEPTH-DRILLER
 DL  .FT            0.0000:    DEPTH-LOGGER
 BLI .FT            0.0000:    BOTTOM LOGGED INTERVAL
 TLI .FT            0.0000:    TOP LOGGED INTERVAL
 CS  .  IN          0.0000:    CASING SIZE 
 CDD .FT            0.0000:    CASING DEPTH-DRILLER
 CDL .FT            0.0000:    CASING DEPTH-LOGGER
 BS  .IN            0.0000:    BIT SIZE
 DFT .               LIGNO:    MUD TYPE   
 DFD .LB/G          0.0000:    MUD WEIGHT
 DFV .S             0.0000:    MUD VISCOSITY
 DFPH.              0.0000:    MUD PH
 DFL .CC            0.0000:    MUD FLUID LOSS
 RMS .           FLOW LINE:    MUD SAMPLE SOURCE
 RM  .OHMM          0.0000:    MUD RESISTIVITY          
 RMT .DEGF          0.0000:    RM TEMPERATURE
 RMBH.OHMM          0.0000:    MUD RESISTIVITY AT BHT
 BHT .DEGF          0.0000:    BOTTOM HOLE TEMPERATURE
 RMFS.            MEASURED:    MUD FILTRATE SOURCE
 RMF .OHMM          0.0000:    MUD FILTRATE RESISTIVITY
 RMFT.DEGF          0.0000:    RMF TEMPERATURE
 RMCS.            MEASURED:    MUD CAKE SOURCE
 RMC .OHMM          0.0000:    MUD CAKE RESISTIVITY
 RMCT.DEGF          0.0000:    RMC TEMPERATURE
     
#      Computation Parameters Used
#MNEM.UNIT         Value       Description
#컴컴컴컴컴    컴컴컴컴컴컴�   컴컴컴컴컴컴컴컴컴컴컴컴컴컴컴컴컴컴컴컴컴컴�
 MDEN.G/CC          2.6500:    LOGGING MATRIX DENSITY
 MATR.              1.0000:    NEUTRON MATRIX (0=LIME,1=SAND,2=DOLO)
 FNUM.              0.6200:    TORTUOSITY CONSTANT ARCHIES (a)
 FEXP.              2.1500:    CEMENTATION EXPONENT ARCHIES (m)
     
~Other Information
     
#컴컴컴컴컴컴컴컴컴컴컴컴컴컴컴컴컴컴컴컴컴컴컴컴컴컴컴컴컴컴컴컴컴컴컴컴컴컴컴�
# In Making Interpretations Of Logs Our Employees Will Give Customer The Benefit
# Of Their Best Judgement,  But  Since All Interpretations Are Opinions Based On
# Inferences From Electrical Or  Other  Measurements,  We Cannot,  And We Do Not
# Guarantee The Accuracy Or  Correctness Of Any Interpretation.  We Shall Not Be
# Liable Or  Responsible For Any Loss,  Cost,  Damages, Or  Expenses  Whatsoever
# Incurred Or  Sustained By The Customer  Resulting  From Any Interpretaion Made
# By Any Of Our Employees.  ATLAS WIRELINE SERVICES-WESTERN ATLAS INTERNATIONAL
#컴컴컴컴컴컴컴컴컴컴컴컴컴컴컴컴컴컴컴컴컴컴컴컴컴컴컴컴컴컴컴컴컴컴컴컴컴컴컴�
     
~A  DEPTH      GR        CAL       RD        RS        CNC       PORZ      ZDEN      PE        ZCOR      SP        CDLL      
# ...
  3036.000   103.728     9.492     3.594     3.419    32.916    12.264     2.448     2.700     0.110   146.331   278.276 
  3036.500   104.168     9.492     3.757     3.539    31.338    10.547     2.476     2.733     0.095   146.461   266.161 
  3037.000    99.689     9.492     4.090     3.813    29.664     8.569     2.509     2.866     0.080   146.553   244.517 
  3037.500    94.766     9.492     4.610     4.258    27.105     7.061     2.534     2.954     0.061   146.596   216.908 
  3038.000    93.426     9.492     5.304     4.850    24.649     5.888     2.553     2.985     0.040   146.594   188.521 
  3038.500    92.728     9.492     6.104     5.527    23.192     4.942     2.568     3.017     0.036   146.694   163.840 
  3039.000    90.081     9.492     6.766     6.098    22.302     4.568     2.575     3.023     0.043   146.892   147.796 
  3039.500    87.090     9.492     6.931     6.259    21.453     4.816     2.571     2.855     0.046   146.910   144.272 
  3040.000    87.431     9.492     6.574     5.958    21.412     5.372     2.561     2.709     0.048   146.637   152.125 
  3040.500    91.168     9.492     6.023     5.463    22.693     6.129     2.549     2.684     0.050   146.343   166.043 
  3041.000    94.717     9.492     5.551     5.019    24.372     6.953     2.535     2.671     0.052   146.261   180.155 
  3041.500    96.672     9.492     5.282     4.749    25.336     7.531     2.526     2.676     0.062   146.303   189.338 
  3042.000    97.516     9.492     5.262     4.705    25.362     7.525     2.526     2.691     0.076   146.304   190.045 
  3042.500    96.154     9.492     5.449     4.858    24.875     6.888     2.536     2.747     0.076   146.274   183.506 
  3043.000    92.277     9.492     5.681     5.082    24.186     6.194     2.548     2.794     0.056   146.318   176.039 
  3043.500    89.742     9.492     5.777     5.227    23.588     6.037     2.550     2.832     0.035   146.380   173.105 
  3044.000    90.634     9.492     5.696     5.234    23.649     6.502     2.543     2.877     0.034   146.351   175.563 
  3044.500    93.442     9.492     5.512     5.134    24.341     7.233     2.531     2.916     0.041   146.295   181.435 
  3045.000    95.145     9.492     5.321     4.998    24.952     7.878     2.520     2.946     0.035   146.319   187.931 
  3045.500    95.421     9.492     5.167     4.876    24.964     8.463     2.510     2.970     0.020   146.380   193.542 
  3046.000    96.144     9.492     4.993     4.735    25.071     9.330     2.496     2.991     0.030   146.490   200.275 
  3046.500    97.226     9.492     4.714     4.497    26.214    10.882     2.470     3.013     0.064   146.694   212.118 
  3047.000    96.863     9.492     4.356     4.172    27.578    12.750     2.440     3.031     0.101   146.874   229.567 
  3047.500    96.122     9.492     3.987     3.826    28.753    14.228     2.415     3.052     0.123   146.891   250.809 
  3048.000    97.515     9.492     3.646     3.503    30.222    15.364     2.396     3.075     0.116   146.795   274.296 
  3048.500    99.932     9.482     3.419     3.279    31.588    16.218     2.382     3.081     0.113   146.787   292.494 
  3049.000   101.162     9.450     3.379     3.220    32.150    15.954     2.387     3.103     0.134   146.961   295.988 
  3049.500   101.559     9.397     3.530     3.333    31.464    13.890     2.421     3.171     0.136   147.194   283.325 
  3050.000   101.714     9.343     3.861     3.610    29.684    10.771     2.472     3.216     0.098   147.290   258.980 
  3050.500   101.307     9.311     4.363     4.045    27.514     8.126     2.516     3.261     0.069   147.216   229.196 
  3051.000   100.624     9.302     4.987     4.598    25.778     6.543     2.542     3.292     0.076   147.105   200.529 
  3051.500    99.588     9.301     5.691     5.216    24.347     5.555     2.558     3.282     0.087   147.054   175.701 
  3052.000    98.012     9.301     6.446     5.871    22.905     4.859     2.570     3.114     0.078   147.065   155.141 
  3052.500    96.282     9.301     7.064     6.414    21.508     4.566     2.575     2.906     0.053   147.094   141.557 
  3053.000    93.766     9.301     7.337     6.655    20.553     4.763     2.571     2.778     0.032   147.132   136.288 
  3053.500    91.373     9.301     7.273     6.575    20.439     5.170     2.565     2.728     0.027   147.134   137.501 
  3054.000    90.953     9.301     7.068     6.336    21.038     5.397     2.561     2.690     0.029   147.012   141.477 
  3054.500    90.997     9.301     6.932     6.138    21.969     5.323     2.562     2.641     0.034   146.802   144.253 
  3055.000    90.194     9.301     6.894     6.032    22.665     5.408     2.561     2.596     0.035   146.629   145.062 
  3055.500    91.136     9.301     6.876     5.963    23.017     6.246     2.547     2.548     0.028   146.530   145.431 
  3056.000    93.500     9.301     6.800     5.873    23.465     7.501     2.526     2.538     0.019   146.437   147.058 
  3056.500    94.503     9.301     6.618     5.722    24.079     8.215     2.514     2.533     0.014   146.333   151.099 
  3057.000    95.079     9.301     6.412     5.554    24.489     8.139     2.516     2.572     0.017   146.292   155.950 
  3057.500    95.821     9.301     6.333     5.482    24.484     7.739     2.522     2.651     0.020   146.354   157.908 
  3058.000    95.469     9.301     6.439     5.560    24.067     7.344     2.529     2.725     0.021   146.440   155.312 
  3058.500    93.955     9.301     6.705     5.770    23.341     7.071     2.533     2.807     0.019   146.449   149.133 
  3059.000    91.611     9.301     7.085     6.078    22.613     6.850     2.537     2.879     0.020   146.461   141.134 
  3059.500    87.969     9.301     7.484     6.404    22.105     6.380     2.545     2.902     0.026   146.527   133.615 
  3060.000    85.389     9.301     7.718     6.595    21.863     5.897     2.553     2.874     0.029   146.612   129.561 
  3060.500    85.454     9.301     7.475     6.414    22.071     6.185     2.548     2.839     0.022   146.726   133.772 
  3061.000    88.022     9.301     6.641     5.749    23.196     7.396     2.528     2.822     0.022   146.856   150.581 
  3061.500    91.630     9.301     5.638     4.907    25.230     8.894     2.503     2.722     0.047   146.806   177.378 
  3062.000    95.828     9.301     4.870     4.225    27.301    10.069     2.484     2.713     0.072   146.521   205.353 
  3062.500   100.653     9.301     4.413     3.789    28.510    10.737     2.473     2.741     0.071   146.257   226.619 
  3063.000   105.903     9.298     4.206     3.565    29.189    11.082     2.467     2.749     0.057   146.166   237.733 
  3063.500   110.462     9.278     4.179     3.501    30.065    11.438     2.461     2.751     0.061   146.089   239.295 
  3064.000   113.733     9.244     4.255     3.530    30.888    11.898     2.454     2.738     0.072   145.912   235.014 
  3064.500   115.064     9.216     4.364     3.585    30.632    12.148     2.450     2.724     0.061   145.733   229.143 
  3065.000   114.444     9.206     4.437     3.614    29.655    11.961     2.453     2.735     0.036   145.676   225.391 
  3065.500   114.526     9.205     4.398     3.571    29.440    11.558     2.459     2.729     0.030   145.740   227.362 
  3066.000   116.785     9.205     4.240     3.447    30.581    11.265     2.464     2.702     0.042   145.850   235.825 
  3066.500   119.336     9.205     4.048     3.295    31.960    11.285     2.464     2.695     0.048   145.979   247.044 
  3067.000   120.215     9.202     3.905     3.176    32.481    11.667     2.457     2.697     0.038   146.111   256.101 
  3067.500   121.143     9.193     3.837     3.111    32.114    12.179     2.449     2.682     0.022   146.242   260.645 
  3068.000   122.752     9.187     3.821     3.091    31.793    12.461     2.444     2.678     0.013   146.476   261.727 
  3068.500   121.806     9.193     3.806     3.080    32.287    12.423     2.445     2.671     0.016   146.865   262.776 
