~VERSION INFORMATION
VERS.           2.0   :CWLS Log ASCII Standard - VERSION 2.0
WRAP.           YES   :Multiple lines per depth step
PROD.  Schlumberger   :LAS Producer
PROG.  DLIS to ASCII 11C0-305                          :LAS Program name and version
CREA.        2004/05/20 04:53                          :LAS Creation date {YYYY/MM/DD hh:mm}
SOURCE.     FMI_SONIC_043PUP.DLIS                      :DLIS File Name
FILE-ID.     FMI_SONIC_043PUP                          :File Identification Number
#--------------------------------------------------
~WELL INFORMATION
#MNEM.UNIT      DATA             DESCRIPTION
#---- ------ --------------   -----------------------------
STRT .F         5768.5       :START DEPTH     
STOP .F         4291.5       :STOP DEPTH     
STEP .F           -0.5       :STEP     
NULL .          -999.25      :NULL VALUE
COMP .        DEPARTMENT OF ENERGY                     :COMPANY
WELL .        48X - 28                                 :WELL
FLD  .        NAVAL PETROLEUM RESERVE # 3              :FIELD
LOC  .        490' FSL, 2449' FWL                      :LOCATION
CNTY .        NATRONA                                  :COUNTY
STAT .        WYOMING                                  :STATE
CTRY .                                                 :COUNTRY
API  .        49-025-23195                             :API NUMBER
UWI  .                                                 :UNIQUE WELL ID
DATE .        20-May-2004                              :LOG DATE {DD-MMM-YYYY}
SRVC .        Schlumberger                             :SERVICE COMPANY
LATI .DEG                                              :LATITUDE
LONG .DEG                                              :LONGITUDE
GDAT .                                                 :GeoDetic Datum
SECT .        28                                       :Section
RANG .        78W                                      :Range
TOWN .        39N                                      :Township
#-----------------------------------------------------------------------------
~PARAMETER INFORMATION
#MNEM.UNIT    VALUE                      DESCRIPTION
#---- -----   --------------------       ------------------------
RUN  .          2                        :RUN NUMBER
PDAT .        GROUND LEVEL               :Permanent Datum
EPD  .F         5105.000000              :Elevation of Permanent Datum above Mean Sea Level
EPD  .F         5105.000000              :Elevation of tool zero above Mean Sea Level
LMF  .          KELLY BUSHING            :Logging Measured From (Name of Logging Elevation Reference)
APD  .F          10.000000               :Elevation of Depth Reference (LMF) above Permanent Datum
#-----------------------------------------------------------------------------
~CURVE INFORMATION
#MNEM.UNIT   API CODE                                  DESCRIPTION
#---- -----  --------                                  -----------------------
DEPT .F                                                :DEPTH (BOREHOLE) {F10.1}
ANOR .F/S2                                             :Acceleration Computed Norm {F13.4}
AX   .M/S2                                             :X Acceleration {F13.4}
AY   .M/S2                                             :Y Acceleration {F13.4}
AZ   .M/S2                                             :Z Acceleration {F13.4}
BS   .IN                                               :Bit Size {F13.4}
C1   .IN                                               :Caliper 1 {F13.4}
C2   .IN                                               :Caliper 2 {F13.4}
DB1  .                                                 :Dip Button 1 {F13.4}
DB1A .                                                 :Dip Button 1A {F13.4}
DB2  .                                                 :Dip Button 2 {F13.4}
DB2A .                                                 :Dip Button 2A {F13.4}
DB3  .                                                 :Dip Button 3 {F13.4}
DB3A .                                                 :Dip Button 3A {F13.4}
DB4  .                                                 :Dip Button 4 {F13.4}
DB4A .                                                 :Dip Button 4A {F13.4}
DEVI .DEG                                              :Hole Deviation {F13.4}
DT   .US/F                                             :Delta-T {F13.4}
FX   .OER                                              :Magnetometer X-Axis {F13.4}
FY   .OER                                              :Magnetometer Y-Axis {F13.4}
FZ   .OER                                              :Magnetometer Z-Axis {F13.4}
GR   .GAPI                                             :Gamma Ray {F13.4}
HAZI .DEG                                              :Hole Azimuth {F13.4}
ITT  .S                                                :Integrated Transit Time {F13.4}
SDEV .DEG                                              :Sonde Deviation {F13.4}
SPHI .CFCF                                             :Sonic Porosity {F13.4}
SVEL .FT/S                                             :Sonic Velocity {F13.4}
#-----------------------------------------------------------------------------
# DEPT       
#     ANOR         AX           AY           AZ           BS           C1           
#     C2           DB1          DB1A         DB2          DB2A         DB3          
#     DB3A         DB4          DB4A         DEVI         DT           FX           
#     FY           FZ           GR           HAZI         ITT          SDEV         
#     SPHI         SVEL         
~A  
# ...
4592.5
     32.2275      -0.1698       0.1958       9.7170       6.1250       7.8708
      7.2610     517.0000     486.0000     585.0000     506.0000     490.0000
    476.0000     357.0000     455.0000       1.5066      75.4214      -0.1823
      0.1107       0.5148     146.7478     171.9380       0.0727       1.5066
      0.1505   13258.8369
4592.0
     32.2198      -0.1626       0.1973      10.0166       6.1250       7.9042
      7.2610     396.0000     254.0000     372.0000     458.0000     466.0000
    562.0000     348.0000     391.0000       1.5068      75.6283      -0.1803
      0.1136       0.5148     147.9594     171.8151       0.0728       1.5068
      0.1520   13222.5693
4591.5
     32.2284      -0.1440       0.2014       9.7203       6.1250       7.9376
      7.2610     550.0000     481.0000     371.0000     422.0000     398.0000
    328.0000     261.0000     505.0000       1.5057      74.9618      -0.1746
      0.1220       0.5147     147.6341     171.6768       0.0728       1.5057
      0.1471   13340.1221
4591.0
     32.2105      -0.1488       0.2134       9.9156       6.1250       7.9487
      7.2610     403.0000     384.0000     402.0000     392.0000     423.0000
    393.0000     349.0000     363.0000       1.5054      74.5511      -0.1729
      0.1244       0.5150     146.9778     171.4970       0.0728       1.5054
      0.1440   13413.6221
4590.5
     32.2326      -0.1517       0.1874       9.9672       6.1250       7.9487
      7.2610     412.0000     315.0000     719.0000     364.0000     370.0000
    374.0000     544.0000     312.0000       1.5026      74.9623      -0.1764
      0.1192       0.5150     146.9778     171.3866       0.0729       1.5026
      0.1471   13340.0303
4590.0
     32.2138      -0.1484       0.2018       9.6216       6.1250       7.9487
      7.2610     325.0000     332.0000     322.0000     364.0000     369.0000
    330.0000     271.0000     279.0000       1.5032      74.5867      -0.1706
      0.1274       0.5147     146.3384     171.2060       0.0729       1.5032
      0.1443   13407.2090
4589.5
     32.2185      -0.1464       0.2203       9.9427       6.1250       7.9487
      7.2610     405.0000     433.0000     404.0000     425.0000     438.0000
    438.0000     338.0000     340.0000       1.5021      75.1253      -0.1694
      0.1295       0.5147     146.0355     171.0905       0.0730       1.5021
      0.1483   13311.0938
4589.0
     32.2231      -0.1150       0.2359       9.7291       6.1250       7.9487
      7.3143     436.0000     331.0000     345.0000     364.0000     373.0000
    404.0000     277.0000     332.0000       1.4999      76.3673      -0.1640
      0.1358       0.5147     143.4761     170.9526       0.0730       1.4999
      0.1576   13094.6172
4588.5
     32.2276      -0.1237       0.2193       9.9399       6.1250       7.9710
      7.3143     442.0000     412.0000     401.0000     465.0000     458.0000
    449.0000     374.0000     473.0000       1.4975      77.8300      -0.1599
      0.1406       0.5151     143.7958     170.8082       0.0730       1.4975
      0.1685   12848.5107
4588.0
     32.2318      -0.1169       0.2200       9.6555       6.1250       7.9710
      7.3676     309.0000     554.0000     319.0000     337.0000     334.0000
    373.0000     272.0000     348.0000       1.4954      78.5025      -0.1541
      0.1470       0.5148     150.2221     170.7451       0.0731       1.4954
      0.1735   12738.4473
4587.5
     32.1994      -0.1180       0.2304       9.8769       6.1250       7.9710
      7.3676     825.0000     106.0000     327.0000     270.0000     218.0000
    230.0000     199.0000     216.0000       1.4976      76.1351      -0.1522
      0.1494       0.5148     143.4930     170.6332       0.0731       1.4976
      0.1558   13134.5410
4587.0
     32.2569      -0.1040       0.2330       9.8329       6.1250       7.9710
      7.3676     271.0000     263.0000     208.0000     236.0000     242.0000
    241.0000     168.0000     133.0000       1.4942      71.9688      -0.1482
      0.1532       0.5151     131.8206     170.4887       0.0732       1.4942
      0.1247   13894.9199
4586.5
     32.1987      -0.0999       0.2350       9.7627       6.1250       7.9710
      7.3676     241.0000     189.0000     218.0000     199.0000     220.0000
    171.0000     126.0000      97.0000       1.4933      69.1481      -0.1437
      0.1570       0.5147     110.4521     170.3547       0.0732       1.4933
      0.1036   14461.7031
4586.0
     32.2143      -0.0953       0.2422       9.8879       6.1250       7.9710
      7.3676     239.0000     220.0000     296.0000     188.0000     183.0000
    160.0000     145.0000     143.0000       1.4902      64.3422      -0.1407
      0.1599       0.5149     103.3696     170.2699       0.0732       1.4902
      0.0676   15541.9023
4585.5
     32.2294      -0.1018       0.2416       9.7995       6.1250       7.9710
      7.3676     239.0000     206.0000     338.0000     306.0000     708.0000
    150.0000     161.0000     163.0000       1.4882      62.3117      -0.1443
      0.1565       0.5147      97.2109     170.0111       0.0732       1.4882
      0.0524   16048.3428
4585.0
     32.2249      -0.1126       0.2303       9.8141       6.1250       7.9710
      7.4208     288.0000     198.0000     304.0000     260.0000     586.0000
    284.0000     241.0000     238.0000       1.4870      62.9055      -0.1486
      0.1519       0.5147      93.6419     169.9212       0.0733       1.4870
      0.0569   15896.8584
4584.5
     32.2147      -0.1045       0.2351       9.8259       6.1250       7.9710
      7.4342     220.0000     286.0000     318.0000     424.0000     208.0000
    853.0000     241.0000     229.0000       1.4864      63.2057      -0.1474
      0.1534       0.5153      95.5602     169.9974       0.0733       1.4864
      0.0591   15821.3516
4584.0
     32.2164      -0.1013       0.2286       9.8228       6.1250       7.9710
      7.4475     335.0000     274.0000     388.0000     706.0000     248.0000
    671.0000     278.0000     317.0000       1.4853      63.5490      -0.1462
      0.1549       0.5151      96.3679     170.0404       0.0733       1.4853
      0.0617   15735.8877
4583.5
     32.2344      -0.0976       0.2534       9.6349       6.1250       7.9710
      7.4208     267.0000     238.0000     253.0000     693.0000     219.0000
    208.0000     164.0000     202.0000       1.4843      64.0591      -0.1408
      0.1600       0.5148     103.0819     170.2041       0.0734       1.4843
      0.0655   15610.5811
4583.0
     32.2128      -0.0763       0.2344       9.9840       6.1250       7.9710
      7.4208     314.0000     245.0000     333.0000     585.0000     561.0000
    211.0000     206.0000     263.0000       1.4845      64.4068      -0.1402
      0.1600       0.5151     105.8230     170.3074       0.0734       1.4845
      0.0681   15526.3223
4582.5
     32.2217      -0.0789       0.2324       9.7576       6.1250       7.9710
      7.4208     471.0000     488.0000     877.0000     587.0000    1208.0000
    138.0000     315.0000     401.0000       1.4836      65.9428      -0.1319
      0.1668       0.5151     117.7365     170.4940       0.0734       1.4836
      0.0796   15164.6572
4582.0
     32.2198      -0.0601       0.2327       9.7257       6.1250       7.9710
      7.5274     427.0000     418.0000    1067.0000     550.0000    1087.0000
    118.0000     325.0000     397.0000       1.4834      67.2589      -0.1216
      0.1738       0.5151     123.3954     170.5900       0.0735       1.4834
      0.0894   14867.9287
4581.5
     32.2270      -0.0524       0.2466       9.9600       6.1250       7.9710
      7.4475     407.0000     388.0000     924.0000     331.0000     900.0000
    465.0000     305.0000     341.0000       1.4808      66.9552      -0.1183
      0.1766       0.5152     118.6401     170.7430       0.0735       1.4808
      0.0872   14935.3545
4581.0
     32.2227      -0.0879       0.2455       9.8117       6.1250       7.9710
      7.4208     241.0000     211.0000     148.0000     174.0000     911.0000
    122.0000     189.0000     182.0000       1.4791      65.7845      -0.1341
      0.1647       0.5150     108.2410     170.8542       0.0735       1.4791
      0.0784   15201.1523
