~VERSION INFORMATION
VERS.           2.0   :CWLS Log ASCII Standard - VERSION 2.0
WRAP.           YES   :Multiple lines per depth step
PROD.  Schlumberger   :LAS Producer
PROG.  DLIS to ASCII 11C0-305                          :LAS Program name and version
CREA.        2004/05/20 04:53                          :LAS Creation date {YYYY/MM/DD hh:mm}
SOURCE.     FMI_SONIC_043PUP.DLIS                      :DLIS File Name
FILE-ID.     FMI_SONIC_043PUP                          :File Identification Number
#--------------------------------------------------
~WELL INFORMATION
#MNEM.UNIT      DATA             DESCRIPTION
#---- ------ --------------   -----------------------------
STRT .F         5768.5       :START DEPTH     
STOP .F         4291.5       :STOP DEPTH     
STEP .F           -0.5       :STEP     
NULL .          -999.25      :NULL VALUE
COMP .        DEPARTMENT OF ENERGY                     :COMPANY
WELL .        48X - 28                                 :WELL
FLD  .        NAVAL PETROLEUM RESERVE # 3              :FIELD
LOC  .        490' FSL, 2449' FWL                      :LOCATION
CNTY .        NATRONA                                  :COUNTY
STAT .        WYOMING                                  :STATE
CTRY .                                                 :COUNTRY
API  .        49-025-23195                             :API NUMBER
UWI  .                                                 :UNIQUE WELL ID
DATE .        20-May-2004                              :LOG DATE {DD-MMM-YYYY}
SRVC .        Schlumberger                             :SERVICE COMPANY
LATI .DEG                                              :LATITUDE
LONG .DEG                                              :LONGITUDE
GDAT .                                                 :GeoDetic Datum
SECT .        28                                       :Section
RANG .        78W                                      :Range
TOWN .        39N                                      :Township
#-----------------------------------------------------------------------------
~PARAMETER INFORMATION
#MNEM.UNIT    VALUE                      DESCRIPTION
#---- -----   --------------------       ------------------------
RUN  .          2                        :RUN NUMBER
PDAT .        GROUND LEVEL               :Permanent Datum
EPD  .F         5105.000000              :Elevation of Permanent Datum above Mean Sea Level
EPD  .F         5105.000000              :Elevation of tool zero above Mean Sea Level
LMF  .          KELLY BUSHING            :Logging Measured From (Name of Logging Elevation Reference)
APD  .F          10.000000               :Elevation of Depth Reference (LMF) above Permanent Datum
#-----------------------------------------------------------------------------
~CURVE INFORMATION
#MNEM.UNIT   API CODE                                  DESCRIPTION
#---- -----  --------                                  -----------------------
DEPT .F                                                :DEPTH (BOREHOLE) {F10.1}
ANOR .F/S2                                             :Acceleration Computed Norm {F13.4}
AX   .M/S2                                             :X Acceleration {F13.4}
AY   .M/S2                                             :Y Acceleration {F13.4}
AZ   .M/S2                                             :Z Acceleration {F13.4}
BS   .IN                                               :Bit Size {F13.4}
C1   .IN                                               :Caliper 1 {F13.4}
C2   .IN                                               :Caliper 2 {F13.4}
DB1  .                                                 :Dip Button 1 {F13.4}
DB1A .                                                 :Dip Button 1A {F13.4}
DB2  .                                                 :Dip Button 2 {F13.4}
DB2A .                                                 :Dip Button 2A {F13.4}
DB3  .                                                 :Dip Button 3 {F13.4}
DB3A .                                                 :Dip Button 3A {F13.4}
DB4  .                                                 :Dip Button 4 {F13.4}
DB4A .                                                 :Dip Button 4A {F13.4}
DEVI .DEG                                              :Hole Deviation {F13.4}
DT   .US/F                                             :Delta-T {F13.4}
FX   .OER                                              :Magnetometer X-Axis {F13.4}
FY   .OER                                              :Magnetometer Y-Axis {F13.4}
FZ   .OER                                              :Magnetometer Z-Axis {F13.4}
GR   .GAPI                                             :Gamma Ray {F13.4}
HAZI .DEG                                              :Hole Azimuth {F13.4}
ITT  .S                                                :Integrated Transit Time {F13.4}
SDEV .DEG                                              :Sonde Deviation {F13.4}
SPHI .CFCF                                             :Sonic Porosity {F13.4}
SVEL .FT/S                                             :Sonic Velocity {F13.4}
#-----------------------------------------------------------------------------
# DEPT       
#     ANOR         AX           AY           AZ           BS           C1           
#     C2           DB1          DB1A         DB2          DB2A         DB3          
#     DB3A         DB4          DB4A         DEVI         DT           FX           
#     FY           FZ           GR           HAZI         ITT          SDEV         
#     SPHI         SVEL         
~A  
# ...
5276.5
     32.2281      -0.0191       0.3520       9.9510       6.1250       7.9932
      7.4068      29.0000      34.0000      33.0000      40.0000      27.0000
     25.0000      18.0000      17.0000       2.0439      66.6269      -0.0551
      0.2095       0.5128     122.8883     178.4573       0.0296       2.0439
      0.0847   15008.9463
5276.0
     32.2334      -0.0080       0.3533       9.7989       6.1250       7.9932
      7.4068      37.0000      40.0000      14.0000      63.0000      31.0000
     32.0000      19.0000      26.0000       2.0493      65.7445      -0.0503
      0.2107       0.5128     120.9700     178.4147       0.0296       2.0493
      0.0781   15210.4053
5275.5
     32.2265      -0.0002       0.3581       9.8069       6.1250       7.9932
      7.3872      58.0000      56.0000     179.0000      43.0000      40.0000
     41.0000      33.0000      46.0000       2.0538      65.2586      -0.0433
      0.2122       0.5128     119.1476     178.4087       0.0297       2.0538
      0.0745   15323.6602
5275.0
     32.2188       0.0066       0.3546       9.8278       6.1250       7.9932
      7.3935     117.0000     122.0000     310.0000      76.0000      68.0000
     88.0000      68.0000      57.0000       2.0583      65.5474      -0.0385
      0.2131       0.5130     114.2332     178.3867       0.0297       2.0583
      0.0766   15256.1299
5274.5
     32.2351       0.0202       0.3490       9.7724       6.1250       7.9710
      7.3536     285.0000     321.0000     217.0000     232.0000     186.0000
    282.0000     221.0000     206.0000       2.0623      64.7036      -0.0326
      0.2140       0.5129     112.8904     178.3861       0.0297       2.0623
      0.0703   15455.0879
5274.0
     32.2237       0.0305       0.3435       9.8476       6.1250       7.9710
      7.3339     351.0000     383.0000     326.0000     328.0000     862.0000
    231.0000     189.0000     209.0000       2.0676      63.9338      -0.0284
      0.2146       0.5129     108.5651     178.3923       0.0298       2.0676
      0.0646   15641.1719
5273.5
     32.2106       0.0292       0.3479       9.8674       6.1250       7.9710
      7.3536     216.0000     234.0000     248.0000     210.0000    1120.0000
    115.0000     141.0000     192.0000       2.0728      62.8024      -0.0246
      0.2149       0.5127     102.0430     178.3927       0.0298       2.0728
      0.0561   15922.9551
5273.0
     32.2295       0.0381       0.3516       9.7491       6.1250       7.9710
      7.3536     238.0000     236.0000     152.0000     142.0000     167.0000
    119.0000     153.0000      88.0000       2.0764      62.1906      -0.0196
      0.2153       0.5127      96.7678     178.3998       0.0298       2.0764
      0.0515   16079.5928
5272.5
     32.2465       0.0430       0.3528       9.8416       6.1250       7.9710
      7.3536     176.0000     175.0000     284.0000     269.0000     164.0000
    189.0000     153.0000     100.0000       2.0797      61.2763      -0.0159
      0.2157       0.5126      96.5851     178.4382       0.0299       2.0797
      0.0447   16319.5195
5272.0
     32.2145       0.0531       0.3518       9.8017       6.1250       7.9710
      7.3339     226.0000     192.0000     173.0000     201.0000     184.0000
   1030.0000     115.0000     111.0000       2.0865      61.0271      -0.0120
      0.2158       0.5126      95.3382     178.4719       0.0299       2.0865
      0.0428   16386.1738
5271.5
     32.2238       0.0577       0.3542       9.8094       6.1250       7.9710
      7.3536     161.0000     167.0000     225.0000     173.0000     147.0000
   1005.0000     119.0000     100.0000       2.0902      60.6377      -0.0074
      0.2161       0.5126      92.5668     178.5197       0.0299       2.0902
      0.0399   16491.4004
5271.0
     32.2305       0.0650       0.3521       9.8322       6.1250       7.9710
      7.3536     185.0000     152.0000     222.0000     166.0000     202.0000
    400.0000     181.0000     112.0000       2.0942      60.7065      -0.0037
      0.2162       0.5126      92.3749     178.5338       0.0300       2.0942
      0.0404   16472.7090
5270.5
     32.2144       0.0724       0.3541       9.8171       6.1250       7.9710
      7.3339     198.0000     185.0000     249.0000     220.0000     379.0000
    194.0000     116.0000     104.0000       2.1002      60.5475       0.0010
      0.2159       0.5126      93.2987     178.5517       0.0300       2.1002
      0.0392   16515.9688
5270.0
     32.2357       0.0776       0.3507       9.8409       6.1250       7.9710
      7.3536     187.0000     302.0000     247.0000     193.0000     329.0000
    185.0000     189.0000     169.0000       2.1043      59.8776       0.0054
      0.2159       0.5126      93.0009     178.5601       0.0300       2.1043
      0.0342   16700.7383
5269.5
     32.2239       0.0889       0.3536       9.8086       6.1250       7.9710
      7.3536     168.0000     163.0000     179.0000     129.0000    1150.0000
     86.0000     135.0000      84.0000       2.1106      58.3869       0.0102
      0.2158       0.5126      85.4237     178.6078       0.0300       2.1106
      0.0231   17127.1230
5269.0
     32.2222       0.0972       0.3508       9.8001       6.1250       7.9710
      7.3339     130.0000     243.0000     152.0000     127.0000    1042.0000
    177.0000     118.0000      62.0000       2.1165      57.3717       0.0155
      0.2153       0.5126      79.0328     178.6168       0.0301       2.1165
      0.0155   17430.1973
5268.5
     32.2312       0.1055       0.3471       9.8572       6.1250       7.9710
      7.3536     182.0000     405.0000      14.0000      45.0000     181.0000
    -10.0000     -23.0000     -62.0000       2.1219      58.1688       0.0196
      0.2148       0.5126      83.2530     178.6264       0.0301       2.1219
      0.0215   17191.3418
5268.0
     32.2248       0.1115       0.3473       9.7848       6.1250       7.9710
      7.3339     296.0000     279.0000     201.0000     202.0000      76.0000
     50.0000     146.0000     182.0000       2.1280      59.7913       0.0246
      0.2143       0.5125      97.4483     178.6453       0.0301       2.1280
      0.0336   16724.8438
5267.5
     32.2257       0.1170       0.3455       9.7766       6.1250       7.9710
      7.3339     451.0000     827.0000     383.0000     366.0000     306.0000
    153.0000     274.0000     324.0000       2.1335      61.9732       0.0297
      0.2136       0.5125     107.4233     178.6740       0.0302       2.1335
      0.0499   16135.9961
5267.0
     32.2183       0.1294       0.3430       9.8837       6.1250       7.9710
      7.3339     337.0000     866.0000     413.0000     334.0000     141.0000
    223.0000     241.0000     250.0000       2.1396      63.7265       0.0327
      0.2130       0.5124     106.9437     178.6863       0.0302       2.1396
      0.0630   15692.0586
5266.5
     32.2309       0.1312       0.3428       9.8080       6.1250       7.9710
      7.3536     293.0000     464.0000     346.0000     337.0000     283.0000
    294.0000     205.0000     193.0000       2.1442      64.0733       0.0382
      0.2120       0.5125     103.0113     178.7077       0.0302       2.1442
      0.0656   15607.1133
5266.0
     32.2367       0.1451       0.3423       9.8009       6.1250       7.9710
      7.3536     243.0000     224.0000     302.0000     313.0000     284.0000
    620.0000     221.0000     233.0000       2.1495      64.0390       0.0431
      0.2109       0.5126     100.9971     178.7300       0.0303       2.1495
      0.0654   15615.4727
5265.5
     32.2198       0.1511       0.3387       9.8358       6.1250       7.9710
      7.3339     653.0000     223.0000     380.0000     388.0000     244.0000
    958.0000     210.0000     183.0000       2.1562      64.0708       0.0474
      0.2100       0.5125      98.1600     178.7249       0.0303       2.1562
      0.0656   15607.7246
5265.0
     32.2259       0.1587       0.3322       9.7657       6.1250       7.9710
      7.3536     893.0000     296.0000     183.0000     312.0000     237.0000
    245.0000     170.0000     114.0000       2.1617      64.1236       0.0531
      0.2085       0.5125      81.9506     178.7594       0.0303       2.1617
      0.0660   15594.8838
