~VERSION INFORMATION
VERS.           2.0   :CWLS Log ASCII Standard - VERSION 2.0
WRAP.           YES   :Multiple lines per depth step
PROD.  Schlumberger   :LAS Producer
PROG.  DLIS to ASCII 11C0-305                          :LAS Program name and version
CREA.        2004/05/20 04:53                          :LAS Creation date {YYYY/MM/DD hh:mm}
SOURCE.     FMI_SONIC_043PUP.DLIS                      :DLIS File Name
FILE-ID.     FMI_SONIC_043PUP                          :File Identification Number
#--------------------------------------------------
~WELL INFORMATION
#MNEM.UNIT      DATA             DESCRIPTION
#---- ------ --------------   -----------------------------
STRT .F         5768.5       :START DEPTH     
STOP .F         4291.5       :STOP DEPTH     
STEP .F           -0.5       :STEP     
NULL .          -999.25      :NULL VALUE
COMP .        DEPARTMENT OF ENERGY                     :COMPANY
WELL .        48X - 28                                 :WELL
FLD  .        NAVAL PETROLEUM RESERVE # 3              :FIELD
LOC  .        490' FSL, 2449' FWL                      :LOCATION
CNTY .        NATRONA                                  :COUNTY
STAT .        WYOMING                                  :STATE
CTRY .                                                 :COUNTRY
API  .        49-025-23195                             :API NUMBER
UWI  .                                                 :UNIQUE WELL ID
DATE .        20-May-2004                              :LOG DATE {DD-MMM-YYYY}
SRVC .        Schlumberger                             :SERVICE COMPANY
LATI .DEG                                              :LATITUDE
LONG .DEG                                              :LONGITUDE
GDAT .                                                 :GeoDetic Datum
SECT .        28                                       :Section
RANG .        78W                                      :Range
TOWN .        39N                                      :Township
#-----------------------------------------------------------------------------
~PARAMETER INFORMATION
#MNEM.UNIT    VALUE                      DESCRIPTION
#---- -----   --------------------       ------------------------
RUN  .          2                        :RUN NUMBER
PDAT .        GROUND LEVEL               :Permanent Datum
EPD  .F         5105.000000              :Elevation of Permanent Datum above Mean Sea Level
EPD  .F         5105.000000              :Elevation of tool zero above Mean Sea Level
LMF  .          KELLY BUSHING            :Logging Measured From (Name of Logging Elevation Reference)
APD  .F          10.000000               :Elevation of Depth Reference (LMF) above Permanent Datum
#-----------------------------------------------------------------------------
~CURVE INFORMATION
#MNEM.UNIT   API CODE                                  DESCRIPTION
#---- -----  --------                                  -----------------------
DEPT .F                                                :DEPTH (BOREHOLE) {F10.1}
ANOR .F/S2                                             :Acceleration Computed Norm {F13.4}
AX   .M/S2                                             :X Acceleration {F13.4}
AY   .M/S2                                             :Y Acceleration {F13.4}
AZ   .M/S2                                             :Z Acceleration {F13.4}
BS   .IN                                               :Bit Size {F13.4}
C1   .IN                                               :Caliper 1 {F13.4}
C2   .IN                                               :Caliper 2 {F13.4}
DB1  .                                                 :Dip Button 1 {F13.4}
DB1A .                                                 :Dip Button 1A {F13.4}
DB2  .                                                 :Dip Button 2 {F13.4}
DB2A .                                                 :Dip Button 2A {F13.4}
DB3  .                                                 :Dip Button 3 {F13.4}
DB3A .                                                 :Dip Button 3A {F13.4}
DB4  .                                                 :Dip Button 4 {F13.4}
DB4A .                                                 :Dip Button 4A {F13.4}
DEVI .DEG                                              :Hole Deviation {F13.4}
DT   .US/F                                             :Delta-T {F13.4}
FX   .OER                                              :Magnetometer X-Axis {F13.4}
FY   .OER                                              :Magnetometer Y-Axis {F13.4}
FZ   .OER                                              :Magnetometer Z-Axis {F13.4}
GR   .GAPI                                             :Gamma Ray {F13.4}
HAZI .DEG                                              :Hole Azimuth {F13.4}
ITT  .S                                                :Integrated Transit Time {F13.4}
SDEV .DEG                                              :Sonde Deviation {F13.4}
SPHI .CFCF                                             :Sonic Porosity {F13.4}
SVEL .FT/S                                             :Sonic Velocity {F13.4}
#-----------------------------------------------------------------------------
# DEPT       
#     ANOR         AX           AY           AZ           BS           C1           
#     C2           DB1          DB1A         DB2          DB2A         DB3          
#     DB3A         DB4          DB4A         DEVI         DT           FX           
#     FY           FZ           GR           HAZI         ITT          SDEV         
#     SPHI         SVEL         
~A  
# ...
4400.5
     32.2223       0.2806      -0.0375       9.9334       6.1250       7.5258
      6.8614     165.0000     186.0000     143.0000     166.0000     168.0000
    175.0000     178.0000     182.0000       1.6265      75.5692       0.1407
      0.1443       0.5168      40.6874     135.3226       0.0861       1.6265
      0.1516   13232.9004
4400.0
     32.2118       0.2741      -0.0587       9.7440       6.1250       7.5703
      6.8881     331.0000     341.0000     271.0000     289.0000     361.0000
    335.0000     303.0000     334.0000       1.6358      74.0933       0.1527
      0.1307       0.5167      45.0137     135.5620       0.0861       1.6358
      0.1406   13496.4971
4399.5
     32.2197       0.2722      -0.0764       9.8298       6.1250       7.5703
      6.8881     326.0000     356.0000     337.0000     345.0000     351.0000
    290.0000     281.0000     285.0000       1.6427      74.3715       0.1611
      0.1194       0.5168      49.4560     135.8414       0.0862       1.6427
      0.1426   13446.0166
4399.0
     32.2452       0.2701      -0.0924       9.8736       6.1250       7.5703
      6.8881     481.0000     475.0000     489.0000     502.0000     467.0000
    498.0000     447.0000     504.0000       1.6484      75.3222       0.1678
      0.1098       0.5169      49.5569     136.1258       0.0862       1.6484
      0.1498   13276.2979
4398.5
     32.2417       0.2613      -0.1132       9.7667       6.1250       7.5703
      6.8881     386.0000     379.0000     311.0000     361.0000     305.0000
    302.0000     318.0000     411.0000       1.6561      76.8109       0.1763
      0.0937       0.5164      43.8021     136.4096       0.0862       1.6561
      0.1609   13018.9785
4398.0
     32.1997       0.2451      -0.1356       9.7942       6.1250       7.5703
      6.8881     394.0000     407.0000     307.0000     320.0000     340.0000
    331.0000     390.0000     402.0000       1.6661      77.0785       0.1840
      0.0769       0.5167      40.8742     136.7372       0.0863       1.6661
      0.1629   12973.7920
4397.5
     32.1815       0.2391      -0.1587       9.8118       6.1250       7.5703
      6.8881     372.0000     388.0000     285.0000     291.0000     347.0000
    340.0000     333.0000     373.0000       1.6705      76.2888       0.1897
      0.0604       0.5169      36.8358     137.0804       0.0863       1.6705
      0.1570   13108.0898
4397.0
     32.2411       0.2250      -0.1782       9.8374       6.1250       7.5703
      6.8881     424.0000     421.0000     363.0000     320.0000     264.0000
    351.0000     354.0000     423.0000       1.6697      75.8083       0.1946
      0.0402       0.5165      37.1538     137.4725       0.0863       1.6697
      0.1534   13191.1680
4396.5
     32.2320       0.2155      -0.1950       9.8072       6.1250       7.5703
      6.8881     200.0000     198.0000     194.0000     205.0000     218.0000
    142.0000     293.0000     281.0000       1.6723      75.5545       0.1969
      0.0260       0.5166      37.7595     137.8506       0.0864       1.6723
      0.1515   13235.4854
4396.0
     32.2072       0.2018      -0.2118       9.7253       6.1250       7.5703
      6.8881     428.0000     415.0000     468.0000     502.0000     565.0000
    577.0000     538.0000     589.0000       1.6739      75.8304       0.1977
      0.0103       0.5165      39.4759     138.2994       0.0864       1.6739
      0.1536   13187.3252
4395.5
     32.2262       0.1923      -0.2129       9.8784       6.1250       7.5703
      6.8881     470.0000     470.0000     381.0000     411.0000     398.0000
    376.0000     393.0000     430.0000       1.6740      75.4275       0.1980
      0.0030       0.5166      41.7980     138.6453       0.0865       1.6740
      0.1505   13257.7578
4395.0
     32.2216       0.1863      -0.2219       9.8891       6.1250       7.5926
      6.8881     232.0000     244.0000     167.0000     168.0000     150.0000
    183.0000     180.0000     210.0000       1.6744      72.9440       0.1979
     -0.0043       0.5164      51.5352     139.0112       0.0865       1.6744
      0.1320   13709.1377
4394.5
     32.2146       0.1700      -0.2323       9.7898       6.1250       7.6371
      6.9946     158.0000     180.0000     125.0000     227.0000     133.0000
    206.0000      94.0000     105.0000       1.6737      71.4952       0.1968
     -0.0175       0.5166      72.5353     139.4036       0.0865       1.6737
      0.1211   13986.9570
4394.0
     32.2254       0.1616      -0.2411       9.8920       6.1250       7.6371
      6.9946     106.0000     104.0000     109.0000     121.0000      96.0000
     84.0000     103.0000      85.0000       1.6716      69.4543       0.1953
     -0.0292       0.5166      95.9584     139.7900       0.0866       1.6716
      0.1059   14397.9531
4393.5
     32.2188       0.1332      -0.2551       9.6975       6.1250       7.6371
      6.9946     308.0000     363.0000     478.0000     418.0000     345.0000
    258.0000     391.0000     375.0000       1.6690      69.3861       0.1906
     -0.0514       0.5165     111.4617     140.2270       0.0866       1.6690
      0.1054   14412.1182
4393.0
     32.2246       0.1207      -0.2583       9.8078       6.1250       7.6816
      6.9946     432.0000     410.0000     415.0000     483.0000     368.0000
    383.0000     394.0000     437.0000       1.6656      69.7161       0.1874
     -0.0613       0.5166     104.5963     140.6615       0.0866       1.6656
      0.1078   14343.8936
4392.5
     32.2177       0.1136      -0.2634       9.9046       6.1250       7.6816
      6.9946     239.0000     206.0000     225.0000     238.0000     269.0000
    192.0000     231.0000     252.0000       1.6608      68.2180       0.1850
     -0.0678       0.5166      86.5241     141.0912       0.0867       1.6608
      0.0966   14658.8838
4392.0
     32.2203       0.0939      -0.2637       9.7124       6.1250       7.6816
      6.9946     299.0000     338.0000     349.0000     308.0000     300.0000
    306.0000     303.0000     343.0000       1.6569      66.9447       0.1778
     -0.0845       0.5162      65.0849     141.4685       0.0867       1.6569
      0.0871   14937.6953
4391.5
     32.2293       0.0802      -0.2734       9.7804       6.1250       7.6816
      6.9946     234.0000     256.0000     315.0000     270.0000     211.0000
    239.0000     226.0000     273.0000       1.6520      57.7541       0.1724
     -0.0943       0.5164      54.5848     141.8198       0.0867       1.6520
      0.0184   17314.7949
4391.0
     32.2381       0.0589      -0.2800       9.8773       6.1250       7.6816
      6.9946     389.0000     392.0000     398.0000     414.0000     315.0000
    231.0000     415.0000     745.0000       1.6474      63.9135       0.1685
     -0.1020       0.5166      50.3344     142.1550       0.0868       1.6474
      0.0644   15646.1533
4390.5
     32.2093       0.0440      -0.2798       9.7567       6.1250       7.6816
      6.9946     380.0000     342.0000     365.0000     322.0000     301.0000
    294.0000     310.0000     585.0000       1.6433      63.4312       0.1593
     -0.1148       0.5163      47.1389     142.5172       0.0868       1.6433
      0.0608   15765.1133
4390.0
     32.2282       0.0259      -0.2802       9.8879       6.1250       7.6816
      6.9946     277.0000     317.0000     319.0000     267.0000     193.0000
    196.0000     277.0000     389.0000       1.6369      63.2482       0.1533
     -0.1229       0.5167      47.8305     142.9051       0.0868       1.6369
      0.0594   15810.7148
4389.5
     32.2104       0.0112      -0.2776       9.7876       6.1250       7.6816
      6.9946     287.0000     354.0000     341.0000     268.0000     367.0000
    297.0000     352.0000     586.0000       1.6316      62.9778       0.1439
     -0.1337       0.5169      54.4031     143.2425       0.0869       1.6316
      0.0574   15878.5996
4389.0
     32.2325      -0.0005      -0.2790       9.8012       6.1250       7.6816
      6.9413     302.0000     350.0000     275.0000     267.0000     226.0000
    208.0000     289.0000     372.0000       1.6242      62.4757       0.1348
     -0.1431       0.5165      60.2841     143.5423       0.0869       1.6242
      0.0537   16006.2109
