~VERSION INFORMATION
VERS.           2.0   :CWLS Log ASCII Standard - VERSION 2.0
WRAP.           YES   :Multiple lines per depth step
PROD.  Schlumberger   :LAS Producer
PROG.  DLIS to ASCII 11C0-305                          :LAS Program name and version
CREA.        2004/05/20 04:53                          :LAS Creation date {YYYY/MM/DD hh:mm}
SOURCE.     FMI_SONIC_043PUP.DLIS                      :DLIS File Name
FILE-ID.     FMI_SONIC_043PUP                          :File Identification Number
#--------------------------------------------------
~WELL INFORMATION
#MNEM.UNIT      DATA             DESCRIPTION
#---- ------ --------------   -----------------------------
STRT .F         5768.5       :START DEPTH     
STOP .F         4291.5       :STOP DEPTH     
STEP .F           -0.5       :STEP     
NULL .          -999.25      :NULL VALUE
COMP .        DEPARTMENT OF ENERGY                     :COMPANY
WELL .        48X - 28                                 :WELL
FLD  .        NAVAL PETROLEUM RESERVE # 3              :FIELD
LOC  .        490' FSL, 2449' FWL                      :LOCATION
CNTY .        NATRONA                                  :COUNTY
STAT .        WYOMING                                  :STATE
CTRY .                                                 :COUNTRY
API  .        49-025-23195                             :API NUMBER
UWI  .                                                 :UNIQUE WELL ID
DATE .        20-May-2004                              :LOG DATE {DD-MMM-YYYY}
SRVC .        Schlumberger                             :SERVICE COMPANY
LATI .DEG                                              :LATITUDE
LONG .DEG                                              :LONGITUDE
GDAT .                                                 :GeoDetic Datum
SECT .        28                                       :Section
RANG .        78W                                      :Range
TOWN .        39N                                      :Township
#-----------------------------------------------------------------------------
~PARAMETER INFORMATION
#MNEM.UNIT    VALUE                      DESCRIPTION
#---- -----   --------------------       ------------------------
RUN  .          2                        :RUN NUMBER
PDAT .        GROUND LEVEL               :Permanent Datum
EPD  .F         5105.000000              :Elevation of Permanent Datum above Mean Sea Level
EPD  .F         5105.000000              :Elevation of tool zero above Mean Sea Level
LMF  .          KELLY BUSHING            :Logging Measured From (Name of Logging Elevation Reference)
APD  .F          10.000000               :Elevation of Depth Reference (LMF) above Permanent Datum
#-----------------------------------------------------------------------------
~CURVE INFORMATION
#MNEM.UNIT   API CODE                                  DESCRIPTION
#---- -----  --------                                  -----------------------
DEPT .F                                                :DEPTH (BOREHOLE) {F10.1}
ANOR .F/S2                                             :Acceleration Computed Norm {F13.4}
AX   .M/S2                                             :X Acceleration {F13.4}
AY   .M/S2                                             :Y Acceleration {F13.4}
AZ   .M/S2                                             :Z Acceleration {F13.4}
BS   .IN                                               :Bit Size {F13.4}
C1   .IN                                               :Caliper 1 {F13.4}
C2   .IN                                               :Caliper 2 {F13.4}
DB1  .                                                 :Dip Button 1 {F13.4}
DB1A .                                                 :Dip Button 1A {F13.4}
DB2  .                                                 :Dip Button 2 {F13.4}
DB2A .                                                 :Dip Button 2A {F13.4}
DB3  .                                                 :Dip Button 3 {F13.4}
DB3A .                                                 :Dip Button 3A {F13.4}
DB4  .                                                 :Dip Button 4 {F13.4}
DB4A .                                                 :Dip Button 4A {F13.4}
DEVI .DEG                                              :Hole Deviation {F13.4}
DT   .US/F                                             :Delta-T {F13.4}
FX   .OER                                              :Magnetometer X-Axis {F13.4}
FY   .OER                                              :Magnetometer Y-Axis {F13.4}
FZ   .OER                                              :Magnetometer Z-Axis {F13.4}
GR   .GAPI                                             :Gamma Ray {F13.4}
HAZI .DEG                                              :Hole Azimuth {F13.4}
ITT  .S                                                :Integrated Transit Time {F13.4}
SDEV .DEG                                              :Sonde Deviation {F13.4}
SPHI .CFCF                                             :Sonic Porosity {F13.4}
SVEL .FT/S                                             :Sonic Velocity {F13.4}
#-----------------------------------------------------------------------------
# DEPT       
#     ANOR         AX           AY           AZ           BS           C1           
#     C2           DB1          DB1A         DB2          DB2A         DB3          
#     DB3A         DB4          DB4A         DEVI         DT           FX           
#     FY           FZ           GR           HAZI         ITT          SDEV         
#     SPHI         SVEL         
~A  
# ...
5084.5
     32.2296       0.3939      -0.2467       9.9994       6.1250       8.6388
      7.5662     357.0000     263.0000     298.0000     359.0000     261.0000
    418.0000     277.0000     269.0000       2.6805      64.8837       0.1754
     -0.1160       0.5102     106.0203     192.1160       0.0410       2.6805
      0.0717   15412.1846
5084.0
     32.2174       0.3844      -0.2511       9.6442       6.1250       8.6499
      7.5468     424.0000     402.0000     437.0000     442.0000     356.0000
    357.0000     200.0000     -42.0000       2.6793      64.3469       0.1736
     -0.1187       0.5104     106.5347     192.1516       0.0410       2.6793
      0.0677   15540.7568
5083.5
     32.2293       0.3820      -0.2573       9.8121       6.1250       8.6499
      7.5662     531.0000     464.0000     284.0000     342.0000     380.0000
    399.0000     255.0000     188.0000       2.6782      64.5786       0.1725
     -0.1205       0.5102     107.3751     192.1921       0.0411       2.6782
      0.0694   15485.0137
5083.0
     32.2259       0.3838      -0.2575      10.0784       6.1250       8.6276
      7.4936     379.0000     317.0000     539.0000     345.0000     211.0000
    333.0000     143.0000      66.0000       2.6774      65.4012       0.1718
     -0.1215       0.5102     109.7982     192.2038       0.0411       2.6774
      0.0756   15290.2393
5082.5
     32.2223       0.3624      -0.2635       9.5431       6.1250       8.5943
      7.4208     492.0000     449.0000     234.0000     396.0000     395.0000
    605.0000     269.0000     241.0000       2.6768      65.5846       0.1678
     -0.1267       0.5103     108.3292     192.2500       0.0411       2.6768
      0.0769   15247.4902
5082.0
     32.2256       0.3783      -0.2755       9.8108       6.1250       8.5943
      7.4208     404.0000     259.0000     243.0000     330.0000     364.0000
    373.0000     196.0000     -63.0000       2.6751      65.3630       0.1668
     -0.1280       0.5103     107.7765     192.2941       0.0412       2.6751
      0.0753   15299.1865
5081.5
     32.2192       0.3673      -0.2752      10.0685       6.1250       8.5943
      7.4075     445.0000     410.0000     348.0000     305.0000     253.0000
    228.0000     -42.0000    -264.0000       2.6749      65.3918       0.1658
     -0.1293       0.5103     105.3131     192.3179       0.0412       2.6749
      0.0755   15292.4424
5081.0
     32.2310       0.3596      -0.2854       9.5836       6.1250       8.5720
      7.3669     375.0000     380.0000     411.0000     384.0000     404.0000
    419.0000    -128.0000    -281.0000       2.6737      65.0391       0.1627
     -0.1335       0.5103     109.6090     192.3613       0.0412       2.6737
      0.0728   15375.3721
5080.5
     32.2198       0.3623      -0.2836       9.8375       6.1250       8.5720
      7.3536     374.0000     397.0000     322.0000     384.0000     433.0000
    455.0000     -21.0000    -213.0000       2.6736      64.8293       0.1615
     -0.1343       0.5103     107.9785     192.4116       0.0413       2.6736
      0.0713   15425.1328
5080.0
     32.2078       0.3504      -0.2767       9.7630       6.1250       8.5720
      7.3339     405.0000     397.0000     419.0000     368.0000     314.0000
    344.0000     306.0000     219.0000       2.6740      64.3354       0.1613
     -0.1352       0.5103     105.9643     192.4469       0.0413       2.6740
      0.0676   15543.5410
5079.5
     32.2466       0.3627      -0.2892       9.7027       6.1250       8.5720
      7.2610     449.0000     492.0000     366.0000     387.0000     423.0000
    406.0000     292.0000     162.0000       2.6707      63.9081       0.1601
     -0.1366       0.5103     100.2094     192.4743       0.0413       2.6707
      0.0644   15647.4678
5079.0
     32.2208       0.3526      -0.2876      10.1455       6.1250       8.5720
      7.3005      27.0000      31.0000      23.0000      23.0000      24.0000
     29.0000      14.0000      12.0000       2.6718      64.5831       0.1599
     -0.1365       0.5104     101.0272     192.5108       0.0414       2.6718
      0.0694   15483.9326
5078.5
     32.2198       0.3548      -0.2790       9.4897       6.1250       8.5497
      7.2275      55.0000      43.0000      26.0000      28.0000      29.0000
     22.0000      -2.0000       4.0000       2.6709      64.8890       0.1599
     -0.1366       0.5103     105.3030     192.5471       0.0414       2.6709
      0.0717   15410.9346
5078.0
     32.2431       0.3521      -0.2878       9.8582       6.1250       8.5497
      7.2275      38.0000      39.0000      36.0000      32.0000      37.0000
     30.0000      19.0000      12.0000       2.6697      65.4057       0.1600
     -0.1366       0.5102     109.7352     192.5812       0.0414       2.6697
      0.0756   15289.1963
5077.5
     32.2201       0.3607      -0.2882       9.9653       6.1250       8.4941
      7.2275      24.0000      29.0000      60.0000      38.0000      43.0000
     43.0000      28.0000      31.0000       2.6708      65.3587       0.1600
     -0.1365       0.5103     109.6342     192.6186       0.0415       2.6708
      0.0752   15300.1758
5077.0
     32.2110       0.3569      -0.2832       9.6656       6.1250       8.4162
      7.2208      59.0000      60.0000      62.0000      48.0000      51.0000
     57.0000      36.0000      35.0000       2.6712      64.8035       0.1601
     -0.1361       0.5103     112.8650     192.6359       0.0415       2.6712
      0.0711   15431.2607
5076.5
     32.2344       0.3489      -0.2878       9.8247       6.1250       8.4162
      7.1811     144.0000     142.0000     137.0000     117.0000     131.0000
    140.0000      91.0000     103.0000       2.6692      64.0658       0.1599
     -0.1366       0.5103     113.0568     192.6499       0.0415       2.6692
      0.0656   15608.9531
5076.0
     32.2089       0.3571      -0.2934       9.8502       6.1250       8.3939
      7.1411     303.0000     286.0000     274.0000     274.0000     256.0000
    272.0000     182.0000     237.0000       2.6695      63.4732       0.1595
     -0.1369       0.5103     120.6290     192.6743       0.0415       2.6695
      0.0611   15754.6836
5075.5
     32.2315       0.3484      -0.2868       9.7970       6.1250       8.3939
      7.1477     306.0000     278.0000     261.0000     203.0000     327.0000
    247.0000     251.0000     275.0000       2.6687      62.1379       0.1594
     -0.1372       0.5103     119.8213     192.6876       0.0416       2.6687
      0.0511   16093.2275
5075.0
     32.2361       0.3473      -0.2911       9.8047       6.1250       8.3717
      7.1676     201.0000     267.0000     218.0000     226.0000     296.0000
    287.0000     203.0000     185.0000       2.6677      62.7807       0.1589
     -0.1379       0.5103     124.8895     192.6945       0.0416       2.6677
      0.0560   15928.4619
5074.5
     32.2127       0.3545      -0.2946       9.8444       6.1250       8.3494
      7.1676     235.0000     255.0000     309.0000     315.0000     282.0000
    576.0000     222.0000     206.0000       2.6692      63.4064       0.1586
     -0.1383       0.5103     124.6876     192.7140       0.0416       2.6692
      0.0606   15771.2783
5074.0
     32.2355       0.3484      -0.2908       9.8816       6.1250       8.2999
      7.1410     269.0000     240.0000     202.0000     209.0000     242.0000
    203.0000     225.0000     335.0000       2.6681      63.5586       0.1582
     -0.1384       0.5103     126.1011     192.7140       0.0417       2.6681
      0.0618   15733.5000
5073.5
     32.2250       0.3469      -0.2905       9.6996       6.1250       8.3049
      7.1211     315.0000     304.0000     299.0000     249.0000     191.0000
    259.0000     222.0000     287.0000       2.6689      63.8448       0.1586
     -0.1383       0.5103     125.4953     192.7232       0.0417       2.6689
      0.0639   15662.9893
5073.0
     32.2269       0.3443      -0.2906       9.9232       6.1250       8.2604
      7.1012     287.0000     265.0000     264.0000     243.0000     284.0000
    321.0000     232.0000      46.0000       2.6683      63.4891       0.1584
     -0.1382       0.5103     125.5963     192.7383       0.0417       2.6683
      0.0612   15750.7432
