~VERSION INFORMATION
VERS.           2.0   :CWLS Log ASCII Standard - VERSION 2.0
WRAP.           YES   :Multiple lines per depth step
PROD.  Schlumberger   :LAS Producer
PROG.  DLIS to ASCII 11C0-305                          :LAS Program name and version
CREA.        2004/05/20 04:53                          :LAS Creation date {YYYY/MM/DD hh:mm}
SOURCE.     FMI_SONIC_043PUP.DLIS                      :DLIS File Name
FILE-ID.     FMI_SONIC_043PUP                          :File Identification Number
#--------------------------------------------------
~WELL INFORMATION
#MNEM.UNIT      DATA             DESCRIPTION
#---- ------ --------------   -----------------------------
STRT .F         5768.5       :START DEPTH     
STOP .F         4291.5       :STOP DEPTH     
STEP .F           -0.5       :STEP     
NULL .          -999.25      :NULL VALUE
COMP .        DEPARTMENT OF ENERGY                     :COMPANY
WELL .        48X - 28                                 :WELL
FLD  .        NAVAL PETROLEUM RESERVE # 3              :FIELD
LOC  .        490' FSL, 2449' FWL                      :LOCATION
CNTY .        NATRONA                                  :COUNTY
STAT .        WYOMING                                  :STATE
CTRY .                                                 :COUNTRY
API  .        49-025-23195                             :API NUMBER
UWI  .                                                 :UNIQUE WELL ID
DATE .        20-May-2004                              :LOG DATE {DD-MMM-YYYY}
SRVC .        Schlumberger                             :SERVICE COMPANY
LATI .DEG                                              :LATITUDE
LONG .DEG                                              :LONGITUDE
GDAT .                                                 :GeoDetic Datum
SECT .        28                                       :Section
RANG .        78W                                      :Range
TOWN .        39N                                      :Township
#-----------------------------------------------------------------------------
~PARAMETER INFORMATION
#MNEM.UNIT    VALUE                      DESCRIPTION
#---- -----   --------------------       ------------------------
RUN  .          2                        :RUN NUMBER
PDAT .        GROUND LEVEL               :Permanent Datum
EPD  .F         5105.000000              :Elevation of Permanent Datum above Mean Sea Level
EPD  .F         5105.000000              :Elevation of tool zero above Mean Sea Level
LMF  .          KELLY BUSHING            :Logging Measured From (Name of Logging Elevation Reference)
APD  .F          10.000000               :Elevation of Depth Reference (LMF) above Permanent Datum
#-----------------------------------------------------------------------------
~CURVE INFORMATION
#MNEM.UNIT   API CODE                                  DESCRIPTION
#---- -----  --------                                  -----------------------
DEPT .F                                                :DEPTH (BOREHOLE) {F10.1}
ANOR .F/S2                                             :Acceleration Computed Norm {F13.4}
AX   .M/S2                                             :X Acceleration {F13.4}
AY   .M/S2                                             :Y Acceleration {F13.4}
AZ   .M/S2                                             :Z Acceleration {F13.4}
BS   .IN                                               :Bit Size {F13.4}
C1   .IN                                               :Caliper 1 {F13.4}
C2   .IN                                               :Caliper 2 {F13.4}
DB1  .                                                 :Dip Button 1 {F13.4}
DB1A .                                                 :Dip Button 1A {F13.4}
DB2  .                                                 :Dip Button 2 {F13.4}
DB2A .                                                 :Dip Button 2A {F13.4}
DB3  .                                                 :Dip Button 3 {F13.4}
DB3A .                                                 :Dip Button 3A {F13.4}
DB4  .                                                 :Dip Button 4 {F13.4}
DB4A .                                                 :Dip Button 4A {F13.4}
DEVI .DEG                                              :Hole Deviation {F13.4}
DT   .US/F                                             :Delta-T {F13.4}
FX   .OER                                              :Magnetometer X-Axis {F13.4}
FY   .OER                                              :Magnetometer Y-Axis {F13.4}
FZ   .OER                                              :Magnetometer Z-Axis {F13.4}
GR   .GAPI                                             :Gamma Ray {F13.4}
HAZI .DEG                                              :Hole Azimuth {F13.4}
ITT  .S                                                :Integrated Transit Time {F13.4}
SDEV .DEG                                              :Sonde Deviation {F13.4}
SPHI .CFCF                                             :Sonic Porosity {F13.4}
SVEL .FT/S                                             :Sonic Velocity {F13.4}
#-----------------------------------------------------------------------------
# DEPT       
#     ANOR         AX           AY           AZ           BS           C1           
#     C2           DB1          DB1A         DB2          DB2A         DB3          
#     DB3A         DB4          DB4A         DEVI         DT           FX           
#     FY           FZ           GR           HAZI         ITT          SDEV         
#     SPHI         SVEL         
~A  
# ...
5372.5
     32.2314      -0.2603      -0.2249       9.8352       6.1250       7.4368
      6.9083     237.0000     234.0000     256.0000     247.0000     258.0000
    731.0000     191.0000     137.0000       2.0073      63.4467      -0.0907
     -0.1865       0.5137     101.6982     164.6800       0.0242       2.0073
      0.0609   15761.2627
5372.0
     32.2404      -0.2690      -0.2154       9.7454       6.1250       7.4368
      6.8881     194.0000     226.0000     213.0000     227.0000     257.0000
    469.0000     199.0000     161.0000       2.0074      64.8708      -0.0957
     -0.1845       0.5137     113.0461     164.7840       0.0242       2.0074
      0.0716   15415.2676
5371.5
     32.2312      -0.2703      -0.2114       9.9196       6.1250       7.3922
      6.8881     359.0000     194.0000     182.0000     229.0000     261.0000
    322.0000     185.0000     176.0000       2.0084      61.8434      -0.0978
     -0.1833       0.5137     116.7540     164.8662       0.0242       2.0084
      0.0489   16169.8789
5371.0
     32.2357      -0.2746      -0.2070       9.8313       6.1250       7.4368
      6.9083     342.0000     141.0000     178.0000     186.0000     435.0000
    558.0000     135.0000      40.0000       2.0090      61.9982      -0.1014
     -0.1815       0.5139     127.4081     164.9540       0.0243       2.0090
      0.0501   16129.4951
5370.5
     32.2366      -0.2827      -0.1974       9.8101       6.1250       7.4368
      6.9284     149.0000     133.0000     180.0000     170.0000     198.0000
    408.0000     144.0000      71.0000       2.0096      61.6303      -0.1056
     -0.1793       0.5138     120.6998     165.0336       0.0243       2.0096
      0.0473   16225.7842
5370.0
     32.2261      -0.2825      -0.1925       9.7442       6.1250       7.4368
      6.8881     155.0000     164.0000     265.0000     249.0000     360.0000
    524.0000     189.0000     146.0000       2.0121      60.8975      -0.1088
     -0.1776       0.5138     118.9834     165.1020       0.0243       2.0121
      0.0419   16421.0352
5369.5
     32.2362      -0.2843      -0.1913       9.9511       6.1250       7.3700
      6.8881     206.0000     229.0000     243.0000     225.0000     313.0000
    180.0000     118.0000      84.0000       2.0127      59.9296      -0.1098
     -0.1770       0.5138     120.0996     165.2019       0.0244       2.0127
      0.0346   16686.2344
5369.0
     32.2234      -0.2877      -0.1925       9.7575       6.1250       7.3700
      6.9015     218.0000     249.0000     314.0000     264.0000     234.0000
    323.0000     300.0000     105.0000       2.0152      58.9988      -0.1105
     -0.1770       0.5138     116.0499     165.2832       0.0244       2.0152
      0.0277   16949.5020
5368.5
     32.2230      -0.2813      -0.1903       9.8791       6.1250       7.3700
      6.8881     290.0000     268.0000     243.0000     246.0000     530.0000
    251.0000     185.0000      81.0000       2.0172      58.7405      -0.1115
     -0.1761       0.5137     109.4986     165.3629       0.0244       2.0172
      0.0257   17024.0254
5368.0
     32.2357      -0.2866      -0.1903       9.8054       6.1250       7.3700
      6.8881     258.0000     249.0000     242.0000     261.0000     185.0000
    166.0000      86.0000      87.0000       2.0190      57.7470      -0.1141
     -0.1747       0.5137     104.6524     165.4307       0.0244       2.0190
      0.0183   17316.9121
5367.5
     32.2414      -0.2860      -0.1908       9.8208       6.1250       7.3700
      6.8881     204.0000     176.0000     229.0000     191.0000     192.0000
    217.0000     163.0000      60.0000       2.0212      57.4074      -0.1169
     -0.1728       0.5138     103.1941     165.5237       0.0245       2.0212
      0.0158   17419.3574
5367.0
     32.2203      -0.2950      -0.1863       9.7715       6.1250       7.3700
      6.9284     282.0000     195.0000     219.0000     132.0000     129.0000
    164.0000      66.0000     -81.0000       2.0240      57.9454      -0.1197
     -0.1712       0.5137     104.7927     165.6099       0.0245       2.0240
      0.0198   17257.6270
5366.5
     32.2292      -0.2949      -0.1791       9.8125       6.1250       7.3700
      6.8881     376.0000     143.0000     152.0000     112.0000     426.0000
    270.0000     254.0000     -87.0000       2.0252      58.4362      -0.1213
     -0.1701       0.5138      98.3984     165.7159       0.0245       2.0252
      0.0235   17112.6758
5366.0
     32.2416      -0.3075      -0.1807       9.8115       6.1250       7.4368
      6.9284     152.0000     225.0000     209.0000     209.0000      65.0000
    344.0000     157.0000     118.0000       2.0259      57.4115      -0.1226
     -0.1691       0.5137      93.1484     165.7899       0.0246       2.0259
      0.0158   17418.0996
5365.5
     32.2203      -0.3024      -0.1749       9.8860       6.1250       7.4368
      6.9083     141.0000     263.0000     225.0000     135.0000     552.0000
    130.0000     237.0000     368.0000       2.0283      55.6403      -0.1251
     -0.1674       0.5138      85.7838     165.8890       0.0246       2.0283
      0.0025   17972.5742
5365.0
     32.2247      -0.2971      -0.1692       9.7842       6.1250       7.4368
      6.9083     157.0000     363.0000     357.0000     236.0000     796.0000
     61.0000      83.0000      99.0000       2.0299      54.8457      -0.1279
     -0.1656       0.5137      88.3415     165.9446       0.0246       2.0299
     -0.0034   18232.9531
5364.5
     32.2379      -0.3049      -0.1664       9.8128       6.1250       7.4368
      6.9083     202.0000     188.0000     116.0000     165.0000    1022.0000
    416.0000     694.0000     721.0000       2.0301      55.3620      -0.1298
     -0.1641       0.5136      90.5627     166.0617       0.0246       2.0301
      0.0005   18062.9316
5364.0
     32.2185      -0.3105      -0.1644       9.8655       6.1250       7.4479
      6.8881     396.0000     411.0000     491.0000     468.0000     906.0000
    304.0000     595.0000     719.0000       2.0304      57.3543      -0.1315
     -0.1628       0.5136     102.2967     166.1326       0.0247       2.0304
      0.0154   17435.4707
5363.5
     32.2284      -0.3117      -0.1654       9.8281       6.1250       7.4590
      6.9083     435.0000     345.0000     177.0000     185.0000     858.0000
    366.0000     258.0000     411.0000       2.0303      58.0508      -0.1351
     -0.1600       0.5137     110.4746     166.2577       0.0247       2.0303
      0.0206   17226.2832
5363.0
     32.2376      -0.3117      -0.1471       9.7621       6.1250       7.4590
      6.8881     646.0000     408.0000     286.0000     156.0000     351.0000
    379.0000     375.0000     394.0000       2.0283      58.5301      -0.1383
     -0.1575       0.5134     114.9724     166.3246       0.0247       2.0283
      0.0242   17085.2344
5362.5
     32.2308      -0.3105      -0.1489       9.8566       6.1250       7.4256
      6.9083     396.0000     448.0000     397.0000     290.0000     365.0000
     78.0000     246.0000     403.0000       2.0268      58.6541      -0.1403
     -0.1561       0.5136     114.3330     166.4081       0.0248       2.0268
      0.0251   17049.1152
5362.0
     32.2330      -0.3153      -0.1424       9.8173       6.1250       7.3922
      6.9083     350.0000     289.0000     272.0000     269.0000     216.0000
    187.0000     246.0000     184.0000       2.0258      58.1712      -0.1428
     -0.1539       0.5136     110.4965     166.4866       0.0248       2.0258
      0.0215   17190.6465
5361.5
     32.2301      -0.3172      -0.1430       9.8556       6.1250       7.3922
      6.8614     329.0000     303.0000     240.0000     262.0000     115.0000
    179.0000     280.0000     317.0000       2.0217      57.6735      -0.1459
     -0.1512       0.5136     110.5924     166.5635       0.0248       2.0217
      0.0178   17339.0000
5361.0
     32.2357      -0.3228      -0.1306       9.7452       6.1250       7.3700
      6.8284     421.0000     459.0000     241.0000     349.0000     171.0000
    163.0000     194.0000     419.0000       2.0178      57.5691      -0.1483
     -0.1493       0.5135     106.8680     166.6518       0.0248       2.0178
      0.0170   17370.4277
