~VERSION INFORMATION
VERS.           2.0   :CWLS Log ASCII Standard - VERSION 2.0
WRAP.           YES   :Multiple lines per depth step
PROD.  Schlumberger   :LAS Producer
PROG.  DLIS to ASCII 11C0-305                          :LAS Program name and version
CREA.        2004/05/20 04:53                          :LAS Creation date {YYYY/MM/DD hh:mm}
SOURCE.     FMI_SONIC_043PUP.DLIS                      :DLIS File Name
FILE-ID.     FMI_SONIC_043PUP                          :File Identification Number
#--------------------------------------------------
~WELL INFORMATION
#MNEM.UNIT      DATA             DESCRIPTION
#---- ------ --------------   -----------------------------
STRT .F         5768.5       :START DEPTH     
STOP .F         4291.5       :STOP DEPTH     
STEP .F           -0.5       :STEP     
NULL .          -999.25      :NULL VALUE
COMP .        DEPARTMENT OF ENERGY                     :COMPANY
WELL .        48X - 28                                 :WELL
FLD  .        NAVAL PETROLEUM RESERVE # 3              :FIELD
LOC  .        490' FSL, 2449' FWL                      :LOCATION
CNTY .        NATRONA                                  :COUNTY
STAT .        WYOMING                                  :STATE
CTRY .                                                 :COUNTRY
API  .        49-025-23195                             :API NUMBER
UWI  .                                                 :UNIQUE WELL ID
DATE .        20-May-2004                              :LOG DATE {DD-MMM-YYYY}
SRVC .        Schlumberger                             :SERVICE COMPANY
LATI .DEG                                              :LATITUDE
LONG .DEG                                              :LONGITUDE
GDAT .                                                 :GeoDetic Datum
SECT .        28                                       :Section
RANG .        78W                                      :Range
TOWN .        39N                                      :Township
#-----------------------------------------------------------------------------
~PARAMETER INFORMATION
#MNEM.UNIT    VALUE                      DESCRIPTION
#---- -----   --------------------       ------------------------
RUN  .          2                        :RUN NUMBER
PDAT .        GROUND LEVEL               :Permanent Datum
EPD  .F         5105.000000              :Elevation of Permanent Datum above Mean Sea Level
EPD  .F         5105.000000              :Elevation of tool zero above Mean Sea Level
LMF  .          KELLY BUSHING            :Logging Measured From (Name of Logging Elevation Reference)
APD  .F          10.000000               :Elevation of Depth Reference (LMF) above Permanent Datum
#-----------------------------------------------------------------------------
~CURVE INFORMATION
#MNEM.UNIT   API CODE                                  DESCRIPTION
#---- -----  --------                                  -----------------------
DEPT .F                                                :DEPTH (BOREHOLE) {F10.1}
ANOR .F/S2                                             :Acceleration Computed Norm {F13.4}
AX   .M/S2                                             :X Acceleration {F13.4}
AY   .M/S2                                             :Y Acceleration {F13.4}
AZ   .M/S2                                             :Z Acceleration {F13.4}
BS   .IN                                               :Bit Size {F13.4}
C1   .IN                                               :Caliper 1 {F13.4}
C2   .IN                                               :Caliper 2 {F13.4}
DB1  .                                                 :Dip Button 1 {F13.4}
DB1A .                                                 :Dip Button 1A {F13.4}
DB2  .                                                 :Dip Button 2 {F13.4}
DB2A .                                                 :Dip Button 2A {F13.4}
DB3  .                                                 :Dip Button 3 {F13.4}
DB3A .                                                 :Dip Button 3A {F13.4}
DB4  .                                                 :Dip Button 4 {F13.4}
DB4A .                                                 :Dip Button 4A {F13.4}
DEVI .DEG                                              :Hole Deviation {F13.4}
DT   .US/F                                             :Delta-T {F13.4}
FX   .OER                                              :Magnetometer X-Axis {F13.4}
FY   .OER                                              :Magnetometer Y-Axis {F13.4}
FZ   .OER                                              :Magnetometer Z-Axis {F13.4}
GR   .GAPI                                             :Gamma Ray {F13.4}
HAZI .DEG                                              :Hole Azimuth {F13.4}
ITT  .S                                                :Integrated Transit Time {F13.4}
SDEV .DEG                                              :Sonde Deviation {F13.4}
SPHI .CFCF                                             :Sonic Porosity {F13.4}
SVEL .FT/S                                             :Sonic Velocity {F13.4}
#-----------------------------------------------------------------------------
# DEPT       
#     ANOR         AX           AY           AZ           BS           C1           
#     C2           DB1          DB1A         DB2          DB2A         DB3          
#     DB3A         DB4          DB4A         DEVI         DT           FX           
#     FY           FZ           GR           HAZI         ITT          SDEV         
#     SPHI         SVEL         
~A  
# ...
5672.5
     32.2263       0.2406       0.1042       9.7781       6.1250       7.2142
      6.4736     456.0000     476.0000     452.0000     444.0000     439.0000
    463.0000    -191.0000    -305.0000       1.5247      62.8378      -0.0140
      0.2015       0.5179      25.4171     116.2730       0.0052       1.5247
      0.0564   15913.9805
5672.0
     32.2410       0.2443       0.1039       9.8581       6.1250       7.2142
      6.4736     329.0000     324.0000     314.0000     318.0000     341.0000
    319.0000    -233.0000    -375.0000       1.5294      63.2425      -0.0082
      0.2015       0.5183      23.1960     116.1724       0.0052       1.5294
      0.0594   15812.1572
5671.5
     32.2275       0.2854       0.0892       9.9143       6.1250       7.2142
      6.4736     256.0000     313.0000     259.0000     229.0000     238.0000
    249.0000     249.0000     254.0000       1.5358      63.5334      -0.0002
      0.2015       0.5187      20.8940     116.1752       0.0052       1.5358
      0.0616   15739.7480
5671.0
     32.2138       0.2259       0.0809       9.7088       6.1250       7.2142
      6.4736     237.0000     367.0000     266.0000     242.0000     237.0000
    236.0000     215.0000     225.0000       1.5420      63.1480       0.0067
      0.2012       0.5185      20.5962     116.1120       0.0053       1.5420
      0.0587   15835.8115
5670.5
     32.2397       0.2452       0.0913       9.8266       6.1250       7.2142
      6.5003     245.0000     314.0000     304.0000     281.0000     254.0000
    260.0000     261.0000     297.0000       1.5447      62.3882       0.0104
      0.2010       0.5185      20.2277     116.1726       0.0053       1.5447
      0.0530   16028.6729
5670.0
     32.2389       0.2519       0.0810       9.7741       6.1250       7.2142
      6.5344     299.0000     276.0000     396.0000     360.0000     340.0000
    302.0000     375.0000     332.0000       1.5493      61.9332       0.0177
      0.2007       0.5179      21.0803     116.1412       0.0053       1.5493
      0.0496   16146.4238
5669.5
     32.2169       0.2711       0.0536       9.7988       6.1250       7.2142
      6.4736     406.0000     309.0000     344.0000     314.0000     384.0000
    362.0000     293.0000     242.0000       1.5535      61.5605       0.0251
      0.1994       0.5185      22.3928     116.1525       0.0054       1.5535
      0.0468   16244.1787
5669.0
     32.2389       0.2546       0.0499       9.8112       6.1250       7.2142
      6.4736     490.0000     354.0000     339.0000     316.0000     371.0000
    361.0000     280.0000     280.0000       1.5558      61.5902       0.0336
      0.1981       0.5183      23.5209     116.1773       0.0054       1.5558
      0.0470   16236.3564
5668.5
     32.2223       0.2556       0.0332       9.8113       6.1250       7.2142
      6.4736     490.0000     281.0000     315.0000     301.0000     355.0000
    364.0000     251.0000     282.0000       1.5596      62.2647       0.0431
      0.1958       0.5183      24.0538     116.2673       0.0054       1.5596
      0.0521   16060.4697
5668.0
     32.2301       0.2606       0.0204       9.8249       6.1250       7.2142
      6.4736     473.0000     331.0000     315.0000     287.0000     366.0000
    351.0000     330.0000     391.0000       1.5613      63.2413       0.0506
      0.1938       0.5183      25.4672     116.3636       0.0055       1.5613
      0.0594   15812.4434
5667.5
     32.2227       0.2687       0.0097       9.8192       6.1250       7.2142
      6.4736     453.0000     394.0000     311.0000     271.0000     308.0000
    368.0000     364.0000     427.0000       1.5661      63.2521       0.0610
      0.1906       0.5184      26.9288     116.3818       0.0055       1.5661
      0.0595   15809.7432
5667.0
     32.2229       0.2530      -0.0014       9.7930       6.1250       7.2142
      6.4736     325.0000     387.0000     311.0000     322.0000     363.0000
    472.0000     430.0000     436.0000       1.5654      63.5856       0.0661
      0.1885       0.5181      29.5717     116.4864       0.0055       1.5654
      0.0620   15726.8311
5666.5
     32.2141       0.2698      -0.0058       9.8018       6.1250       7.2142
      6.4736     310.0000     287.0000     296.0000     317.0000     303.0000
    325.0000     324.0000     343.0000       1.5704      64.3183       0.0697
      0.1873       0.5184      29.3698     116.5735       0.0056       1.5704
      0.0675   15547.6660
5666.0
     32.2063       0.2706      -0.0115       9.8010       6.1250       7.2142
      6.4736     298.0000     274.0000     274.0000     317.0000     559.0000
    334.0000     308.0000     304.0000       1.5751      64.5947       0.0717
      0.1866       0.5184      28.1583     116.6156       0.0056       1.5751
      0.0695   15481.1416
5665.5
     32.2751       0.2683      -0.0138       9.6559       6.1250       7.2587
      6.5003     230.0000     199.0000     304.0000     294.0000     426.0000
    294.0000     332.0000     931.0000       1.5743      65.8347       0.0754
      0.1847       0.5182      27.1032     116.7582       0.0056       1.5743
      0.0788   15189.5527
5665.0
     32.2136       0.2701      -0.0220       9.9129       6.1250       7.2809
      6.5538     208.0000     178.0000     293.0000     311.0000     314.0000
    433.0000     489.0000     407.0000       1.5836      64.6355       0.0803
      0.1824       0.5183      23.4686     116.7715       0.0057       1.5836
      0.0698   15471.3760
5664.5
     32.2152       0.2641      -0.0310       9.7362       6.1250       7.2809
      6.5805     441.0000     416.0000     381.0000     339.0000     311.0000
    330.0000     407.0000     445.0000       1.5889      64.7989       0.0878
      0.1788       0.5182      22.5599     116.9080       0.0057       1.5889
      0.0710   15432.3691
5664.0
     32.2601       0.2606      -0.0477       9.8712       6.1250       7.2809
      6.5671     747.0000     418.0000     387.0000     378.0000     335.0000
    307.0000     367.0000     420.0000       1.5908      65.0155       0.0934
      0.1758       0.5182      21.5049     117.0607       0.0057       1.5908
      0.0727   15380.9375
5663.5
     32.2822       0.2645      -0.0414       9.8848       6.1250       7.3588
      6.5805     425.0000     372.0000     392.0000     832.0000     324.0000
    314.0000     357.0000     424.0000       1.5975      64.1733       0.0954
      0.1749       0.5182      23.0305     117.2054       0.0057       1.5975
      0.0664   15582.8096
5663.0
     32.2103       0.2623      -0.0427       9.7455       6.1250       7.4256
      6.5805      57.0000     196.0000     237.0000      89.0000     147.0000
    114.0000     102.0000     157.0000       1.6057      63.6898       0.0961
      0.1742       0.5182      21.7937     117.2537       0.0058       1.6057
      0.0628   15701.1133
5662.5
     32.2167       0.2523      -0.0518      10.0267       6.1250       7.4590
      6.6072     860.0000     415.0000     236.0000     326.0000     307.0000
    238.0000     307.0000     181.0000       1.6123      94.0230       0.0984
      0.1730       0.5183      19.4716     117.3937       0.0058       1.6123
      0.2896   10635.6943
5662.0
     32.2386       0.2703      -0.0555       9.8276       6.1250       7.4590
      6.6072    1164.0000    1158.0000     191.0000     211.0000     605.0000
    251.0000      -2.0000      12.0000       1.6174      97.1423       0.1054
      0.1687       0.5183      18.6190     117.5251       0.0059       1.6174
      0.3130   10294.1758
5661.5
     32.2272       0.2756      -0.0554       9.8669       6.1250       7.4145
      6.6072     887.0000    1047.0000     465.0000     443.0000     474.0000
    318.0000    1179.0000     725.0000       1.6233     105.8549       0.1053
      0.1687       0.5183      17.4681     117.7356       0.0059       1.6233
      0.3781    9446.8984
5661.0
     32.2148       0.3260      -0.0879       9.3223       6.1250       7.6371
      6.6873    1170.0000    1125.0000    1049.0000     381.0000      49.0000
     35.0000     175.0000      20.0000       1.6294     108.0999       0.1067
      0.1684       0.5177      17.1652     117.8644       0.0060       1.6294
      0.3949    9250.6992
