~VERSION INFORMATION
VERS.           2.0   :CWLS Log ASCII Standard - VERSION 2.0
WRAP.           YES   :Multiple lines per depth step
PROD.  Schlumberger   :LAS Producer
PROG.  DLIS to ASCII 11C0-305                          :LAS Program name and version
CREA.        2004/05/20 04:53                          :LAS Creation date {YYYY/MM/DD hh:mm}
SOURCE.     FMI_SONIC_043PUP.DLIS                      :DLIS File Name
FILE-ID.     FMI_SONIC_043PUP                          :File Identification Number
#--------------------------------------------------
~WELL INFORMATION
#MNEM.UNIT      DATA             DESCRIPTION
#---- ------ --------------   -----------------------------
STRT .F         5768.5       :START DEPTH     
STOP .F         4291.5       :STOP DEPTH     
STEP .F           -0.5       :STEP     
NULL .          -999.25      :NULL VALUE
COMP .        DEPARTMENT OF ENERGY                     :COMPANY
WELL .        48X - 28                                 :WELL
FLD  .        NAVAL PETROLEUM RESERVE # 3              :FIELD
LOC  .        490' FSL, 2449' FWL                      :LOCATION
CNTY .        NATRONA                                  :COUNTY
STAT .        WYOMING                                  :STATE
CTRY .                                                 :COUNTRY
API  .        49-025-23195                             :API NUMBER
UWI  .                                                 :UNIQUE WELL ID
DATE .        20-May-2004                              :LOG DATE {DD-MMM-YYYY}
SRVC .        Schlumberger                             :SERVICE COMPANY
LATI .DEG                                              :LATITUDE
LONG .DEG                                              :LONGITUDE
GDAT .                                                 :GeoDetic Datum
SECT .        28                                       :Section
RANG .        78W                                      :Range
TOWN .        39N                                      :Township
#-----------------------------------------------------------------------------
~PARAMETER INFORMATION
#MNEM.UNIT    VALUE                      DESCRIPTION
#---- -----   --------------------       ------------------------
RUN  .          2                        :RUN NUMBER
PDAT .        GROUND LEVEL               :Permanent Datum
EPD  .F         5105.000000              :Elevation of Permanent Datum above Mean Sea Level
EPD  .F         5105.000000              :Elevation of tool zero above Mean Sea Level
LMF  .          KELLY BUSHING            :Logging Measured From (Name of Logging Elevation Reference)
APD  .F          10.000000               :Elevation of Depth Reference (LMF) above Permanent Datum
#-----------------------------------------------------------------------------
~CURVE INFORMATION
#MNEM.UNIT   API CODE                                  DESCRIPTION
#---- -----  --------                                  -----------------------
DEPT .F                                                :DEPTH (BOREHOLE) {F10.1}
ANOR .F/S2                                             :Acceleration Computed Norm {F13.4}
AX   .M/S2                                             :X Acceleration {F13.4}
AY   .M/S2                                             :Y Acceleration {F13.4}
AZ   .M/S2                                             :Z Acceleration {F13.4}
BS   .IN                                               :Bit Size {F13.4}
C1   .IN                                               :Caliper 1 {F13.4}
C2   .IN                                               :Caliper 2 {F13.4}
DB1  .                                                 :Dip Button 1 {F13.4}
DB1A .                                                 :Dip Button 1A {F13.4}
DB2  .                                                 :Dip Button 2 {F13.4}
DB2A .                                                 :Dip Button 2A {F13.4}
DB3  .                                                 :Dip Button 3 {F13.4}
DB3A .                                                 :Dip Button 3A {F13.4}
DB4  .                                                 :Dip Button 4 {F13.4}
DB4A .                                                 :Dip Button 4A {F13.4}
DEVI .DEG                                              :Hole Deviation {F13.4}
DT   .US/F                                             :Delta-T {F13.4}
FX   .OER                                              :Magnetometer X-Axis {F13.4}
FY   .OER                                              :Magnetometer Y-Axis {F13.4}
FZ   .OER                                              :Magnetometer Z-Axis {F13.4}
GR   .GAPI                                             :Gamma Ray {F13.4}
HAZI .DEG                                              :Hole Azimuth {F13.4}
ITT  .S                                                :Integrated Transit Time {F13.4}
SDEV .DEG                                              :Sonde Deviation {F13.4}
SPHI .CFCF                                             :Sonic Porosity {F13.4}
SVEL .FT/S                                             :Sonic Velocity {F13.4}
#-----------------------------------------------------------------------------
# DEPT       
#     ANOR         AX           AY           AZ           BS           C1           
#     C2           DB1          DB1A         DB2          DB2A         DB3          
#     DB3A         DB4          DB4A         DEVI         DT           FX           
#     FY           FZ           GR           HAZI         ITT          SDEV         
#     SPHI         SVEL         
~A  
# ...
4988.5
     32.2107      -0.1440      -0.3733       9.7877       6.1250       8.0378
      7.5468     327.0000     414.0000     416.0000     288.0000    1089.0000
    238.0000     291.0000     295.0000       2.3478      58.8076      -0.0926
     -0.1913       0.5115      71.4808     196.2136       0.0472       2.3478
      0.0262   17004.6074
4988.0
     32.2177      -0.1597      -0.3687       9.7886       6.1250       8.0378
      7.5468     847.0000     415.0000     301.0000     238.0000     259.0000
    248.0000     241.0000     332.0000       2.3404      57.5766      -0.1003
     -0.1876       0.5116      73.2981     196.2817       0.0472       2.3404
      0.0170   17368.1641
4987.5
     32.2240      -0.1757      -0.3550       9.8114       6.1250       8.0378
      7.5468     559.0000     359.0000     310.0000     371.0000     188.0000
    439.0000     274.0000     426.0000       2.3316      57.7638      -0.1077
     -0.1835       0.5116      73.5000     196.2998       0.0472       2.3316
      0.0184   17311.8848
4987.0
     32.2192      -0.1879      -0.3501       9.8193       6.1250       8.0378
      7.5274     473.0000     564.0000     466.0000     520.0000     581.0000
    350.0000     342.0000     347.0000       2.3236      57.3093      -0.1149
     -0.1796       0.5115      79.3558     196.3348       0.0472       2.3236
      0.0150   17449.1621
4986.5
     32.2406      -0.1986      -0.3429       9.8300       6.1250       8.0378
      7.5468     493.0000     471.0000     471.0000     539.0000     287.0000
    564.0000     369.0000    1196.0000       2.3147      58.2490      -0.1224
     -0.1747       0.5116      79.9111     196.3750       0.0473       2.3147
      0.0221   17167.6680
4986.0
     32.2252      -0.2130      -0.3349       9.8402       6.1250       8.0378
      7.5274     399.0000     415.0000     381.0000     392.0000     326.0000
    338.0000     262.0000     295.0000       2.3070      59.4159      -0.1299
     -0.1695       0.5122      83.4498     196.4018       0.0473       2.3070
      0.0308   16830.5156
4985.5
     32.2221      -0.2252      -0.3248       9.8002       6.1250       8.0378
      7.5274     368.0000     411.0000     371.0000     400.0000     271.0000
    429.0000     292.0000     166.0000       2.2985      50.7506      -0.1363
     -0.1646       0.5120      82.6421     196.4615       0.0473       2.2985
     -0.0340   19704.1973
4985.0
     32.2331      -0.2281      -0.3192       9.7968       6.1250       8.0378
      7.5468     145.0000     123.0000     246.0000     324.0000     366.0000
    367.0000     273.0000     410.0000       2.2903      60.4705      -0.1396
     -0.1619       0.5118      81.3801     196.4772       0.0474       2.2903
      0.0387   16536.9863
4984.5
     32.2204      -0.2403      -0.3129       9.8088       6.1250       8.0378
      7.5263     268.0000     241.0000     290.0000     346.0000     278.0000
    286.0000     363.0000     362.0000       2.2826      59.7118      -0.1432
     -0.1588       0.5118      81.0722     196.4910       0.0474       2.2826
      0.0330   16747.1152
4984.0
     32.2303      -0.2443      -0.3062       9.7720       6.1250       8.0378
      7.4741     459.0000     567.0000     464.0000     436.0000     328.0000
    449.0000     403.0000     421.0000       2.2750      60.3013      -0.1465
     -0.1560       0.5119      86.7664     196.5061       0.0474       2.2750
      0.0374   16583.3848
4983.5
     32.2236      -0.2500      -0.2966       9.8490       6.1250       8.0378
      7.4537     523.0000     414.0000     319.0000     499.0000     292.0000
    585.0000     414.0000     550.0000       2.2682      62.2597      -0.1490
     -0.1536       0.5120      96.6607     196.5275       0.0474       2.2682
      0.0521   16061.7471
4983.0
     32.2253      -0.2481      -0.2999       9.7564       6.1250       8.0378
      7.4404     481.0000     518.0000     437.0000     596.0000     387.0000
    348.0000     664.0000     283.0000       2.2605      63.9920      -0.1516
     -0.1509       0.5121     108.2864     196.5739       0.0475       2.2605
      0.0650   15626.9580
4982.5
     32.2288      -0.2497      -0.2953       9.9146       6.1250       8.0378
      7.4404     484.0000     538.0000     516.0000     492.0000     329.0000
    401.0000     368.0000     321.0000       2.2563      66.1905      -0.1536
     -0.1492       0.5122     117.8374     196.6232       0.0475       2.2563
      0.0815   15107.9121
4982.0
     32.2266      -0.2588      -0.2824       9.8179       6.1250       8.0378
      7.4208     496.0000     548.0000     404.0000     469.0000     303.0000
    346.0000     429.0000     390.0000       2.2495      66.9446      -0.1559
     -0.1466       0.5121     119.5425     196.6660       0.0475       2.2495
      0.0871   14937.7305
4981.5
     32.2262      -0.2548      -0.2769       9.6685       6.1250       8.0378
      7.4404     660.0000     630.0000     618.0000     617.0000     594.0000
    591.0000     652.0000     490.0000       2.2440      67.9937      -0.1575
     -0.1452       0.5118     119.9216     196.7039       0.0476       2.2440
      0.0949   14707.2373
4981.0
     32.2339      -0.2633      -0.2841      10.0304       6.1250       8.0378
      7.3872     439.0000     882.0000     268.0000     270.0000     198.0000
    228.0000     189.0000     190.0000       2.2380      67.5893      -0.1576
     -0.1449       0.5120     118.1043     196.7355       0.0476       2.2380
      0.0919   14795.2344
4980.5
     32.2192      -0.2556      -0.2814       9.6673       6.1250       8.0378
      7.3606     378.0000     348.0000     370.0000     603.0000     338.0000
    367.0000     301.0000     301.0000       2.2337      65.6754      -0.1575
     -0.1450       0.5121     112.1790     196.7728       0.0476       2.2337
      0.0776   15226.4102
4980.0
     32.2323      -0.2613      -0.2858       9.8480       6.1250       8.0378
      7.3143     155.0000     235.0000     441.0000      96.0000     153.0000
    107.0000     103.0000     191.0000       2.2283      64.0184      -0.1575
     -0.1453       0.5122     103.7078     196.8412       0.0477       2.2283
      0.0652   15620.5049
4979.5
     32.2269      -0.2560      -0.2826       9.7954       6.1250       8.0378
      7.3143     451.0000     364.0000     311.0000     251.0000     406.0000
    267.0000      94.0000      44.0000       2.2240      63.4861      -0.1563
     -0.1459       0.5122      95.9337     196.8730       0.0477       2.2240
      0.0612   15751.4775
4979.0
     32.2244      -0.2520      -0.2869       9.7859       6.1250       8.0378
      7.3143     754.0000     805.0000     677.0000     635.0000     794.0000
    549.0000     419.0000     519.0000       2.2200      62.8304      -0.1554
     -0.1470       0.5120      99.2453     196.9499       0.0477       2.2200
      0.0563   15915.8623
4978.5
     32.2278      -0.2512      -0.2941       9.8493       6.1250       8.0378
      7.3143     216.0000     321.0000     273.0000     320.0000     181.0000
    262.0000     176.0000     165.0000       2.2160      62.4524      -0.1542
     -0.1482       0.5120      98.8414     197.0148       0.0478       2.2160
      0.0535   16012.1865
4978.0
     32.2114      -0.2335      -0.2783       9.8026       6.1250       8.0378
      7.3339     739.0000     217.0000     306.0000     228.0000     187.0000
    178.0000     115.0000     166.0000       2.2133      62.2596      -0.1529
     -0.1495       0.5121      93.7025     197.0648       0.0478       2.2133
      0.0521   16061.7686
4977.5
     32.2219      -0.2478      -0.2919       9.8028       6.1250       8.0378
      7.3143     258.0000     504.0000     138.0000     204.0000      80.0000
    191.0000     151.0000      90.0000       2.2095      62.5636      -0.1513
     -0.1507       0.5121      85.6255     197.1396       0.0478       2.2095
      0.0543   15983.7275
4977.0
     32.2258      -0.2402      -0.2954       9.8259       6.1250       8.0378
      7.3143     266.0000     183.0000     216.0000     216.0000     146.0000
    203.0000     309.0000     289.0000       2.2069      60.8247      -0.1506
     -0.1515       0.5121      83.2832     197.1869       0.0479       2.2069
      0.0413   16440.6855
