~VERSION INFORMATION
VERS.           2.0   :CWLS Log ASCII Standard - VERSION 2.0
WRAP.           YES   :Multiple lines per depth step
PROD.  Schlumberger   :LAS Producer
PROG.  DLIS to ASCII 11C0-305                          :LAS Program name and version
CREA.        2004/05/20 04:53                          :LAS Creation date {YYYY/MM/DD hh:mm}
SOURCE.     FMI_SONIC_043PUP.DLIS                      :DLIS File Name
FILE-ID.     FMI_SONIC_043PUP                          :File Identification Number
#--------------------------------------------------
~WELL INFORMATION
#MNEM.UNIT      DATA             DESCRIPTION
#---- ------ --------------   -----------------------------
STRT .F         5768.5       :START DEPTH     
STOP .F         4291.5       :STOP DEPTH     
STEP .F           -0.5       :STEP     
NULL .          -999.25      :NULL VALUE
COMP .        DEPARTMENT OF ENERGY                     :COMPANY
WELL .        48X - 28                                 :WELL
FLD  .        NAVAL PETROLEUM RESERVE # 3              :FIELD
LOC  .        490' FSL, 2449' FWL                      :LOCATION
CNTY .        NATRONA                                  :COUNTY
STAT .        WYOMING                                  :STATE
CTRY .                                                 :COUNTRY
API  .        49-025-23195                             :API NUMBER
UWI  .                                                 :UNIQUE WELL ID
DATE .        20-May-2004                              :LOG DATE {DD-MMM-YYYY}
SRVC .        Schlumberger                             :SERVICE COMPANY
LATI .DEG                                              :LATITUDE
LONG .DEG                                              :LONGITUDE
GDAT .                                                 :GeoDetic Datum
SECT .        28                                       :Section
RANG .        78W                                      :Range
TOWN .        39N                                      :Township
#-----------------------------------------------------------------------------
~PARAMETER INFORMATION
#MNEM.UNIT    VALUE                      DESCRIPTION
#---- -----   --------------------       ------------------------
RUN  .          2                        :RUN NUMBER
PDAT .        GROUND LEVEL               :Permanent Datum
EPD  .F         5105.000000              :Elevation of Permanent Datum above Mean Sea Level
EPD  .F         5105.000000              :Elevation of tool zero above Mean Sea Level
LMF  .          KELLY BUSHING            :Logging Measured From (Name of Logging Elevation Reference)
APD  .F          10.000000               :Elevation of Depth Reference (LMF) above Permanent Datum
#-----------------------------------------------------------------------------
~CURVE INFORMATION
#MNEM.UNIT   API CODE                                  DESCRIPTION
#---- -----  --------                                  -----------------------
DEPT .F                                                :DEPTH (BOREHOLE) {F10.1}
ANOR .F/S2                                             :Acceleration Computed Norm {F13.4}
AX   .M/S2                                             :X Acceleration {F13.4}
AY   .M/S2                                             :Y Acceleration {F13.4}
AZ   .M/S2                                             :Z Acceleration {F13.4}
BS   .IN                                               :Bit Size {F13.4}
C1   .IN                                               :Caliper 1 {F13.4}
C2   .IN                                               :Caliper 2 {F13.4}
DB1  .                                                 :Dip Button 1 {F13.4}
DB1A .                                                 :Dip Button 1A {F13.4}
DB2  .                                                 :Dip Button 2 {F13.4}
DB2A .                                                 :Dip Button 2A {F13.4}
DB3  .                                                 :Dip Button 3 {F13.4}
DB3A .                                                 :Dip Button 3A {F13.4}
DB4  .                                                 :Dip Button 4 {F13.4}
DB4A .                                                 :Dip Button 4A {F13.4}
DEVI .DEG                                              :Hole Deviation {F13.4}
DT   .US/F                                             :Delta-T {F13.4}
FX   .OER                                              :Magnetometer X-Axis {F13.4}
FY   .OER                                              :Magnetometer Y-Axis {F13.4}
FZ   .OER                                              :Magnetometer Z-Axis {F13.4}
GR   .GAPI                                             :Gamma Ray {F13.4}
HAZI .DEG                                              :Hole Azimuth {F13.4}
ITT  .S                                                :Integrated Transit Time {F13.4}
SDEV .DEG                                              :Sonde Deviation {F13.4}
SPHI .CFCF                                             :Sonic Porosity {F13.4}
SVEL .FT/S                                             :Sonic Velocity {F13.4}
#-----------------------------------------------------------------------------
# DEPT       
#     ANOR         AX           AY           AZ           BS           C1           
#     C2           DB1          DB1A         DB2          DB2A         DB3          
#     DB3A         DB4          DB4A         DEVI         DT           FX           
#     FY           FZ           GR           HAZI         ITT          SDEV         
#     SPHI         SVEL         
~A  
# ...
5576.5
     32.2219       0.1778       0.2002       9.7464       6.1250       7.3700
      6.6483     538.0000     439.0000     504.0000     572.0000     365.0000
    485.0000     100.0000    -114.0000       1.5698      60.0143      -0.0476
      0.2015       0.5169      27.0084     134.3741       0.0113       1.5698
      0.0353   16662.6836
5576.0
     32.2041       0.1612       0.2059       9.8631       6.1250       7.3255
      6.6217     121.0000     117.0000     366.0000     131.0000      93.0000
    108.0000    -138.0000    -313.0000       1.5726      61.0562      -0.0477
      0.2014       0.5169      27.8610     134.2785       0.0113       1.5726
      0.0431   16378.3516
5575.5
     32.2374       0.1833       0.2044       9.7699       6.1250       7.3255
      6.6217       9.0000      10.0000      70.0000      46.0000       1.0000
     -7.0000    -354.0000    -471.0000       1.5735      60.2213      -0.0440
      0.2021       0.5169      22.1667     134.2038       0.0113       1.5735
      0.0368   16605.4336
5575.0
     32.2256       0.1856       0.1998       9.8161       6.1250       7.3255
      6.6217      29.0000      22.0000      62.0000      26.0000      22.0000
     -7.0000     159.0000     155.0000       1.5752      62.2600      -0.0393
      0.2030       0.5169      19.0470     134.1858       0.0114       1.5752
      0.0521   16061.6748
5574.5
     32.2246       0.1880       0.1921       9.8515       6.1250       7.3255
      6.6350      20.0000     117.0000      35.0000      20.0000      43.0000
     13.0000    -317.0000    -438.0000       1.5776      82.5254      -0.0332
      0.2039       0.5168      14.2962     134.1678       0.0114       1.5776
      0.2036   12117.4814
5574.0
     32.2316       0.1978       0.1853       9.8225       6.1250       7.3588
      6.6205       4.0000      17.0000       4.0000       4.0000       4.0000
      4.0000       3.0000       2.0000       1.5791      84.6487      -0.0240
      0.2052       0.5168      14.1683     134.0653       0.0115       1.5791
      0.2195   11813.5361
5573.5
     32.2405       0.1924       0.1800       9.7810       6.1250       7.3700
      6.6483       4.0000      26.0000       3.0000       3.0000       4.0000
      9.0000       6.0000       7.0000       1.5814      84.8280      -0.0214
      0.2050       0.5168      14.4712     134.0643       0.0115       1.5814
      0.2209   11788.5576
5573.0
     32.2360       0.1994       0.1836       9.9566       6.1250       7.3922
      6.6217       4.0000       3.0000       3.0000       1.0000       0.0000
      3.0000       3.0000       0.0000       1.5840      82.6555      -0.0209
      0.2054       0.5168      15.2789     134.0156       0.0115       1.5840
      0.2046   12098.4043
5572.5
     32.2203       0.2151       0.1645       9.7394       6.1250       7.3811
      6.6217     105.0000       5.0000       4.0000       4.0000      -1.0000
     -1.0000       1.0000      -2.0000       1.5860      55.2829      -0.0101
      0.2055       0.5168      17.6683     133.9865       0.0116       1.5860
     -0.0001   18088.7695
5572.0
     32.2292       0.2155       0.1596       9.7619       6.1250       7.3477
      6.6217      25.0000       1.0000       1.0000       1.0000      -1.0000
      2.0000     -31.0000     -57.0000       1.5889      60.6887      -0.0011
      0.2055       0.5168      18.7789     134.0349       0.0116       1.5889
      0.0403   16477.5215
5571.5
     32.2306       0.2213       0.1568       9.9096       6.1250       7.3700
      6.6217     173.0000      46.0000      14.0000      14.0000      26.0000
      4.0000     -35.0000     -78.0000       1.5931      61.3049       0.0025
      0.2055       0.5167      19.0818     133.9596       0.0116       1.5931
      0.0449   16311.9180
5571.0
     32.2382       0.2300       0.1462       9.7725       6.1250       7.3922
      6.6217     592.0000     395.0000      57.0000      62.0000      65.0000
     23.0000    -180.0000    -279.0000       1.5950      62.2471       0.0103
      0.2052       0.5167      21.6058     133.9648       0.0117       1.5950
      0.0520   16065.0078
5570.5
     32.2182       0.2333       0.1418       9.8019       6.1250       7.3811
      6.6217      73.0000     321.0000      65.0000      62.0000      37.0000
     23.0000    -211.0000    -300.0000       1.5989      61.5189       0.0178
      0.2045       0.5167      25.3582     133.9896       0.0117       1.5989
      0.0465   16255.1758
5570.0
     32.2331       0.2425       0.1319       9.8301       6.1250       7.3922
      6.6217      28.0000     539.0000     107.0000      78.0000      64.0000
     48.0000    -184.0000    -317.0000       1.6028      60.5900       0.0224
      0.2039       0.5167      30.9111     133.9704       0.0117       1.6028
      0.0396   16504.3672
5569.5
     32.2422       0.2412       0.1367       9.8464       6.1250       7.3811
      6.6217      20.0000     352.0000      26.0000      15.0000      19.0000
     15.0000    -128.0000    -250.0000       1.6069      65.3025       0.0273
      0.2034       0.5167      37.2717     134.0044       0.0117       1.6069
      0.0748   15313.3477
5569.0
     32.2273       0.2413       0.1149       9.8378       6.1250       7.3811
      6.6217     232.0000      39.0000      21.0000      14.0000      14.0000
      8.0000    -154.0000    -269.0000       1.6136      56.0840       0.0357
      0.2020       0.5167      39.5770     134.0375       0.0118       1.6136
      0.0059   17830.3828
5568.5
     32.2121       0.2529       0.1079       9.8178       6.1250       7.3700
      6.6217     399.0000      43.0000      77.0000      86.0000      64.0000
     55.0000    -104.0000    -212.0000       1.6189      55.4323       0.0464
      0.1993       0.5166      39.5770     134.0832       0.0118       1.6189
      0.0010   18040.0352
5568.0
     32.2407       0.2616       0.0989       9.8204       6.1250       7.3477
      6.5950      29.0000      23.0000      17.0000       7.0000      70.0000
     59.0000     -66.0000    -105.0000       1.6225      56.2230       0.0568
      0.1965       0.5166      33.4184     134.2643       0.0118       1.6225
      0.0069   17786.3145
5567.5
     32.2320       0.2671       0.0811       9.8102       6.1250       7.3811
      6.6483      11.0000       8.0000       7.0000      46.0000      14.0000
     64.0000    -138.0000    -245.0000       1.6284      56.9362       0.0667
      0.1927       0.5166      29.2789     134.3993       0.0119       1.6284
      0.0122   17563.5176
5567.0
     32.2220       0.2676       0.0708       9.8278       6.1250       7.3811
      6.6483      23.0000      24.0000      42.0000      45.0000      21.0000
    116.0000     -97.0000    -187.0000       1.6339      60.9175       0.0763
      0.1891       0.5165      26.8334     134.5538       0.0119       1.6339
      0.0420   16415.6484
5566.5
     32.2365       0.2836       0.0564       9.8367       6.1250       7.3922
      6.6483      19.0000      15.0000      29.0000      21.0000      27.0000
     32.0000       0.0000     335.0000       1.6378      64.1801       0.0874
      0.1839       0.5167      27.8430     134.6931       0.0119       1.6378
      0.0664   15581.1523
5566.0
     32.2405       0.2812       0.0412       9.7688       6.1250       7.3700
      6.6616      77.0000      66.0000      70.0000      61.0000      80.0000
     85.0000     120.0000     107.0000       1.6427      65.2297       0.0981
      0.1779       0.5165      31.9152     134.7607       0.0120       1.6427
      0.0743   15330.4336
5565.5
     32.2318       0.2837       0.0215       9.9119       6.1250       7.3922
      6.7149     248.0000     199.0000     211.0000     192.0000     180.0000
    218.0000     208.0000     239.0000       1.6477      83.5927       0.1054
      0.1738       0.5165      32.9472     134.9292       0.0120       1.6477
      0.2116   11962.7744
5565.0
     32.2258       0.2854       0.0115       9.7315       6.1250       7.3700
      6.7282     209.0000     153.0000     229.0000     251.0000     235.0000
    182.0000     156.0000     195.0000       1.6519      84.3858       0.1157
      0.1663       0.5164      33.6427     135.0187       0.0120       1.6519
      0.2175   11850.3389
