~VERSION INFORMATION
VERS.           2.0   :CWLS Log ASCII Standard - VERSION 2.0
WRAP.           YES   :Multiple lines per depth step
PROD.  Schlumberger   :LAS Producer
PROG.  DLIS to ASCII 11C0-305                          :LAS Program name and version
CREA.        2004/05/20 04:53                          :LAS Creation date {YYYY/MM/DD hh:mm}
SOURCE.     FMI_SONIC_043PUP.DLIS                      :DLIS File Name
FILE-ID.     FMI_SONIC_043PUP                          :File Identification Number
#--------------------------------------------------
~WELL INFORMATION
#MNEM.UNIT      DATA             DESCRIPTION
#---- ------ --------------   -----------------------------
STRT .F         5768.5       :START DEPTH     
STOP .F         4291.5       :STOP DEPTH     
STEP .F           -0.5       :STEP     
NULL .          -999.25      :NULL VALUE
COMP .        DEPARTMENT OF ENERGY                     :COMPANY
WELL .        48X - 28                                 :WELL
FLD  .        NAVAL PETROLEUM RESERVE # 3              :FIELD
LOC  .        490' FSL, 2449' FWL                      :LOCATION
CNTY .        NATRONA                                  :COUNTY
STAT .        WYOMING                                  :STATE
CTRY .                                                 :COUNTRY
API  .        49-025-23195                             :API NUMBER
UWI  .                                                 :UNIQUE WELL ID
DATE .        20-May-2004                              :LOG DATE {DD-MMM-YYYY}
SRVC .        Schlumberger                             :SERVICE COMPANY
LATI .DEG                                              :LATITUDE
LONG .DEG                                              :LONGITUDE
GDAT .                                                 :GeoDetic Datum
SECT .        28                                       :Section
RANG .        78W                                      :Range
TOWN .        39N                                      :Township
#-----------------------------------------------------------------------------
~PARAMETER INFORMATION
#MNEM.UNIT    VALUE                      DESCRIPTION
#---- -----   --------------------       ------------------------
RUN  .          2                        :RUN NUMBER
PDAT .        GROUND LEVEL               :Permanent Datum
EPD  .F         5105.000000              :Elevation of Permanent Datum above Mean Sea Level
EPD  .F         5105.000000              :Elevation of tool zero above Mean Sea Level
LMF  .          KELLY BUSHING            :Logging Measured From (Name of Logging Elevation Reference)
APD  .F          10.000000               :Elevation of Depth Reference (LMF) above Permanent Datum
#-----------------------------------------------------------------------------
~CURVE INFORMATION
#MNEM.UNIT   API CODE                                  DESCRIPTION
#---- -----  --------                                  -----------------------
DEPT .F                                                :DEPTH (BOREHOLE) {F10.1}
ANOR .F/S2                                             :Acceleration Computed Norm {F13.4}
AX   .M/S2                                             :X Acceleration {F13.4}
AY   .M/S2                                             :Y Acceleration {F13.4}
AZ   .M/S2                                             :Z Acceleration {F13.4}
BS   .IN                                               :Bit Size {F13.4}
C1   .IN                                               :Caliper 1 {F13.4}
C2   .IN                                               :Caliper 2 {F13.4}
DB1  .                                                 :Dip Button 1 {F13.4}
DB1A .                                                 :Dip Button 1A {F13.4}
DB2  .                                                 :Dip Button 2 {F13.4}
DB2A .                                                 :Dip Button 2A {F13.4}
DB3  .                                                 :Dip Button 3 {F13.4}
DB3A .                                                 :Dip Button 3A {F13.4}
DB4  .                                                 :Dip Button 4 {F13.4}
DB4A .                                                 :Dip Button 4A {F13.4}
DEVI .DEG                                              :Hole Deviation {F13.4}
DT   .US/F                                             :Delta-T {F13.4}
FX   .OER                                              :Magnetometer X-Axis {F13.4}
FY   .OER                                              :Magnetometer Y-Axis {F13.4}
FZ   .OER                                              :Magnetometer Z-Axis {F13.4}
GR   .GAPI                                             :Gamma Ray {F13.4}
HAZI .DEG                                              :Hole Azimuth {F13.4}
ITT  .S                                                :Integrated Transit Time {F13.4}
SDEV .DEG                                              :Sonde Deviation {F13.4}
SPHI .CFCF                                             :Sonic Porosity {F13.4}
SVEL .FT/S                                             :Sonic Velocity {F13.4}
#-----------------------------------------------------------------------------
# DEPT       
#     ANOR         AX           AY           AZ           BS           C1           
#     C2           DB1          DB1A         DB2          DB2A         DB3          
#     DB3A         DB4          DB4A         DEVI         DT           FX           
#     FY           FZ           GR           HAZI         ITT          SDEV         
#     SPHI         SVEL         
~A  
# ...
5180.5
     32.2746       0.1806      -0.3360       9.8660       6.1250       8.2715
      7.8585       2.0000       0.0000       6.0000       2.0000      -4.0000
     -8.0000     -24.0000     -68.0000       2.4517      49.4556       0.0962
     -0.1852       0.5113      21.5705     192.1017       0.0353       2.4517
     -0.0437   20220.1465
5180.0
     32.2963       0.2189      -0.3845       9.7768       6.1250       8.3049
      7.8395       4.0000       1.0000       7.0000       2.0000     245.0000
     -3.0000     -14.0000     -49.0000       2.4435      52.1673       0.0948
     -0.1860       0.5112      38.1910     192.0964       0.0353       2.4435
     -0.0234   19169.1035
5179.5
     32.2402       0.1938      -0.3582       9.7811       6.1250       8.3494
      7.9193      35.0000      98.0000      34.0000     148.0000     314.0000
    363.0000     299.0000     513.0000       2.4440      58.1879       0.0960
     -0.1854       0.5114      60.3296     192.1069       0.0353       2.4440
      0.0216   17185.7129
5179.0
     32.1968       0.2081      -0.3878       9.8627       6.1250       8.3717
      7.9459     194.0000     157.0000     191.0000     223.0000     318.0000
    144.0000     172.0000     124.0000       2.4517      65.9004       0.0953
     -0.1858       0.5114      78.3614     192.1803       0.0354       2.4517
      0.0793   15174.4043
5178.5
     32.2272       0.2020      -0.3637       9.8167       6.1250       8.3939
      7.9991     259.0000     216.0000     174.0000     164.0000     247.0000
    225.0000     142.0000     241.0000       2.4529      70.2081       0.0953
     -0.1857       0.5115      87.5691     192.2569       0.0354       2.4529
      0.1115   14243.3643
5178.0
     32.2281       0.2170      -0.3017      10.2010       6.1250       8.4830
      8.0844     239.0000     250.0000     137.0000     273.0000     265.0000
    298.0000     187.0000     326.0000       2.4542      74.3299       0.1041
     -0.1807       0.5109      86.5140     192.3472       0.0354       2.4542
      0.1423   13453.5342
5177.5
     32.2229       0.2048      -0.3054       9.5611       6.1250       8.8391
      8.9214     256.0000     320.0000     835.0000     794.0000     354.0000
     94.0000      34.0000      17.0000       2.4561      74.5964       0.0976
     -0.1844       0.5110      81.3347     192.4315       0.0355       2.4561
      0.1443   13405.4775
5177.0
     32.2173       0.2102      -0.3952       9.9477       6.1250       8.9059
      8.9214     287.0000     346.0000     833.0000     804.0000     481.0000
     75.0000     114.0000     -44.0000       2.4585      76.3219       0.0962
     -0.1856       0.5110      73.3739     192.5094       0.0355       2.4585
      0.1572   13102.4043
5176.5
     32.2254       0.1833      -0.3244       9.8149       6.1250       8.6610
      8.9746     124.0000     224.0000     480.0000     470.0000     514.0000
    130.0000     -60.0000      96.0000       2.4588      74.1444       0.0974
     -0.1849       0.5112      63.0152     192.5925       0.0356       2.4588
      0.1409   13487.1953
5176.0
     32.2234       0.2128      -0.3717       9.8128       6.1250       8.7501
      8.1189      61.0000     101.0000     467.0000     442.0000     216.0000
    164.0000     -49.0000      44.0000       2.4646      69.9431       0.0973
     -0.1850       0.5111      49.4913     192.7002       0.0356       2.4646
      0.1095   14297.3359
5175.5
     32.2235       0.2116      -0.4348      10.1728       6.1250       8.7501
      8.3900      42.0000      65.0000      -1.0000      -4.0000      -4.0000
     -6.0000    -253.0000    -482.0000       2.4650      64.8557       0.0978
     -0.1849       0.5112      30.4045     192.7561       0.0356       2.4650
      0.0715   15418.8350
5175.0
     32.2221       0.1925      -0.3860       9.1573       6.1250       8.7723
      8.3368      -6.0000      -7.0000      -1.0000      -2.0000       8.0000
      5.0000       9.0000     -34.0000       2.4681      57.5990       0.0935
     -0.1872       0.5110      14.7706     192.8650       0.0357       2.4681
      0.0172   17361.4043
5174.5
     32.2478       0.2020      -0.3768       9.8126       6.1250       8.7501
      8.3368      -6.0000      -6.0000      -1.0000      -3.0000       8.0000
      4.0000       8.0000     -33.0000       2.4682      53.6851       0.0935
     -0.1870       0.5114       7.1706     192.9796       0.0357       2.4682
     -0.0121   18627.1309
5174.0
     32.2142       0.2012      -0.3716       9.9528       6.1250       8.8169
      8.5228       0.0000      -2.0000       3.0000       0.0000      -5.0000
     -9.0000     -40.0000    -114.0000       2.4719      49.3810       0.0934
     -0.1868       0.5113       5.5583     193.0602       0.0357       2.4719
     -0.0443   20250.6875
5173.5
     32.2164       0.2014      -0.3746       9.8442       6.1250       8.8169
      8.5760       2.0000      -1.0000       5.0000       3.0000      -4.0000
    -12.0000     -55.0000    -157.0000       2.4740      50.0342       0.0928
     -0.1873       0.5113       6.0287     193.1871       0.0357       2.4740
     -0.0394   19986.3125
5173.0
     32.2371       0.1985      -0.3711       9.7005       6.1250       8.8169
      8.5893       2.0000      -1.0000       7.0000       2.0000      -4.0000
    -13.0000     -55.0000    -156.0000       2.4757      49.9111       0.0927
     -0.1873       0.5111       7.1874     193.2164       0.0358       2.4757
     -0.0403   20035.6348
5172.5
     32.2411       0.2036      -0.3707       9.8248       6.1250       8.8169
      8.6025       1.0000      -2.0000       7.0000       2.0000      -6.0000
    -14.0000     -68.0000    -180.0000       2.4740      50.8531       0.0929
     -0.1873       0.5112       9.6629     193.2900       0.0358       2.4740
     -0.0333   19664.4863
5172.0
     32.2429       0.2059      -0.3715       9.8713       6.1250       8.8391
      8.5663       6.0000      -1.0000       9.0000       4.0000      -7.0000
    -16.0000     -68.0000    -180.0000       2.4789      50.4729       0.0932
     -0.1871       0.5111      15.6389     193.3346       0.0358       2.4789
     -0.0361   19812.6250
5171.5
     32.1641       0.2057      -0.3709       9.7847       6.1250       8.8614
      8.6025       5.0000       1.0000      11.0000       5.0000      -4.0000
    201.0000      79.0000    -182.0000       2.4892      50.9740       0.0944
     -0.1867       0.5110      25.4372     193.3235       0.0358       2.4892
     -0.0324   19617.8398
5171.0
     32.1799       0.2114      -0.3694       9.7821       6.1250       8.8614
      8.6158       5.0000      -1.0000      10.0000       4.0000      -1.0000
    455.0000     358.0000     244.0000       2.4905      56.2050       0.0958
     -0.1859       0.5110      45.4832     193.3764       0.0359       2.4905
      0.0068   17792.0176
5170.5
     32.2254       0.2132      -0.3701       9.8615       6.1250       8.8948
      8.6557     293.0000     504.0000      20.0000      18.0000     248.0000
    267.0000     520.0000     -93.0000       2.4890      57.3133       0.0970
     -0.1851       0.5108      68.0027     193.4554       0.0359       2.4890
      0.0151   17447.9609
5170.0
     32.2529       0.2155      -0.3683       9.7831       6.1250       8.9059
      8.6823     155.0000     506.0000     376.0000     401.0000     320.0000
    379.0000     248.0000     104.0000       2.4878      60.9961       0.0985
     -0.1844       0.5111      86.8018     193.5097       0.0359       2.4878
      0.0426   16394.5000
5169.5
     32.1878       0.2217      -0.3743       9.7608       6.1250       8.9059
      8.6956     365.0000     452.0000     246.0000     352.0000     252.0000
    282.0000      85.0000       3.0000       2.4940      63.8517       0.0994
     -0.1838       0.5109      93.8035     193.5683       0.0360       2.4940
      0.0640   15661.2871
5169.0
     32.1989       0.2169      -0.3650       9.9392       6.1250       8.9282
      8.7088     432.0000     459.0000     333.0000     324.0000     200.0000
    247.0000      86.0000      23.0000       2.4955      65.9433       0.1004
     -0.1833       0.5109      88.2405     193.6887       0.0360       2.4955
      0.0796   15164.5332
