~VERSION INFORMATION
VERS.           2.0   :CWLS Log ASCII Standard - VERSION 2.0
WRAP.           YES   :Multiple lines per depth step
PROD.  Schlumberger   :LAS Producer
PROG.  DLIS to ASCII 11C0-305                          :LAS Program name and version
CREA.        2004/05/20 04:53                          :LAS Creation date {YYYY/MM/DD hh:mm}
SOURCE.     FMI_SONIC_043PUP.DLIS                      :DLIS File Name
FILE-ID.     FMI_SONIC_043PUP                          :File Identification Number
#--------------------------------------------------
~WELL INFORMATION
#MNEM.UNIT      DATA             DESCRIPTION
#---- ------ --------------   -----------------------------
STRT .F         5768.5       :START DEPTH     
STOP .F         4291.5       :STOP DEPTH     
STEP .F           -0.5       :STEP     
NULL .          -999.25      :NULL VALUE
COMP .        DEPARTMENT OF ENERGY                     :COMPANY
WELL .        48X - 28                                 :WELL
FLD  .        NAVAL PETROLEUM RESERVE # 3              :FIELD
LOC  .        490' FSL, 2449' FWL                      :LOCATION
CNTY .        NATRONA                                  :COUNTY
STAT .        WYOMING                                  :STATE
CTRY .                                                 :COUNTRY
API  .        49-025-23195                             :API NUMBER
UWI  .                                                 :UNIQUE WELL ID
DATE .        20-May-2004                              :LOG DATE {DD-MMM-YYYY}
SRVC .        Schlumberger                             :SERVICE COMPANY
LATI .DEG                                              :LATITUDE
LONG .DEG                                              :LONGITUDE
GDAT .                                                 :GeoDetic Datum
SECT .        28                                       :Section
RANG .        78W                                      :Range
TOWN .        39N                                      :Township
#-----------------------------------------------------------------------------
~PARAMETER INFORMATION
#MNEM.UNIT    VALUE                      DESCRIPTION
#---- -----   --------------------       ------------------------
RUN  .          2                        :RUN NUMBER
PDAT .        GROUND LEVEL               :Permanent Datum
EPD  .F         5105.000000              :Elevation of Permanent Datum above Mean Sea Level
EPD  .F         5105.000000              :Elevation of tool zero above Mean Sea Level
LMF  .          KELLY BUSHING            :Logging Measured From (Name of Logging Elevation Reference)
APD  .F          10.000000               :Elevation of Depth Reference (LMF) above Permanent Datum
#-----------------------------------------------------------------------------
~CURVE INFORMATION
#MNEM.UNIT   API CODE                                  DESCRIPTION
#---- -----  --------                                  -----------------------
DEPT .F                                                :DEPTH (BOREHOLE) {F10.1}
ANOR .F/S2                                             :Acceleration Computed Norm {F13.4}
AX   .M/S2                                             :X Acceleration {F13.4}
AY   .M/S2                                             :Y Acceleration {F13.4}
AZ   .M/S2                                             :Z Acceleration {F13.4}
BS   .IN                                               :Bit Size {F13.4}
C1   .IN                                               :Caliper 1 {F13.4}
C2   .IN                                               :Caliper 2 {F13.4}
DB1  .                                                 :Dip Button 1 {F13.4}
DB1A .                                                 :Dip Button 1A {F13.4}
DB2  .                                                 :Dip Button 2 {F13.4}
DB2A .                                                 :Dip Button 2A {F13.4}
DB3  .                                                 :Dip Button 3 {F13.4}
DB3A .                                                 :Dip Button 3A {F13.4}
DB4  .                                                 :Dip Button 4 {F13.4}
DB4A .                                                 :Dip Button 4A {F13.4}
DEVI .DEG                                              :Hole Deviation {F13.4}
DT   .US/F                                             :Delta-T {F13.4}
FX   .OER                                              :Magnetometer X-Axis {F13.4}
FY   .OER                                              :Magnetometer Y-Axis {F13.4}
FZ   .OER                                              :Magnetometer Z-Axis {F13.4}
GR   .GAPI                                             :Gamma Ray {F13.4}
HAZI .DEG                                              :Hole Azimuth {F13.4}
ITT  .S                                                :Integrated Transit Time {F13.4}
SDEV .DEG                                              :Sonde Deviation {F13.4}
SPHI .CFCF                                             :Sonic Porosity {F13.4}
SVEL .FT/S                                             :Sonic Velocity {F13.4}
#-----------------------------------------------------------------------------
# DEPT       
#     ANOR         AX           AY           AZ           BS           C1           
#     C2           DB1          DB1A         DB2          DB2A         DB3          
#     DB3A         DB4          DB4A         DEVI         DT           FX           
#     FY           FZ           GR           HAZI         ITT          SDEV         
#     SPHI         SVEL         
~A  
# ...
4796.5
     32.2197      -0.1003       0.2486       9.7807       6.1250       7.9487
      7.2077     470.0000     436.0000     519.0000     426.0000     265.0000
    319.0000     342.0000     553.0000       1.5840      64.1313      -0.1068
      0.1853       0.5144     110.9418     182.4817       0.0594       1.5840
      0.0661   15593.0186
4796.0
     32.2221      -0.0955       0.2432       9.9272       6.1250       7.9487
      7.2275     477.0000     662.0000     377.0000     346.0000     418.0000
    454.0000     461.0000     560.0000       1.5850      66.9196      -0.1055
      0.1864       0.5145     123.2187     182.4566       0.0594       1.5850
      0.0869   14943.2979
4795.5
     32.2218      -0.0914       0.2524       9.8553       6.1250       7.9487
      7.2077     719.0000     725.0000     610.0000     527.0000     599.0000
    675.0000     650.0000     762.0000       1.5860      69.7069      -0.1035
      0.1872       0.5145     133.8197     182.4244       0.0595       1.5860
      0.1078   14345.7910
4795.0
     32.2181      -0.0900       0.2487       9.7948       6.1250       7.9487
      7.2077     577.0000     690.0000     440.0000     425.0000     557.0000
    620.0000     440.0000     475.0000       1.5870      71.3367      -0.1016
      0.1882       0.5146     139.8168     182.4283       0.0595       1.5870
      0.1199   14018.0283
4794.5
     32.2203      -0.0932       0.2580       9.7590       6.1250       7.9487
      7.2077     658.0000     743.0000     645.0000     692.0000     652.0000
    713.0000     559.0000     715.0000       1.5885      70.7948      -0.0992
      0.1894       0.5143     134.6224     182.3912       0.0595       1.5885
      0.1159   14125.3369
4794.0
     32.2231      -0.0862       0.2602       9.8004       6.1250       7.9487
      7.2077     424.0000     439.0000     457.0000     434.0000     592.0000
    568.0000     483.0000     469.0000       1.5896      69.0643      -0.0972
      0.1905       0.5146     124.8644     182.3694       0.0596       1.5896
      0.1029   14479.2637
4793.5
     32.2239      -0.0865       0.2596       9.9325       6.1250       7.9487
      7.2077     603.0000     585.0000     403.0000     321.0000     377.0000
    372.0000     252.0000     396.0000       1.5909      66.2748      -0.0964
      0.1909       0.5146     110.6894     182.3151       0.0596       1.5909
      0.0821   15088.6924
4793.0
     32.2230      -0.0807       0.2578       9.7793       6.1250       7.9487
      7.2077     271.0000     332.0000     279.0000     258.0000     264.0000
    280.0000     193.0000     257.0000       1.5913      64.8716      -0.0927
      0.1927       0.5142     106.7519     182.3356       0.0596       1.5913
      0.0716   15415.0596
4792.5
     32.2273      -0.0807       0.2583       9.7566       6.1250       7.9487
      7.2077     373.0000     371.0000     348.0000     319.0000     328.0000
    355.0000     307.0000     342.0000       1.5926      64.2927      -0.0898
      0.1940       0.5146     108.1906     182.2982       0.0597       1.5926
      0.0673   15553.8594
4792.0
     32.2167      -0.0757       0.2630       9.8447       6.1250       7.9487
      7.2077     555.0000     572.0000     495.0000     406.0000     462.0000
    455.0000     481.0000     547.0000       1.5941      64.1817      -0.0878
      0.1950       0.5143     109.2254     182.2421       0.0597       1.5941
      0.0664   15580.7559
4791.5
     32.2196      -0.0696       0.2654       9.8177       6.1250       7.9487
      7.1811     264.0000     271.0000     347.0000     283.0000     307.0000
    364.0000     170.0000     295.0000       1.5955      63.6352      -0.0849
      0.1963       0.5147      97.2110     182.2231       0.0597       1.5955
      0.0623   15714.5820
4791.0
     32.2218      -0.0705       0.2653       9.8037       6.1250       7.9487
      7.1811     262.0000     311.0000     255.0000     270.0000     230.0000
    234.0000     233.0000     315.0000       1.5970      61.5862      -0.0822
      0.1974       0.5143      78.9965     182.1696       0.0598       1.5970
      0.0470   16237.4111
4790.5
     32.2054      -0.0658       0.2670       9.8013       6.1250       7.8597
      7.1278     359.0000     165.0000     133.0000     166.0000     228.0000
    170.0000     145.0000     150.0000       1.6001      59.7409      -0.0792
      0.1985       0.5145      68.6731     182.1194       0.0598       1.6001
      0.0332   16738.9531
4790.0
     32.2418      -0.0617       0.2702       9.8577       6.1250       7.8597
      7.1278     400.0000     425.0000     341.0000     480.0000     302.0000
    355.0000     423.0000     335.0000       1.6001      58.8089      -0.0765
      0.1996       0.5145      69.2789     182.0432       0.0598       1.6001
      0.0262   17004.2324
4789.5
     32.2209      -0.0576       0.2682       9.7987       6.1250       7.8597
      7.1278     183.0000     259.0000     151.0000     131.0000     133.0000
    126.0000     268.0000     265.0000       1.6028      58.6262      -0.0736
      0.2007       0.5143      71.6828     181.9610       0.0598       1.6028
      0.0249   17057.2305
4789.0
     32.2018      -0.0593       0.2679       9.8082       6.1250       7.8152
      7.1012     332.0000     445.0000     548.0000     376.0000     366.0000
    432.0000     367.0000     316.0000       1.6049      58.8662      -0.0706
      0.2015       0.5146      75.4520     181.8959       0.0599       1.6049
      0.0267   16987.6758
4788.5
     32.2258      -0.0474       0.2724       9.8259       6.1250       7.8152
      7.1012     485.0000     452.0000     319.0000     282.0000     500.0000
    840.0000     566.0000     288.0000       1.6053      59.3179      -0.0677
      0.2026       0.5142      76.8655     181.8367       0.0599       1.6053
      0.0301   16858.3105
4788.0
     32.2231      -0.0422       0.2679       9.8139       6.1250       7.8152
      7.1012     405.0000     373.0000     545.0000     488.0000     400.0000
    707.0000     308.0000     421.0000       1.6068      59.9042      -0.0646
      0.2033       0.5145      79.1203     181.7545       0.0599       1.6068
      0.0344   16693.3105
4787.5
     32.2169      -0.0408       0.2715       9.7805       6.1250       7.8152
      7.1012     437.0000     422.0000     402.0000     340.0000     335.0000
    975.0000     375.0000     416.0000       1.6085      60.5347      -0.0620
      0.2043       0.5145      75.0482     181.6909       0.0600       1.6085
      0.0392   16519.4570
4787.0
     32.2237      -0.0340       0.2753       9.8688       6.1250       7.8152
      7.1012     432.0000     464.0000     414.0000     444.0000     348.0000
    467.0000     253.0000     317.0000       1.6091      60.5420      -0.0592
      0.2049       0.5143      72.3390     181.6337       0.0600       1.6091
      0.0392   16517.4590
4786.5
     32.2198      -0.0309       0.2768       9.7986       6.1250       7.8152
      7.1012     563.0000     529.0000     490.0000     400.0000     368.0000
    367.0000     416.0000     411.0000       1.6102      60.5324      -0.0565
      0.2057       0.5145      74.7901     181.5567       0.0600       1.6102
      0.0391   16520.0742
4786.0
     32.2192      -0.0259       0.2744       9.8091       6.1250       7.7929
      7.1012     397.0000     316.0000     464.0000     344.0000     470.0000
    452.0000     407.0000     454.0000       1.6108      61.2455      -0.0538
      0.2067       0.5145      80.9488     181.5160       0.0601       1.6108
      0.0445   16327.7412
4785.5
     32.2234      -0.0215       0.2732       9.8205       6.1250       7.7929
      7.1012     416.0000     438.0000     414.0000     357.0000     468.0000
    424.0000     361.0000     402.0000       1.6112      61.7825      -0.0509
      0.2072       0.5142      86.2830     181.4344       0.0601       1.6112
      0.0485   16185.8145
4785.0
     32.2210      -0.0164       0.2764       9.7713       6.1250       7.7929
      7.1211     406.0000     438.0000     445.0000     423.0000     405.0000
    337.0000     353.0000     457.0000       1.6111      61.2311      -0.0482
      0.2078       0.5144      86.6251     181.4317       0.0601       1.6111
      0.0444   16331.5820
