~VERSION INFORMATION
VERS.           2.0   :CWLS Log ASCII Standard - VERSION 2.0
WRAP.           YES   :Multiple lines per depth step
PROD.  Schlumberger   :LAS Producer
PROG.  DLIS to ASCII 11C0-305                          :LAS Program name and version
CREA.        2004/05/20 04:53                          :LAS Creation date {YYYY/MM/DD hh:mm}
SOURCE.     FMI_SONIC_043PUP.DLIS                      :DLIS File Name
FILE-ID.     FMI_SONIC_043PUP                          :File Identification Number
#--------------------------------------------------
~WELL INFORMATION
#MNEM.UNIT      DATA             DESCRIPTION
#---- ------ --------------   -----------------------------
STRT .F         5768.5       :START DEPTH     
STOP .F         4291.5       :STOP DEPTH     
STEP .F           -0.5       :STEP     
NULL .          -999.25      :NULL VALUE
COMP .        DEPARTMENT OF ENERGY                     :COMPANY
WELL .        48X - 28                                 :WELL
FLD  .        NAVAL PETROLEUM RESERVE # 3              :FIELD
LOC  .        490' FSL, 2449' FWL                      :LOCATION
CNTY .        NATRONA                                  :COUNTY
STAT .        WYOMING                                  :STATE
CTRY .                                                 :COUNTRY
API  .        49-025-23195                             :API NUMBER
UWI  .                                                 :UNIQUE WELL ID
DATE .        20-May-2004                              :LOG DATE {DD-MMM-YYYY}
SRVC .        Schlumberger                             :SERVICE COMPANY
LATI .DEG                                              :LATITUDE
LONG .DEG                                              :LONGITUDE
GDAT .                                                 :GeoDetic Datum
SECT .        28                                       :Section
RANG .        78W                                      :Range
TOWN .        39N                                      :Township
#-----------------------------------------------------------------------------
~PARAMETER INFORMATION
#MNEM.UNIT    VALUE                      DESCRIPTION
#---- -----   --------------------       ------------------------
RUN  .          2                        :RUN NUMBER
PDAT .        GROUND LEVEL               :Permanent Datum
EPD  .F         5105.000000              :Elevation of Permanent Datum above Mean Sea Level
EPD  .F         5105.000000              :Elevation of tool zero above Mean Sea Level
LMF  .          KELLY BUSHING            :Logging Measured From (Name of Logging Elevation Reference)
APD  .F          10.000000               :Elevation of Depth Reference (LMF) above Permanent Datum
#-----------------------------------------------------------------------------
~CURVE INFORMATION
#MNEM.UNIT   API CODE                                  DESCRIPTION
#---- -----  --------                                  -----------------------
DEPT .F                                                :DEPTH (BOREHOLE) {F10.1}
ANOR .F/S2                                             :Acceleration Computed Norm {F13.4}
AX   .M/S2                                             :X Acceleration {F13.4}
AY   .M/S2                                             :Y Acceleration {F13.4}
AZ   .M/S2                                             :Z Acceleration {F13.4}
BS   .IN                                               :Bit Size {F13.4}
C1   .IN                                               :Caliper 1 {F13.4}
C2   .IN                                               :Caliper 2 {F13.4}
DB1  .                                                 :Dip Button 1 {F13.4}
DB1A .                                                 :Dip Button 1A {F13.4}
DB2  .                                                 :Dip Button 2 {F13.4}
DB2A .                                                 :Dip Button 2A {F13.4}
DB3  .                                                 :Dip Button 3 {F13.4}
DB3A .                                                 :Dip Button 3A {F13.4}
DB4  .                                                 :Dip Button 4 {F13.4}
DB4A .                                                 :Dip Button 4A {F13.4}
DEVI .DEG                                              :Hole Deviation {F13.4}
DT   .US/F                                             :Delta-T {F13.4}
FX   .OER                                              :Magnetometer X-Axis {F13.4}
FY   .OER                                              :Magnetometer Y-Axis {F13.4}
FZ   .OER                                              :Magnetometer Z-Axis {F13.4}
GR   .GAPI                                             :Gamma Ray {F13.4}
HAZI .DEG                                              :Hole Azimuth {F13.4}
ITT  .S                                                :Integrated Transit Time {F13.4}
SDEV .DEG                                              :Sonde Deviation {F13.4}
SPHI .CFCF                                             :Sonic Porosity {F13.4}
SVEL .FT/S                                             :Sonic Velocity {F13.4}
#-----------------------------------------------------------------------------
# DEPT       
#     ANOR         AX           AY           AZ           BS           C1           
#     C2           DB1          DB1A         DB2          DB2A         DB3          
#     DB3A         DB4          DB4A         DEVI         DT           FX           
#     FY           FZ           GR           HAZI         ITT          SDEV         
#     SPHI         SVEL         
~A  
5768.5
     32.2243       0.1082      -0.2028       9.8177       6.1250       6.1012
      5.5924       0.0000      -1.0000       0.0000      -1.0000      -1.0000
     -1.0000      -1.0000      -1.0000       1.3388      47.7771       0.1884
      0.0385       0.5187      40.2838     114.0107       0.0000       1.3388
     -0.0563   20930.5313
5768.0
     32.2245       0.1076      -0.2022       9.8179       6.1250       6.1012
      5.5924       0.0000      -1.0000       0.0000      -1.0000      -1.0000
     -1.0000      -1.0000      -1.0000       1.3388      47.7771       0.1883
      0.0385       0.5186      40.2838     114.0098       0.0000       1.3388
     -0.0563   20930.5313
5767.5
     32.2245       0.1076      -0.2022       9.8174       6.1250       6.1012
      5.5924       0.0000      -1.0000       0.0000      -1.0000      -1.0000
     -1.0000      -1.0000      -1.0000       1.3388      47.7771       0.1883
      0.0385       0.5185      40.2838     114.0104       0.0001       1.3388
     -0.0563   20930.5313
5767.0
     32.2246       0.1082      -0.2028       9.8187       6.1250       6.1012
      5.5924      -1.0000      -1.0000      -1.0000      -1.0000      -1.0000
     -1.0000      -1.0000      -1.0000       1.3388      47.7771       0.1884
      0.0385       0.5188      40.2838     114.0103       0.0001       1.3388
     -0.0563   20930.5313
5766.5
     32.2247       0.1082      -0.2028       9.8196       6.1250       6.1012
      5.5924      -1.0000      -1.0000      -1.0000      -1.0000      -1.0000
     -1.0000      -1.0000      -1.0000       1.3388      47.7771       0.1884
      0.0385       0.5187      40.2838     114.0110       0.0001       1.3388
     -0.0563   20930.5313
5766.0
     32.2249       0.1076      -0.2022       9.8173       6.1250       6.1012
      5.5924      -1.0000      -1.0000      -1.0000      -1.0000      -1.0000
     -1.0000      -1.0000      -1.0000       1.3389      47.7771       0.1886
      0.0385       0.5186      40.2838     114.0101       0.0001       1.3389
     -0.0563   20930.5313
5765.5
     32.2250       0.1082      -0.2026       9.8189       6.1250       6.1012
      5.5924      -1.0000      -1.0000      -1.0000      -1.0000      -1.0000
     -1.0000      -1.0000      -1.0000       1.3390      47.7771       0.1885
      0.0385       0.5187      40.2838     114.0125       0.0002       1.3390
     -0.0563   20930.5313
5765.0
     32.2251       0.1070      -0.2016       9.8181       6.1250       6.1012
      5.5924      -1.0000      -1.0000      -1.0000      -1.0000      -1.0000
     -1.0000      -1.0000      -1.0000       1.3390      47.7771       0.1883
      0.0385       0.5186      40.2838     114.0131       0.0002       1.3390
     -0.0563   20930.5313
5764.5
     32.2248       0.1082      -0.2028       9.8194       6.1250       6.1012
      5.5924      -1.0000      -1.0000      -1.0000      -1.0000      -1.0000
     -1.0000      -1.0000      -1.0000       1.3388      47.7771       0.1884
      0.0385       0.5187      40.2838     114.0080       0.0002       1.3388
     -0.0563   20930.5313
5764.0
     32.2248       0.1076      -0.2022       9.8205       6.1250       6.1012
      5.5924      -1.0000      -1.0000       0.0000       0.0000      -1.0000
     -1.0000      -1.0000      -1.0000       1.3388      47.7771       0.1884
      0.0385       0.5186      40.2838     114.0063       0.0002       1.3388
     -0.0563   20930.5313
5763.5
     32.2250       0.1082      -0.2028       9.8191       6.1250       6.1012
      5.5924      -1.0000      -1.0000      -1.0000      -1.0000      -1.0000
     -1.0000      -1.0000      -1.0000       1.3388      47.7771       0.1884
      0.0385       0.5187      40.2838     114.0018       0.0003       1.3388
     -0.0563   20930.5313
5763.0
     32.2249       0.1076      -0.2022       9.8189       6.1250       6.1012
      5.5924      32.0000      32.0000      31.0000      34.0000      18.0000
     13.0000      31.0000      18.0000       1.3386      47.7771       0.1884
      0.0385       0.5187      40.2838     113.9962       0.0003       1.3386
     -0.0563   20930.5313
5762.5
     32.2251       0.1082      -0.2028       9.8197       6.1250       6.1012
      5.5924      44.0000      45.0000      42.0000      47.0000      25.0000
     18.0000      44.0000      28.0000       1.3386      47.7771       0.1884
      0.0385       0.5187      40.2838     113.9929       0.0003       1.3386
     -0.0563   20930.5313
5762.0
     32.2252       0.1076      -0.2022       9.8205       6.1250       6.1012
      5.5924      71.0000      71.0000      68.0000      79.0000      43.0000
     27.0000      69.0000      46.0000       1.3388      47.7771       0.1884
      0.0385       0.5186      40.2838     113.9902       0.0003       1.3388
     -0.0563   20930.5313
5761.5
     32.2254       0.1082      -0.2028       9.8195       6.1250       6.1012
      5.5924     123.0000     124.0000     116.0000     133.0000      72.0000
     51.0000     123.0000      80.0000       1.3389      47.7771       0.1884
      0.0385       0.5187      40.2838     113.9854       0.0004       1.3389
     -0.0563   20930.5313
5761.0
     32.2257       0.1083      -0.2029       9.8197       6.1250       6.1012
      5.5924     229.0000     225.0000     212.0000     237.0000     134.0000
     91.0000     221.0000     149.0000       1.3386      47.7771       0.1884
      0.0385       0.5187      40.2838     113.9757       0.0004       1.3386
     -0.0563   20930.5313
5760.5
     32.2262       0.1075      -0.2021       9.8180       6.1250       6.1012
      5.5924     424.0000     426.0000     406.0000     456.0000     252.0000
    182.0000     417.0000     286.0000       1.3387      47.7771       0.1883
      0.0386       0.5185      40.2838     113.9699       0.0004       1.3387
     -0.0563   20930.5313
5760.0
     32.2265       0.1081      -0.2027       9.8192       6.1250       6.1012
      5.5924     477.0000     488.0000     455.0000     511.0000     286.0000
    204.0000     475.0000     321.0000       1.3388      47.7771       0.1884
      0.0387       0.5187      40.2838     113.9637       0.0004       1.3388
     -0.0563   20930.5313
5759.5
     32.2270       0.1076      -0.2022       9.8214       6.1250       6.1012
      5.5924     494.0000     501.0000     470.0000     528.0000     295.0000
    216.0000     490.0000     333.0000       1.3386      47.7771       0.1884
      0.0387       0.5186      40.2838     113.9563       0.0005       1.3386
     -0.0563   20930.5313
5759.0
     32.2294       0.1082      -0.2029       9.8192       6.1250       6.1012
      5.5924     490.0000     489.0000     463.0000     517.0000     291.0000
    204.0000     479.0000     323.0000       1.3385      47.7771       0.1884
      0.0388       0.5187      40.2838     113.9674       0.0005       1.3385
     -0.0563   20930.5313
5758.5
     32.2459       0.1075      -0.2021       9.8178       6.1250       6.1012
      5.5924     494.0000     503.0000     471.0000     530.0000     297.0000
    213.0000     492.0000     330.0000       1.3380      47.7771       0.1884
      0.0386       0.5185      40.2838     114.0257       0.0005       1.3380
     -0.0563   20930.5313
5758.0
     32.2469       0.1082      -0.2028       9.8201       6.1250       6.1012
      5.5924     488.0000     491.0000     461.0000     520.0000     293.0000
    209.0000     479.0000     318.0000       1.3392      47.7771       0.1884
      0.0388       0.5187      40.2838     114.0634       0.0005       1.3392
     -0.0563   20930.5313
5757.5
     32.2558       0.1081      -0.2027       9.8205       6.1250       6.1123
      5.5924     490.0000     492.0000     467.0000     522.0000     295.0000
    213.0000     485.0000     320.0000       1.3392      47.7771       0.1884
      0.0390       0.5188      40.2838     114.1314       0.0005       1.3392
     -0.0563   20930.5313
5757.0
     32.2529       0.1077      -0.2023       9.8219       6.1250       6.1568
      5.6725     492.0000     477.0000     465.0000     501.0000     296.0000
    207.0000     480.0000     305.0000       1.3410      47.7771       0.1881
      0.0387       0.5186      40.2838     114.1981       0.0006       1.3410
     -0.0563   20930.5313
