~VERSION INFORMATION
VERS.           2.0   :CWLS Log ASCII Standard - VERSION 2.0
WRAP.           YES   :Multiple lines per depth step
PROD.  Schlumberger   :LAS Producer
PROG.  DLIS to ASCII 11C0-305                          :LAS Program name and version
CREA.        2004/05/20 04:53                          :LAS Creation date {YYYY/MM/DD hh:mm}
SOURCE.     FMI_SONIC_043PUP.DLIS                      :DLIS File Name
FILE-ID.     FMI_SONIC_043PUP                          :File Identification Number
#--------------------------------------------------
~WELL INFORMATION
#MNEM.UNIT      DATA             DESCRIPTION
#---- ------ --------------   -----------------------------
STRT .F         5768.5       :START DEPTH     
STOP .F         4291.5       :STOP DEPTH     
STEP .F           -0.5       :STEP     
NULL .          -999.25      :NULL VALUE
COMP .        DEPARTMENT OF ENERGY                     :COMPANY
WELL .        48X - 28                                 :WELL
FLD  .        NAVAL PETROLEUM RESERVE # 3              :FIELD
LOC  .        490' FSL, 2449' FWL                      :LOCATION
CNTY .        NATRONA                                  :COUNTY
STAT .        WYOMING                                  :STATE
CTRY .                                                 :COUNTRY
API  .        49-025-23195                             :API NUMBER
UWI  .                                                 :UNIQUE WELL ID
DATE .        20-May-2004                              :LOG DATE {DD-MMM-YYYY}
SRVC .        Schlumberger                             :SERVICE COMPANY
LATI .DEG                                              :LATITUDE
LONG .DEG                                              :LONGITUDE
GDAT .                                                 :GeoDetic Datum
SECT .        28                                       :Section
RANG .        78W                                      :Range
TOWN .        39N                                      :Township
#-----------------------------------------------------------------------------
~PARAMETER INFORMATION
#MNEM.UNIT    VALUE                      DESCRIPTION
#---- -----   --------------------       ------------------------
RUN  .          2                        :RUN NUMBER
PDAT .        GROUND LEVEL               :Permanent Datum
EPD  .F         5105.000000              :Elevation of Permanent Datum above Mean Sea Level
EPD  .F         5105.000000              :Elevation of tool zero above Mean Sea Level
LMF  .          KELLY BUSHING            :Logging Measured From (Name of Logging Elevation Reference)
APD  .F          10.000000               :Elevation of Depth Reference (LMF) above Permanent Datum
#-----------------------------------------------------------------------------
~CURVE INFORMATION
#MNEM.UNIT   API CODE                                  DESCRIPTION
#---- -----  --------                                  -----------------------
DEPT .F                                                :DEPTH (BOREHOLE) {F10.1}
ANOR .F/S2                                             :Acceleration Computed Norm {F13.4}
AX   .M/S2                                             :X Acceleration {F13.4}
AY   .M/S2                                             :Y Acceleration {F13.4}
AZ   .M/S2                                             :Z Acceleration {F13.4}
BS   .IN                                               :Bit Size {F13.4}
C1   .IN                                               :Caliper 1 {F13.4}
C2   .IN                                               :Caliper 2 {F13.4}
DB1  .                                                 :Dip Button 1 {F13.4}
DB1A .                                                 :Dip Button 1A {F13.4}
DB2  .                                                 :Dip Button 2 {F13.4}
DB2A .                                                 :Dip Button 2A {F13.4}
DB3  .                                                 :Dip Button 3 {F13.4}
DB3A .                                                 :Dip Button 3A {F13.4}
DB4  .                                                 :Dip Button 4 {F13.4}
DB4A .                                                 :Dip Button 4A {F13.4}
DEVI .DEG                                              :Hole Deviation {F13.4}
DT   .US/F                                             :Delta-T {F13.4}
FX   .OER                                              :Magnetometer X-Axis {F13.4}
FY   .OER                                              :Magnetometer Y-Axis {F13.4}
FZ   .OER                                              :Magnetometer Z-Axis {F13.4}
GR   .GAPI                                             :Gamma Ray {F13.4}
HAZI .DEG                                              :Hole Azimuth {F13.4}
ITT  .S                                                :Integrated Transit Time {F13.4}
SDEV .DEG                                              :Sonde Deviation {F13.4}
SPHI .CFCF                                             :Sonic Porosity {F13.4}
SVEL .FT/S                                             :Sonic Velocity {F13.4}
#-----------------------------------------------------------------------------
# DEPT       
#     ANOR         AX           AY           AZ           BS           C1           
#     C2           DB1          DB1A         DB2          DB2A         DB3          
#     DB3A         DB4          DB4A         DEVI         DT           FX           
#     FY           FZ           GR           HAZI         ITT          SDEV         
#     SPHI         SVEL         
~A  
# ...
4496.5
     32.2005       0.0701       0.1765       9.8458       6.1250       8.1268
      6.9680    1086.0000    1180.0000     518.0000     374.0000      23.0000
    356.0000     -13.0000     -49.0000       1.0813      49.8252      -0.1379
      0.1514       0.5182      22.0669     126.1960       0.0791       1.0813
     -0.0409   20070.1738
4496.0
     32.2425       0.0638       0.1787       9.7882       6.1250       8.0378
      6.9946    1200.0000     104.0000     108.0000      30.0000     -36.0000
    -37.0000     -94.0000    -191.0000       1.0828      50.2020      -0.1360
      0.1527       0.5180      14.8627     126.1164       0.0791       1.0828
     -0.0381   19919.5391
4495.5
     32.2190       0.0696       0.1668       9.7750       6.1250       8.0378
      6.9946     273.0000     152.0000    1027.0000     112.0000     -64.0000
   -124.0000    -490.0000    -701.0000       1.0878      50.4016      -0.1331
      0.1554       0.5181      15.2114     126.0481       0.0791       1.0878
     -0.0366   19840.6582
4495.0
     32.2003       0.0620       0.1730       9.8398       6.1250       8.0378
      7.0213     144.0000     539.0000     101.0000      91.0000      16.0000
    331.0000    -174.0000    -334.0000       1.0922      49.7246      -0.1315
      0.1567       0.5181      12.8956     125.9234       0.0791       1.0922
     -0.0417   20110.7637
4494.5
     32.2366       0.0752       0.1694       9.7499       6.1250       8.0044
      7.0213     303.0000     314.0000      59.0000      42.0000       2.0000
      0.0000     -67.0000    -156.0000       1.0969      50.0610      -0.1288
      0.1591       0.5180      14.7148     125.8637       0.0792       1.0969
     -0.0392   19975.6484
4494.0
     32.2091       0.0802       0.1689       9.7581       6.1250       7.9710
      6.9946      68.0000     595.0000      41.0000      23.0000      -4.0000
    -22.0000      20.0000     -58.0000       1.1026      50.7042      -0.1243
      0.1624       0.5182      16.7707     125.7860       0.0792       1.1026
     -0.0344   19722.2383
4493.5
     32.2282       0.0788       0.1598       9.8843       6.1250       7.9376
      6.9946     203.0000      87.0000      39.0000      19.0000      13.0000
      0.0000      19.0000     -44.0000       1.1083      50.0385      -0.1198
      0.1658       0.5180      20.6185     125.7503       0.0792       1.1083
     -0.0394   19984.6152
4493.0
     32.2414       0.0978       0.1684       9.7737       6.1250       7.8040
      6.9946      38.0000      27.0000      93.0000      57.0000       1.0000
    128.0000      41.0000      -6.0000       1.1151      50.9131      -0.1121
      0.1710       0.5181      24.2419     125.6995       0.0792       1.1151
     -0.0328   19641.3008
4492.5
     32.2001       0.1000       0.1552       9.7205       6.1250       7.7929
      6.9946     120.0000      71.0000     213.0000      91.0000      38.0000
    -10.0000     112.0000      64.0000       1.1244      50.6923      -0.1026
      0.1768       0.5182      27.2708     125.5381       0.0793       1.1244
     -0.0345   19726.8809
4492.0
     32.2227       0.1076       0.1579       9.9617       6.1250       7.7707
      6.9946    -211.0000    -226.0000     473.0000     108.0000      85.0000
      7.0000      58.0000     -52.0000       1.1315      50.4424      -0.0989
      0.1789       0.5181      29.0769     125.4659       0.0793       1.1315
     -0.0363   19824.5840
4491.5
     32.2194       0.1163       0.1557       9.7706       6.1250       7.7706
      6.9946      -1.0000      -1.0000       0.0000      -1.0000      -1.0000
     -1.0000       2.0000      -1.0000       1.1379      50.8491      -0.0915
      0.1825       0.5180      28.5440     125.4191       0.0793       1.1379
     -0.0333   19666.0449
4491.0
     32.2371       0.1223       0.1498       9.8097       6.1250       7.7706
      6.9946      -4.0000      -3.0000       4.0000       2.0000      -1.0000
     -1.0000       1.0000      -1.0000       1.1461      50.3046      -0.0861
      0.1851       0.5181      24.6065     125.3925       0.0793       1.1461
     -0.0374   19878.8848
4490.5
     32.2005       0.1313       0.1530       9.9166       6.1250       7.7706
      6.9946      -3.0000      -2.0000       3.0000       1.0000      -1.0000
     -1.0000      -1.0000      -1.0000       1.1545      50.5061      -0.0819
      0.1870       0.5179      20.7755     125.3354       0.0794       1.1545
     -0.0359   19799.5781
4490.0
     32.2225       0.1302       0.1475       9.7796       6.1250       7.7039
      7.0213      22.0000      30.0000       4.0000       4.0000       8.0000
     22.0000      17.0000      10.0000       1.1620      50.8350      -0.0756
      0.1895       0.5182      17.2587     125.2703       0.0794       1.1620
     -0.0334   19671.4980
4489.5
     32.2243       0.1380       0.1459       9.7687       6.1250       7.7039
      7.0213       7.0000      57.0000      16.0000      25.0000       8.0000
     16.0000      21.0000       6.0000       1.1688      50.7062      -0.0686
      0.1920       0.5180      18.0664     125.2455       0.0794       1.1688
     -0.0344   19721.4453
4489.0
     32.2075       0.1387       0.1402       9.9342       6.1250       7.6816
      7.0213     472.0000      61.0000      17.0000       9.0000       9.0000
      2.0000      37.0000     114.0000       1.1776      51.3822      -0.0611
      0.1944       0.5179      20.0912     125.1770       0.0794       1.1776
     -0.0293   19462.0000
4488.5
     32.2292       0.1707       0.1246       9.4527       6.1250       7.6927
      7.0213     147.0000     641.0000     110.0000     184.0000     198.0000
    126.0000     190.0000     228.0000       1.1816      51.9424      -0.0376
      0.1999       0.5181      22.9294     125.2059       0.0795       1.1816
     -0.0251   19252.0918
4488.0
     32.2242       0.1679       0.1203       9.8185       6.1250       7.6927
      7.0479      99.0000     992.0000     386.0000     209.0000     146.0000
    164.0000     277.0000     256.0000       1.1884      53.2254      -0.0336
      0.2003       0.5178      23.6361     125.2372       0.0795       1.1884
     -0.0155   18788.0234
4487.5
     32.2156       0.1666       0.1164       9.9651       6.1250       7.6816
      7.1012     688.0000     203.0000     258.0000     420.0000     818.0000
    799.0000     547.0000     503.0000       1.1941      54.3748      -0.0289
      0.2013       0.5179      22.6770     125.2701       0.0795       1.1941
     -0.0069   18390.8750
4487.0
     32.2238       0.1753       0.1110       9.8672       6.1250       7.6816
      7.1012     303.0000     273.0000     396.0000     438.0000     270.0000
    314.0000     224.0000     261.0000       1.1991      54.8972      -0.0176
      0.2023       0.5180      22.3741     125.3223       0.0795       1.1991
     -0.0030   18215.8652
4486.5
     32.2233       0.1832       0.0981       9.6702       6.1250       7.6816
      7.1012     111.0000     168.0000     502.0000     355.0000     426.0000
    348.0000     109.0000     264.0000       1.2043      54.6644      -0.0015
      0.2026       0.5178      23.2828     125.3633       0.0796       1.2043
     -0.0048   18293.4297
4486.0
     32.2107       0.1917       0.0893       9.7735       6.1250       7.6816
      7.2077      47.0000      30.0000     167.0000      55.0000      63.0000
     51.0000      14.0000      54.0000       1.2092      54.2766       0.0053
      0.2021       0.5178      22.7819     125.4191       0.0796       1.2092
     -0.0077   18424.1387
4485.5
     32.2287       0.1842       0.0880      10.0607       6.1250       7.6816
      7.2077      56.0000      93.0000     168.0000     139.0000     140.0000
    495.0000     119.0000     155.0000       1.2140      54.0468       0.0090
      0.2021       0.5177      20.3588     125.4711       0.0796       1.2140
     -0.0094   18502.4863
4485.0
     32.2110       0.1941       0.0719       9.6379       6.1250       7.6816
      7.2077     275.0000     313.0000     227.0000     255.0000     246.0000
    233.0000     203.0000     168.0000       1.2185      53.9624       0.0207
      0.2009       0.5179      18.6021     125.5416       0.0797       1.2185
     -0.0100   18531.4375
