~VERSION INFORMATION
VERS.           2.0   :CWLS Log ASCII Standard - VERSION 2.0
WRAP.           YES   :Multiple lines per depth step
PROD.  Schlumberger   :LAS Producer
PROG.  DLIS to ASCII 11C0-305                          :LAS Program name and version
CREA.        2004/05/20 04:53                          :LAS Creation date {YYYY/MM/DD hh:mm}
SOURCE.     FMI_SONIC_043PUP.DLIS                      :DLIS File Name
FILE-ID.     FMI_SONIC_043PUP                          :File Identification Number
#--------------------------------------------------
~WELL INFORMATION
#MNEM.UNIT      DATA             DESCRIPTION
#---- ------ --------------   -----------------------------
STRT .F         5768.5       :START DEPTH     
STOP .F         4291.5       :STOP DEPTH     
STEP .F           -0.5       :STEP     
NULL .          -999.25      :NULL VALUE
COMP .        DEPARTMENT OF ENERGY                     :COMPANY
WELL .        48X - 28                                 :WELL
FLD  .        NAVAL PETROLEUM RESERVE # 3              :FIELD
LOC  .        490' FSL, 2449' FWL                      :LOCATION
CNTY .        NATRONA                                  :COUNTY
STAT .        WYOMING                                  :STATE
CTRY .                                                 :COUNTRY
API  .        49-025-23195                             :API NUMBER
UWI  .                                                 :UNIQUE WELL ID
DATE .        20-May-2004                              :LOG DATE {DD-MMM-YYYY}
SRVC .        Schlumberger                             :SERVICE COMPANY
LATI .DEG                                              :LATITUDE
LONG .DEG                                              :LONGITUDE
GDAT .                                                 :GeoDetic Datum
SECT .        28                                       :Section
RANG .        78W                                      :Range
TOWN .        39N                                      :Township
#-----------------------------------------------------------------------------
~PARAMETER INFORMATION
#MNEM.UNIT    VALUE                      DESCRIPTION
#---- -----   --------------------       ------------------------
RUN  .          2                        :RUN NUMBER
PDAT .        GROUND LEVEL               :Permanent Datum
EPD  .F         5105.000000              :Elevation of Permanent Datum above Mean Sea Level
EPD  .F         5105.000000              :Elevation of tool zero above Mean Sea Level
LMF  .          KELLY BUSHING            :Logging Measured From (Name of Logging Elevation Reference)
APD  .F          10.000000               :Elevation of Depth Reference (LMF) above Permanent Datum
#-----------------------------------------------------------------------------
~CURVE INFORMATION
#MNEM.UNIT   API CODE                                  DESCRIPTION
#---- -----  --------                                  -----------------------
DEPT .F                                                :DEPTH (BOREHOLE) {F10.1}
ANOR .F/S2                                             :Acceleration Computed Norm {F13.4}
AX   .M/S2                                             :X Acceleration {F13.4}
AY   .M/S2                                             :Y Acceleration {F13.4}
AZ   .M/S2                                             :Z Acceleration {F13.4}
BS   .IN                                               :Bit Size {F13.4}
C1   .IN                                               :Caliper 1 {F13.4}
C2   .IN                                               :Caliper 2 {F13.4}
DB1  .                                                 :Dip Button 1 {F13.4}
DB1A .                                                 :Dip Button 1A {F13.4}
DB2  .                                                 :Dip Button 2 {F13.4}
DB2A .                                                 :Dip Button 2A {F13.4}
DB3  .                                                 :Dip Button 3 {F13.4}
DB3A .                                                 :Dip Button 3A {F13.4}
DB4  .                                                 :Dip Button 4 {F13.4}
DB4A .                                                 :Dip Button 4A {F13.4}
DEVI .DEG                                              :Hole Deviation {F13.4}
DT   .US/F                                             :Delta-T {F13.4}
FX   .OER                                              :Magnetometer X-Axis {F13.4}
FY   .OER                                              :Magnetometer Y-Axis {F13.4}
FZ   .OER                                              :Magnetometer Z-Axis {F13.4}
GR   .GAPI                                             :Gamma Ray {F13.4}
HAZI .DEG                                              :Hole Azimuth {F13.4}
ITT  .S                                                :Integrated Transit Time {F13.4}
SDEV .DEG                                              :Sonde Deviation {F13.4}
SPHI .CFCF                                             :Sonic Porosity {F13.4}
SVEL .FT/S                                             :Sonic Velocity {F13.4}
#-----------------------------------------------------------------------------
# DEPT       
#     ANOR         AX           AY           AZ           BS           C1           
#     C2           DB1          DB1A         DB2          DB2A         DB3          
#     DB3A         DB4          DB4A         DEVI         DT           FX           
#     FY           FZ           GR           HAZI         ITT          SDEV         
#     SPHI         SVEL         
~A  
# ...
4892.5
     32.2277      -0.2911      -0.1117       9.8386       6.1250       7.8152
      7.1012     434.0000     454.0000     353.0000     336.0000     306.0000
    321.0000     446.0000     434.0000       1.8326      62.6317      -0.2020
     -0.0681       0.5136      99.7108     193.3588       0.0533       1.8326
      0.0548   15966.3486
4892.0
     32.2144      -0.2988      -0.0979       9.7852       6.1250       7.7929
      7.1477     170.0000     168.0000     250.0000     349.0000     375.0000
    262.0000     249.0000     314.0000       1.8283      61.0006      -0.2052
     -0.0594       0.5135      87.8086     193.2922       0.0533       1.8283
      0.0426   16393.2910
4891.5
     32.2280      -0.3003      -0.0874       9.8443       6.1250       7.7929
      7.1477     186.0000     315.0000     251.0000     234.0000     261.0000
    234.0000     346.0000     308.0000       1.8232      59.8018      -0.2072
     -0.0514       0.5135      79.0024     193.2295       0.0533       1.8232
      0.0337   16721.9141
4891.0
     32.2263      -0.3027      -0.0687       9.7957       6.1250       7.7929
      7.1278     605.0000     501.0000     379.0000     356.0000     282.0000
    213.0000     362.0000     555.0000       1.8191      58.4122      -0.2093
     -0.0434       0.5135      73.8814     193.1336       0.0534       1.8191
      0.0233   17119.6973
4890.5
     32.2238      -0.3042      -0.0549       9.7924       6.1250       7.7929
      7.1278     564.0000     526.0000     649.0000     654.0000     371.0000
    340.0000     559.0000     617.0000       1.8149      59.2354      -0.2110
     -0.0352       0.5135      72.9952     193.0878       0.0534       1.8149
      0.0294   16881.8027
4890.0
     32.2221      -0.3069      -0.0524       9.8531       6.1250       7.7706
      7.1278     390.0000     464.0000     700.0000     753.0000     220.0000
    276.0000     445.0000     324.0000       1.8108      58.1595      -0.2123
     -0.0281       0.5135      71.2003     192.9869       0.0534       1.8108
      0.0214   17194.0977
4889.5
     32.2134      -0.3099      -0.0395       9.8193       6.1250       7.7706
      7.1278     237.0000     187.0000     291.0000     320.0000     235.0000
    166.0000     268.0000     247.0000       1.8074      58.6600      -0.2135
     -0.0197       0.5134      70.3926     192.9333       0.0535       1.8074
      0.0251   17047.3945
4889.0
     32.2340      -0.3083      -0.0238       9.8330       6.1250       7.7706
      7.1278     266.0000     367.0000     408.0000     512.0000     454.0000
    296.0000     305.0000     625.0000       1.8028      59.1303      -0.2143
     -0.0115       0.5137      70.2692     192.8431       0.0535       1.8028
      0.0286   16911.8125
4888.5
     32.2183      -0.3080      -0.0118       9.7990       6.1250       7.7706
      7.1278     531.0000     456.0000     456.0000     434.0000     394.0000
    442.0000     391.0000     447.0000       1.8005      60.1043      -0.2147
     -0.0027       0.5135      69.8654     192.6888       0.0535       1.8005
      0.0359   16637.7363
4888.0
     32.2208      -0.3059      -0.0036       9.8799       6.1250       7.7706
      7.1278     201.0000     225.0000     335.0000     317.0000     328.0000
    269.0000     217.0000     222.0000       1.7969      59.4197      -0.2146
      0.0051       0.5137      70.3702     192.5753       0.0535       1.7969
      0.0308   16829.4375
4887.5
     32.2276      -0.3067       0.0145       9.7320       6.1250       7.7707
      7.1278     412.0000     558.0000     644.0000     765.0000     587.0000
    449.0000     339.0000     537.0000       1.7933      59.8282      -0.2145
      0.0142       0.5136      74.4087     192.4600       0.0536       1.7933
      0.0339   16714.5293
4887.0
     32.2164      -0.3051       0.0211       9.8743       6.1250       7.7706
      7.1278     321.0000     319.0000     365.0000     292.0000     296.0000
    275.0000     318.0000     359.0000       1.7913      60.6824      -0.2140
      0.0203       0.5138      79.9616     192.3095       0.0536       1.7913
      0.0403   16479.2461
4886.5
     32.2248      -0.3057       0.0359       9.8030       6.1250       7.7706
      7.1278     447.0000     465.0000     486.0000     445.0000     451.0000
    462.0000     446.0000     504.0000       1.7885      62.0335      -0.2131
      0.0308       0.5136      87.4328     192.1743       0.0536       1.7885
      0.0504   16120.3115
4886.0
     32.2263      -0.3009       0.0539       9.7525       6.1250       7.7929
      7.1278     431.0000     391.0000     433.0000     398.0000     408.0000
    491.0000     501.0000     577.0000       1.7860      62.2244      -0.2116
      0.0413       0.5136      93.1091     192.0440       0.0537       1.7860
      0.0518   16070.8633
4885.5
     32.2181      -0.2981       0.0566       9.8538       6.1250       7.7929
      7.1477     381.0000     387.0000     315.0000     400.0000     346.0000
    349.0000     359.0000     377.0000       1.7840      61.7864      -0.2102
      0.0475       0.5137      92.9071     191.9211       0.0537       1.7840
      0.0485   16184.7959
4885.0
     32.2243      -0.2981       0.0688       9.8906       6.1250       7.8152
      7.1544     182.0000     222.0000     264.0000     333.0000     239.0000
    271.0000     158.0000     244.0000       1.7817      61.7725      -0.2084
      0.0551       0.5136      89.1547     191.7841       0.0537       1.7817
      0.0484   16188.4238
4884.5
     32.2195      -0.2952       0.0916       9.7977       6.1250       7.8152
      7.2009     609.0000     527.0000     242.0000     301.0000     516.0000
    481.0000     285.0000     312.0000       1.7798      62.3333      -0.2059
      0.0648       0.5137      89.1323     191.6108       0.0538       1.7798
      0.0526   16042.7803
4884.0
     32.2219      -0.2835       0.0981       9.7971       6.1250       7.8597
      7.1811     323.0000     398.0000     560.0000     432.0000     410.0000
    379.0000     333.0000     433.0000       1.7775      62.7178      -0.2030
      0.0735       0.5139      99.2285     191.4259       0.0538       1.7775
      0.0555   15944.4414
4883.5
     32.2199      -0.2807       0.1098       9.8509       6.1250       7.8819
      7.2275     537.0000     535.0000     512.0000     511.0000     474.0000
    540.0000     508.0000     571.0000       1.7759      63.0760      -0.2000
      0.0802       0.5138     100.2549     191.2420       0.0538       1.7759
      0.0582   15853.8896
4883.0
     32.2234      -0.2770       0.1284       9.7922       6.1250       7.8819
      7.2077     428.0000     453.0000     459.0000     452.0000     434.0000
    394.0000     448.0000     492.0000       1.7744      64.4492      -0.1964
      0.0899       0.5137      97.5290     191.0560       0.0539       1.7744
      0.0684   15516.0918
4882.5
     32.2092      -0.2655       0.1370       9.8146       6.1250       7.8819
      7.2077     508.0000     469.0000     254.0000     168.0000     497.0000
    404.0000     427.0000     597.0000       1.7737      62.3037      -0.1925
      0.0981       0.5139      88.4368     190.8736       0.0539       1.7737
      0.0524   16050.4023
4882.0
     32.2231      -0.2631       0.1510       9.8603       6.1250       7.8819
      7.2077     164.0000     165.0000     166.0000     170.0000     159.0000
    148.0000     158.0000     165.0000       1.7723      60.5897      -0.1883
      0.1062       0.5141      87.3262     190.6733       0.0539       1.7723
      0.0396   16504.4648
4881.5
     32.2192      -0.2554       0.1653       9.7668       6.1250       7.9487
      7.2077     566.0000     506.0000     492.0000     422.0000     275.0000
    379.0000     476.0000     477.0000       1.7722      61.2129      -0.1826
      0.1158       0.5138      85.0041     190.5197       0.0539       1.7722
      0.0442   16336.4141
4881.0
     32.2232      -0.2499       0.1735       9.8422       6.1250       7.9487
      7.2275     392.0000     323.0000     417.0000     400.0000     399.0000
    394.0000     355.0000     327.0000       1.7713      60.7365      -0.1782
      0.1222       0.5141      81.8496     190.3069       0.0540       1.7713
      0.0407   16464.5664
