~VERSION INFORMATION
VERS.           2.0   :CWLS Log ASCII Standard - VERSION 2.0
WRAP.           YES   :Multiple lines per depth step
PROD.  Schlumberger   :LAS Producer
PROG.  DLIS to ASCII 11C0-305                          :LAS Program name and version
CREA.        2004/05/20 04:53                          :LAS Creation date {YYYY/MM/DD hh:mm}
SOURCE.     FMI_SONIC_043PUP.DLIS                      :DLIS File Name
FILE-ID.     FMI_SONIC_043PUP                          :File Identification Number
#--------------------------------------------------
~WELL INFORMATION
#MNEM.UNIT      DATA             DESCRIPTION
#---- ------ --------------   -----------------------------
STRT .F         5768.5       :START DEPTH     
STOP .F         4291.5       :STOP DEPTH     
STEP .F           -0.5       :STEP     
NULL .          -999.25      :NULL VALUE
COMP .        DEPARTMENT OF ENERGY                     :COMPANY
WELL .        48X - 28                                 :WELL
FLD  .        NAVAL PETROLEUM RESERVE # 3              :FIELD
LOC  .        490' FSL, 2449' FWL                      :LOCATION
CNTY .        NATRONA                                  :COUNTY
STAT .        WYOMING                                  :STATE
CTRY .                                                 :COUNTRY
API  .        49-025-23195                             :API NUMBER
UWI  .                                                 :UNIQUE WELL ID
DATE .        20-May-2004                              :LOG DATE {DD-MMM-YYYY}
SRVC .        Schlumberger                             :SERVICE COMPANY
LATI .DEG                                              :LATITUDE
LONG .DEG                                              :LONGITUDE
GDAT .                                                 :GeoDetic Datum
SECT .        28                                       :Section
RANG .        78W                                      :Range
TOWN .        39N                                      :Township
#-----------------------------------------------------------------------------
~PARAMETER INFORMATION
#MNEM.UNIT    VALUE                      DESCRIPTION
#---- -----   --------------------       ------------------------
RUN  .          2                        :RUN NUMBER
PDAT .        GROUND LEVEL               :Permanent Datum
EPD  .F         5105.000000              :Elevation of Permanent Datum above Mean Sea Level
EPD  .F         5105.000000              :Elevation of tool zero above Mean Sea Level
LMF  .          KELLY BUSHING            :Logging Measured From (Name of Logging Elevation Reference)
APD  .F          10.000000               :Elevation of Depth Reference (LMF) above Permanent Datum
#-----------------------------------------------------------------------------
~CURVE INFORMATION
#MNEM.UNIT   API CODE                                  DESCRIPTION
#---- -----  --------                                  -----------------------
DEPT .F                                                :DEPTH (BOREHOLE) {F10.1}
ANOR .F/S2                                             :Acceleration Computed Norm {F13.4}
AX   .M/S2                                             :X Acceleration {F13.4}
AY   .M/S2                                             :Y Acceleration {F13.4}
AZ   .M/S2                                             :Z Acceleration {F13.4}
BS   .IN                                               :Bit Size {F13.4}
C1   .IN                                               :Caliper 1 {F13.4}
C2   .IN                                               :Caliper 2 {F13.4}
DB1  .                                                 :Dip Button 1 {F13.4}
DB1A .                                                 :Dip Button 1A {F13.4}
DB2  .                                                 :Dip Button 2 {F13.4}
DB2A .                                                 :Dip Button 2A {F13.4}
DB3  .                                                 :Dip Button 3 {F13.4}
DB3A .                                                 :Dip Button 3A {F13.4}
DB4  .                                                 :Dip Button 4 {F13.4}
DB4A .                                                 :Dip Button 4A {F13.4}
DEVI .DEG                                              :Hole Deviation {F13.4}
DT   .US/F                                             :Delta-T {F13.4}
FX   .OER                                              :Magnetometer X-Axis {F13.4}
FY   .OER                                              :Magnetometer Y-Axis {F13.4}
FZ   .OER                                              :Magnetometer Z-Axis {F13.4}
GR   .GAPI                                             :Gamma Ray {F13.4}
HAZI .DEG                                              :Hole Azimuth {F13.4}
ITT  .S                                                :Integrated Transit Time {F13.4}
SDEV .DEG                                              :Sonde Deviation {F13.4}
SPHI .CFCF                                             :Sonic Porosity {F13.4}
SVEL .FT/S                                             :Sonic Velocity {F13.4}
#-----------------------------------------------------------------------------
# DEPT       
#     ANOR         AX           AY           AZ           BS           C1           
#     C2           DB1          DB1A         DB2          DB2A         DB3          
#     DB3A         DB4          DB4A         DEVI         DT           FX           
#     FY           FZ           GR           HAZI         ITT          SDEV         
#     SPHI         SVEL         
~A  
# ...
5480.5
     32.2272       0.2132       0.2314       9.8893       6.1250       7.3922
      6.7016     207.0000     254.0000     205.0000     217.0000     245.0000
    254.0000      60.0000     -29.0000       1.8889      62.7621      -0.0320
      0.2062       0.5161      30.6924     135.8011       0.0176       1.8889
      0.0558   15933.1748
5480.0
     32.2364       0.2381       0.2326       9.6800       6.1250       7.3922
      6.7282     300.0000     303.0000     230.0000     263.0000     316.0000
    271.0000     122.0000     -60.0000       1.8953      62.6600      -0.0211
      0.2073       0.5158      29.8292     135.8273       0.0177       1.8953
      0.0550   15959.1572
5479.5
     32.2383       0.2360       0.2194       9.9460       6.1250       7.4145
      6.7282     329.0000     354.0000     274.0000     289.0000     373.0000
    350.0000     166.0000      60.0000       1.9021      63.1639      -0.0150
      0.2078       0.5159      30.1900     135.8587       0.0177       1.9021
      0.0588   15831.8389
5479.0
     32.2258       0.2500       0.2089       9.7952       6.1250       7.4256
      6.7282     483.0000     826.0000    1156.0000     992.0000    1106.0000
    788.0000     510.0000     543.0000       1.9090      64.0809      -0.0065
      0.2081       0.5158      31.1491     135.9030       0.0177       1.9090
      0.0657   15605.2754
5478.5
     32.2309       0.2603       0.2114       9.7506       6.1250       7.4368
      6.8082     975.0000     475.0000     175.0000     139.0000     294.0000
    426.0000     944.0000    1052.0000       1.9152      66.2644       0.0018
      0.2083       0.5157      33.2318     135.9428       0.0178       1.9152
      0.0820   15091.0518
5478.0
     32.2292       0.2696       0.1980       9.8978       6.1250       7.4368
      6.8082     258.0000     328.0000     314.0000     311.0000     201.0000
    170.0000      46.0000    -119.0000       1.9216      66.3625       0.0077
      0.2078       0.5158      34.1886     136.0206       0.0178       1.9216
      0.0827   15068.7422
5477.5
     32.2292       0.2791       0.1874       9.7465       6.1250       7.4590
      6.8215     253.0000     243.0000     618.0000     382.0000     186.0000
    291.0000     163.0000     184.0000       1.9272      66.9284       0.0191
      0.2068       0.5154      32.4621     136.0759       0.0178       1.9272
      0.0870   14941.3408
5477.0
     32.2354       0.2800       0.1610       9.8037       6.1250       7.5035
      6.8348     194.0000     179.0000      58.0000      27.0000     229.0000
    230.0000     169.0000     149.0000       1.9326      65.3469       0.0281
      0.2055       0.5157      32.0150     136.1493       0.0179       1.9326
      0.0751   15302.9424
5476.5
     32.2266       0.2964       0.1592       9.7653       6.1250       7.4590
      6.8348     264.0000     241.0000     153.0000     149.0000     201.0000
    233.0000     233.0000     217.0000       1.9385      65.4632       0.0383
      0.2039       0.5155      32.5198     136.2296       0.0179       1.9385
      0.0760   15275.7656
5476.0
     32.2294       0.3032       0.1494       9.8164       6.1250       7.5258
      6.8348     442.0000     612.0000     350.0000     285.0000     263.0000
    287.0000     483.0000     538.0000       1.9441      65.0694       0.0460
      0.2020       0.5156      34.9328     136.3084       0.0179       1.9441
      0.0731   15368.1963
5475.5
     32.2293       0.3075       0.1400       9.8673       6.1250       7.5481
      6.9147     482.0000     480.0000     398.0000     401.0000     281.0000
    135.0000     370.0000     343.0000       1.9480      65.1132       0.0536
      0.2001       0.5156      37.0379     136.4137       0.0180       1.9480
      0.0734   15357.8662
5475.0
     32.2292       0.3136       0.1138       9.7786       6.1250       7.5481
      6.9147     312.0000     335.0000     327.0000     277.0000     265.0000
    374.0000     253.0000     259.0000       1.9523      65.4918       0.0680
      0.1951       0.5156      39.6275     136.5415       0.0180       1.9523
      0.0762   15269.0801
5474.5
     32.2332       0.3203       0.1027       9.7295       6.1250       7.5481
      6.9147     358.0000     454.0000     187.0000     168.0000     148.0000
    303.0000     267.0000     333.0000       1.9564      65.5286       0.0787
      0.1907       0.5154      40.8593     136.6890       0.0180       1.9564
      0.0765   15260.5137
5474.0
     32.2267       0.3253       0.0967       9.8472       6.1250       7.5481
      6.9147     130.0000     136.0000     159.0000     153.0000     143.0000
    116.0000     116.0000      72.0000       1.9599      66.1761       0.0831
      0.1886       0.5155      37.5982     136.8603       0.0181       1.9599
      0.0813   15111.2002
5473.5
     32.2286       0.3283       0.0822       9.8376       6.1250       7.5481
      6.8348    1053.0000    1085.0000     988.0000     936.0000     939.0000
    929.0000    1034.0000    1117.0000       1.9629      67.8818       0.0911
      0.1846       0.5154      33.5951     137.0258       0.0181       1.9629
      0.0941   14731.4844
5473.0
     32.2298       0.3334       0.0671       9.8230       6.1250       7.5481
      6.8881     227.0000     188.0000     138.0000     158.0000     160.0000
    128.0000      95.0000     120.0000       1.9655      69.7584       0.0990
      0.1803       0.5154      30.2381     137.1631       0.0181       1.9655
      0.1081   14335.1885
5472.5
     32.2277       0.3340       0.0502       9.8593       6.1250       7.5481
      6.8881     368.0000     416.0000     366.0000     413.0000     324.0000
    255.0000      63.0000      89.0000       1.9686      68.9007       0.1064
      0.1757       0.5154      32.0604     137.3393       0.0182       1.9686
      0.1017   14513.6416
5472.0
     32.2353       0.3325       0.0334       9.8378       6.1250       7.5481
      6.8881     185.0000     165.0000     145.0000     122.0000     143.0000
    103.0000     104.0000     137.0000       1.9698      68.0671       0.1147
      0.1703       0.5153      32.1311     137.5347       0.0182       1.9698
      0.0955   14691.3936
5471.5
     32.2242       0.3320       0.0231       9.7675       6.1250       7.5481
      6.8881     875.0000     200.0000     277.0000     310.0000     312.0000
    370.0000     302.0000     250.0000       1.9722      66.0817       0.1216
      0.1648       0.5154      33.2227     137.6915       0.0182       1.9722
      0.0806   15132.7715
5471.0
     32.2227       0.3378       0.0140       9.9027       6.1250       7.5481
      6.8881     571.0000     486.0000     617.0000     522.0000     669.0000
    602.0000     573.0000     617.0000       1.9742      68.0799       0.1268
      0.1610       0.5152      30.9025     137.8716       0.0183       1.9742
      0.0956   14688.6240
5470.5
     32.2366       0.3351       0.0040       9.7506       6.1250       7.5481
      6.8881     515.0000     507.0000     284.0000     329.0000     417.0000
    483.0000     415.0000     439.0000       1.9765      67.6720       0.1319
      0.1562       0.5151      31.9576     138.0465       0.0183       1.9765
      0.0925   14777.1543
5470.0
     32.2324       0.3405      -0.0120       9.8135       6.1250       7.5035
      6.8348     650.0000     730.0000     811.0000     565.0000     692.0000
    555.0000     311.0000     380.0000       1.9789      70.8301       0.1376
      0.1512       0.5152      32.7842     138.2315       0.0183       1.9789
      0.1162   14118.2842
5469.5
     32.2354       0.3399      -0.0175       9.8846       6.1250       7.5035
      6.8348     233.0000     319.0000     202.0000     219.0000     346.0000
    236.0000     169.0000     230.0000       1.9826      79.8074       0.1426
      0.1462       0.5151      34.5198     138.4053       0.0184       1.9826
      0.1833   12530.1582
5469.0
     32.2263       0.3383      -0.0357       9.7762       6.1250       7.5035
      6.8348     611.0000     588.0000     612.0000     557.0000     436.0000
    508.0000     430.0000     515.0000       1.9859      73.1492       0.1490
      0.1391       0.5152      34.8076     138.6265       0.0184       1.9859
      0.1335   13670.6953
