~VERSION INFORMATION
VERS.           2.0   :CWLS Log ASCII Standard - VERSION 2.0
WRAP.           YES   :Multiple lines per depth step
PROD.  Schlumberger   :LAS Producer
PROG.  DLIS to ASCII 11C0-305                          :LAS Program name and version
CREA.        2004/05/20 04:53                          :LAS Creation date {YYYY/MM/DD hh:mm}
SOURCE.     FMI_SONIC_043PUP.DLIS                      :DLIS File Name
FILE-ID.     FMI_SONIC_043PUP                          :File Identification Number
#--------------------------------------------------
~WELL INFORMATION
#MNEM.UNIT      DATA             DESCRIPTION
#---- ------ --------------   -----------------------------
STRT .F         5768.5       :START DEPTH     
STOP .F         4291.5       :STOP DEPTH     
STEP .F           -0.5       :STEP     
NULL .          -999.25      :NULL VALUE
COMP .        DEPARTMENT OF ENERGY                     :COMPANY
WELL .        48X - 28                                 :WELL
FLD  .        NAVAL PETROLEUM RESERVE # 3              :FIELD
LOC  .        490' FSL, 2449' FWL                      :LOCATION
CNTY .        NATRONA                                  :COUNTY
STAT .        WYOMING                                  :STATE
CTRY .                                                 :COUNTRY
API  .        49-025-23195                             :API NUMBER
UWI  .                                                 :UNIQUE WELL ID
DATE .        20-May-2004                              :LOG DATE {DD-MMM-YYYY}
SRVC .        Schlumberger                             :SERVICE COMPANY
LATI .DEG                                              :LATITUDE
LONG .DEG                                              :LONGITUDE
GDAT .                                                 :GeoDetic Datum
SECT .        28                                       :Section
RANG .        78W                                      :Range
TOWN .        39N                                      :Township
#-----------------------------------------------------------------------------
~PARAMETER INFORMATION
#MNEM.UNIT    VALUE                      DESCRIPTION
#---- -----   --------------------       ------------------------
RUN  .          2                        :RUN NUMBER
PDAT .        GROUND LEVEL               :Permanent Datum
EPD  .F         5105.000000              :Elevation of Permanent Datum above Mean Sea Level
EPD  .F         5105.000000              :Elevation of tool zero above Mean Sea Level
LMF  .          KELLY BUSHING            :Logging Measured From (Name of Logging Elevation Reference)
APD  .F          10.000000               :Elevation of Depth Reference (LMF) above Permanent Datum
#-----------------------------------------------------------------------------
~CURVE INFORMATION
#MNEM.UNIT   API CODE                                  DESCRIPTION
#---- -----  --------                                  -----------------------
DEPT .F                                                :DEPTH (BOREHOLE) {F10.1}
ANOR .F/S2                                             :Acceleration Computed Norm {F13.4}
AX   .M/S2                                             :X Acceleration {F13.4}
AY   .M/S2                                             :Y Acceleration {F13.4}
AZ   .M/S2                                             :Z Acceleration {F13.4}
BS   .IN                                               :Bit Size {F13.4}
C1   .IN                                               :Caliper 1 {F13.4}
C2   .IN                                               :Caliper 2 {F13.4}
DB1  .                                                 :Dip Button 1 {F13.4}
DB1A .                                                 :Dip Button 1A {F13.4}
DB2  .                                                 :Dip Button 2 {F13.4}
DB2A .                                                 :Dip Button 2A {F13.4}
DB3  .                                                 :Dip Button 3 {F13.4}
DB3A .                                                 :Dip Button 3A {F13.4}
DB4  .                                                 :Dip Button 4 {F13.4}
DB4A .                                                 :Dip Button 4A {F13.4}
DEVI .DEG                                              :Hole Deviation {F13.4}
DT   .US/F                                             :Delta-T {F13.4}
FX   .OER                                              :Magnetometer X-Axis {F13.4}
FY   .OER                                              :Magnetometer Y-Axis {F13.4}
FZ   .OER                                              :Magnetometer Z-Axis {F13.4}
GR   .GAPI                                             :Gamma Ray {F13.4}
HAZI .DEG                                              :Hole Azimuth {F13.4}
ITT  .S                                                :Integrated Transit Time {F13.4}
SDEV .DEG                                              :Sonde Deviation {F13.4}
SPHI .CFCF                                             :Sonic Porosity {F13.4}
SVEL .FT/S                                             :Sonic Velocity {F13.4}
#-----------------------------------------------------------------------------
# DEPT       
#     ANOR         AX           AY           AZ           BS           C1           
#     C2           DB1          DB1A         DB2          DB2A         DB3          
#     DB3A         DB4          DB4A         DEVI         DT           FX           
#     FY           FZ           GR           HAZI         ITT          SDEV         
#     SPHI         SVEL         
~A  
# ...
4700.5
     32.2419      -0.2107      -0.1881       9.8788       6.1250       7.8597
      7.1012     291.0000     530.0000     326.0000     328.0000     323.0000
    290.0000     291.0000     340.0000       1.6253      62.7362      -0.1482
     -0.1468       0.5145      92.5919     187.6400       0.0656       1.6253
      0.0556   15939.7705
4700.0
     32.2060      -0.2141      -0.1791       9.7847       6.1250       7.9042
      7.1278     449.0000     466.0000     431.0000     437.0000     445.0000
    436.0000     383.0000     484.0000       1.6205      63.4993      -0.1532
     -0.1419       0.5141     103.0819     187.4481       0.0657       1.6205
      0.0613   15748.1943
4699.5
     32.2258      -0.2188      -0.1686       9.8588       6.1250       7.9487
      7.1811     497.0000     514.0000     439.0000     468.0000     501.0000
    458.0000     337.0000     422.0000       1.6145      64.4682      -0.1583
     -0.1362       0.5142     109.6242     187.2634       0.0657       1.6145
      0.0686   15511.5254
4699.0
     32.2329      -0.2236      -0.1593       9.8612       6.1250       7.9487
      7.1811     488.0000     530.0000     593.0000     355.0000     405.0000
    431.0000     375.0000     443.0000       1.6091      64.2636      -0.1630
     -0.1307       0.5143     113.2588     187.0454       0.0657       1.6091
      0.0670   15560.9004
4698.5
     32.2179      -0.2352      -0.1483       9.7623       6.1250       7.9487
      7.2077     311.0000     367.0000     321.0000     353.0000     350.0000
    268.0000     479.0000     535.0000       1.6033      66.1244      -0.1702
     -0.1224       0.5142     114.8540     186.8213       0.0658       1.6033
      0.0810   15123.0010
4698.0
     32.2280      -0.2358      -0.1318       9.8131       6.1250       7.9487
      7.2077     528.0000     614.0000     553.0000     564.0000     530.0000
    531.0000     558.0000     763.0000       1.5971      65.7656      -0.1771
     -0.1125       0.5145     115.3790     186.5905       0.0658       1.5971
      0.0783   15205.5225
4697.5
     32.2245      -0.2440      -0.1160       9.8551       6.1250       7.9710
      7.2077     504.0000     570.0000     361.0000     415.0000     390.0000
    377.0000     411.0000     492.0000       1.5908      64.5371      -0.1837
     -0.1014       0.5146     118.5088     186.3220       0.0658       1.5908
      0.0691   15494.9521
4697.0
     32.2244      -0.2549      -0.0959       9.7738       6.1250       7.9710
      7.2610     418.0000     471.0000     381.0000     375.0000     380.0000
    363.0000     329.0000     481.0000       1.5848      65.5925      -0.1909
     -0.0883       0.5146     116.3896     186.0343       0.0659       1.5848
      0.0770   15245.6367
4696.5
     32.2308      -0.2591      -0.0789       9.8307       6.1250       7.9710
      7.2610     356.0000     412.0000     418.0000     356.0000     319.0000
    330.0000     369.0000     413.0000       1.5785      64.0804      -0.1960
     -0.0773       0.5145     111.6444     185.7568       0.0659       1.5785
      0.0657   15605.3906
4696.0
     32.2142      -0.2595      -0.0587       9.8366       6.1250       7.9710
      7.2610     151.0000     167.0000     256.0000     253.0000     167.0000
    126.0000     189.0000     233.0000       1.5733      62.5053      -0.2007
     -0.0648       0.5147      98.0145     185.4849       0.0659       1.5733
      0.0539   15998.6328
4695.5
     32.2283      -0.2666      -0.0398       9.7982       6.1250       7.9932
      7.2876     346.0000     247.0000     243.0000     250.0000     241.0000
    269.0000     319.0000     441.0000       1.5677      61.1665      -0.2049
     -0.0512       0.5147      80.7501     185.1953       0.0660       1.5677
      0.0439   16348.8115
4695.0
     32.2250      -0.2636      -0.0202       9.8096       6.1250       7.9932
      7.3143     165.0000     234.0000     286.0000     257.0000     443.0000
    339.0000     175.0000     246.0000       1.5631      60.8584      -0.2082
     -0.0375       0.5147      68.1854     184.8946       0.0660       1.5631
      0.0416   16431.5879
4694.5
     32.2195      -0.2658      -0.0006       9.8198       6.1250       8.0378
      7.3143     443.0000     386.0000     449.0000     483.0000     140.0000
    297.0000     343.0000     487.0000       1.5592      26.5623      -0.2106
     -0.0231       0.5147      60.7142     184.6055       0.0660       1.5592
     -0.2149   37647.2852
4694.0
     32.2208      -0.2648       0.0212       9.8084       6.1250       8.0378
      7.3143     564.0000     432.0000     325.0000     477.0000     378.0000
    276.0000     577.0000     505.0000       1.5550      61.5464      -0.2119
     -0.0078       0.5146      63.6966     184.3243       0.0660       1.5550
      0.0467   16247.9033
4693.5
     32.2213      -0.2600       0.0384       9.8116       6.1250       8.0378
      7.3409     616.0000     520.0000     268.0000     521.0000     468.0000
    537.0000     701.0000     687.0000       1.5517      64.1789      -0.2125
      0.0061       0.5145      73.1921     184.0473       0.0661       1.5517
      0.0664   15581.4521
4693.0
     32.2206      -0.2609       0.0526       9.8175       6.1250       8.0266
      7.3676     402.0000     310.0000     514.0000     437.0000     338.0000
    449.0000     518.0000     514.0000       1.5493      49.2613      -0.2122
      0.0163       0.5147      82.8693     183.7720       0.0661       1.5493
     -0.0452   20299.8906
4692.5
     32.2219      -0.2544       0.0590       9.8095       6.1250       8.0378
      7.4208     467.0000     451.0000     382.0000     540.0000     337.0000
    421.0000     419.0000     502.0000       1.5475      58.2607      -0.2118
      0.0233       0.5146      90.2042     183.5208       0.0661       1.5475
      0.0221   17164.2344
4692.0
     32.2213      -0.2559       0.0679       9.8363       6.1250       8.0378
      7.4208     372.0000     478.0000     390.0000     442.0000     428.0000
    422.0000     409.0000     519.0000       1.5458      86.0693      -0.2111
      0.0280       0.5146      97.8773     183.3057       0.0662       1.5458
      0.2301   11618.5430
4691.5
     32.2198      -0.2535       0.0747       9.7945       6.1250       8.0378
      7.4208     406.0000     484.0000     493.0000     470.0000     363.0000
    336.0000     432.0000     514.0000       1.5450      84.9740      -0.2106
      0.0323       0.5146     107.0850     183.1243       0.0662       1.5450
      0.2219   11768.3057
4691.0
     32.2192      -0.2520       0.0809       9.8087       6.1250       8.0378
      7.4208     521.0000     574.0000     592.0000     614.0000     521.0000
    588.0000     520.0000     529.0000       1.5440      89.5758      -0.2103
      0.0361       0.5148     113.8494     182.9617       0.0663       1.5440
      0.2564   11163.7246
4690.5
     32.2214      -0.2504       0.0833       9.8396       6.1250       8.0378
      7.4208     484.0000     449.0000     460.0000     491.0000     473.0000
    406.0000     408.0000     402.0000       1.5440      80.3736      -0.2092
      0.0395       0.5148     107.5191     182.8160       0.0663       1.5440
      0.1875   12441.8896
4690.0
     32.2179      -0.2476       0.0887       9.8057       6.1250       8.0378
      7.4208     405.0000     487.0000     430.0000     392.0000     313.0000
    385.0000     385.0000     420.0000       1.5444      66.8128      -0.2088
      0.0428       0.5148     102.6275     182.6428       0.0663       1.5444
      0.0861   14967.1943
4689.5
     32.2200      -0.2476       0.0934       9.8183       6.1250       8.0378
      7.4208     411.0000     334.0000     385.0000     388.0000     387.0000
    363.0000     382.0000     436.0000       1.5446      65.8819      -0.2084
      0.0451       0.5146      96.1054     182.4942       0.0664       1.5446
      0.0791   15178.6787
4689.0
     32.2211      -0.2511       0.0954       9.7989       6.1250       8.0378
      7.4208     392.0000     359.0000     342.0000     376.0000     330.0000
    352.0000     305.0000     330.0000       1.5457      64.6009      -0.2081
      0.0462       0.5145      92.0770     182.3433       0.0664       1.5457
      0.0696   15479.6719
