~VERSION INFORMATION
VERS.           2.0   :CWLS Log ASCII Standard - VERSION 2.0
WRAP.           YES   :Multiple lines per depth step
PROD.  Schlumberger   :LAS Producer
PROG.  DLIS to ASCII 11C0-305                          :LAS Program name and version
CREA.        2004/05/20 04:53                          :LAS Creation date {YYYY/MM/DD hh:mm}
SOURCE.     FMI_SONIC_043PUP.DLIS                      :DLIS File Name
FILE-ID.     FMI_SONIC_043PUP                          :File Identification Number
#--------------------------------------------------
~WELL INFORMATION
#MNEM.UNIT      DATA             DESCRIPTION
#---- ------ --------------   -----------------------------
STRT .F         5768.5       :START DEPTH     
STOP .F         4291.5       :STOP DEPTH     
STEP .F           -0.5       :STEP     
NULL .          -999.25      :NULL VALUE
COMP .        DEPARTMENT OF ENERGY                     :COMPANY
WELL .        48X - 28                                 :WELL
FLD  .        NAVAL PETROLEUM RESERVE # 3              :FIELD
LOC  .        490' FSL, 2449' FWL                      :LOCATION
CNTY .        NATRONA                                  :COUNTY
STAT .        WYOMING                                  :STATE
CTRY .                                                 :COUNTRY
API  .        49-025-23195                             :API NUMBER
UWI  .                                                 :UNIQUE WELL ID
DATE .        20-May-2004                              :LOG DATE {DD-MMM-YYYY}
SRVC .        Schlumberger                             :SERVICE COMPANY
LATI .DEG                                              :LATITUDE
LONG .DEG                                              :LONGITUDE
GDAT .                                                 :GeoDetic Datum
SECT .        28                                       :Section
RANG .        78W                                      :Range
TOWN .        39N                                      :Township
#-----------------------------------------------------------------------------
~PARAMETER INFORMATION
#MNEM.UNIT    VALUE                      DESCRIPTION
#---- -----   --------------------       ------------------------
RUN  .          2                        :RUN NUMBER
PDAT .        GROUND LEVEL               :Permanent Datum
EPD  .F         5105.000000              :Elevation of Permanent Datum above Mean Sea Level
EPD  .F         5105.000000              :Elevation of tool zero above Mean Sea Level
LMF  .          KELLY BUSHING            :Logging Measured From (Name of Logging Elevation Reference)
APD  .F          10.000000               :Elevation of Depth Reference (LMF) above Permanent Datum
#-----------------------------------------------------------------------------
~CURVE INFORMATION
#MNEM.UNIT   API CODE                                  DESCRIPTION
#---- -----  --------                                  -----------------------
DEPT .F                                                :DEPTH (BOREHOLE) {F10.1}
ANOR .F/S2                                             :Acceleration Computed Norm {F13.4}
AX   .M/S2                                             :X Acceleration {F13.4}
AY   .M/S2                                             :Y Acceleration {F13.4}
AZ   .M/S2                                             :Z Acceleration {F13.4}
BS   .IN                                               :Bit Size {F13.4}
C1   .IN                                               :Caliper 1 {F13.4}
C2   .IN                                               :Caliper 2 {F13.4}
DB1  .                                                 :Dip Button 1 {F13.4}
DB1A .                                                 :Dip Button 1A {F13.4}
DB2  .                                                 :Dip Button 2 {F13.4}
DB2A .                                                 :Dip Button 2A {F13.4}
DB3  .                                                 :Dip Button 3 {F13.4}
DB3A .                                                 :Dip Button 3A {F13.4}
DB4  .                                                 :Dip Button 4 {F13.4}
DB4A .                                                 :Dip Button 4A {F13.4}
DEVI .DEG                                              :Hole Deviation {F13.4}
DT   .US/F                                             :Delta-T {F13.4}
FX   .OER                                              :Magnetometer X-Axis {F13.4}
FY   .OER                                              :Magnetometer Y-Axis {F13.4}
FZ   .OER                                              :Magnetometer Z-Axis {F13.4}
GR   .GAPI                                             :Gamma Ray {F13.4}
HAZI .DEG                                              :Hole Azimuth {F13.4}
ITT  .S                                                :Integrated Transit Time {F13.4}
SDEV .DEG                                              :Sonde Deviation {F13.4}
SPHI .CFCF                                             :Sonic Porosity {F13.4}
SVEL .FT/S                                             :Sonic Velocity {F13.4}
#-----------------------------------------------------------------------------
# DEPT       
#     ANOR         AX           AY           AZ           BS           C1           
#     C2           DB1          DB1A         DB2          DB2A         DB3          
#     DB3A         DB4          DB4A         DEVI         DT           FX           
#     FY           FZ           GR           HAZI         ITT          SDEV         
#     SPHI         SVEL         
~A  
# ...
4304.5
     32.2193       0.1763      -0.1492       9.8000       6.1250       4.6132
      3.3319      -1.0000      -1.0000      -1.0000      -1.0000      -1.0000
     -1.0000      -1.0000      -1.0000       1.4756      71.0932       0.0307
     -0.0135       0.4654      49.8582     191.2749       0.0933       1.4756
      0.1181   14066.0430
4304.0
     32.2197       0.0839      -0.2422       9.8244       6.1250       4.6132
      3.3452      -1.0000      -1.0000      -1.0000      -1.0000      -1.0000
     -1.0000      -1.0000      -1.0000       1.4717      73.1458       0.0016
     -0.0282       0.4833      49.6114     189.4395       0.0933       1.4717
      0.1335   13671.3213
4303.5
     32.2174      -0.0165      -0.2728       9.8103       6.1250       4.6132
      3.3452       3.0000      -1.0000       1.0000      -1.0000       1.0000
     -1.0000       0.0000      -1.0000       1.4737      64.3171      -0.0200
     -0.0350       0.5040      48.4615     189.0517       0.0933       1.4737
      0.0674   15547.9697
4303.0
     32.2173      -0.1256      -0.2224       9.8216       6.1250       4.6132
      3.3452      -1.0000      -1.0000      -1.0000      -1.0000      -1.0000
     -1.0000      -1.0000      -1.0000       1.4821      56.5565      -0.0434
     -0.0548       0.4769      51.3894     188.9382       0.0934       1.4821
      0.0094   17681.4316
4302.5
     32.2168      -0.2202      -0.1433       9.8036       6.1250       4.6132
      3.3452      -1.0000      -1.0000      -1.0000      -1.0000      -1.0000
     -1.0000      -1.0000      -1.0000       1.4928      46.7648      -0.0486
     -0.0228       0.4818      51.2099     187.8381       0.0934       1.4928
     -0.0638   21383.5859
4302.0
     32.2192      -0.2303       0.0238       9.8219       6.1250       4.6132
      3.3452       1.0000      -1.0000      -1.0000      -1.0000      -1.0000
     -1.0000      -1.0000      -1.0000       1.4963      54.2108      -0.0782
      0.0253       0.5107      52.6795     187.9615       0.0934       1.4963
     -0.0081   18446.4961
4301.5
     32.2181      -0.1292       0.2155       9.8241       6.1250       4.6320
      3.3452      -1.0000      -1.0000      -1.0000      -1.0000      -1.0000
     -1.0000      -1.0000      -1.0000       1.4980      49.7104      -0.0413
      0.1056       0.4605      51.6699     188.9461       0.0935       1.4980
     -0.0418   20116.5156
4301.0
     32.2194       0.0288       0.2486       9.8171       6.1250       4.6226
      3.3452      -1.0000      -1.0000      -1.0000      -1.0000      -1.0000
     -1.0000      -1.0000      -1.0000       1.4861      54.2464       0.0125
      0.1168       0.4470      53.8686     189.0042       0.0935       1.4861
     -0.0079   18434.4004
4300.5
     32.2181       0.2134       0.1552       9.7987       6.1250       4.6132
      3.2959      -1.0000      -1.0000      -3.0000      -1.0000      -1.0000
     -1.0000      -1.0000      -1.0000       1.4742      65.3200       0.0632
      0.0876       0.4603      56.9423     189.5232       0.0935       1.4742
      0.0749   15309.2559
4300.0
     32.2184       0.2447      -0.0313       9.8411       6.1250       4.6132
      3.3452      -1.0000      -1.0000      -1.0000      -1.0000      -1.0000
     -1.0000      -1.0000      -1.0000       1.4660      74.0800       0.1214
      0.0254       0.4705      57.6490     187.8577       0.0935       1.4660
      0.1405   13498.9229
4299.5
     32.2172       0.1757      -0.1893       9.8154       6.1250       4.6132
      3.3452      -1.0000      -1.0000      -1.0000      -1.0000      -1.0000
     -1.0000      -1.0000      -1.0000       1.4578      51.6850       0.1494
     -0.1207       0.4915      54.9175     186.1777       0.0936       1.4578
     -0.0270   19347.9629
4299.0
     32.2165       0.1079      -0.2557       9.7981       6.1250       4.6338
      3.3452      -1.0000      -1.0000      -1.0000      -1.0000      -1.0000
     -1.0000      -1.0000      -1.0000       1.4626      49.9062       0.0594
     -0.2052       0.4920      51.2043     182.7242       0.0936       1.4626
     -0.0403   20037.6035
4298.5
     32.2168       0.0280      -0.2686       9.8294       6.1250       4.6449
      3.3452      -1.0000      -1.0000      -1.0000      -2.0000      -1.0000
     -1.0000      -1.0000      -1.0000       1.4672      49.4992       0.0324
     -0.2026       0.4901      51.4062     180.6955       0.0936       1.4672
     -0.0434   20202.3477
4298.0
     32.2172      -0.0219      -0.2610       9.8339       6.1250       4.6355
      3.3452      -1.0000      -1.0000      -1.0000      -1.0000      -1.0000
     -1.0000      -1.0000      -1.0000       1.4779      49.8294      -0.0026
     -0.1911       0.4678      53.7340     179.8148       0.0936       1.4779
     -0.0409   20068.4746
4297.5
     32.2167      -0.0780      -0.2443       9.8108       6.1250       4.6355
      3.3452      -1.0000      -1.0000      -1.0000      -1.0000      -1.0000
     -1.0000      -1.0000      -1.0000       1.4938      49.6903      -0.0578
     -0.1592       0.5097      50.9856     178.8912       0.0937       1.4938
     -0.0420   20124.6426
4297.0
     32.2175      -0.1654      -0.1517       9.8429       6.1250       4.6543
      3.3452      -1.0000      -1.0000      -1.0000      -1.0000      -1.0000
     -1.0000      -1.0000      -1.0000       1.5017      49.8038      -0.0880
     -0.1339       0.4991      47.5529     177.6378       0.0937       1.5017
     -0.0411   20078.7793
4296.5
     32.2176      -0.2300      -0.0684       9.8130       6.1250       4.6355
      3.3452      -1.0000      -1.0000      -1.0000      -1.0000      -1.0000
     -1.0000      -1.0000      -1.0000       1.5056      49.2670      -0.1112
     -0.0674       0.4656      45.4327     176.8940       0.0937       1.5056
     -0.0451   20297.5508
4296.0
     32.2200      -0.2094       0.1356       9.8266       6.1250       4.6355
      3.3452      -1.0000      -1.0000      -1.0000      -1.0000      -1.0000
     -1.0000      -1.0000      -1.0000       1.5054      50.2406      -0.1911
      0.0739       0.4830      46.7452     178.3752       0.0937       1.5054
     -0.0378   19904.2246
4295.5
     32.2160      -0.0347       0.2297       9.8318       6.1250       4.6355
      3.3452      -1.0000      -1.0000      -1.0000      -1.0000      -1.0000
      1.0000      -1.0000      -1.0000       1.5043      49.7283      -0.1148
      0.2065       0.5116      47.6538     179.3355       0.0938       1.5043
     -0.0417   20109.2539
4295.0
     32.2197       0.1521       0.2112       9.8106       6.1250       4.6560
      3.3452      -1.0000      -1.0000      -1.0000      -1.0000      -1.0000
     -1.0000      -1.0000      -1.0000       1.5031      49.8404       0.0480
      0.2666       0.4991      46.7452     179.4607       0.0938       1.5031
     -0.0408   20064.0625
4294.5
     32.2208       0.2423       0.0751       9.8219       6.1250       4.6578
      3.3452      -1.0000      -1.0000      -2.0000      -1.0000      -1.0000
     -1.0000      -1.0000      -1.0000       1.5037      49.7177       0.1626
      0.1503       0.4819      43.5144     178.9608       0.0938       1.5037
     -0.0418   20113.5527
4294.0
     32.2173       0.2390      -0.1197       9.8211       6.1250       4.6578
      3.3718      -1.0000      -1.0000       0.0000      -1.0000      -1.0000
     -1.0000      -1.0000      -1.0000       1.5023      49.1608       0.1681
     -0.0253       0.4852      43.9182     179.3494       0.0938       1.5023
     -0.0459   20341.4199
4293.5
     32.2173       0.2141      -0.1658       9.8096       6.1250       4.6801
      3.3718      -1.0000      -1.0000      -1.0000      -1.0000      -1.0000
     -1.0000      -1.0000      -1.0000       1.5023      49.1608       0.1811
     -0.1094       0.4856      42.6057     179.3494       0.0938       1.5023
     -0.0459   20341.4199
4293.0
     32.2173       0.1728      -0.1978       9.8293       6.1250       4.6801
      3.3718      -1.0000      -1.0000      -1.0000      -1.0000      -1.0000
     -1.0000      -1.0000      -1.0000       1.5023      49.1608       0.1404
     -0.1033       0.5234      44.5240     179.3494       0.0938       1.5023
     -0.0459   20341.4199
