~Version Information
VERS  .          2.0                              :CWLS Log Ascii Standard - Version 2.0
WRAP  .          NO                               :One line per depth step
~Well Information Block
#MNEM.UNIT       Data Type                        Information
#---------       ---------                        -------------------------------
STRT  .F         4350.00000                       :START DEPTH
STOP  .F         5755.00000                       :STOP DEPTH
STEP  .F          0.50000                         :INCREMENT
NULL  .          -999.25                          :NULL DATA VALUE
COMP  .          DEPARTMENT OF ENERGY             :COMPANY
WELL  .          48X_28                           :WELL
FLD   .          Naval Petroleum Reserve          :FIELD
LOC   .                                           :LOCATION
PROV  .                                           :PROVINCE
STAT  .                                           :STATE
CNTY  .                                           :COUNTY
CTRY  .                                           :COUNTRY
DATE  .                                           :DATE
UWI   .          48X_28                           :UNIQUE WELL UWI
LIC   .                                           :LICENSE NUMBER
API   .          49-025-23195                     :API NUMBER
SRVC  .          SLB                              :SERVICE COMPANY
~Parameter Information Block
#MNEM.UNIT       Value                            Description
#---------       ---------                        -------------
LONG  .DEG       -106.221901                      :Well Surface Location
LATI  .DEG       43.314701                        :Well Surface Location
~Curve Information Block
#MNEM.UNIT       API Code            Curve    Description
#--------        --------------      -----    -------------------
DEPT  .F                             :0       Index
DEVI  .DEG                           :1       Hole Deviation                
AZIM  .DEG                           :2       Measured Azimuth              
DX    .F                             :3       X-Component of the Well Departure
DY    .F                             :4       Y-Component of the Well Departure
TVD   .F                             :5       True Vertical Depth           
~Ascii Data Section
# ...
   4445.00000       1.33999     140.61455       1.40694      -1.76549          4445 
   4445.50000       1.34274     140.17873       1.41440      -1.77450          4445 
   4446.00000       1.34471     139.83507       1.42194      -1.78349          4446 
   4446.50000       1.34657     139.46747       1.42954      -1.79244          4446 
   4447.00000       1.34824     139.12167       1.43721      -1.80135          4447 
   4447.50000       1.34996     138.75494       1.44494      -1.81022          4447 
   4448.00000       1.35163     138.37352       1.45274      -1.81906          4448 
   4448.50000       1.35332     137.94951       1.46061      -1.82785          4448 
   4449.00000       1.35495     137.51642       1.46856      -1.83660          4449 
   4449.50000       1.35677     137.00011       1.47659      -1.84529          4449 
   4450.00000       1.35835     136.52596       1.48471      -1.85392          4450 
   4450.50000       1.35990     136.01161       1.49290      -1.86249          4450 
   4451.00000       1.36166     135.44131       1.50119      -1.87099          4451 
   4451.50000       1.36323     134.92946       1.50957      -1.87942          4451 
   4452.00000       1.36472     134.36664       1.51804      -1.88778          4452 
   4452.50000       1.36593     133.86725       1.52659      -1.89608          4452 
   4453.00000       1.36697     133.39252       1.53522      -1.90431          4453 
   4453.50000       1.36774     132.90173       1.54393      -1.91246          4453 
   4454.00000       1.36802     132.52611       1.55270      -1.92056          4454 
   4454.50000       1.36798     132.06787       1.56153      -1.92859          4454 
   4455.00000       1.36753     131.66934       1.57041      -1.93656          4455 
   4455.50000       1.36718     131.47882       1.57934      -1.94448          4455 
   4456.00000       1.36674     131.33055       1.58829      -1.95237          4456 
   4456.50000       1.36571     131.05388       1.59726      -1.96022          4456 
   4457.00000       1.36393     130.71043       1.60626      -1.96801          4457 
   4457.50000       1.36231     130.49872       1.61529      -1.97575          4457 
   4458.00000       1.36074     130.29872       1.62434      -1.98345          4458 
   4458.50000       1.35872     130.08798       1.63340      -1.99111          4458 
   4459.00000       1.35573     129.85390       1.64248      -1.99872          4459 
   4459.50000       1.35314     129.67690       1.65156      -2.00628          4459 
   4460.00000       1.34930     129.45978       1.66065      -2.01379          4460 
   4460.50000       1.34517     129.27942       1.66974      -2.02125          4460 
   4461.00000       1.34185     129.16292       1.67882      -2.02866          4461 
   4461.50000       1.33467     128.98715       1.68789      -2.03602          4461 
   4462.00000       1.33138     128.93022       1.69693      -2.04333          4462 
   4462.50000       1.32938     128.90910       1.70596      -2.05063          4462 
   4463.00000       1.32678     128.88968       1.71498      -2.05790          4463 
   4463.50000       1.31878     128.84468       1.72397      -2.06515          4463 
   4464.00000       1.31469     128.83849       1.73292      -2.07235          4464 
   4464.50000       1.31057     128.83693       1.74184      -2.07953          4464 
   4465.00000       1.30774     128.84090       1.75074      -2.08670          4465 
   4465.50000       1.30343     128.83388       1.75961      -2.09384          4465 
   4466.00000       1.30024     128.83391       1.76846      -2.10097          4466 
   4466.50000       1.29830     128.83334       1.77729      -2.10808          4466 
   4467.00000       1.29552     128.82147       1.78611      -2.11517          4467 
   4467.50000       1.29175     128.81105       1.79490      -2.12225          4467 
   4468.00000       1.28950     128.79987       1.80368      -2.12930          4468 
   4468.50000       1.28675     128.78171       1.81244      -2.13635          4468 
   4469.00000       1.28468     128.75493       1.82119      -2.14337          4469 
   4469.50000       1.28314     128.72093       1.82993      -2.15038          4469 
   4470.00000       1.28098     128.66452       1.83866      -2.15738          4470 
   4470.50000       1.27937     128.59431       1.84738      -2.16435          4470 
   4471.00000       1.27782     128.50609       1.85611      -2.17130          4471 
   4471.50000       1.27589     128.39394       1.86484      -2.17823          4471 
   4472.00000       1.27437     128.28474       1.87356      -2.18513          4472 
   4472.50000       1.27287     128.17641       1.88229      -2.19201          4472 
   4473.00000       1.27134     128.06421       1.89103      -2.19886          4473 
   4473.50000       1.27013     127.97686       1.89976      -2.20569          4473 
   4474.00000       1.26894     127.88705       1.90850      -2.21250          4474 
   4474.50000       1.26786     127.80717       1.91724      -2.21929          4474 
   4475.00000       1.26722     127.73153       1.92598      -2.22607          4475 
   4475.50000       1.26635     127.63000       1.93473      -2.23282          4475 
   4476.00000       1.26568     127.54012       1.94348      -2.23956          4476 
   4476.50000       1.26493     127.42344       1.95225      -2.24628          4476 
   4477.00000       1.26386     127.28873       1.96102      -2.25297          4477 
   4477.50000       1.26288     127.18734       1.96979      -2.25965          4477 
   4478.00000       1.26081     127.01328       1.97857      -2.26629          4478 
   4478.50000       1.25772     126.81739       1.98736      -2.27289          4478 
   4479.00000       1.25587     126.71947       1.99614      -2.27945          4479 
   4479.50000       1.25285     126.58530       2.00493      -2.28599          4479 
   4480.00000       1.24942     126.44817       2.01370      -2.29248          4480 
   4480.50000       1.24560     126.32276       2.02246      -2.29894          4480 
   4481.00000       1.24263     126.22795       2.03122      -2.30536          4481 
   4481.50000       1.23917     126.11783       2.03996      -2.31175          4481 
   4482.00000       1.23486     125.99589       2.04868      -2.31811          4482 
   4482.50000       1.23138     125.89189       2.05739      -2.32442          4482 
   4483.00000       1.22812     125.78698       2.06609      -2.33071          4483 
   4483.50000       1.22437     125.67818       2.07478      -2.33696          4483 
   4484.00000       1.22176     125.59876       2.08345      -2.34317          4484 
   4484.50000       1.21862     125.49855       2.09212      -2.34936          4484 
   4485.00000       1.21572     125.40309       2.10077      -2.35552          4485 
   4485.50000       1.21410     125.37114       2.10941      -2.36166          4485 
   4486.00000       1.20973     125.28094       2.11804      -2.36778          4486 
   4486.50000       1.20764     125.25783       2.12665      -2.37387          4486 
   4487.00000       1.20547     125.23896       2.13525      -2.37995          4487 
   4487.50000       1.20193     125.21960       2.14383      -2.38600          4487 
   4488.00000       1.19484     125.19572       2.15237      -2.39203          4488 
   4488.50000       1.18637     125.17916       2.16086      -2.39802          4488 
   4489.00000       1.18305     125.17368       2.16931      -2.40398          4489 
   4489.50000       1.17777     125.16363       2.17773      -2.40991          4489 
   4490.00000       1.16843     125.15845       2.18610      -2.41580          4490 
   4490.50000       1.16125     125.16607       2.19441      -2.42166          4490 
   4491.00000       1.15351     125.18181       2.20267      -2.42747          4491 
   4491.50000       1.10292     125.71931       2.21069      -2.43318          4491 
   4492.00000       1.09483     125.87109       2.21846      -2.43879          4492 
