~Version Information
VERS  .          2.0                              :CWLS Log Ascii Standard - Version 2.0
WRAP  .          NO                               :One line per depth step
~Well Information Block
#MNEM.UNIT       Data Type                        Information
#---------       ---------                        -------------------------------
STRT  .F         4350.00000                       :START DEPTH
STOP  .F         5755.00000                       :STOP DEPTH
STEP  .F          0.50000                         :INCREMENT
NULL  .          -999.25                          :NULL DATA VALUE
COMP  .          DEPARTMENT OF ENERGY             :COMPANY
WELL  .          48X_28                           :WELL
FLD   .          Naval Petroleum Reserve          :FIELD
LOC   .                                           :LOCATION
PROV  .                                           :PROVINCE
STAT  .                                           :STATE
CNTY  .                                           :COUNTY
CTRY  .                                           :COUNTRY
DATE  .                                           :DATE
UWI   .          48X_28                           :UNIQUE WELL UWI
LIC   .                                           :LICENSE NUMBER
API   .          49-025-23195                     :API NUMBER
SRVC  .          SLB                              :SERVICE COMPANY
~Parameter Information Block
#MNEM.UNIT       Value                            Description
#---------       ---------                        -------------
LONG  .DEG       -106.221901                      :Well Surface Location
LATI  .DEG       43.314701                        :Well Surface Location
~Curve Information Block
#MNEM.UNIT       API Code            Curve    Description
#--------        --------------      -----    -------------------
DEPT  .F                             :0       Index
DEVI  .DEG                           :1       Hole Deviation                
AZIM  .DEG                           :2       Measured Azimuth              
DX    .F                             :3       X-Component of the Well Departure
DY    .F                             :4       Y-Component of the Well Departure
TVD   .F                             :5       True Vertical Depth           
~Ascii Data Section
# ...
   5632.50000       1.49239     128.98570       4.27558     -38.03027          5632 
   5633.00000       1.49579     128.82410       4.28573     -38.03846          5632 
   5633.50000       1.49977     128.63176       4.29592     -38.04663          5633 
   5634.00000       1.50490     128.39352       4.30618     -38.05480          5633 
   5634.50000       1.50946     128.16847       4.31650     -38.06294          5634 
   5635.00000       1.51512     127.88434       4.32690     -38.07107          5634 
   5635.50000       1.52119     127.58808       4.33737     -38.07918          5635 
   5636.00000       1.52731     127.27979       4.34793     -38.08727          5635 
   5636.50000       1.53266     127.01390       4.35858     -38.09533          5636 
   5637.00000       1.53883     126.69870       4.36930     -38.10337          5636 
   5637.50000       1.54679     126.30097       4.38012     -38.11137          5637 
   5638.00000       1.54998     126.14313       4.39102     -38.11936          5637 
   5638.50000       1.56330     125.46620       4.40203     -38.12730          5638 
   5639.00000       1.56741     125.25135       4.41317     -38.13520          5638 
   5639.50000       1.57290     124.95052       4.42438     -38.14308          5639 
   5640.00000       1.57795     124.68426       4.43567     -38.15093          5639 
   5640.50000       1.58176     124.46951       4.44702     -38.15875          5640 
   5641.00000       1.58501     124.26755       4.45842     -38.16655          5640 
   5641.50000       1.59107     123.95347       4.46989     -38.17432          5641 
   5642.00000       1.59459     123.75607       4.48144     -38.18207          5641 
   5642.50000       1.59670     123.64261       4.49302     -38.18979          5642 
   5643.00000       1.59861     123.53596       4.50463     -38.19750          5642 
   5643.50000       1.60680     123.06710       4.51632     -38.20518          5643 
   5644.00000       1.60961     122.89025       4.52809     -38.21282          5643 
   5644.50000       1.61167     122.75992       4.53990     -38.22044          5644 
   5645.00000       1.61823     122.31243       4.55178     -38.22802          5644 
   5645.50000       1.62072     122.13348       4.56374     -38.23555          5645 
   5646.00000       1.62239     122.00401       4.57572     -38.24306          5645 
   5646.50000       1.62598     121.74156       4.58776     -38.25055          5646 
   5647.00000       1.62888     121.54276       4.59985     -38.25800          5646 
   5647.50000       1.63082     121.41837       4.61198     -38.26542          5647 
   5648.00000       1.63400     121.21157       4.62415     -38.27283          5647 
   5648.50000       1.63766     121.03619       4.63636     -38.28020          5648 
   5649.00000       1.63979     120.93407       4.64862     -38.28756          5648 
   5649.50000       1.64148     120.85073       4.66091     -38.29491          5649 
   5650.00000       1.64473     120.69937       4.67323     -38.30225          5649 
   5650.50000       1.64738     120.58837       4.68558     -38.30957          5650 
   5651.00000       1.64911     120.50249       4.69797     -38.31688          5650 
   5651.50000       1.65082     120.41655       4.71038     -38.32418          5651 
   5652.00000       1.65335     120.30015       4.72282     -38.33146          5651 
   5652.50000       1.65451     120.22330       4.73528     -38.33874          5652 
   5653.00000       1.65549     120.16206       4.74776     -38.34600          5652 
   5653.50000       1.65704     120.05843       4.76026     -38.35325          5653 
   5654.00000       1.66126     119.77604       4.77281     -38.36047          5653 
   5654.50000       1.66221     119.68841       4.78540     -38.36766          5654 
   5655.00000       1.66281     119.62334       4.79801     -38.37484          5654 
   5655.50000       1.66513     119.37469       4.81065     -38.38198          5655 
   5656.00000       1.66744     119.07367       4.82333     -38.38908          5655 
   5656.50000       1.66713     118.97358       4.83605     -38.39614          5656 
   5657.00000       1.66282     118.53329       4.84879     -38.40313          5656 
   5657.50000       1.66052     118.43722       4.86153     -38.41005          5657 
   5658.00000       1.65917     118.40379       4.87427     -38.41694          5657 
   5658.50000       1.65779     118.37209       4.88700     -38.42382          5658 
   5659.00000       1.65606     118.32868       4.89973     -38.43068          5658 
   5659.50000       1.63896     117.98355       4.91240     -38.43747          5659 
   5660.00000       1.62980     117.81095       4.92500     -38.44414          5659 
   5660.50000       1.62640     117.74709       4.93757     -38.45076          5660 
   5661.00000       1.61130     117.47604       4.95009     -38.45731          5660 
   5661.50000       1.60341     117.31960       4.96254     -38.46376          5661 
   5662.00000       1.59195     117.09989       4.97494     -38.47014          5661 
   5662.50000       1.58550     116.93633       4.98729     -38.47643          5662 
   5663.00000       1.58107     116.80995       4.99961     -38.48268          5662 
   5663.50000       1.57825     116.72424       5.01192     -38.48888          5663 
   5664.00000       1.57578     116.63129       5.02421     -38.49506          5663 
   5664.50000       1.57360     116.53199       5.03650     -38.50121          5664 
   5665.00000       1.57179     116.46859       5.04878     -38.50734          5664 
   5665.50000       1.56958     116.39665       5.06105     -38.51344          5665 
   5666.00000       1.56715     116.34455       5.07331     -38.51952          5665 
   5666.50000       1.56481     116.30662       5.08556     -38.52557          5666 
   5667.00000       1.56126     116.26777       5.09779     -38.53161          5666 
   5667.50000       1.55767     116.22610       5.10999     -38.53763          5667 
   5668.00000       1.55369     116.17623       5.12217     -38.54362          5667 
   5668.50000       1.55015     116.13953       5.13433     -38.54959          5668 
   5669.00000       1.54669     116.09166       5.14646     -38.55554          5668 
   5669.50000       1.54162     116.03356       5.15856     -38.56146          5669 
   5670.00000       1.53799     116.00246       5.17064     -38.56736          5669 
   5670.50000       1.53232     115.99832       5.18268     -38.57323          5670 
   5671.00000       1.52696     116.02734       5.19467     -38.57908          5670 
   5671.50000       1.51953     116.11269       5.20661     -38.58492          5671 
   5672.00000       1.51349     116.20554       5.21849     -38.59076          5671 
   5672.50000       1.50505     116.34518       5.23030     -38.59658          5672 
   5673.00000       1.49640     116.50248       5.24202     -38.60241          5672 
   5673.50000       1.49203     116.58394       5.25369     -38.60824          5673 
   5674.00000       1.48684     116.65070       5.26530     -38.61406          5673 
   5674.50000       1.47791     116.72611       5.27686     -38.61987          5674 
   5675.00000       1.47366     116.72878       5.28836     -38.62566          5674 
   5675.50000       1.46648     116.66533       5.29982     -38.63142          5675 
   5676.00000       1.45931     116.56768       5.31123     -38.63715          5675 
   5676.50000       1.45512     116.51331       5.32261     -38.64283          5676 
   5677.00000       1.44760     116.44901       5.33395     -38.64848          5676 
   5677.50000       1.44154     116.40750       5.34523     -38.65409          5677 
   5678.00000       1.43788     116.39716       5.35648     -38.65967          5677 
   5678.50000       1.43249     116.38028       5.36770     -38.66523          5678 
   5679.00000       1.41772     116.36375       5.37884     -38.67076          5678 
   5679.50000       1.40772     116.35516       5.38989     -38.67623          5679 
