~Version Information
VERS  .          2.0                              :CWLS Log Ascii Standard - Version 2.0
WRAP  .          NO                               :One line per depth step
~Well Information Block
#MNEM.UNIT       Data Type                        Information
#---------       ---------                        -------------------------------
STRT  .F         4350.00000                       :START DEPTH
STOP  .F         5755.00000                       :STOP DEPTH
STEP  .F          0.50000                         :INCREMENT
NULL  .          -999.25                          :NULL DATA VALUE
COMP  .          DEPARTMENT OF ENERGY             :COMPANY
WELL  .          48X_28                           :WELL
FLD   .          Naval Petroleum Reserve          :FIELD
LOC   .                                           :LOCATION
PROV  .                                           :PROVINCE
STAT  .                                           :STATE
CNTY  .                                           :COUNTY
CTRY  .                                           :COUNTRY
DATE  .                                           :DATE
UWI   .          48X_28                           :UNIQUE WELL UWI
LIC   .                                           :LICENSE NUMBER
API   .          49-025-23195                     :API NUMBER
SRVC  .          SLB                              :SERVICE COMPANY
~Parameter Information Block
#MNEM.UNIT       Value                            Description
#---------       ---------                        -------------
LONG  .DEG       -106.221901                      :Well Surface Location
LATI  .DEG       43.314701                        :Well Surface Location
~Curve Information Block
#MNEM.UNIT       API Code            Curve    Description
#--------        --------------      -----    -------------------
DEPT  .F                             :0       Index
DEVI  .DEG                           :1       Hole Deviation                
AZIM  .DEG                           :2       Measured Azimuth              
DX    .F                             :3       X-Component of the Well Departure
DY    .F                             :4       Y-Component of the Well Departure
TVD   .F                             :5       True Vertical Depth           
~Ascii Data Section
# ...
   4730.00000       1.72666     181.72356       3.32130      -8.27034          4730 
   4730.50000       1.72504     181.63802       3.32086      -8.28539          4730 
   4731.00000       1.72234     181.46539       3.32045      -8.30043          4731 
   4731.50000       1.72036     181.34393       3.32008      -8.31544          4731 
   4732.00000       1.71759     181.15579       3.31976      -8.33044          4732 
   4732.50000       1.71459     180.96461       3.31948      -8.34541          4732 
   4733.00000       1.71141     180.77744       3.31925      -8.36035          4733 
   4733.50000       1.70856     180.60577       3.31907      -8.37527          4733 
   4734.00000       1.70628     180.48309       3.31893      -8.39017          4734 
   4734.50000       1.70196     180.23357       3.31884      -8.40504          4734 
   4735.00000       1.69960     180.10135       3.31879      -8.41988          4735 
   4735.50000       1.69627     179.88396       3.31880      -8.43469          4735 
   4736.00000       1.69327     179.66570       3.31886      -8.44948          4736 
   4736.50000       1.69136     179.51788       3.31896      -8.46425          4736 
   4737.00000       1.68839     179.24687       3.31912      -8.47899          4737 
   4737.50000       1.68613     179.05206       3.31934      -8.49371          4737 
   4738.00000       1.68407     178.85533       3.31961      -8.50841          4738 
   4738.50000       1.68149     178.67892       3.31992      -8.52309          4738 
   4739.00000       1.67926     178.54430       3.32028      -8.53775          4739 
   4739.50000       1.67621     178.40140       3.32067      -8.55238          4739 
   4740.00000       1.67398     178.31293       3.32109      -8.56699          4740 
   4740.50000       1.67205     178.25250       3.32152      -8.58158          4740 
   4741.00000       1.66997     178.18755       3.32198      -8.59616          4741 
   4741.50000       1.66670     178.09958       3.32245      -8.61071          4741 
   4742.00000       1.66440     178.04593       3.32294      -8.62523          4742 
   4742.50000       1.66245     178.00348       3.32344      -8.63974          4742 
   4743.00000       1.65934     177.94446       3.32395      -8.65422          4743 
   4743.50000       1.65801     177.92307       3.32447      -8.66868          4743 
   4744.00000       1.65617     177.89517       3.32500      -8.68313          4744 
   4744.50000       1.65396     177.87161       3.32553      -8.69756          4744 
   4745.00000       1.65232     177.85498       3.32607      -8.71198          4745 
   4745.50000       1.65111     177.84160       3.32661      -8.72638          4745 
   4746.00000       1.64967     177.82990       3.32715      -8.74077          4746 
   4746.50000       1.64767     177.80501       3.32770      -8.75514          4746 
   4747.00000       1.64578     177.78165       3.32826      -8.76950          4747 
   4747.50000       1.64318     177.75334       3.32881      -8.78384          4747 
   4748.00000       1.64134     177.73392       3.32938      -8.79816          4748 
   4748.50000       1.63828     177.71138       3.32995      -8.81246          4748 
   4749.00000       1.63522     177.68686       3.33052      -8.82672          4749 
   4749.50000       1.63280     177.67740       3.33110      -8.84097          4749 
   4750.00000       1.62786     177.66386       3.33168      -8.85518          4750 
   4750.50000       1.62582     177.66090       3.33225      -8.86937          4750 
   4751.00000       1.62097     177.66151       3.33283      -8.88352          4751 
   4751.50000       1.61914     177.66113       3.33341      -8.89764          4751 
   4752.00000       1.61550     177.66150       3.33399      -8.91174          4752 
   4752.50000       1.61285     177.66284       3.33456      -8.92582          4752 
   4753.00000       1.61070     177.65892       3.33513      -8.93987          4753 
   4753.50000       1.60748     177.66113       3.33571      -8.95390          4753 
   4754.00000       1.60611     177.66156       3.33628      -8.96791          4754 
   4754.50000       1.60471     177.66974       3.33685      -8.98190          4754 
   4755.00000       1.60135     177.68921       3.33742      -8.99588          4755 
   4755.50000       1.59992     177.71313       3.33798      -9.00983          4755 
   4756.00000       1.59755     177.76088       3.33853      -9.02377          4756 
   4756.50000       1.59481     177.82423       3.33906      -9.03769          4756 
   4757.00000       1.59328     177.87923       3.33958      -9.05159          4757 
   4757.50000       1.58791     178.08990       3.34007      -9.06546          4757 
   4758.00000       1.58624     178.16988       3.34052      -9.07930          4758 
   4758.50000       1.58495     178.23912       3.34096      -9.09313          4758 
   4759.00000       1.58030     178.52417       3.34135      -9.10693          4759 
   4759.50000       1.57735     178.75014       3.34168      -9.12070          4759 
   4760.00000       1.57608     178.87334       3.34196      -9.13446          4760 
   4760.50000       1.57345     179.18996       3.34219      -9.14820          4760 
   4761.00000       1.57231     179.37935       3.34236      -9.16192          4761 
   4761.50000       1.57115     179.65141       3.34248      -9.17563          4761 
   4762.00000       1.57000     179.83485       3.34254      -9.18934          4762 
   4762.50000       1.56918     179.98477       3.34256      -9.20303          4762 
   4763.00000       1.56773     180.10966       3.34255      -9.21672          4763 
   4763.50000       1.56578     180.20610       3.34251      -9.23039          4763 
   4764.00000       1.56428     180.26984       3.34246      -9.24405          4764 
   4764.50000       1.56266     180.31116       3.34239      -9.25769          4764 
   4765.00000       1.56127     180.33208       3.34231      -9.27132          4765 
   4765.50000       1.56060     180.33601       3.34223      -9.28494          4765 
   4766.00000       1.56064     180.32965       3.34215      -9.29855          4766 
   4766.50000       1.56136     180.31169       3.34208      -9.31217          4766 
   4767.00000       1.56234     180.30354       3.34200      -9.32580          4767 
   4767.50000       1.56510     180.29790       3.34193      -9.33945          4767 
   4768.00000       1.56673     180.30777       3.34186      -9.35311          4768 
   4768.50000       1.56806     180.32076       3.34179      -9.36679          4768 
   4769.00000       1.57024     180.34297       3.34171      -9.38048          4769 
   4769.50000       1.57433     180.40674       3.34162      -9.39420          4769 
   4770.00000       1.57770     180.46559       3.34151      -9.40795          4770 
   4770.50000       1.58077     180.52473       3.34139      -9.42173          4770 
   4771.00000       1.58375     180.58900       3.34126      -9.43553          4771 
   4771.50000       1.58653     180.65288       3.34111      -9.44936          4771 
   4772.00000       1.58857     180.70189       3.34095      -9.46321          4772 
   4772.50000       1.59158     180.79549       3.34076      -9.47709          4772 
   4773.00000       1.59319     180.85266       3.34056      -9.49098          4773 
   4773.50000       1.59442     180.90005       3.34035      -9.50488          4773 
   4774.00000       1.59682     181.01317       3.34012      -9.51880          4774 
   4774.50000       1.59770     181.05492       3.33987      -9.53274          4774 
   4775.00000       1.59853     181.09485       3.33961      -9.54668          4775 
   4775.50000       1.60032     181.18323       3.33933      -9.56063          4775 
   4776.00000       1.60096     181.20573       3.33904      -9.57460          4776 
   4776.50000       1.60175     181.23247       3.33874      -9.58857          4776 
   4777.00000       1.60347     181.28845       3.33843      -9.60255          4777 
