~Version Information
VERS  .          2.0                              :CWLS Log Ascii Standard - Version 2.0
WRAP  .          NO                               :One line per depth step
~Well Information Block
#MNEM.UNIT       Data Type                        Information
#---------       ---------                        -------------------------------
STRT  .F         4350.00000                       :START DEPTH
STOP  .F         5755.00000                       :STOP DEPTH
STEP  .F          0.50000                         :INCREMENT
NULL  .          -999.25                          :NULL DATA VALUE
COMP  .          DEPARTMENT OF ENERGY             :COMPANY
WELL  .          48X_28                           :WELL
FLD   .          Naval Petroleum Reserve          :FIELD
LOC   .                                           :LOCATION
PROV  .                                           :PROVINCE
STAT  .                                           :STATE
CNTY  .                                           :COUNTY
CTRY  .                                           :COUNTRY
DATE  .                                           :DATE
UWI   .          48X_28                           :UNIQUE WELL UWI
LIC   .                                           :LICENSE NUMBER
API   .          49-025-23195                     :API NUMBER
SRVC  .          SLB                              :SERVICE COMPANY
~Parameter Information Block
#MNEM.UNIT       Value                            Description
#---------       ---------                        -------------
LONG  .DEG       -106.221901                      :Well Surface Location
LATI  .DEG       43.314701                        :Well Surface Location
~Curve Information Block
#MNEM.UNIT       API Code            Curve    Description
#--------        --------------      -----    -------------------
DEPT  .F                             :0       Index
DEVI  .DEG                           :1       Hole Deviation                
AZIM  .DEG                           :2       Measured Azimuth              
DX    .F                             :3       X-Component of the Well Departure
DY    .F                             :4       Y-Component of the Well Departure
TVD   .F                             :5       True Vertical Depth           
~Ascii Data Section
# ...
   5015.00000       2.46752     196.83380       1.57601     -17.28226          5015 
   5015.50000       2.47058     196.84196       1.56977     -17.30288          5015 
   5016.00000       2.47434     196.84717       1.56352     -17.32352          5016 
   5016.50000       2.47622     196.85094       1.55726     -17.34419          5016 
   5017.00000       2.47845     196.85092       1.55100     -17.36487          5017 
   5017.50000       2.48344     196.84517       1.54473     -17.38559          5017 
   5018.00000       2.48574     196.83710       1.53845     -17.40633          5018 
   5018.50000       2.48986     196.81482       1.53216     -17.42710          5018 
   5019.00000       2.49315     196.79027       1.52588     -17.44791          5019 
   5019.50000       2.49658     196.75710       1.51960     -17.46875          5019 
   5020.00000       2.49997     196.71400       1.51332     -17.48962          5020 
   5020.50000       2.50362     196.65727       1.50706     -17.51053          5020 
   5021.00000       2.50732     196.58661       1.50081     -17.53148          5021 
   5021.50000       2.51077     196.49771       1.49457     -17.55246          5021 
   5022.00000       2.51436     196.39032       1.48837     -17.57348          5022 
   5022.50000       2.51784     196.26935       1.48220     -17.59455          5022 
   5023.00000       2.52166     196.11516       1.47607     -17.61566          5023 
   5023.50000       2.52521     195.93723       1.46999     -17.63681          5023 
   5024.00000       2.52851     195.76231       1.46397     -17.65802          5024 
   5024.50000       2.53218     195.52800       1.45802     -17.67927          5024 
   5025.00000       2.53604     195.23541       1.45215     -17.70059          5025 
   5025.50000       2.53852     195.01842       1.44638     -17.72196          5025 
   5026.00000       2.54217     194.62411       1.44071     -17.74338          5026 
   5026.50000       2.54367     194.44319       1.43514     -17.76486          5026 
   5027.00000       2.54497     194.27740       1.42964     -17.78636          5027 
   5027.50000       2.54641     194.04794       1.42420     -17.80789          5027 
   5028.00000       2.54796     193.80215       1.41885     -17.82946          5028 
   5028.50000       2.54910     193.59158       1.41359     -17.85106          5028 
   5029.00000       2.55003     193.39607       1.40840     -17.87269          5029 
   5029.50000       2.55090     193.24959       1.40327     -17.89434          5029 
   5030.00000       2.55146     193.13181       1.39819     -17.91601          5030 
   5030.50000       2.55208     193.05164       1.39315     -17.93769          5030 
   5031.00000       2.55280     192.97928       1.38814     -17.95938          5031 
   5031.50000       2.55368     192.92886       1.38314     -17.98109          5031 
   5032.00000       2.55450     192.91385       1.37816     -18.00281          5032 
   5032.50000       2.55507     192.92300       1.37318     -18.02453          5032 
   5033.00000       2.55584     192.94356       1.36819     -18.04626          5033 
   5033.50000       2.55644     192.97209       1.36319     -18.06799          5033 
   5034.00000       2.55739     193.02277       1.35817     -18.08973          5034 
   5034.50000       2.55828     193.07382       1.35313     -18.11146          5034 
   5035.00000       2.55975     193.16309       1.34807     -18.13321          5035 
   5035.50000       2.56078     193.22507       1.34297     -18.15495          5035 
   5036.00000       2.56202     193.29605       1.33784     -18.17670          5036 
   5036.50000       2.56371     193.39319       1.33268     -18.19845          5036 
   5037.00000       2.56468     193.45377       1.32749     -18.22021          5037 
   5037.50000       2.56605     193.54070       1.32227     -18.24197          5037 
   5038.00000       2.56707     193.61102       1.31701     -18.26374          5038 
   5038.50000       2.56819     193.67799       1.31173     -18.28550          5038 
   5039.00000       2.56891     193.73816       1.30642     -18.30727          5039 
   5039.50000       2.57005     193.80884       1.30108     -18.32904          5039 
   5040.00000       2.57094     193.86734       1.29572     -18.35082          5040 
   5040.50000       2.57185     193.92340       1.29033     -18.37259          5040 
   5041.00000       2.57321     193.98601       1.28492     -18.39437          5041 
   5041.50000       2.57436     194.04001       1.27948     -18.41616          5041 
   5042.00000       2.57613     194.10120       1.27402     -18.43795          5042 
   5042.50000       2.57737     194.14569       1.26854     -18.45975          5042 
   5043.00000       2.57927     194.20033       1.26303     -18.48156          5043 
   5043.50000       2.58101     194.24620       1.25750     -18.50338          5043 
   5044.00000       2.58240     194.28351       1.25195     -18.52520          5044 
   5044.50000       2.58412     194.32463       1.24638     -18.54704          5044 
   5045.00000       2.58527     194.35132       1.24080     -18.56889          5045 
   5045.50000       2.58699     194.39153       1.23520     -18.59074          5045 
   5046.00000       2.58808     194.42107       1.22958     -18.61260          5046 
   5046.50000       2.58953     194.45840       1.22395     -18.63447          5046 
   5047.00000       2.59120     194.50279       1.21830     -18.65635          5047 
   5047.50000       2.59257     194.54422       1.21263     -18.67824          5047 
   5048.00000       2.59411     194.58195       1.20694     -18.70014          5048 
   5048.50000       2.59571     194.62422       1.20123     -18.72204          5048 
   5049.00000       2.59735     194.65680       1.19551     -18.74396          5049 
   5049.50000       2.59885     194.68297       1.18977     -18.76589          5049 
   5050.00000       2.60092     194.70874       1.18401     -18.78782          5050 
   5050.50000       2.60258     194.72156       1.17825     -18.80978          5050 
   5051.00000       2.60428     194.72859       1.17248     -18.83174          5051 
   5051.50000       2.60645     194.72743       1.16670     -18.85373          5051 
   5052.00000       2.60811     194.72284       1.16092     -18.87572          5052 
   5052.50000       2.60989     194.71500       1.15513     -18.89774          5052 
   5053.00000       2.61195     194.70595       1.14935     -18.91977          5053 
   5053.50000       2.61369     194.69865       1.14357     -18.94181          5053 
   5054.00000       2.61519     194.69446       1.13778     -18.96387          5054 
   5054.50000       2.61763     194.69110       1.13199     -18.98595          5054 
   5055.00000       2.61963     194.68909       1.12620     -19.00805          5055 
   5055.50000       2.62156     194.68918       1.12040     -19.03016          5055 
   5056.00000       2.62373     194.68648       1.11460     -19.05230          5056 
   5056.50000       2.62577     194.68021       1.10880     -19.07444          5056 
   5057.00000       2.62744     194.66931       1.10299     -19.09661          5057 
   5057.50000       2.62926     194.65280       1.09719     -19.11879          5057 
   5058.00000       2.63133     194.62053       1.09139     -19.14099          5058 
   5058.50000       2.63322     194.58846       1.08560     -19.16321          5058 
   5059.00000       2.63501     194.55005       1.07982     -19.18545          5059 
   5059.50000       2.63828     194.46681       1.07406     -19.20772          5059 
   5060.00000       2.64100     194.38811       1.06832     -19.23002          5060 
   5060.50000       2.64411     194.28418       1.06261     -19.25236          5060 
   5061.00000       2.64706     194.15778       1.05694     -19.27473          5061 
   5061.50000       2.64926     194.05859       1.05131     -19.29713          5061 
   5062.00000       2.65237     193.90373       1.04572     -19.31957          5062 
