~Version Information
VERS  .          2.0                              :CWLS Log Ascii Standard - Version 2.0
WRAP  .          NO                               :One line per depth step
~Well Information Block
#MNEM.UNIT       Data Type                        Information
#---------       ---------                        -------------------------------
STRT  .F         4350.00000                       :START DEPTH
STOP  .F         5755.00000                       :STOP DEPTH
STEP  .F          0.50000                         :INCREMENT
NULL  .          -999.25                          :NULL DATA VALUE
COMP  .          DEPARTMENT OF ENERGY             :COMPANY
WELL  .          48X_28                           :WELL
FLD   .          Naval Petroleum Reserve          :FIELD
LOC   .                                           :LOCATION
PROV  .                                           :PROVINCE
STAT  .                                           :STATE
CNTY  .                                           :COUNTY
CTRY  .                                           :COUNTRY
DATE  .                                           :DATE
UWI   .          48X_28                           :UNIQUE WELL UWI
LIC   .                                           :LICENSE NUMBER
API   .          49-025-23195                     :API NUMBER
SRVC  .          SLB                              :SERVICE COMPANY
~Parameter Information Block
#MNEM.UNIT       Value                            Description
#---------       ---------                        -------------
LONG  .DEG       -106.221901                      :Well Surface Location
LATI  .DEG       43.314701                        :Well Surface Location
~Curve Information Block
#MNEM.UNIT       API Code            Curve    Description
#--------        --------------      -----    -------------------
DEPT  .F                             :0       Index
DEVI  .DEG                           :1       Hole Deviation                
AZIM  .DEG                           :2       Measured Azimuth              
DX    .F                             :3       X-Component of the Well Departure
DY    .F                             :4       Y-Component of the Well Departure
TVD   .F                             :5       True Vertical Depth           
~Ascii Data Section
# ...
   5727.50000       1.27164     121.71342       6.30064     -39.20234          5727 
   5728.00000       1.27015     121.56211       6.31008     -39.20816          5727 
   5728.50000       1.26960     121.45442       6.31953     -39.21395          5728 
   5729.00000       1.26962     121.37081       6.32899     -39.21972          5728 
   5729.50000       1.27198     121.20879       6.33846     -39.22548          5729 
   5730.00000       1.27292     121.18470       6.34796     -39.23124          5729 
   5730.50000       1.27401     121.15465       6.35747     -39.23698          5730 
   5731.00000       1.27827     121.09959       6.36700     -39.24274          5730 
   5731.50000       1.27931     121.09455       6.37655     -39.24850          5731 
   5732.00000       1.28063     121.10049       6.38612     -39.25427          5731 
   5732.50000       1.28066     121.11716       6.39569     -39.26005          5732 
   5733.00000       1.28005     121.13448       6.40525     -39.26582          5732 
   5733.50000       1.27889     121.15631       6.41480     -39.27160          5733 
   5734.00000       1.27628     121.17513       6.42434     -39.27736          5733 
   5734.50000       1.27464     121.17686       6.43387     -39.28313          5734 
   5735.00000       1.27327     121.16402       6.44338     -39.28888          5734 
   5735.50000       1.27201     121.15119       6.45288     -39.29462          5735 
   5736.00000       1.27129     121.09095       6.46238     -39.30036          5735 
   5736.50000       1.27172     121.03450       6.47188     -39.30609          5736 
   5737.00000       1.27344     120.94939       6.48140     -39.31181          5736 
   5737.50000       1.27744     120.83680       6.49095     -39.31752          5737 
   5738.00000       1.28166     120.74326       6.50055     -39.32323          5737 
   5738.50000       1.28606     120.65211       6.51018     -39.32895          5738 
   5739.00000       1.29259     120.49364       6.51987     -39.33467          5738 
   5739.50000       1.29714     120.36861       6.52961     -39.34040          5739 
   5740.00000       1.30128     120.23723       6.53940     -39.34612          5739 
   5740.50000       1.30752     120.00528       6.54924     -39.35183          5740 
   5741.00000       1.31472     119.66441       6.55917     -39.35752          5740 
   5741.50000       1.31945     119.44214       6.56916     -39.36319          5741 
   5742.00000       1.32396     119.22538       6.57922     -39.36884          5741 
   5742.50000       1.32871     119.02092       6.58933     -39.37447          5742 
   5743.00000       1.33202     118.87237       6.59949     -39.38009          5742 
   5743.50000       1.34516     118.40059       6.60974     -39.38569          5743 
   5744.00000       1.34778     118.31810       6.62008     -39.39127          5743 
   5744.50000       1.35009     118.23479       6.63044     -39.39685          5744 
   5745.00000       1.35741     117.96442       6.64086     -39.40241          5744 
   5745.50000       1.36539     117.62614       6.65137     -39.40795          5745 
   5746.00000       1.36828     117.47174       6.66195     -39.41346          5745 
   5746.50000       1.37112     117.31044       6.67256     -39.41896          5746 
   5747.00000       1.37502     117.00851       6.68322     -39.42443          5746 
   5747.50000       1.37699     116.79053       6.69392     -39.42986          5747 
   5748.00000       1.37779     116.59695       6.70466     -39.43526          5747 
   5748.50000       1.37808     116.29960       6.71543     -39.44062          5748 
   5749.00000       1.37707     116.07681       6.72621     -39.44592          5748 
   5749.50000       1.37544     115.90722       6.73701     -39.45119          5749 
   5750.00000       1.37241     115.67587       6.74780     -39.45641          5749 
   5750.50000       1.36847     115.45178       6.75859     -39.46156          5750 
   5751.00000       1.36414     115.27559       6.76936     -39.46667          5750 
   5751.50000       1.35970     115.09723       6.78012     -39.47173          5751 
   5752.00000       1.35569     114.95912       6.79085     -39.47674          5751 
   5752.50000       1.35217     114.82566       6.80157     -39.48171          5752 
   5753.00000       1.34879     114.69591       6.81227     -39.48665          5752 
   5753.50000       1.34564     114.54488       6.82296     -39.49154          5753 
   5754.00000       1.34223     114.36406       6.83363     -39.49640          5753 
   5754.50000       1.34028     114.22253       6.84430     -39.50122          5754 
   5755.00000       1.33925     114.11047       6.85496     -39.50600          5754 
