~Version Information
VERS  .          2.0                              :CWLS Log Ascii Standard - Version 2.0
WRAP  .          NO                               :One line per depth step
~Well Information Block
#MNEM.UNIT       Data Type                        Information
#---------       ---------                        -------------------------------
STRT  .F         4350.00000                       :START DEPTH
STOP  .F         5755.00000                       :STOP DEPTH
STEP  .F          0.50000                         :INCREMENT
NULL  .          -999.25                          :NULL DATA VALUE
COMP  .          DEPARTMENT OF ENERGY             :COMPANY
WELL  .          48X_28                           :WELL
FLD   .          Naval Petroleum Reserve          :FIELD
LOC   .                                           :LOCATION
PROV  .                                           :PROVINCE
STAT  .                                           :STATE
CNTY  .                                           :COUNTY
CTRY  .                                           :COUNTRY
DATE  .                                           :DATE
UWI   .          48X_28                           :UNIQUE WELL UWI
LIC   .                                           :LICENSE NUMBER
API   .          49-025-23195                     :API NUMBER
SRVC  .          SLB                              :SERVICE COMPANY
~Parameter Information Block
#MNEM.UNIT       Value                            Description
#---------       ---------                        -------------
LONG  .DEG       -106.221901                      :Well Surface Location
LATI  .DEG       43.314701                        :Well Surface Location
~Curve Information Block
#MNEM.UNIT       API Code            Curve    Description
#--------        --------------      -----    -------------------
DEPT  .F                             :0       Index
DEVI  .DEG                           :1       Hole Deviation                
AZIM  .DEG                           :2       Measured Azimuth              
DX    .F                             :3       X-Component of the Well Departure
DY    .F                             :4       Y-Component of the Well Departure
TVD   .F                             :5       True Vertical Depth           
~Ascii Data Section
# ...
   4825.00000       1.60909     189.59357       3.23913     -10.92838          4825 
   4825.50000       1.61142     189.61372       3.23679     -10.94223          4825 
   4826.00000       1.61334     189.62025       3.23444     -10.95610          4826 
   4826.50000       1.61501     189.62093       3.23208     -10.96999          4826 
   4827.00000       1.61709     189.61044       3.22973     -10.98389          4827 
   4827.50000       1.61878     189.59262       3.22737     -10.99781          4827 
   4828.00000       1.62028     189.57117       3.22502     -11.01175          4828 
   4828.50000       1.62201     189.54082       3.22267     -11.02570          4828 
   4829.00000       1.62331     189.51553       3.22033     -11.03966          4829 
   4829.50000       1.62472     189.48828       3.21799     -11.05363          4829 
   4830.00000       1.62590     189.46391       3.21566     -11.06762          4830 
   4830.50000       1.62707     189.44302       3.21333     -11.08162          4830 
   4831.00000       1.62810     189.42325       3.21100     -11.09563          4831 
   4831.50000       1.62887     189.40392       3.20867     -11.10965          4831 
   4832.00000       1.62985     189.38623       3.20635     -11.12368          4832 
   4832.50000       1.63047     189.36725       3.20404     -11.13771          4832 
   4833.00000       1.63113     189.34503       3.20172     -11.15175          4833 
   4833.50000       1.63182     189.32970       3.19941     -11.16580          4833 
   4834.00000       1.63281     189.31120       3.19711     -11.17985          4834 
   4834.50000       1.63338     189.29971       3.19480     -11.19391          4834 
   4835.00000       1.63413     189.29642       3.19250     -11.20798          4835 
   4835.50000       1.63551     189.29312       3.19019     -11.22206          4835 
   4836.00000       1.63627     189.29305       3.18789     -11.23615          4836 
   4836.50000       1.63689     189.29532       3.18558     -11.25024          4836 
   4837.00000       1.63830     189.29263       3.18328     -11.26434          4837 
   4837.50000       1.64002     189.28816       3.18097     -11.27845          4837 
   4838.00000       1.64085     189.28212       3.17866     -11.29258          4838 
   4838.50000       1.64226     189.26399       3.17635     -11.30672          4838 
   4839.00000       1.64500     189.22897       3.17404     -11.32087          4839 
   4839.50000       1.64720     189.18657       3.17175     -11.33505          4839 
   4840.00000       1.64844     189.16171       3.16945     -11.34924          4840 
   4840.50000       1.64953     189.13954       3.16717     -11.36345          4840 
   4841.00000       1.65295     189.07054       3.16489     -11.37767          4841 
   4841.50000       1.65406     189.04791       3.16261     -11.39192          4841 
   4842.00000       1.65512     189.02367       3.16035     -11.40618          4842 
   4842.50000       1.65679     189.00826       3.15808     -11.42045          4842 
   4843.00000       1.65759     189.00984       3.15582     -11.43473          4843 
   4843.50000       1.65843     189.03897       3.15355     -11.44902          4843 
   4844.00000       1.65868     189.06781       3.15127     -11.46331          4844 
   4844.50000       1.65926     189.14874       3.14898     -11.47760          4844 
   4845.00000       1.65965     189.28293       3.14666     -11.49190          4845 
   4845.50000       1.66053     189.62787       3.14428     -11.50618          4845 
   4846.00000       1.66082     189.76509       3.14184     -11.52047          4846 
   4846.50000       1.66108     189.90479       3.13937     -11.53475          4846 
   4847.00000       1.66152     190.13258       3.13684     -11.54902          4847 
   4847.50000       1.66200     190.30922       3.13427     -11.56329          4847 
   4848.00000       1.66255     190.50726       3.13165     -11.57756          4848 
   4848.50000       1.66300     190.72922       3.12898     -11.59181          4848 
   4849.00000       1.66363     190.84717       3.12626     -11.60607          4849 
   4849.50000       1.66437     191.00536       3.12351     -11.62033          4849 
   4850.00000       1.66480     191.12068       3.12072     -11.63458          4850 
   4850.50000       1.66627     191.33795       3.11789     -11.64884          4850 
   4851.00000       1.66725     191.47237       3.11502     -11.66309          4851 
   4851.50000       1.66808     191.57664       3.11211     -11.67735          4851 
   4852.00000       1.66927     191.67996       3.10917     -11.69161          4852 
   4852.50000       1.67033     191.78171       3.10621     -11.70588          4852 
   4853.00000       1.67144     191.86478       3.10323     -11.72015          4853 
   4853.50000       1.67254     191.92924       3.10022     -11.73442          4853 
   4854.00000       1.67398     191.99117       3.09719     -11.74870          4854 
   4854.50000       1.67532     192.02753       3.09415     -11.76300          4854 
   4855.00000       1.67672     192.03851       3.09110     -11.77730          4855 
   4855.50000       1.67806     192.02884       3.08805     -11.79161          4855 
   4856.00000       1.67935     191.99544       3.08500     -11.80594          4856 
   4856.50000       1.68065     191.94295       3.08196     -11.82028          4856 
   4857.00000       1.68200     191.87302       3.07894     -11.83464          4857 
   4857.50000       1.68306     191.81007       3.07592     -11.84900          4857 
   4858.00000       1.68410     191.74045       3.07293     -11.86338          4858 
   4858.50000       1.68502     191.67670       3.06994     -11.87778          4858 
   4859.00000       1.68598     191.61290       3.06697     -11.89218          4859 
   4859.50000       1.68701     191.54822       3.06402     -11.90660          4859 
   4860.00000       1.68814     191.47966       3.06108     -11.92102          4860 
   4860.50000       1.68963     191.39729       3.05816     -11.93547          4860 
   4861.00000       1.69129     191.30379       3.05526     -11.94993          4861 
   4861.50000       1.69328     191.20129       3.05238     -11.96441          4861 
   4862.00000       1.69545     191.08342       3.04952     -11.97892          4862 
   4862.50000       1.69778     190.95795       3.04669     -11.99345          4862 
   4863.00000       1.70011     190.83183       3.04389     -12.00801          4863 
   4863.50000       1.70260     190.69351       3.04111     -12.02259          4863 
   4864.00000       1.70470     190.57912       3.03837     -12.03720          4864 
   4864.50000       1.70669     190.48090       3.03565     -12.05183          4864 
   4865.00000       1.70871     190.37581       3.03295     -12.06648          4865 
   4865.50000       1.71032     190.30687       3.03028     -12.08116          4865 
   4866.00000       1.71255     190.23465       3.02761     -12.09585          4866 
   4866.50000       1.71469     190.16389       3.02497     -12.11057          4866 
   4867.00000       1.71668     190.10979       3.02233     -12.12530          4867 
   4867.50000       1.71989     190.03923       3.01971     -12.14006          4867 
   4868.00000       1.72252     189.97491       3.01710     -12.15485          4868 
   4868.50000       1.72415     189.93752       3.01450     -12.16966          4868 
   4869.00000       1.72786     189.86272       3.01191     -12.18450          4869 
   4869.50000       1.73160     189.79150       3.00933     -12.19937          4869 
   4870.00000       1.73331     189.76039       3.00677     -12.21427          4870 
   4870.50000       1.73539     189.72694       3.00421     -12.22918          4870 
   4871.00000       1.74151     189.64755       3.00165     -12.24413          4871 
   4871.50000       1.74352     189.62471       2.99911     -12.25912          4871 
   4872.00000       1.74526     189.60901       2.99657     -12.27413          4872 
