~Version Information
VERS  .          2.0                              :CWLS Log Ascii Standard - Version 2.0
WRAP  .          NO                               :One line per depth step
~Well Information Block
#MNEM.UNIT       Data Type                        Information
#---------       ---------                        -------------------------------
STRT  .F         4350.00000                       :START DEPTH
STOP  .F         5755.00000                       :STOP DEPTH
STEP  .F          0.50000                         :INCREMENT
NULL  .          -999.25                          :NULL DATA VALUE
COMP  .          DEPARTMENT OF ENERGY             :COMPANY
WELL  .          48X_28                           :WELL
FLD   .          Naval Petroleum Reserve          :FIELD
LOC   .                                           :LOCATION
PROV  .                                           :PROVINCE
STAT  .                                           :STATE
CNTY  .                                           :COUNTY
CTRY  .                                           :COUNTRY
DATE  .                                           :DATE
UWI   .          48X_28                           :UNIQUE WELL UWI
LIC   .                                           :LICENSE NUMBER
API   .          49-025-23195                     :API NUMBER
SRVC  .          SLB                              :SERVICE COMPANY
~Parameter Information Block
#MNEM.UNIT       Value                            Description
#---------       ---------                        -------------
LONG  .DEG       -106.221901                      :Well Surface Location
LATI  .DEG       43.314701                        :Well Surface Location
~Curve Information Block
#MNEM.UNIT       API Code            Curve    Description
#--------        --------------      -----    -------------------
DEPT  .F                             :0       Index
DEVI  .DEG                           :1       Hole Deviation                
AZIM  .DEG                           :2       Measured Azimuth              
DX    .F                             :3       X-Component of the Well Departure
DY    .F                             :4       Y-Component of the Well Departure
TVD   .F                             :5       True Vertical Depth           
~Ascii Data Section
# ...
   5537.50000       1.69141     145.10025       2.52817     -36.24083          5537 
   5538.00000       1.69589     144.98296       2.53664     -36.25294          5537 
   5538.50000       1.70026     144.85765       2.54515     -36.26506          5538 
   5539.00000       1.70451     144.73492       2.55372     -36.27720          5538 
   5539.50000       1.70968     144.57822       2.56233     -36.28935          5539 
   5540.00000       1.71539     144.38387       2.57101     -36.30151          5539 
   5540.50000       1.71995     144.22508       2.57976     -36.31368          5540 
   5541.00000       1.72452     144.04707       2.58856     -36.32586          5540 
   5541.50000       1.73077     143.79706       2.59744     -36.33805          5541 
   5542.00000       1.73543     143.59583       2.60639     -36.35023          5541 
   5542.50000       1.74012     143.37704       2.61541     -36.36242          5542 
   5543.00000       1.74451     143.14983       2.62451     -36.37460          5542 
   5543.50000       1.74761     142.96611       2.63366     -36.38678          5543 
   5544.00000       1.75009     142.78703       2.64287     -36.39894          5543 
   5544.50000       1.75219     142.57498       2.65214     -36.41109          5544 
   5545.00000       1.75339     142.39493       2.66145     -36.42323          5544 
   5545.50000       1.75410     142.18532       2.67081     -36.43533          5545 
   5546.00000       1.75420     141.94894       2.68022     -36.44740          5545 
   5546.50000       1.75381     141.70309       2.68968     -36.45943          5546 
   5547.00000       1.75290     141.45694       2.69918     -36.47142          5546 
   5547.50000       1.75106     141.12341       2.70874     -36.48335          5547 
   5548.00000       1.74899     140.82944       2.71836     -36.49521          5547 
   5548.50000       1.74621     140.49393       2.72802     -36.50701          5548 
   5549.00000       1.74323     140.18973       2.73774     -36.51873          5548 
   5549.50000       1.74009     139.89871       2.74750     -36.53038          5549 
   5550.00000       1.73617     139.57480       2.75730     -36.54195          5549 
   5550.50000       1.73229     139.26605       2.76714     -36.55344          5550 
   5551.00000       1.72851     138.97310       2.77702     -36.56486          5550 
   5551.50000       1.72466     138.68466       2.78694     -36.57619          5551 
   5552.00000       1.72107     138.41371       2.79689     -36.58746          5551 
   5552.50000       1.71790     138.17407       2.80687     -36.59866          5552 
   5553.00000       1.71494     137.93666       2.81688     -36.60980          5552 
   5553.50000       1.71208     137.69839       2.82692     -36.62088          5553 
   5554.00000       1.70931     137.46724       2.83699     -36.63190          5553 
   5554.50000       1.70682     137.25626       2.84709     -36.64286          5554 
   5555.00000       1.70439     137.06017       2.85721     -36.65377          5554 
   5555.50000       1.70198     136.86746       2.86735     -36.66463          5555 
   5556.00000       1.69942     136.67891       2.87751     -36.67545          5555 
   5556.50000       1.69717     136.52829       2.88769     -36.68622          5556 
   5557.00000       1.69451     136.37076       2.89789     -36.69694          5556 
   5557.50000       1.69210     136.24123       2.90809     -36.70763          5557 
   5558.00000       1.68975     136.13808       2.91831     -36.71827          5557 
   5558.50000       1.68718     136.04257       2.92852     -36.72889          5558 
   5559.00000       1.68484     135.97067       2.93874     -36.73947          5558 
   5559.50000       1.68249     135.91780       2.94896     -36.75003          5559 
   5560.00000       1.68008     135.87505       2.95917     -36.76056          5559 
   5560.50000       1.67775     135.84822       2.96937     -36.77107          5560 
   5561.00000       1.67538     135.81299       2.97956     -36.78157          5560 
   5561.50000       1.67299     135.77023       2.98975     -36.79204          5561 
   5562.00000       1.67040     135.70024       2.99993     -36.80248          5561 
   5562.50000       1.66727     135.59116       3.01011     -36.81289          5562 
   5563.00000       1.66438     135.47025       3.02029     -36.82327          5562 
   5563.50000       1.66089     135.31303       3.03048     -36.83360          5563 
   5564.00000       1.65583     135.07219       3.04068     -36.84386          5563 
   5564.50000       1.65230     134.91704       3.05088     -36.85406          5564 
   5565.00000       1.64926     134.79655       3.06109     -36.86422          5564 
   5565.50000       1.64375     134.59953       3.07130     -36.87433          5565 
   5566.00000       1.63947     134.47598       3.08151     -36.88438          5565 
   5566.50000       1.63516     134.36937       3.09172     -36.89437          5566 
   5567.00000       1.62938     134.25186       3.10191     -36.90432          5566 
   5567.50000       1.62292     134.15155       3.11208     -36.91422          5567 
   5568.00000       1.61648     134.06038       3.12223     -36.92406          5567 
   5568.50000       1.61130     133.98836       3.13235     -36.93384          5568 
   5569.00000       1.60665     133.92683       3.14246     -36.94359          5568 
   5569.50000       1.60065     133.84644       3.15254     -36.95329          5569 
   5570.00000       1.59345     133.77380       3.16260     -36.96293          5569 
   5570.50000       1.58966     133.75835       3.17263     -36.97254          5570 
   5571.00000       1.58578     133.77133       3.18263     -36.98212          5570 
   5571.50000       1.58124     133.85149       3.19260     -36.99169          5571 
   5572.00000       1.57970     133.89978       3.20255     -37.00124          5571 
   5572.50000       1.57882     133.94814       3.21247     -37.01080          5572 
   5573.00000       1.57693     134.08528       3.22237     -37.02037          5572 
   5573.50000       1.57636     134.17381       3.23225     -37.02995          5573 
   5574.00000       1.57557     134.30775       3.24210     -37.03954          5573 
   5574.50000       1.57481     134.37790       3.25193     -37.04915          5574 
   5575.00000       1.57363     134.40883       3.26174     -37.05876          5574 
   5575.50000       1.57232     134.43456       3.27154     -37.06837          5575 
   5576.00000       1.57066     134.45959       3.28133     -37.07797          5575 
   5576.50000       1.56751     134.49686       3.29110     -37.08756          5576 
   5577.00000       1.56235     134.54623       3.30084     -37.09713          5576 
   5577.50000       1.55700     134.58826       3.31053     -37.10669          5577 
   5578.00000       1.55019     134.62007       3.32019     -37.11620          5577 
   5578.50000       1.54722     134.62917       3.32980     -37.12569          5578 
   5579.00000       1.54351     134.63950       3.33940     -37.13517          5578 
   5579.50000       1.53461     134.65448       3.34895     -37.14461          5579 
   5580.00000       1.52650     134.65082       3.35845     -37.15400          5579 
   5580.50000       1.52013     134.65207       3.36791     -37.16333          5580 
   5581.00000       1.51285     134.64658       3.37732     -37.17263          5580 
   5581.50000       1.50323     134.63736       3.38669     -37.18188          5581 
   5582.00000       1.49581     134.63316       3.39600     -37.19107          5581 
   5582.50000       1.48922     134.63780       3.40526     -37.20022          5582 
   5583.00000       1.48430     134.64070       3.41449     -37.20934          5582 
   5583.50000       1.47975     134.63583       3.42370     -37.21843          5583 
   5584.00000       1.47526     134.63367       3.43287     -37.22748          5583 
   5584.50000       1.47185     134.61241       3.44202     -37.23652          5584 
