~Version Information
VERS  .          2.0                              :CWLS Log Ascii Standard - Version 2.0
WRAP  .          NO                               :One line per depth step
~Well Information Block
#MNEM.UNIT       Data Type                        Information
#---------       ---------                        -------------------------------
STRT  .F         4350.00000                       :START DEPTH
STOP  .F         5755.00000                       :STOP DEPTH
STEP  .F          0.50000                         :INCREMENT
NULL  .          -999.25                          :NULL DATA VALUE
COMP  .          DEPARTMENT OF ENERGY             :COMPANY
WELL  .          48X_28                           :WELL
FLD   .          Naval Petroleum Reserve          :FIELD
LOC   .                                           :LOCATION
PROV  .                                           :PROVINCE
STAT  .                                           :STATE
CNTY  .                                           :COUNTY
CTRY  .                                           :COUNTRY
DATE  .                                           :DATE
UWI   .          48X_28                           :UNIQUE WELL UWI
LIC   .                                           :LICENSE NUMBER
API   .          49-025-23195                     :API NUMBER
SRVC  .          SLB                              :SERVICE COMPANY
~Parameter Information Block
#MNEM.UNIT       Value                            Description
#---------       ---------                        -------------
LONG  .DEG       -106.221901                      :Well Surface Location
LATI  .DEG       43.314701                        :Well Surface Location
~Curve Information Block
#MNEM.UNIT       API Code            Curve    Description
#--------        --------------      -----    -------------------
DEPT  .F                             :0       Index
DEVI  .DEG                           :1       Hole Deviation                
AZIM  .DEG                           :2       Measured Azimuth              
DX    .F                             :3       X-Component of the Well Departure
DY    .F                             :4       Y-Component of the Well Departure
TVD   .F                             :5       True Vertical Depth           
~Ascii Data Section
# ...
   4540.00000       1.24080     153.69182       2.85618      -3.10072          4540 
   4540.50000       1.24254     154.19882       2.86094      -3.11045          4540 
   4541.00000       1.24465     154.71640       2.86562      -3.12024          4541 
   4541.50000       1.24733     155.35684       2.87021      -3.13010          4541 
   4542.00000       1.24930     155.93773       2.87470      -3.14002          4542 
   4542.50000       1.25193     156.65660       2.87909      -3.15001          4542 
   4543.00000       1.25505     157.66330       2.88333      -3.16009          4543 
   4543.50000       1.25584     158.15422       2.88745      -3.17024          4543 
   4544.00000       1.25455     159.01016       2.89145      -3.18044          4544 
   4544.50000       1.25308     159.31393       2.89534      -3.19067          4544 
   4545.00000       1.25249     159.38712       2.89920      -3.20089          4545 
   4545.50000       1.24753     159.65305       2.90301      -3.21111          4545 
   4546.00000       1.23601     160.04007       2.90675      -3.22128          4546 
   4546.50000       1.22066     160.02385       2.91041      -3.23136          4546 
   4547.00000       1.20394     159.76007       2.91404      -3.24129          4547 
   4547.50000       1.20355     159.73866       2.91768      -3.25115          4547 
   4548.00000       1.20798     159.83495       2.92132      -3.26102          4548 
   4548.50000       1.21258     159.92259       2.92495      -3.27094          4548 
   4549.00000       1.22357     160.12563       2.92858      -3.28093          4549 
   4549.50000       1.24923     160.69540       2.93220      -3.29109          4549 
   4550.00000       1.26902     161.05836       2.93580      -3.30147          4550 
   4550.50000       1.28104     161.23767       2.93939      -3.31200          4550 
   4551.00000       1.28741     161.31215       2.94299      -3.32261          4551 
   4551.50000       1.30383     161.23315       2.94662      -3.33332          4551 
   4552.00000       1.30491     161.20146       2.95028      -3.34410          4552 
   4552.50000       1.30520     161.21165       2.95395      -3.35488          4552 
   4553.00000       1.30593     161.17722       2.95762      -3.36566          4553 
   4553.50000       1.30699     161.11378       2.96131      -3.37645          4553 
   4554.00000       1.31046     160.99184       2.96502      -3.38725          4554 
   4554.50000       1.33387     160.30116       2.96884      -3.39813          4554 
   4555.00000       1.34894     160.02333       2.97281      -3.40915          4555 
   4555.50000       1.35156     159.97733       2.97684      -3.42022          4555 
   4556.00000       1.35478     159.92838       2.98089      -3.43131          4556 
   4556.50000       1.37091     159.90140       2.98497      -3.44248          4556 
   4557.00000       1.37944     160.12231       2.98907      -3.45375          4557 
   4557.50000       1.38200     160.37941       2.99315      -3.46509          4557 
   4558.00000       1.38354     160.69301       2.99717      -3.47647          4558 
   4558.50000       1.38464     161.12782       3.00112      -3.48788          4558 
   4559.00000       1.38572     161.55688       3.00498      -3.49933          4559 
   4559.50000       1.38737     161.92888       3.00877      -3.51082          4559 
   4560.00000       1.39123     162.54709       3.01247      -3.52237          4560 
   4560.50000       1.39473     162.91783       3.01608      -3.53398          4560 
   4561.00000       1.39962     163.38571       3.01961      -3.54564          4561 
   4561.50000       1.40479     163.84006       3.02306      -3.55738          4561 
   4562.00000       1.40996     164.31729       3.02643      -3.56919          4562 
   4562.50000       1.41378     164.71707       3.02972      -3.58106          4562 
   4563.00000       1.41775     165.19366       3.03293      -3.59299          4563 
   4563.50000       1.42106     165.68013       3.03604      -3.60498          4563 
   4564.00000       1.42288     166.00902       3.03908      -3.61701          4564 
   4564.50000       1.42496     166.45015       3.04203      -3.62908          4564 
   4565.00000       1.42644     166.84042       3.04491      -3.64118          4565 
   4565.50000       1.42762     167.24590       3.04770      -3.65332          4565 
   4566.00000       1.42836     167.58803       3.05041      -3.66548          4566 
   4566.50000       1.42900     167.97905       3.05305      -3.67766          4566 
   4567.00000       1.42959     168.39153       3.05560      -3.68987          4567 
   4567.50000       1.43025     168.77773       3.05807      -3.70210          4567 
   4568.00000       1.43133     169.29272       3.06045      -3.71436          4568 
   4568.50000       1.43227     169.66896       3.06273      -3.72664          4568 
   4569.00000       1.43427     170.24133       3.06491      -3.73896          4569 
   4569.50000       1.43630     170.72456       3.06698      -3.75131          4569 
   4570.00000       1.43868     171.18004       3.06895      -3.76369          4570 
   4570.50000       1.44161     171.62379       3.07083      -3.77612          4570 
   4571.00000       1.44466     172.03247       3.07262      -3.78858          4571 
   4571.50000       1.44765     172.32002       3.07434      -3.80108          4571 
   4572.00000       1.45102     172.56377       3.07600      -3.81362          4572 
   4572.50000       1.45490     172.74364       3.07762      -3.82620          4572 
   4573.00000       1.45834     172.81087       3.07922      -3.83880          4573 
   4573.50000       1.46355     172.83775       3.08081      -3.85145          4573 
   4574.00000       1.46730     172.80386       3.08241      -3.86414          4574 
   4574.50000       1.47176     172.74265       3.08403      -3.87686          4574 
   4575.00000       1.47506     172.66496       3.08566      -3.88961          4575 
   4575.50000       1.47857     172.51158       3.08732      -3.90239          4575 
   4576.00000       1.48064     172.29202       3.08903      -3.91519          4576 
   4576.50000       1.48157     172.01814       3.09079      -3.92799          4576 
   4577.00000       1.48107     171.69470       3.09262      -3.94079          4577 
   4577.50000       1.48024     171.35709       3.09453      -3.95356          4577 
   4578.00000       1.47899     171.00508       3.09651      -3.96632          4578 
   4578.50000       1.47679     170.54388       3.09857      -3.97905          4578 
   4579.00000       1.47521     170.15329       3.10073      -3.99175          4579 
   4579.50000       1.47468     169.89510       3.10296      -4.00442          4579 
   4580.00000       1.47568     169.66275       3.10525      -4.01709          4580 
   4580.50000       1.47637     169.64790       3.10756      -4.02976          4580 
   4581.00000       1.47837     169.67227       3.10987      -4.04244          4581 
   4581.50000       1.48314     169.82426       3.11217      -4.05516          4581 
   4582.00000       1.48661     169.96310       3.11445      -4.06791          4582 
   4582.50000       1.48952     170.06850       3.11670      -4.08070          4582 
   4583.00000       1.49263     170.21361       3.11892      -4.09352          4583 
   4583.50000       1.49522     170.30614       3.12113      -4.10637          4583 
   4584.00000       1.49685     170.39359       3.12332      -4.11924          4584 
   4584.50000       1.49821     170.45596       3.12549      -4.13212          4584 
   4585.00000       1.49863     170.51894       3.12765      -4.14501          4585 
   4585.50000       1.49875     170.62320       3.12979      -4.15792          4585 
   4586.00000       1.49901     170.70145       3.13192      -4.17082          4586 
   4586.50000       1.49889     170.75822       3.13402      -4.18373          4586 
   4587.00000       1.49878     170.85919       3.13611      -4.19664          4587 
