~Version Information
VERS  .          2.0                              :CWLS Log Ascii Standard - Version 2.0
WRAP  .          NO                               :One line per depth step
~Well Information Block
#MNEM.UNIT       Data Type                        Information
#---------       ---------                        -------------------------------
STRT  .F         4350.00000                       :START DEPTH
STOP  .F         5755.00000                       :STOP DEPTH
STEP  .F          0.50000                         :INCREMENT
NULL  .          -999.25                          :NULL DATA VALUE
COMP  .          DEPARTMENT OF ENERGY             :COMPANY
WELL  .          48X_28                           :WELL
FLD   .          Naval Petroleum Reserve          :FIELD
LOC   .                                           :LOCATION
PROV  .                                           :PROVINCE
STAT  .                                           :STATE
CNTY  .                                           :COUNTY
CTRY  .                                           :COUNTRY
DATE  .                                           :DATE
UWI   .          48X_28                           :UNIQUE WELL UWI
LIC   .                                           :LICENSE NUMBER
API   .          49-025-23195                     :API NUMBER
SRVC  .          SLB                              :SERVICE COMPANY
~Parameter Information Block
#MNEM.UNIT       Value                            Description
#---------       ---------                        -------------
LONG  .DEG       -106.221901                      :Well Surface Location
LATI  .DEG       43.314701                        :Well Surface Location
~Curve Information Block
#MNEM.UNIT       API Code            Curve    Description
#--------        --------------      -----    -------------------
DEPT  .F                             :0       Index
DEVI  .DEG                           :1       Hole Deviation                
AZIM  .DEG                           :2       Measured Azimuth              
DX    .F                             :3       X-Component of the Well Departure
DY    .F                             :4       Y-Component of the Well Departure
TVD   .F                             :5       True Vertical Depth           
~Ascii Data Section
# ...
   5347.50000       1.94331     168.66107      -0.47186     -30.82994          5347 
   5348.00000       1.94256     168.54370      -0.46851     -30.84656          5347 
   5348.50000       1.93985     168.20345      -0.46510     -30.86315          5348 
   5349.00000       1.93931     168.11583      -0.46163     -30.87971          5348 
   5349.50000       1.93852     168.00385      -0.45813     -30.89626          5349 
   5350.00000       1.93882     167.91634      -0.45460     -30.91281          5349 
   5350.50000       1.93929     167.86154      -0.45105     -30.92935          5350 
   5351.00000       1.94040     167.80115      -0.44748     -30.94589          5350 
   5351.50000       1.94233     167.76421      -0.44390     -30.96244          5351 
   5352.00000       1.94442     167.73482      -0.44030     -30.97902          5351 
   5352.50000       1.94685     167.70876      -0.43669     -30.99560          5352 
   5353.00000       1.94837     167.68719      -0.43307     -31.01221          5352 
   5353.50000       1.95200     167.64021      -0.42943     -31.02883          5353 
   5354.00000       1.95551     167.58507      -0.42578     -31.04548          5353 
   5354.50000       1.96009     167.51314      -0.42209     -31.06216          5354 
   5355.00000       1.96665     167.41248      -0.41837     -31.07888          5354 
   5355.50000       1.97091     167.35103      -0.41462     -31.09564          5355 
   5356.00000       1.97595     167.28012      -0.41084     -31.11244          5355 
   5356.50000       1.98229     167.20132      -0.40703     -31.12928          5356 
   5357.00000       1.99031     167.10431      -0.40317     -31.14618          5356 
   5357.50000       1.99635     167.03838      -0.39928     -31.16313          5357 
   5358.00000       2.00137     166.97932      -0.39536     -31.18012          5357 
   5358.50000       2.01055     166.87790      -0.39140     -31.19717          5358 
   5359.00000       2.01776     166.78319      -0.38740     -31.21428          5358 
   5359.50000       2.02514     166.66336      -0.38335     -31.23145          5359 
   5360.00000       2.02849     166.59337      -0.37926     -31.24865          5359 
   5360.50000       2.03097     166.52332      -0.37514     -31.26587          5360 
   5361.00000       2.03372     166.42009      -0.37100     -31.28311          5360 
   5361.50000       2.03585     166.29930      -0.36681     -31.30037          5361 
   5362.00000       2.03663     166.21350      -0.36259     -31.31763          5361 
   5362.50000       2.03680     166.13106      -0.35834     -31.33488          5362 
   5363.00000       2.03578     165.99695      -0.35406     -31.35212          5362 
   5363.50000       2.03385     165.89433      -0.34975     -31.36934          5363 
   5364.00000       2.03214     165.81856      -0.34542     -31.38654          5363 
   5364.50000       2.02934     165.73959      -0.34106     -31.40372          5364 
   5365.00000       2.02620     165.65790      -0.33669     -31.42086          5364 
   5365.50000       2.02227     165.56664      -0.33231     -31.43797          5365 
   5366.00000       2.01926     165.49783      -0.32790     -31.45504          5365 
   5366.50000       2.01674     165.43930      -0.32348     -31.47208          5366 
   5367.00000       2.01426     165.37369      -0.31905     -31.48910          5366 
   5367.50000       2.01127     165.28387      -0.31461     -31.50609          5367 
   5368.00000       2.00956     165.21590      -0.31014     -31.52305          5367 
   5368.50000       2.00788     165.13199      -0.30565     -31.54000          5368 
   5369.00000       2.00687     165.03966      -0.30115     -31.55692          5368 
   5369.50000       2.00647     164.97798      -0.29662     -31.57383          5369 
   5370.00000       2.00609     164.90324      -0.29207     -31.59073          5369 
   5370.50000       2.00622     164.79228      -0.28750     -31.60763          5370 
   5371.00000       2.00648     164.71161      -0.28289     -31.62452          5370 
   5371.50000       2.00667     164.65149      -0.27827     -31.64141          5371 
   5372.00000       2.00691     164.57069      -0.27362     -31.65829          5371 
   5372.50000       2.00739     164.46773      -0.26895     -31.67516          5372 
   5373.00000       2.00765     164.38905      -0.26424     -31.69204          5372 
   5373.50000       2.00781     164.30397      -0.25952     -31.70890          5373 
   5374.00000       2.00811     164.15723      -0.25476     -31.72576          5373 
   5374.50000       2.00831     164.01657      -0.24995     -31.74261          5374 
   5375.00000       2.00819     163.86885      -0.24511     -31.75945          5374 
   5375.50000       2.00817     163.75395      -0.24022     -31.77628          5375 
   5376.00000       2.00804     163.64378      -0.23530     -31.79309          5375 
   5376.50000       2.00800     163.53256      -0.23035     -31.80990          5376 
   5377.00000       2.00780     163.43359      -0.22537     -31.82669          5376 
   5377.50000       2.00760     163.29810      -0.22036     -31.84348          5377 
   5378.00000       2.00733     163.17436      -0.21531     -31.86025          5377 
   5378.50000       2.00734     163.07602      -0.21022     -31.87701          5378 
   5379.00000       2.00724     162.97966      -0.20511     -31.89376          5378 
   5379.50000       2.00708     162.88101      -0.19997     -31.91050          5379 
   5380.00000       2.00676     162.79382      -0.19480     -31.92723          5379 
   5380.50000       2.00582     162.69513      -0.18961     -31.94395          5380 
   5381.00000       1.99881     162.49910      -0.18439     -31.96062          5380 
   5381.50000       1.99456     162.45457      -0.17914     -31.97723          5381 
   5382.00000       1.98868     162.41835      -0.17390     -31.99380          5381 
   5382.50000       1.98165     162.39706      -0.16866     -32.01031          5382 
   5383.00000       1.97607     162.38356      -0.16344     -32.02676          5382 
   5383.50000       1.97015     162.37419      -0.15823     -32.04317          5383 
   5384.00000       1.96481     162.35788      -0.15303     -32.05953          5383 
   5384.50000       1.95963     162.33519      -0.14784     -32.07584          5384 
   5385.00000       1.95446     162.28633      -0.14265     -32.09211          5384 
   5385.50000       1.95071     162.22897      -0.13746     -32.10834          5385 
   5386.00000       1.94745     162.14232      -0.13225     -32.12453          5385 
   5386.50000       1.94509     162.05714      -0.12703     -32.14069          5386 
   5387.00000       1.94262     161.94298      -0.12179     -32.15682          5386 
   5387.50000       1.94047     161.82509      -0.11653     -32.17292          5387 
   5388.00000       1.93883     161.72112      -0.11123     -32.18899          5387 
   5388.50000       1.93744     161.61974      -0.10591     -32.20504          5388 
   5389.00000       1.93609     161.51653      -0.10057     -32.22108          5388 
   5389.50000       1.93487     161.39819      -0.09520     -32.23708          5389 
   5390.00000       1.93387     161.26794      -0.08980     -32.25307          5389 
   5390.50000       1.93338     161.15001      -0.08437     -32.26905          5390 
   5391.00000       1.93310     161.02707      -0.07890     -32.28500          5390 
   5391.50000       1.93312     160.86681      -0.07339     -32.30095          5391 
   5392.00000       1.93356     160.71555      -0.06784     -32.31688          5391 
   5392.50000       1.93386     160.58966      -0.06225     -32.33279          5392 
   5393.00000       1.93440     160.43239      -0.05662     -32.34870          5392 
   5393.50000       1.93491     160.29462      -0.05095     -32.36460          5393 
   5394.00000       1.93517     160.16071      -0.04524     -32.38049          5393 
   5394.50000       1.93543     160.05400      -0.03949     -32.39637          5394 
