~Version Information
VERS  .          2.0                              :CWLS Log Ascii Standard - Version 2.0
WRAP  .          NO                               :One line per depth step
~Well Information Block
#MNEM.UNIT       Data Type                        Information
#---------       ---------                        -------------------------------
STRT  .F         4350.00000                       :START DEPTH
STOP  .F         5755.00000                       :STOP DEPTH
STEP  .F          0.50000                         :INCREMENT
NULL  .          -999.25                          :NULL DATA VALUE
COMP  .          DEPARTMENT OF ENERGY             :COMPANY
WELL  .          48X_28                           :WELL
FLD   .          Naval Petroleum Reserve          :FIELD
LOC   .                                           :LOCATION
PROV  .                                           :PROVINCE
STAT  .                                           :STATE
CNTY  .                                           :COUNTY
CTRY  .                                           :COUNTRY
DATE  .                                           :DATE
UWI   .          48X_28                           :UNIQUE WELL UWI
LIC   .                                           :LICENSE NUMBER
API   .          49-025-23195                     :API NUMBER
SRVC  .          SLB                              :SERVICE COMPANY
~Parameter Information Block
#MNEM.UNIT       Value                            Description
#---------       ---------                        -------------
LONG  .DEG       -106.221901                      :Well Surface Location
LATI  .DEG       43.314701                        :Well Surface Location
~Curve Information Block
#MNEM.UNIT       API Code            Curve    Description
#--------        --------------      -----    -------------------
DEPT  .F                             :0       Index
DEVI  .DEG                           :1       Hole Deviation                
AZIM  .DEG                           :2       Measured Azimuth              
DX    .F                             :3       X-Component of the Well Departure
DY    .F                             :4       Y-Component of the Well Departure
TVD   .F                             :5       True Vertical Depth           
~Ascii Data Section
# ...
   5157.50000       2.61777     194.39459      -0.02286     -23.69038          5157 
   5158.00000       2.60608     194.23492      -0.02849     -23.71246          5158 
   5158.50000       2.59938     194.13313      -0.03406     -23.73447          5158 
   5159.00000       2.59502     194.05525      -0.03958     -23.75645          5159 
   5159.50000       2.57832     193.89023      -0.04502     -23.77835          5159 
   5160.00000       2.57421     193.87906      -0.05042     -23.80016          5160 
   5160.50000       2.56984     193.87067      -0.05580     -23.82194          5160 
   5161.00000       2.55823     193.91283      -0.06117     -23.84366          5161 
   5161.50000       2.54133     194.02052      -0.06654     -23.86524          5161 
   5162.00000       2.53829     194.04294      -0.07191     -23.88674          5162 
   5162.50000       2.53578     194.05957      -0.07728     -23.90821          5162 
   5163.00000       2.52609     194.10646      -0.08265     -23.92963          5163 
   5163.50000       2.51637     194.10294      -0.08801     -23.95096          5163 
   5164.00000       2.51105     194.04784      -0.09335     -23.97223          5164 
   5164.50000       2.50968     194.01764      -0.09866     -23.99347          5164 
   5165.00000       2.50661     193.89322      -0.10393     -24.01471          5165 
   5165.50000       2.50461     193.80190      -0.10917     -24.03593          5165 
   5166.00000       2.50224     193.74667      -0.11437     -24.05715          5166 
   5166.50000       2.50037     193.66727      -0.11954     -24.07834          5166 
   5167.00000       2.49755     193.63217      -0.12468     -24.09953          5167 
   5167.50000       2.49539     193.61029      -0.12981     -24.12070          5167 
   5168.00000       2.49226     193.59331      -0.13493     -24.14184          5168 
   5168.50000       2.48945     193.56909      -0.14003     -24.16296          5168 
   5169.00000       2.48757     193.54855      -0.14512     -24.18407          5169 
   5169.50000       2.48534     193.51675      -0.15020     -24.20516          5169 
   5170.00000       2.48349     193.47188      -0.15525     -24.22623          5170 
   5170.50000       2.48233     193.42831      -0.16029     -24.24730          5170 
   5171.00000       2.47962     193.37135      -0.16531     -24.26835          5171 
   5171.50000       2.47749     193.28542      -0.17029     -24.28939          5171 
   5172.00000       2.47561     193.20590      -0.17524     -24.31042          5172 
   5172.50000       2.47405     193.15544      -0.18016     -24.33145          5172 
   5173.00000       2.47292     193.10004      -0.18507     -24.35246          5173 
   5173.50000       2.46715     192.85529      -0.18990     -24.37346          5173 
   5174.00000       2.46622     192.80490      -0.19468     -24.39444          5174 
   5174.50000       2.46538     192.77118      -0.19944     -24.41542          5174 
   5175.00000       2.45938     192.50838      -0.20415     -24.43638          5175 
   5175.50000       2.45599     192.38020      -0.20877     -24.45732          5175 
   5176.00000       2.45424     192.30769      -0.21334     -24.47824          5176 
   5176.50000       2.45348     192.27382      -0.21790     -24.49916          5176 
   5177.00000       2.45170     192.20142      -0.22244     -24.52007          5177 
   5177.50000       2.44695     192.06775      -0.22693     -24.54096          5177 
   5178.00000       2.44561     192.00119      -0.23138     -24.56183          5178 
   5178.50000       2.44435     191.94765      -0.23580     -24.58270          5178 
   5179.00000       2.44344     191.90480      -0.24021     -24.60356          5179 
   5179.50000       2.44264     191.89005      -0.24460     -24.62441          5179 
   5180.00000       2.43876     191.93451      -0.24900     -24.64524          5180 
   5180.50000       2.43653     192.00081      -0.25341     -24.66605          5180 
   5181.00000       2.43022     192.16101      -0.25785     -24.68681          5181 
   5181.50000       2.41672     192.59915      -0.26238     -24.70746          5181 
   5182.00000       2.41281     192.75517      -0.26701     -24.72801          5182 
   5182.50000       2.40979     192.89363      -0.27168     -24.74853          5182 
   5183.00000       2.39962     193.48088      -0.27646     -24.76895          5183 
   5183.50000       2.39595     193.72899      -0.28138     -24.78928          5183 
   5184.00000       2.39566     193.75182      -0.28635     -24.80958          5184 
   5184.50000       2.39506     193.79942      -0.29132     -24.82988          5184 
   5185.00000       2.39977     194.80621      -0.29649     -24.85015          5185 
   5185.50000       2.40998     194.87958      -0.30186     -24.87043          5185 
   5186.00000       2.42242     194.78680      -0.30726     -24.89080          5186 
   5186.50000       2.43490     194.53500      -0.31262     -24.91130          5186 
   5187.00000       2.44341     194.27884      -0.31792     -24.93191          5187 
   5187.50000       2.44780     194.05519      -0.32314     -24.95260          5187 
   5188.00000       2.45005     193.88330      -0.32830     -24.97333          5188 
   5188.50000       2.45169     193.74767      -0.33340     -24.99409          5188 
   5189.00000       2.45619     193.27716      -0.33840     -25.01491          5189 
   5189.50000       2.45865     192.98105      -0.34327     -25.03579          5189 
   5190.00000       2.46021     192.79266      -0.34806     -25.05670          5190 
   5190.50000       2.46344     192.45763      -0.35275     -25.07766          5190 
   5191.00000       2.46478     192.34311      -0.35737     -25.09866          5191 
   5191.50000       2.46693     192.19357      -0.36194     -25.11968          5191 
   5192.00000       2.46903     192.08311      -0.36647     -25.14072          5192 
   5192.50000       2.47105     191.99902      -0.37096     -25.16180          5192 
   5193.00000       2.47355     191.91298      -0.37543     -25.18290          5193 
   5193.50000       2.47585     191.84572      -0.37988     -25.20403          5193 
   5194.00000       2.47848     191.77087      -0.38430     -25.22518          5194 
   5194.50000       2.48040     191.70699      -0.38870     -25.24636          5194 
   5195.00000       2.48199     191.64537      -0.39308     -25.26756          5195 
   5195.50000       2.48394     191.56787      -0.39744     -25.28877          5195 
   5196.00000       2.48501     191.49750      -0.40177     -25.31001          5196 
   5196.50000       2.48607     191.42732      -0.40608     -25.33126          5196 
   5197.00000       2.48644     191.34200      -0.41036     -25.35253          5197 
   5197.50000       2.48623     191.25815      -0.41461     -25.37380          5197 
   5198.00000       2.48536     191.15414      -0.41883     -25.39507          5198 
   5198.50000       2.48339     191.04414      -0.42300     -25.41633          5198 
   5199.00000       2.48161     190.95929      -0.42713     -25.43759          5199 
   5199.50000       2.47888     190.86162      -0.43123     -25.45884          5199 
   5200.00000       2.47389     190.70378      -0.43527     -25.48006          5200 
   5200.50000       2.47067     190.61240      -0.43926     -25.50126          5200 
   5201.00000       2.46648     190.50641      -0.44320     -25.52243          5201 
   5201.50000       2.45794     190.29758      -0.44708     -25.54356          5201 
   5202.00000       2.45312     190.19182      -0.45089     -25.56464          5202 
   5202.50000       2.44450     190.01964      -0.45464     -25.58567          5202 
   5203.00000       2.43448     189.84064      -0.45831     -25.60663          5203 
   5203.50000       2.42377     189.67863      -0.46190     -25.62752          5203 
   5204.00000       2.41349     189.55568      -0.46543     -25.64832          5204 
   5204.50000       2.40480     189.46680      -0.46890     -25.66905          5204 
