~Version Information
VERS  .          2.0                              :CWLS Log Ascii Standard - Version 2.0
WRAP  .          NO                               :One line per depth step
~Well Information Block
#MNEM.UNIT       Data Type                        Information
#---------       ---------                        -------------------------------
STRT  .F         4350.00000                       :START DEPTH
STOP  .F         5755.00000                       :STOP DEPTH
STEP  .F          0.50000                         :INCREMENT
NULL  .          -999.25                          :NULL DATA VALUE
COMP  .          DEPARTMENT OF ENERGY             :COMPANY
WELL  .          48X_28                           :WELL
FLD   .          Naval Petroleum Reserve          :FIELD
LOC   .                                           :LOCATION
PROV  .                                           :PROVINCE
STAT  .                                           :STATE
CNTY  .                                           :COUNTY
CTRY  .                                           :COUNTRY
DATE  .                                           :DATE
UWI   .          48X_28                           :UNIQUE WELL UWI
LIC   .                                           :LICENSE NUMBER
API   .          49-025-23195                     :API NUMBER
SRVC  .          SLB                              :SERVICE COMPANY
~Parameter Information Block
#MNEM.UNIT       Value                            Description
#---------       ---------                        -------------
LONG  .DEG       -106.221901                      :Well Surface Location
LATI  .DEG       43.314701                        :Well Surface Location
~Curve Information Block
#MNEM.UNIT       API Code            Curve    Description
#--------        --------------      -----    -------------------
DEPT  .F                             :0       Index
DEVI  .DEG                           :1       Hole Deviation                
AZIM  .DEG                           :2       Measured Azimuth              
DX    .F                             :3       X-Component of the Well Departure
DY    .F                             :4       Y-Component of the Well Departure
TVD   .F                             :5       True Vertical Depth           
~Ascii Data Section
# ...
   5442.50000       2.02827     150.72635       0.66002     -33.89506          5442 
   5443.00000       2.02934     150.58109       0.66870     -33.91048          5442 
   5443.50000       2.03015     150.47911       0.67741     -33.92590          5443 
   5444.00000       2.03115     150.31641       0.68616     -33.94131          5443 
   5444.50000       2.03223     150.08900       0.69497     -33.95669          5444 
   5445.00000       2.03304     149.95490       0.70383     -33.97205          5444 
   5445.50000       2.03404     149.77776       0.71274     -33.98740          5445 
   5446.00000       2.03565     149.60841       0.72170     -34.00272          5445 
   5446.50000       2.03743     149.46852       0.73071     -34.01804          5446 
   5447.00000       2.03930     149.36340       0.73976     -34.03335          5446 
   5447.50000       2.04169     149.26331       0.74884     -34.04866          5447 
   5448.00000       2.04464     149.16307       0.75797     -34.06397          5447 
   5448.50000       2.04665     149.10320       0.76712     -34.07929          5448 
   5449.00000       2.04903     149.03763       0.77631     -34.09462          5448 
   5449.50000       2.05265     148.91257       0.78553     -34.10995          5449 
   5450.00000       2.05488     148.81274       0.79479     -34.12529          5449 
   5450.50000       2.05692     148.67749       0.80410     -34.14062          5450 
   5451.00000       2.05948     148.45853       0.81347     -34.15594          5450 
   5451.50000       2.06209     148.16681       0.82291     -34.17125          5451 
   5452.00000       2.06394     147.89726       0.83244     -34.18652          5451 
   5452.50000       2.06617     147.47331       0.84207     -34.20174          5452 
   5453.00000       2.06817     147.00713       0.85183     -34.21691          5452 
   5453.50000       2.06933     146.52748       0.86172     -34.23201          5453 
   5454.00000       2.06992     146.06296       0.87174     -34.24703          5453 
   5454.50000       2.06977     145.56143       0.88189     -34.26197          5454 
   5455.00000       2.06914     145.17270       0.89215     -34.27682          5454 
   5455.50000       2.06790     144.79448       0.90251     -34.29160          5455 
   5456.00000       2.06581     144.31622       0.91296     -34.30629          5455 
   5456.50000       2.06401     144.02391       0.92351     -34.32090          5456 
   5457.00000       2.06129     143.65428       0.93413     -34.33543          5456 
   5457.50000       2.05947     143.42123       0.94481     -34.34989          5457 
   5458.00000       2.05589     143.06279       0.95555     -34.36427          5457 
   5458.50000       2.05349     142.82642       0.96636     -34.37858          5458 
   5459.00000       2.05108     142.62050       0.97720     -34.39283          5458 
   5459.50000       2.04745     142.32610       0.98809     -34.40700          5459 
   5460.00000       2.04415     142.07578       0.99903     -34.42111          5459 
   5460.50000       2.03890     141.69360       1.01003     -34.43512          5460 
   5461.00000       2.03483     141.42093       1.02107     -34.44904          5460 
   5461.50000       2.03271     141.27850       1.03216     -34.46290          5461 
   5462.00000       2.02875     141.03200       1.04327     -34.47670          5461 
   5462.50000       2.02352     140.72499       1.05442     -34.49041          5462 
   5463.00000       2.01951     140.51157       1.06561     -34.50404          5462 
   5463.50000       2.01242     140.14468       1.07684     -34.51758          5463 
   5464.00000       2.00897     139.96524       1.08811     -34.53103          5463 
   5464.50000       2.00448     139.74902       1.09939     -34.54442          5464 
   5465.00000       2.00095     139.57210       1.11070     -34.55774          5464 
   5465.50000       1.99765     139.40240       1.12204     -34.57100          5465 
   5466.00000       1.99256     139.12384       1.13340     -34.58419          5465 
   5466.50000       1.98985     138.98233       1.14478     -34.59731          5466 
   5467.00000       1.98692     138.80692       1.15619     -34.61038          5466 
   5467.50000       1.98367     138.59796       1.16762     -34.62340          5467 
   5468.00000       1.98142     138.44603       1.17908     -34.63636          5467 
   5468.50000       1.97862     138.23851       1.19056     -34.64927          5468 
   5469.00000       1.97555     138.00899       1.20207     -34.66211          5468 
   5469.50000       1.97316     137.80894       1.21362     -34.67489          5469 
   5470.00000       1.97002     137.55565       1.22520     -34.68761          5469 
   5470.50000       1.96834     137.41301       1.23681     -34.70027          5470 
   5471.00000       1.96661     137.27582       1.24844     -34.71290          5470 
   5471.50000       1.96489     137.12860       1.26010     -34.72548          5471 
   5472.00000       1.96302     136.96509       1.27177     -34.73803          5471 
   5472.50000       1.96143     136.82439       1.28347     -34.75053          5472 
   5473.00000       1.95905     136.64027       1.29519     -34.76298          5472 
   5473.50000       1.95696     136.49855       1.30694     -34.77538          5473 
   5474.00000       1.95536     136.42915       1.31869     -34.78776          5473 
   5474.50000       1.95290     136.33037       1.33046     -34.80010          5474 
   5475.00000       1.94761     136.16853       1.34222     -34.81239          5474 
   5475.50000       1.94278     136.06863       1.35399     -34.82462          5475 
   5476.00000       1.93619     135.96710       1.36574     -34.83680          5475 
   5476.50000       1.92946     135.89067       1.37747     -34.84892          5476 
   5477.00000       1.92391     135.84302       1.38917     -34.86098          5476 
   5477.50000       1.91248     135.78436       1.40084     -34.87298          5477 
   5478.00000       1.90519     135.76228       1.41245     -34.88491          5477 
   5478.50000       1.89489     135.75319       1.42402     -34.89679          5478 
   5479.00000       1.88769     135.75427       1.43554     -34.90862          5478 
   5479.50000       1.88249     135.76157       1.44701     -34.92040          5479 
   5480.00000       1.87362     135.77835       1.45844     -34.93214          5479 
   5480.50000       1.86650     135.78909       1.46982     -34.94383          5480 
   5481.00000       1.86100     135.79849       1.48116     -34.95549          5480 
   5481.50000       1.85550     135.79927       1.49246     -34.96711          5481 
   5482.00000       1.84995     135.79575       1.50373     -34.97870          5481 
   5482.50000       1.84645     135.78775       1.51498     -34.99026          5482 
   5483.00000       1.84044     135.77602       1.52619     -35.00179          5482 
   5483.50000       1.83493     135.77144       1.53738     -35.01328          5483 
   5484.00000       1.82892     135.77943       1.54852     -35.02473          5483 
   5484.50000       1.82365     135.80322       1.55963     -35.03615          5484 
   5485.00000       1.81991     135.82570       1.57071     -35.04755          5484 
   5485.50000       1.81217     135.88571       1.58175     -35.05892          5485 
   5486.00000       1.80521     135.95200       1.59273     -35.07026          5485 
   5486.50000       1.80035     136.00616       1.60366     -35.08157          5486 
   5487.00000       1.79201     136.09660       1.61454     -35.09285          5486 
   5487.50000       1.78846     136.13982       1.62536     -35.10411          5487 
   5488.00000       1.78571     136.17096       1.63616     -35.11536          5487 
   5488.50000       1.78152     136.21072       1.64694     -35.12659          5488 
   5489.00000       1.77944     136.22264       1.65769     -35.13781          5488 
   5489.50000       1.77825     136.22057       1.66843     -35.14901          5489 
