~Version Information
VERS  .          2.0                              :CWLS Log Ascii Standard - Version 2.0
WRAP  .          NO                               :One line per depth step
~Well Information Block
#MNEM.UNIT       Data Type                        Information
#---------       ---------                        -------------------------------
STRT  .F         4350.00000                       :START DEPTH
STOP  .F         5755.00000                       :STOP DEPTH
STEP  .F          0.50000                         :INCREMENT
NULL  .          -999.25                          :NULL DATA VALUE
COMP  .          DEPARTMENT OF ENERGY             :COMPANY
WELL  .          48X_28                           :WELL
FLD   .          Naval Petroleum Reserve          :FIELD
LOC   .                                           :LOCATION
PROV  .                                           :PROVINCE
STAT  .                                           :STATE
CNTY  .                                           :COUNTY
CTRY  .                                           :COUNTRY
DATE  .                                           :DATE
UWI   .          48X_28                           :UNIQUE WELL UWI
LIC   .                                           :LICENSE NUMBER
API   .          49-025-23195                     :API NUMBER
SRVC  .          SLB                              :SERVICE COMPANY
~Parameter Information Block
#MNEM.UNIT       Value                            Description
#---------       ---------                        -------------
LONG  .DEG       -106.221901                      :Well Surface Location
LATI  .DEG       43.314701                        :Well Surface Location
~Curve Information Block
#MNEM.UNIT       API Code            Curve    Description
#--------        --------------      -----    -------------------
DEPT  .F                             :0       Index
DEVI  .DEG                           :1       Hole Deviation                
AZIM  .DEG                           :2       Measured Azimuth              
DX    .F                             :3       X-Component of the Well Departure
DY    .F                             :4       Y-Component of the Well Departure
TVD   .F                             :5       True Vertical Depth           
~Ascii Data Section
# ...
   4920.00000       1.95732     196.30104       2.62810     -13.78873          4920 
   4920.50000       1.95940     196.29764       2.62331     -13.80513          4920 
   4921.00000       1.96202     196.29404       2.61851     -13.82155          4921 
   4921.50000       1.96434     196.29480       2.61370     -13.83799          4921 
   4922.00000       1.96719     196.30176       2.60889     -13.85445          4922 
   4922.50000       1.97025     196.31932       2.60406     -13.87093          4922 
   4923.00000       1.97257     196.33939       2.59923     -13.88744          4923 
   4923.50000       1.97576     196.37239       2.59438     -13.90397          4923 
   4924.00000       1.97894     196.41275       2.58951     -13.92052          4924 
   4924.50000       1.98202     196.45296       2.58462     -13.93709          4924 
   4925.00000       1.98460     196.48724       2.57971     -13.95369          4925 
   4925.50000       1.98721     196.51894       2.57479     -13.97030          4925 
   4926.00000       1.98981     196.54381       2.56986     -13.98693          4926 
   4926.50000       1.99198     196.56288       2.56491     -14.00358          4926 
   4927.00000       1.99403     196.57370       2.55995     -14.02025          4927 
   4927.50000       1.99627     196.57986       2.55498     -14.03693          4927 
   4928.00000       1.99807     196.58363       2.55001     -14.05363          4928 
   4928.50000       1.99964     196.58270       2.54503     -14.07035          4928 
   4929.00000       2.00165     196.58234       2.54005     -14.08708          4929 
   4929.50000       2.00330     196.58168       2.53506     -14.10382          4929 
   4930.00000       2.00470     196.58298       2.53007     -14.12058          4930 
   4930.50000       2.00661     196.58754       2.52508     -14.13735          4930 
   4931.00000       2.00806     196.59277       2.52008     -14.15413          4931 
   4931.50000       2.00952     196.60280       2.51507     -14.17093          4931 
   4932.00000       2.01118     196.61783       2.51006     -14.18774          4932 
   4932.50000       2.01273     196.63422       2.50504     -14.20456          4932 
   4933.00000       2.01482     196.65643       2.50000     -14.22139          4933 
   4933.50000       2.01653     196.67412       2.49496     -14.23824          4933 
   4934.00000       2.01869     196.68877       2.48991     -14.25510          4934 
   4934.50000       2.02073     196.69540       2.48484     -14.27198          4934 
   4935.00000       2.02219     196.69189       2.47978     -14.28888          4935 
   4935.50000       2.02415     196.67426       2.47471     -14.30578          4935 
   4936.00000       2.02584     196.65016       2.46965     -14.32271          4936 
   4936.50000       2.02719     196.62939       2.46458     -14.33965          4936 
   4937.00000       2.02920     196.59261       2.45952     -14.35661          4937 
   4937.50000       2.03088     196.56837       2.45447     -14.37358          4937 
   4938.00000       2.03299     196.55141       2.44942     -14.39058          4938 
   4938.50000       2.03550     196.54958       2.44436     -14.40759          4938 
   4939.00000       2.03799     196.55933       2.43930     -14.42462          4939 
   4939.50000       2.04081     196.58278       2.43422     -14.44168          4939 
   4940.00000       2.04421     196.63014       2.42913     -14.45875          4940 
   4940.50000       2.04790     196.68176       2.42401     -14.47586          4940 
   4941.00000       2.05053     196.73198       2.41887     -14.49298          4941 
   4941.50000       2.05303     196.78047       2.41371     -14.51012          4941 
   4942.00000       2.05598     196.82768       2.40853     -14.52728          4942 
   4942.50000       2.05787     196.86005       2.40333     -14.54446          4942 
   4943.00000       2.05904     196.87627       2.39812     -14.56165          4943 
   4943.50000       2.06018     196.88513       2.39290     -14.57884          4943 
   4944.00000       2.06194     196.88596       2.38768     -14.59605          4944 
   4944.50000       2.06255     196.88458       2.38245     -14.61327          4944 
   4945.00000       2.06296     196.88184       2.37722     -14.63049          4945 
   4945.50000       2.06370     196.87547       2.37200     -14.64771          4945 
   4946.00000       2.06561     196.86238       2.36677     -14.66495          4946 
   4946.50000       2.06622     196.85826       2.36154     -14.68220          4946 
   4947.00000       2.06753     196.85178       2.35631     -14.69946          4947 
   4947.50000       2.06887     196.84026       2.35108     -14.71673          4947 
   4948.00000       2.06989     196.83012       2.34586     -14.73401          4948 
   4948.50000       2.07129     196.82292       2.34063     -14.75130          4948 
   4949.00000       2.07309     196.81409       2.33540     -14.76861          4949 
   4949.50000       2.07462     196.81577       2.33016     -14.78593          4949 
   4950.00000       2.07712     196.82970       2.32492     -14.80327          4950 
   4950.50000       2.08241     196.87428       2.31966     -14.82063          4950 
   4951.00000       2.08563     196.91084       2.31438     -14.83803          4951 
   4951.50000       2.09326     196.99554       2.30906     -14.85547          4951 
   4952.00000       2.09519     197.02003       2.30372     -14.87294          4952 
   4952.50000       2.09710     197.03932       2.29836     -14.89043          4952 
   4953.00000       2.10316     197.09886       2.29298     -14.90794          4953 
   4953.50000       2.10650     197.13297       2.28758     -14.92549          4953 
   4954.00000       2.10902     197.15541       2.28216     -14.94306          4954 
   4954.50000       2.11410     197.20537       2.27671     -14.96066          4954 
   4955.00000       2.11637     197.22841       2.27125     -14.97829          4955 
   4955.50000       2.11851     197.25064       2.26578     -14.99594          4955 
   4956.00000       2.12232     197.30827       2.26028     -15.01360          4956 
   4956.50000       2.12483     197.34534       2.25476     -15.03129          4956 
   4957.00000       2.12709     197.38586       2.24923     -15.04899          4957 
   4957.50000       2.12944     197.43425       2.24367     -15.06671          4957 
   4958.00000       2.13145     197.46965       2.23810     -15.08444          4958 
   4958.50000       2.13369     197.50923       2.23251     -15.10219          4958 
   4959.00000       2.13625     197.54897       2.22690     -15.11995          4959 
   4959.50000       2.13891     197.57649       2.22127     -15.13773          4959 
   4960.00000       2.14102     197.59711       2.21563     -15.15553          4960 
   4960.50000       2.14406     197.62210       2.20997     -15.17334          4960 
   4961.00000       2.14707     197.63792       2.20430     -15.19118          4961 
   4961.50000       2.14982     197.65324       2.19862     -15.20905          4961 
   4962.00000       2.15333     197.67444       2.19292     -15.22693          4962 
   4962.50000       2.15723     197.69728       2.18721     -15.24485          4962 
   4963.00000       2.15998     197.71518       2.18148     -15.26279          4963 
   4963.50000       2.16345     197.74104       2.17574     -15.28075          4963 
   4964.00000       2.16643     197.76649       2.16998     -15.29874          4964 
   4964.50000       2.16877     197.79156       2.16421     -15.31675          4964 
   4965.00000       2.17111     197.82051       2.15842     -15.33477          4965 
   4965.50000       2.17292     197.84476       2.15262     -15.35281          4965 
   4966.00000       2.17491     197.87758       2.14680     -15.37087          4966 
   4966.50000       2.17642     197.90231       2.14097     -15.38893          4966 
   4967.00000       2.17786     197.92398       2.13512     -15.40700          4967 
