~Version Information
VERS  .          2.0                              :CWLS Log Ascii Standard - Version 2.0
WRAP  .          NO                               :One line per depth step
~Well Information Block
#MNEM.UNIT       Data Type                        Information
#---------       ---------                        -------------------------------
STRT  .F         4350.00000                       :START DEPTH
STOP  .F         5755.00000                       :STOP DEPTH
STEP  .F          0.50000                         :INCREMENT
NULL  .          -999.25                          :NULL DATA VALUE
COMP  .          DEPARTMENT OF ENERGY             :COMPANY
WELL  .          48X_28                           :WELL
FLD   .          Naval Petroleum Reserve          :FIELD
LOC   .                                           :LOCATION
PROV  .                                           :PROVINCE
STAT  .                                           :STATE
CNTY  .                                           :COUNTY
CTRY  .                                           :COUNTRY
DATE  .                                           :DATE
UWI   .          48X_28                           :UNIQUE WELL UWI
LIC   .                                           :LICENSE NUMBER
API   .          49-025-23195                     :API NUMBER
SRVC  .          SLB                              :SERVICE COMPANY
~Parameter Information Block
#MNEM.UNIT       Value                            Description
#---------       ---------                        -------------
LONG  .DEG       -106.221901                      :Well Surface Location
LATI  .DEG       43.314701                        :Well Surface Location
~Curve Information Block
#MNEM.UNIT       API Code            Curve    Description
#--------        --------------      -----    -------------------
DEPT  .F                             :0       Index
DEVI  .DEG                           :1       Hole Deviation                
AZIM  .DEG                           :2       Measured Azimuth              
DX    .F                             :3       X-Component of the Well Departure
DY    .F                             :4       Y-Component of the Well Departure
TVD   .F                             :5       True Vertical Depth           
~Ascii Data Section
# ...
   5062.50000       2.65466     193.72995       1.04020     -19.34205          5062 
   5063.00000       2.65644     193.60036       1.03472     -19.36456          5063 
   5063.50000       2.65859     193.43176       1.02931     -19.38710          5063 
   5064.00000       2.65976     193.28596       1.02395     -19.40967          5064 
   5064.50000       2.66062     193.19466       1.01863     -19.43226          5064 
   5065.00000       2.66234     193.02144       1.01337     -19.45487          5065 
   5065.50000       2.66308     192.95082       1.00815     -19.47751          5065 
   5066.00000       2.66353     192.91762       1.00294     -19.50015          5066 
   5066.50000       2.66446     192.86169       0.99776     -19.52280          5066 
   5067.00000       2.66609     192.79237       0.99260     -19.54548          5067 
   5067.50000       2.66658     192.77931       0.98745     -19.56816          5067 
   5068.00000       2.66701     192.76534       0.98231     -19.59085          5068 
   5068.50000       2.66781     192.75722       0.97717     -19.61354          5068 
   5069.00000       2.66796     192.75613       0.97203     -19.63624          5069 
   5069.50000       2.66768     192.75728       0.96689     -19.65894          5069 
   5070.00000       2.66811     192.75856       0.96175     -19.68164          5070 
   5070.50000       2.66820     192.76248       0.95661     -19.70434          5070 
   5071.00000       2.66795     192.76260       0.95147     -19.72704          5071 
   5071.50000       2.66812     192.76433       0.94633     -19.74973          5071 
   5072.00000       2.66869     192.75648       0.94119     -19.77244          5072 
   5072.50000       2.66864     192.74913       0.93605     -19.79515          5072 
   5073.00000       2.66864     192.73967       0.93091     -19.81785          5073 
   5073.50000       2.66918     192.72043       0.92578     -19.84056          5073 
   5074.00000       2.66913     192.69872       0.92066     -19.86328          5074 
   5074.50000       2.66908     192.67487       0.91554     -19.88599          5074 
   5075.00000       2.66933     192.64886       0.91044     -19.90871          5075 
   5075.50000       2.66935     192.61723       0.90535     -19.93143          5075 
   5076.00000       2.66966     192.60265       0.90026     -19.95416          5076 
   5076.50000       2.66982     192.58865       0.89518     -19.97689          5076 
   5077.00000       2.67024     192.55458       0.89012     -19.99962          5077 
   5077.50000       2.67061     192.54587       0.88505     -20.02236          5077 
   5078.00000       2.67109     192.52646       0.88000     -20.04510          5078 
   5078.50000       2.67163     192.48499       0.87495     -20.06785          5078 
   5079.00000       2.67222     192.46175       0.86992     -20.09061          5079 
   5079.50000       2.67311     192.39531       0.86490     -20.11338          5079 
   5080.00000       2.67343     192.37067       0.85990     -20.13616          5080 
   5080.50000       2.67419     192.33844       0.85491     -20.15894          5080 
   5081.00000       2.67596     192.23122       0.84994     -20.18174          5081 
   5081.50000       2.67661     192.20468       0.84500     -20.20456          5081 
   5082.00000       2.67761     192.17580       0.84007     -20.22739          5082 
   5082.50000       2.67953     192.08949       0.83516     -20.25023          5082 
   5083.00000       2.68035     192.06935       0.83027     -20.27309          5083 
   5083.50000       2.68116     192.05034       0.82538     -20.29596          5083 
   5084.00000       2.68246     192.01389       0.82050     -20.31884          5084 
   5084.50000       2.68316     192.00627       0.81563     -20.34174          5084 
   5085.00000       2.68378     192.00365       0.81076     -20.36463          5085 
   5085.50000       2.68495     192.01692       0.80589     -20.38754          5085 
   5086.00000       2.68569     192.02666       0.80101     -20.41045          5086 
   5086.50000       2.68647     192.04634       0.79613     -20.43337          5086 
   5087.00000       2.68706     192.07994       0.79123     -20.45629          5087 
   5087.50000       2.68776     192.09431       0.78632     -20.47921          5087 
   5088.00000       2.68844     192.12045       0.78140     -20.50214          5088 
   5088.50000       2.68867     192.14673       0.77647     -20.52507          5088 
   5089.00000       2.68934     192.16002       0.77153     -20.54800          5089 
   5089.50000       2.68989     192.18767       0.76658     -20.57093          5089 
   5090.00000       2.68990     192.21167       0.76163     -20.59387          5090 
   5090.50000       2.69019     192.22382       0.75666     -20.61680          5090 
   5091.00000       2.69068     192.24751       0.75169     -20.63974          5091 
   5091.50000       2.69075     192.28647       0.74670     -20.66268          5091 
   5092.00000       2.69089     192.29813       0.74170     -20.68561          5092 
   5092.50000       2.69139     192.32838       0.73669     -20.70855          5092 
   5093.00000       2.69165     192.35661       0.73168     -20.73148          5093 
   5093.50000       2.69217     192.37270       0.72665     -20.75442          5093 
   5094.00000       2.69318     192.39775       0.72161     -20.77737          5094 
   5094.50000       2.69419     192.42223       0.71656     -20.80031          5094 
   5095.00000       2.69508     192.43407       0.71150     -20.82327          5095 
   5095.50000       2.69636     192.45131       0.70643     -20.84623          5095 
   5096.00000       2.69826     192.47839       0.70136     -20.86921          5096 
   5096.50000       2.69912     192.48698       0.69627     -20.89219          5096 
   5097.00000       2.70052     192.50394       0.69117     -20.91519          5097 
   5097.50000       2.70309     192.53578       0.68606     -20.93820          5097 
   5098.00000       2.70394     192.54341       0.68094     -20.96122          5098 
   5098.50000       2.70484     192.55138       0.67582     -20.98425          5098 
   5099.00000       2.70778     192.58081       0.67068     -21.00729          5099 
   5099.50000       2.70879     192.58997       0.66553     -21.03035          5099 
   5100.00000       2.71167     192.61208       0.66037     -21.05342          5100 
   5100.50000       2.71398     192.63026       0.65520     -21.07651          5100 
   5101.00000       2.71473     192.63437       0.65003     -21.09962          5101 
   5101.50000       2.71580     192.64188       0.64484     -21.12273          5101 
   5102.00000       2.71911     192.67706       0.63965     -21.14586          5102 
   5102.50000       2.72013     192.68690       0.63444     -21.16900          5102 
   5103.00000       2.72078     192.69777       0.62923     -21.19216          5103 
   5103.50000       2.72365     192.74580       0.62400     -21.21532          5103 
   5104.00000       2.72485     192.76736       0.61875     -21.23850          5104 
   5104.50000       2.72668     192.80637       0.61349     -21.26169          5104 
   5105.00000       2.72873     192.85143       0.60820     -21.28489          5105 
   5105.50000       2.72995     192.87534       0.60290     -21.30810          5105 
   5106.00000       2.73228     192.93037       0.59758     -21.33132          5106 
   5106.50000       2.73342     192.96556       0.59224     -21.35456          5106 
   5107.00000       2.73530     193.00182       0.58688     -21.37780          5107 
   5107.50000       2.73740     193.07358       0.58150     -21.40105          5107 
   5108.00000       2.73871     193.12071       0.57608     -21.42432          5108 
   5108.50000       2.73990     193.16347       0.57065     -21.44759          5108 
   5109.00000       2.74094     193.23563       0.56519     -21.47086          5109 
   5109.50000       2.74214     193.29976       0.55970     -21.49414          5109 
