~Version Information
VERS  .          2.0                              :CWLS Log Ascii Standard - Version 2.0
WRAP  .          NO                               :One line per depth step
~Well Information Block
#MNEM.UNIT       Data Type                        Information
#---------       ---------                        -------------------------------
STRT  .F         4350.00000                       :START DEPTH
STOP  .F         5755.00000                       :STOP DEPTH
STEP  .F          0.50000                         :INCREMENT
NULL  .          -999.25                          :NULL DATA VALUE
COMP  .          DEPARTMENT OF ENERGY             :COMPANY
WELL  .          48X_28                           :WELL
FLD   .          Naval Petroleum Reserve          :FIELD
LOC   .                                           :LOCATION
PROV  .                                           :PROVINCE
STAT  .                                           :STATE
CNTY  .                                           :COUNTY
CTRY  .                                           :COUNTRY
DATE  .                                           :DATE
UWI   .          48X_28                           :UNIQUE WELL UWI
LIC   .                                           :LICENSE NUMBER
API   .          49-025-23195                     :API NUMBER
SRVC  .          SLB                              :SERVICE COMPANY
~Parameter Information Block
#MNEM.UNIT       Value                            Description
#---------       ---------                        -------------
LONG  .DEG       -106.221901                      :Well Surface Location
LATI  .DEG       43.314701                        :Well Surface Location
~Curve Information Block
#MNEM.UNIT       API Code            Curve    Description
#--------        --------------      -----    -------------------
DEPT  .F                             :0       Index
DEVI  .DEG                           :1       Hole Deviation                
AZIM  .DEG                           :2       Measured Azimuth              
DX    .F                             :3       X-Component of the Well Departure
DY    .F                             :4       Y-Component of the Well Departure
TVD   .F                             :5       True Vertical Depth           
~Ascii Data Section
# ...
   5252.50000       2.24619     178.54213      -0.61673     -27.55521          5252 
   5253.00000       2.24344     178.50328      -0.61622     -27.57479          5252 
   5253.50000       2.24037     178.47815      -0.61571     -27.59434          5253 
   5254.00000       2.23866     178.47749      -0.61519     -27.61387          5253 
   5254.50000       2.23723     178.49870      -0.61467     -27.63339          5254 
   5255.00000       2.23579     178.54222      -0.61417     -27.65289          5254 
   5255.50000       2.23449     178.59981      -0.61368     -27.67239          5255 
   5256.00000       2.23310     178.65825      -0.61322     -27.69187          5255 
   5256.50000       2.23141     178.71725      -0.61277     -27.71134          5256 
   5257.00000       2.22916     178.77435      -0.61235     -27.73079          5256 
   5257.50000       2.22641     178.82018      -0.61194     -27.75023          5257 
   5258.00000       2.22228     178.86461      -0.61155     -27.76963          5257 
   5258.50000       2.21741     178.89227      -0.61117     -27.78899          5258 
   5259.00000       2.21283     178.90616      -0.61080     -27.80831          5258 
   5259.50000       2.20822     178.91101      -0.61043     -27.82760          5259 
   5260.00000       2.20220     178.90750      -0.61006     -27.84683          5259 
   5260.50000       2.19750     178.90327      -0.60970     -27.86602          5260 
   5261.00000       2.19360     178.89787      -0.60933     -27.88517          5260 
   5261.50000       2.18793     178.88620      -0.60896     -27.90428          5261 
   5262.00000       2.17963     178.86259      -0.60858     -27.92333          5261 
   5262.50000       2.17327     178.83911      -0.60820     -27.94232          5262 
   5263.00000       2.16592     178.79927      -0.60781     -27.96124          5262 
   5263.50000       2.15905     178.75720      -0.60741     -27.98010          5263 
   5264.00000       2.15470     178.72887      -0.60700     -27.99891          5263 
   5264.50000       2.14899     178.69402      -0.60658     -28.01768          5264 
   5265.00000       2.14390     178.66745      -0.60615     -28.03641          5264 
   5265.50000       2.13902     178.64494      -0.60571     -28.05508          5265 
   5266.00000       2.13119     178.61850      -0.60526     -28.07371          5265 
   5266.50000       2.12643     178.60715      -0.60481     -28.09228          5266 
   5267.00000       2.12113     178.59830      -0.60436     -28.11080          5266 
   5267.50000       2.11427     178.59180      -0.60391     -28.12927          5267 
   5268.00000       2.10797     178.58661      -0.60345     -28.14768          5267 
   5268.50000       2.10258     178.58057      -0.60300     -28.16605          5268 
   5269.00000       2.09604     178.57146      -0.60255     -28.18435          5268 
   5269.50000       2.09114     178.56476      -0.60209     -28.20262          5269 
   5270.00000       2.08559     178.54756      -0.60163     -28.22083          5269 
   5270.50000       2.08117     178.52884      -0.60117     -28.23900          5270 
   5271.00000       2.07671     178.49484      -0.60070     -28.25713          5270 
   5271.50000       2.07231     178.45599      -0.60021     -28.27523          5271 
   5272.00000       2.06968     178.41969      -0.59972     -28.29329          5271 
   5272.50000       2.06595     178.36244      -0.59921     -28.31132          5272 
   5273.00000       2.06230     178.31055      -0.59869     -28.32932          5272 
   5273.50000       2.05964     178.27583      -0.59816     -28.34730          5273 
   5274.00000       2.05624     178.24501      -0.59761     -28.36524          5273 
   5274.50000       2.05232     178.23680      -0.59706     -28.38316          5274 
   5275.00000       2.04918     178.24384      -0.59651     -28.40104          5274 
   5275.50000       2.03969     178.33797      -0.59598     -28.41887          5275 
   5276.00000       2.03591     178.39476      -0.59547     -28.43664          5275 
   5276.50000       2.03264     178.45540      -0.59499     -28.45439          5276 
   5277.00000       2.02729     178.55249      -0.59452     -28.47209          5276 
   5277.50000       2.01883     178.73921      -0.59411     -28.48974          5277 
   5278.00000       2.01497     178.82803      -0.59373     -28.50733          5277 
   5278.50000       2.00888     178.96785      -0.59339     -28.52488          5278 
   5279.00000       2.00212     179.14064      -0.59311     -28.54238          5278 
   5279.50000       1.99789     179.25406      -0.59286     -28.55982          5279 
   5280.00000       1.99344     179.36653      -0.59265     -28.57724          5279 
   5280.50000       1.99039     179.45328      -0.59247     -28.59461          5280 
   5281.00000       1.98274     179.69106      -0.59234     -28.61194          5280 
   5281.50000       1.97933     179.79692      -0.59227     -28.62923          5281 
   5282.00000       1.97741     179.86174      -0.59221     -28.64649          5281 
   5282.50000       1.97530     179.94228      -0.59218     -28.66373          5282 
   5283.00000       1.96947     180.15109      -0.59220     -28.68094          5282 
   5283.50000       1.96775     180.21707      -0.59225     -28.69812          5283 
   5284.00000       1.96189     180.44318      -0.59235     -28.71526          5283 
   5284.50000       1.96069     180.50180      -0.59249     -28.73237          5284 
   5285.00000       1.95961     180.54500      -0.59265     -28.74948          5284 
   5285.50000       1.95783     180.61327      -0.59282     -28.76656          5285 
   5286.00000       1.95269     180.83214      -0.59304     -28.78362          5285 
   5286.50000       1.94989     180.94370      -0.59330     -28.80065          5286 
   5287.00000       1.94673     181.05167      -0.59360     -28.81764          5286 
   5287.50000       1.94463     181.13205      -0.59392     -28.83461          5287 
   5288.00000       1.94233     181.18773      -0.59426     -28.85157          5287 
   5288.50000       1.94062     181.21072      -0.59462     -28.86850          5288 
   5289.00000       1.93772     181.12766      -0.59496     -28.88542          5288 
   5289.50000       1.93692     181.02489      -0.59528     -28.90232          5289 
   5290.00000       1.93649     180.96547      -0.59557     -28.91921          5289 
   5290.50000       1.93575     180.92049      -0.59585     -28.93610          5290 
   5291.00000       1.93632     180.79768      -0.59611     -28.95300          5290 
   5291.50000       1.93804     180.42444      -0.59629     -28.96990          5291 
   5292.00000       1.93832     180.13472      -0.59637     -28.98680          5291 
   5292.50000       1.93779     179.94261      -0.59638     -29.00372          5292 
   5293.00000       1.93751     179.92513      -0.59636     -29.02062          5292 
   5293.50000       1.93733     179.91368      -0.59634     -29.03753          5293 
   5294.00000       1.93726     179.90048      -0.59631     -29.05443          5293 
   5294.50000       1.93663     179.89058      -0.59628     -29.07133          5294 
   5295.00000       1.93578     179.72890      -0.59622     -29.08822          5294 
   5295.50000       1.93640     179.56694      -0.59612     -29.10511          5295 
   5296.00000       1.93670     179.51262      -0.59598     -29.12201          5295 
   5296.50000       1.93722     179.46742      -0.59583     -29.13891          5296 
   5297.00000       1.93580     179.42564      -0.59567     -29.15580          5296 
   5297.50000       1.93546     179.39951      -0.59550     -29.17269          5297 
   5298.00000       1.93349     179.40221      -0.59532     -29.18957          5297 
   5298.50000       1.93183     179.41081      -0.59515     -29.20643          5298 
   5299.00000       1.93021     179.42604      -0.59497     -29.22328          5298 
   5299.50000       1.92783     179.45932      -0.59481     -29.24011          5299 
