~Version Information
VERS  .          2.0                              :CWLS Log Ascii Standard - Version 2.0
WRAP  .          NO                               :One line per depth step
~Well Information Block
#MNEM.UNIT       Data Type                        Information
#---------       ---------                        -------------------------------
STRT  .F         4350.00000                       :START DEPTH
STOP  .F         5755.00000                       :STOP DEPTH
STEP  .F          0.50000                         :INCREMENT
NULL  .          -999.25                          :NULL DATA VALUE
COMP  .          DEPARTMENT OF ENERGY             :COMPANY
WELL  .          48X_28                           :WELL
FLD   .          Naval Petroleum Reserve          :FIELD
LOC   .                                           :LOCATION
PROV  .                                           :PROVINCE
STAT  .                                           :STATE
CNTY  .                                           :COUNTY
CTRY  .                                           :COUNTRY
DATE  .                                           :DATE
UWI   .          48X_28                           :UNIQUE WELL UWI
LIC   .                                           :LICENSE NUMBER
API   .          49-025-23195                     :API NUMBER
SRVC  .          SLB                              :SERVICE COMPANY
~Parameter Information Block
#MNEM.UNIT       Value                            Description
#---------       ---------                        -------------
LONG  .DEG       -106.221901                      :Well Surface Location
LATI  .DEG       43.314701                        :Well Surface Location
~Curve Information Block
#MNEM.UNIT       API Code            Curve    Description
#--------        --------------      -----    -------------------
DEPT  .F                             :0       Index
DEVI  .DEG                           :1       Hole Deviation                
AZIM  .DEG                           :2       Measured Azimuth              
DX    .F                             :3       X-Component of the Well Departure
DY    .F                             :4       Y-Component of the Well Departure
TVD   .F                             :5       True Vertical Depth           
~Ascii Data Section
   4350.00000       0.00000       0.00000       0.00000       0.00000          4350 
   4350.50000       1.42617     137.24867       0.00422      -0.00457          4351 
   4351.00000       1.41818     137.16487       0.01265      -0.01368          4351 
   4351.50000       1.41002     137.08038       0.02105      -0.02272          4352 
   4352.00000       1.40168     136.99760       0.02941      -0.03170          4352 
   4352.50000       1.39300     136.91414       0.03773      -0.04061          4353 
   4353.00000       1.38351     136.81616       0.04601      -0.04945          4353 
   4353.50000       1.37531     136.72652       0.05426      -0.05822          4354 
   4354.00000       1.36536     136.61794       0.06246      -0.06691          4354 
   4354.50000       1.35657     136.52008       0.07063      -0.07554          4355 
   4355.00000       1.34735     136.42496       0.07875      -0.08409          4355 
   4355.50000       1.33701     136.32954       0.08683      -0.09257          4356 
   4356.00000       1.32692     136.25310       0.09486      -0.10097          4356 
   4356.50000       1.31620     136.19252       0.10284      -0.10930          4357 
   4357.00000       1.30399     136.15253       0.11076      -0.11754          4357 
   4357.50000       1.29255     136.16000       0.11861      -0.12572          4358 
   4358.00000       1.28100     136.24309       0.12638      -0.13382          4358 
   4358.50000       1.26969     136.38376       0.13406      -0.14187          4359 
   4359.00000       1.26013     136.57962       0.14166      -0.14987          4359 
   4359.50000       1.24809     136.97133       0.14916      -0.15785          4360 
   4360.00000       1.23967     137.36386       0.15654      -0.16580          4360 
   4360.50000       1.23184     137.86533       0.16381      -0.17377          4361 
   4361.00000       1.22542     138.38646       0.17096      -0.18175          4361 
   4361.50000       1.21999     138.93634       0.17801      -0.18976          4362 
   4362.00000       1.21519     139.56035       0.18495      -0.19781          4362 
   4362.50000       1.21213     140.02448       0.19178      -0.20590          4363 
   4363.00000       1.20966     140.52072       0.19854      -0.21403          4363 
   4363.50000       1.20841     140.88759       0.20522      -0.22219          4364 
   4364.00000       1.20790     141.20538       0.21184      -0.23039          4364 
   4364.50000       1.20847     141.46045       0.21843      -0.23862          4365 
   4365.00000       1.20971     141.68779       0.22499      -0.24689          4365 
   4365.50000       1.21162     141.82693       0.23153      -0.25518          4366 
   4366.00000       1.21340     141.92918       0.23806      -0.26351          4366 
   4366.50000       1.21780     142.12268       0.24459      -0.27187          4367 
   4367.00000       1.22134     142.23975       0.25111      -0.28027          4367 
   4367.50000       1.22514     142.37326       0.25764      -0.28872          4367 
   4368.00000       1.23020     142.53575       0.26417      -0.29721          4368 
   4368.50000       1.23558     142.70656       0.27070      -0.30576          4368 
   4369.00000       1.24259     142.94305       0.27723      -0.31438          4369 
   4369.50000       1.24884     143.15103       0.28377      -0.32306          4369 
   4370.00000       1.25829     143.46468       0.29030      -0.33184          4370 
   4370.50000       1.26851     143.78546       0.29684      -0.34071          4370 
   4371.00000       1.27494     143.97191       0.30338      -0.34968          4371 
   4371.50000       1.28399     144.23184       0.30993      -0.35872          4371 
   4372.00000       1.29710     144.57939       0.31648      -0.36788          4372 
   4372.50000       1.30990     144.89192       0.32305      -0.37716          4372 
   4373.00000       1.32264     145.17459       0.32963      -0.38658          4373 
   4373.50000       1.33473     145.43221       0.33623      -0.39611          4373 
   4374.00000       1.34653     145.67241       0.34285      -0.40576          4374 
   4374.50000       1.35740     145.89124       0.34948      -0.41551          4374 
   4375.00000       1.36668     146.07191       0.35613      -0.42536          4375 
   4375.50000       1.37647     146.26393       0.36279      -0.43530          4375 
   4376.00000       1.38632     146.45705       0.36947      -0.44534          4376 
   4376.50000       1.39450     146.59877       0.37616      -0.45546          4376 
   4377.00000       1.40423     146.74194       0.38287      -0.46566          4377 
   4377.50000       1.41236     146.84642       0.38960      -0.47594          4377 
   4378.00000       1.42029     146.90276       0.39635      -0.48629          4378 
   4378.50000       1.42968     146.94299       0.40314      -0.49671          4378 
   4379.00000       1.43955     146.95808       0.40997      -0.50720          4379 
   4379.50000       1.44770     146.95099       0.41684      -0.51776          4379 
   4380.00000       1.45568     146.93547       0.42375      -0.52838          4380 
   4380.50000       1.46661     146.90558       0.43070      -0.53906          4380 
   4381.00000       1.47706     146.86850       0.43772      -0.54982          4381 
   4381.50000       1.48633     146.82074       0.44479      -0.56064          4381 
   4382.00000       1.49819     146.74190       0.45192      -0.57154          4382 
   4382.50000       1.50813     146.65933       0.45913      -0.58250          4382 
   4383.00000       1.51930     146.54173       0.46640      -0.59353          4383 
   4383.50000       1.53042     146.38995       0.47375      -0.60462          4383 
   4384.00000       1.54091     146.22610       0.48118      -0.61577          4384 
   4384.50000       1.55112     146.04172       0.48870      -0.62697          4384 
   4385.00000       1.56394     145.79013       0.49631      -0.63822          4385 
   4385.50000       1.57278     145.58554       0.50403      -0.64953          4385 
   4386.00000       1.58217     145.35809       0.51183      -0.66087          4386 
   4386.50000       1.59144     145.09705       0.51973      -0.67224          4386 
   4387.00000       1.59579     144.96054       0.52770      -0.68363          4387 
   4387.50000       1.60276     144.71120       0.53573      -0.69504          4387 
   4388.00000       1.60928     144.43588       0.54386      -0.70646          4388 
   4388.50000       1.61592     144.14302       0.55207      -0.71789          4388 
   4389.00000       1.62319     143.77943       0.56038      -0.72931          4389 
   4389.50000       1.63087     143.37247       0.56881      -0.74074          4389 
   4390.00000       1.63791     143.00861       0.57736      -0.75215          4390 
   4390.50000       1.64672     142.51289       0.58603      -0.76356          4390 
   4391.00000       1.65279     142.17120       0.59482      -0.77496          4391 
   4391.50000       1.65992     141.71323       0.60373      -0.78634          4391 
   4392.00000       1.66561     141.30748       0.61276      -0.79769          4392 
   4392.50000       1.66873     141.04951       0.62188      -0.80903          4392 
   4393.00000       1.67300     140.58690       0.63109      -0.82033          4393 
   4393.50000       1.67586     140.17278       0.64041      -0.83158          4393 
   4394.00000       1.67699     139.95256       0.64980      -0.84280          4394 
   4394.50000       1.67833     139.59344       0.65925      -0.85397          4394 
   4395.00000       1.67910     139.26440       0.66878      -0.86510          4395 
   4395.50000       1.67956     138.85942       0.67838      -0.87617          4395 
   4396.00000       1.67897     138.24760       0.68808      -0.88715          4396 
   4396.50000       1.67801     137.86429       0.69787      -0.89804          4396 
   4397.00000       1.67657     137.49081       0.70772      -0.90886          4397 
