~Version Information
VERS  .          2.0                              :CWLS Log Ascii Standard - Version 2.0
WRAP  .          NO                               :One line per depth step
~Well Information Block
#MNEM.UNIT       Data Type                        Information
#---------       ---------                        -------------------------------
STRT  .F         4350.00000                       :START DEPTH
STOP  .F         5755.00000                       :STOP DEPTH
STEP  .F          0.50000                         :INCREMENT
NULL  .          -999.25                          :NULL DATA VALUE
COMP  .          DEPARTMENT OF ENERGY             :COMPANY
WELL  .          48X_28                           :WELL
FLD   .          Naval Petroleum Reserve          :FIELD
LOC   .                                           :LOCATION
PROV  .                                           :PROVINCE
STAT  .                                           :STATE
CNTY  .                                           :COUNTY
CTRY  .                                           :COUNTRY
DATE  .                                           :DATE
UWI   .          48X_28                           :UNIQUE WELL UWI
LIC   .                                           :LICENSE NUMBER
API   .          49-025-23195                     :API NUMBER
SRVC  .          SLB                              :SERVICE COMPANY
~Parameter Information Block
#MNEM.UNIT       Value                            Description
#---------       ---------                        -------------
LONG  .DEG       -106.221901                      :Well Surface Location
LATI  .DEG       43.314701                        :Well Surface Location
~Curve Information Block
#MNEM.UNIT       API Code            Curve    Description
#--------        --------------      -----    -------------------
DEPT  .F                             :0       Index
DEVI  .DEG                           :1       Hole Deviation                
AZIM  .DEG                           :2       Measured Azimuth              
DX    .F                             :3       X-Component of the Well Departure
DY    .F                             :4       Y-Component of the Well Departure
TVD   .F                             :5       True Vertical Depth           
~Ascii Data Section
# ...
   4635.00000       1.73481     166.94366       3.28706      -5.55606          4635 
   4635.50000       1.73146     166.89832       3.29048      -5.57079          4635 
   4636.00000       1.72750     166.86137       3.29391      -5.58549          4636 
   4636.50000       1.72306     166.84631       3.29733      -5.60015          4636 
   4637.00000       1.71864     166.85487       3.30075      -5.61477          4637 
   4637.50000       1.71383     166.88686       3.30415      -5.62935          4637 
   4638.00000       1.70641     166.99271       3.30752      -5.64389          4638 
   4638.50000       1.70186     167.10019       3.31085      -5.65838          4638 
   4639.00000       1.69756     167.23103       3.31415      -5.67284          4639 
   4639.50000       1.69391     167.37190       3.31740      -5.68727          4639 
   4640.00000       1.69006     167.54108       3.32061      -5.70168          4640 
   4640.50000       1.68687     167.69446       3.32377      -5.71607          4640 
   4641.00000       1.68358     167.85405       3.32688      -5.73044          4641 
   4641.50000       1.68035     168.01282       3.32995      -5.74480          4641 
   4642.00000       1.67809     168.12625       3.33298      -5.75913          4642 
   4642.50000       1.67572     168.25095       3.33597      -5.77345          4642 
   4643.00000       1.67366     168.38379       3.33893      -5.78776          4643 
   4643.50000       1.67224     168.51051       3.34185      -5.80206          4643 
   4644.00000       1.67156     168.64235       3.34474      -5.81636          4644 
   4644.50000       1.67129     168.77138       3.34760      -5.83066          4644 
   4645.00000       1.67147     168.91946       3.35042      -5.84497          4645 
   4645.50000       1.67184     169.07103       3.35320      -5.85929          4645 
   4646.00000       1.67195     169.21985       3.35595      -5.87362          4646 
   4646.50000       1.67184     169.36298       3.35866      -5.88795          4646 
   4647.00000       1.67145     169.48454       3.36134      -5.90229          4647 
   4647.50000       1.67023     169.62674       3.36398      -5.91663          4647 
   4648.00000       1.66890     169.72485       3.36659      -5.93096          4648 
   4648.50000       1.66649     169.88641       3.36917      -5.94528          4648 
   4649.00000       1.66448     170.00516       3.37171      -5.95959          4649 
   4649.50000       1.66306     170.09773       3.37421      -5.97389          4649 
   4650.00000       1.66113     170.23421       3.37669      -5.98818          4650 
   4650.50000       1.65700     170.58267       3.37910      -6.00245          4650 
   4651.00000       1.65549     170.75229       3.38145      -6.01671          4651 
   4651.50000       1.65425     170.91295       3.38375      -6.03097          4651 
   4652.00000       1.65220     171.22066       3.38599      -6.04521          4652 
   4652.50000       1.65076     171.50940       3.38815      -6.05946          4652 
   4653.00000       1.64910     171.85619       3.39023      -6.07371          4653 
   4653.50000       1.64799     172.08553       3.39224      -6.08795          4653 
   4654.00000       1.64682     172.28242       3.39420      -6.10219          4654 
   4654.50000       1.64501     172.46007       3.39610      -6.11642          4654 
   4655.00000       1.64290     172.62422       3.39796      -6.13065          4655 
   4655.50000       1.64043     172.78085       3.39978      -6.14486          4655 
   4656.00000       1.63742     172.94574       3.40156      -6.15905          4656 
   4656.50000       1.63431     173.11209       3.40329      -6.17321          4656 
   4657.00000       1.63101     173.29398       3.40498      -6.18736          4657 
   4657.50000       1.62755     173.50183       3.40661      -6.20148          4657 
   4658.00000       1.62437     173.70338       3.40819      -6.21558          4658 
   4658.50000       1.62079     173.93707       3.40972      -6.22966          4658 
   4659.00000       1.61747     174.15025       3.41119      -6.24371          4659 
   4659.50000       1.61407     174.36235       3.41260      -6.25773          4659 
   4660.00000       1.61023     174.58600       3.41395      -6.27174          4660 
   4660.50000       1.60678     174.77022       3.41525      -6.28571          4660 
   4661.00000       1.60277     174.96858       3.41650      -6.29966          4661 
   4661.50000       1.59903     175.13560       3.41771      -6.31357          4661 
   4662.00000       1.59528     175.29434       3.41887      -6.32746          4662 
   4662.50000       1.59159     175.44373       3.41999      -6.34132          4662 
   4663.00000       1.58803     175.57951       3.42108      -6.35515          4663 
   4663.50000       1.58485     175.70253       3.42213      -6.36895          4663 
   4664.00000       1.58158     175.82759       3.42315      -6.38273          4664 
   4664.50000       1.57861     175.94730       3.42414      -6.39648          4664 
   4665.00000       1.57579     176.07039       3.42510      -6.41021          4665 
   4665.50000       1.57300     176.20784       3.42602      -6.42391          4665 
   4666.00000       1.57051     176.34621       3.42691      -6.43760          4666 
   4666.50000       1.56824     176.50174       3.42777      -6.45127          4666 
   4667.00000       1.56621     176.66649       3.42858      -6.46492          4667 
   4667.50000       1.56443     176.82974       3.42936      -6.47855          4667 
   4668.00000       1.56276     176.99596       3.43009      -6.49218          4668 
   4668.50000       1.56124     177.16432       3.43079      -6.50579          4668 
   4669.00000       1.55981     177.32535       3.43144      -6.51939          4669 
   4669.50000       1.55859     177.47829       3.43206      -6.53298          4669 
   4670.00000       1.55752     177.62581       3.43264      -6.54656          4670 
   4670.50000       1.55669     177.78528       3.43318      -6.56014          4670 
   4671.00000       1.55612     177.93568       3.43369      -6.57371          4671 
   4671.50000       1.55587     178.10213       3.43416      -6.58728          4671 
   4672.00000       1.55600     178.29990       3.43459      -6.60085          4672 
   4672.50000       1.55627     178.46954       3.43497      -6.61442          4672 
   4673.00000       1.55687     178.68565       3.43531      -6.62800          4673 
   4673.50000       1.55743     178.85663       3.43560      -6.64158          4673 
   4674.00000       1.55792     179.07138       3.43584      -6.65517          4674 
   4674.50000       1.55821     179.25070       3.43604      -6.66877          4674 
   4675.00000       1.55823     179.42313       3.43620      -6.68236          4675 
   4675.50000       1.55810     179.60487       3.43631      -6.69596          4675 
   4676.00000       1.55773     179.74516       3.43639      -6.70955          4676 
   4676.50000       1.55730     179.89304       3.43643      -6.72314          4676 
   4677.00000       1.55683     180.00667       3.43645      -6.73673          4677 
   4677.50000       1.55651     180.10938       3.43643      -6.75031          4677 
   4678.00000       1.55621     180.20793       3.43639      -6.76389          4678 
   4678.50000       1.55599     180.29233       3.43634      -6.77747          4678 
   4679.00000       1.55580     180.38651       3.43625      -6.79104          4679 
   4679.50000       1.55555     180.48018       3.43615      -6.80462          4679 
   4680.00000       1.55530     180.60246       3.43602      -6.81819          4680 
   4680.50000       1.55494     180.73306       3.43587      -6.83176          4680 
   4681.00000       1.55461     180.85820       3.43568      -6.84532          4681 
   4681.50000       1.55428     180.98355       3.43546      -6.85888          4681 
   4682.00000       1.55394     181.09787       3.43521      -6.87244          4682 
