~Version Information
 VERS.                2.00:   CWLS log ASCII Standard -VERSION 2.00
 WRAP.                  NO:   One line per frame
~Well Information Block
#MNEM.UNIT              Data                Description
#--------- -------------------------------  -------------------------------
 STRT.F                          600.0000:   Starting Depth
 STOP.F                           -7.7500:   Ending Depth
 STEP.F                           -0.5000:   Level Spacing
 NULL.                          -999.2500:   Absent Value
 COMP.     FLUOR DANIEL (NPSOR), INC.    :   Company
 WELL.     88-1 X 10                     :   Well
 FLD .                                   :   Field
 LOC .                                   :   Location
 CNTY.                                   :   County
 STAT.                                   :   State
 SRVC.                                   :   Service Company
 LIC .                                   :   License Number
 DATE.                                   :   Log Date
 API .                                   :   API Number
~Curve Information Block
#MNEM.UNIT       API Codes    Curve Description
#---------    -------------   -------------------------------
 DEPT.F        0   0  0  0:   Depth
 CILD.MMHO     0   0  0  0:   Conductivity of Deep Induction
 GR  .API      0   0  0  0:   Gamma ray counts
 TEN .LBF      0   0  0  0:   Differential Tension
 RILM.OHMM     0   0  0  0:   Resistivity from CILM
 RILD.OHMM     0   0  0  0:   Resistivity from CILD
#  Curve Data
~A
# ...
    40.0000    177.0409     76.2187    -29.0815  10000.0000      5.6484
    39.5000    177.8712     76.5103    -31.1341  10000.0000      5.6220
    39.0000    162.9530     76.9504    -32.7390  10000.0000      6.1367
    38.5000    156.9714     76.2553    -26.3371  10000.0000      6.3706
    38.0000    165.2576     73.9280    -20.2163  10000.0000      6.0512
    37.5000    175.4715     70.6708    -22.8244  10000.0000      5.6989
    37.0000    179.3330     66.9533    -27.5098  10000.0000      5.5762
    36.5000    179.5952     61.4562    -28.5651  10000.0000      5.5681
    36.0000    180.2153     55.8409    -28.0478  10000.0000      5.5489
    35.5000    184.0324     56.3752    -27.6516  10000.0000      5.4338
    35.0000    188.7627     64.4681    -29.7177  10000.0000      5.2977
    34.5000    190.9734     73.3689    -33.7229  10000.0000      5.2363
    34.0000    191.3794     78.1118    -37.8761  10000.0000      5.2252
    33.5000    191.7461     79.8454    -38.2339  10000.0000      5.2152
    33.0000    190.1507     79.3723    -32.0290  10000.0000      5.2590
    32.5000    184.6900     76.1217    -22.6719  10000.0000      5.4145
    32.0000    180.7234     71.3732    -20.2520    231.5513      5.5333
    31.5000    183.5039     68.4937    -26.9785    224.3654      5.4495
    31.0000    182.7897     68.3676    -32.1497    222.6491      5.4708
    30.5000    146.3481     70.0149    -32.2824    221.8816      6.8330
    30.0000     76.0704     70.0039    -33.6183    220.6229     13.1457
    29.5000     19.1554     68.5002    -34.2457    219.3347     52.2047
    29.0000      0.2720     66.7128    -29.6515    219.3143   3675.9355
    28.5000     -0.7090     65.1254    -27.3481    220.3040  10000.0000
    28.0000     -0.6911     64.1557    -29.0159    220.4301  10000.0000
    27.5000     -0.6789     65.1749    -26.6594    218.2018  10000.0000
    27.0000     -0.6778     67.1552    -21.0907    215.5898  10000.0000
    26.5000     -0.6829     67.5969    -19.4380    215.5579  10000.0000
    26.0000     -0.6935     64.9403    -20.8135    217.4870  10000.0000
    25.5000     -0.6972     61.0805    -19.5276    218.6117  10000.0000
    25.0000     -0.6833     59.3419    -18.6553    218.8434  10000.0000
    24.5000     -0.6668     58.8404    -21.9804    219.4021  10000.0000
    24.0000     -0.6613     56.6958    -27.4622    219.9170  10000.0000
    23.5000     -0.6720     54.6076    -32.1009    219.1694  10000.0000
    23.0000     -0.6961     55.0671    -37.7352    215.3463  10000.0000
    22.5000     -0.7228     57.7742    -38.2638    208.2091  10000.0000
    22.0000     -0.7407     59.3030   -250.0000    200.4522  10000.0000
    21.5000     -0.7416     57.7846   -250.0000    197.1257  10000.0000
    21.0000     -0.7149     55.6826   -250.0000    201.2693  10000.0000
    20.5000     -0.6830     55.2348   -250.0000    209.7965  10000.0000
    20.0000     -0.6698     55.4814   -250.0000    215.9948  10000.0000
    19.5000      0.0000     55.1105   -250.0000    217.7361      0.2000
    19.0000      0.0000     54.2502   -250.0000    217.7940      0.2000
    18.5000      0.0000     54.1608   -250.0000    216.9210      0.2000
    18.0000      0.0000     55.5422   -250.0000    214.3890      0.2000
    17.5000      0.0000     57.7093   -250.0000    211.1403      0.2000
    17.0000      0.0000     57.8520   -250.0000    210.4816      0.2000
    16.5000      0.0000     51.5901   -250.0000    213.6543      0.2000
    16.0000      0.0000     45.7241   -250.0000      0.2000      0.2000
    15.5000      0.0000     49.9628   -250.0000      0.2000      0.2000
    15.0000      0.0000     60.3922   -250.0000      0.2000      0.2000
    14.5000      0.0000     66.5293   -250.0000      0.2000      0.2000
    14.0000      0.0000     68.0767   -250.0000      0.2000      0.2000
    13.5000      0.0000     68.6818   -250.0000      0.2000      0.2000
    13.0000      0.0000     69.3456   -250.0000      0.2000      0.2000
    12.5000      0.0000     68.1304   -250.0000      0.2000      0.2000
    12.0000      0.0000     62.9845   -250.0000      0.2000      0.2000
    11.5000      0.0000     53.6629   -250.0000      0.2000      0.2000
    11.0000      0.0000     42.2463   -250.0000      0.2000      0.2000
    10.5000      0.0000     31.4061   -250.0000      0.2000      0.2000
    10.0000      0.0000     22.3004   -250.0000      0.2000      0.2000
     9.5000      0.0000     15.2373   -250.0000      0.2000      0.2000
     9.0000      0.0000     11.9320   -250.0000      0.2000      0.2000
     8.5000      0.0000     11.1876   -250.0000      0.2000      0.2000
     8.0000      0.0000     10.9140   -250.0000      0.2000      0.2000
     7.5000      0.0000     10.9982   -250.0000      0.2000      0.2000
     7.0000      0.0000     11.4311   -250.0000      0.2000      0.2000
     6.5000      0.0000     11.7232   -250.0000      0.2000      0.2000
     6.0000      0.0000     11.2063   -250.0000      0.2000      0.2000
     5.5000      0.0000      9.1915   -250.0000      0.2000      0.2000
     5.0000      0.0000      6.7957   -250.0000      0.2000      0.2000
     4.5000      0.0000      5.6853   -250.0000      0.2000      0.2000
     4.0000      0.0000      6.8690   -250.0000      0.2000      0.2000
     3.5000      0.0000     11.1093   -250.0000      0.2000      0.2000
     3.0000      0.0000     17.2696   -250.0000      0.2000      0.2000
     2.5000      0.0000     22.2097   -250.0000      0.2000      0.2000
     2.0000      0.0000     23.5589   -250.0000      0.2000      0.2000
     1.5000      0.0000     20.8265   -250.0000      0.2000      0.2000
     1.0000      0.0000     15.5423   -250.0000      0.2000      0.2000
     0.5000      0.0000     12.1622   -250.0000      0.2000      0.2000
     0.0000      0.0000     13.3168   -250.0000      0.2000      0.2000
    -0.5000      0.0000     17.3251   -250.0000      0.2000      0.2000
    -1.0000      0.0000     21.0247   -250.0000      0.2000      0.2000
    -1.5000      0.0000     21.0247   -250.0000      0.2000      0.2000
    -2.0000      0.0000     21.0247   -250.0000      0.2000      0.2000
    -2.5000      0.0000     21.0247   -250.0000      0.2000      0.2000
    -3.0000      0.0000     21.0247   -250.0000      0.2000      0.2000
    -3.5000      0.0000     21.0247   -250.0000      0.2000      0.2000
    -4.0000      0.0000     21.0247   -250.0000      0.2000      0.2000
    -4.5000      0.0000     21.0247   -250.0000      0.2000      0.2000
    -5.0000      0.0000     21.0247   -250.0000      0.2000      0.2000
    -5.5000      0.0000     21.0247   -250.0000      0.2000      0.2000
    -6.0000      0.0000     21.0247   -250.0000      0.2000      0.2000
    -6.5000      0.0000     21.0247   -250.0000      0.2000      0.2000
    -7.0000      0.0000     21.0247   -250.0000      0.2000      0.2000
    -7.5000      0.0000     21.0247   -250.0000      0.2000      0.2000
