~Version Information
 VERS.                2.00:   CWLS log ASCII Standard -VERSION 2.00
 WRAP.                  NO:   One line per frame
~Well Information Block
#MNEM.UNIT              Data                Description
#--------- -------------------------------  -------------------------------
 STRT.F                          600.0000:   Starting Depth
 STOP.F                           -7.7500:   Ending Depth
 STEP.F                           -0.5000:   Level Spacing
 NULL.                          -999.2500:   Absent Value
 COMP.     FLUOR DANIEL (NPSOR), INC.    :   Company
 WELL.     88-1 X 10                     :   Well
 FLD .                                   :   Field
 LOC .                                   :   Location
 CNTY.                                   :   County
 STAT.                                   :   State
 SRVC.                                   :   Service Company
 LIC .                                   :   License Number
 DATE.                                   :   Log Date
 API .                                   :   API Number
~Curve Information Block
#MNEM.UNIT       API Codes    Curve Description
#---------    -------------   -------------------------------
 DEPT.F        0   0  0  0:   Depth
 CILD.MMHO     0   0  0  0:   Conductivity of Deep Induction
 GR  .API      0   0  0  0:   Gamma ray counts
 TEN .LBF      0   0  0  0:   Differential Tension
 RILM.OHMM     0   0  0  0:   Resistivity from CILM
 RILD.OHMM     0   0  0  0:   Resistivity from CILD
#  Curve Data
~A
# ...
   208.0000     89.9491    112.4017    -31.9908     11.0410     11.1174
   207.5000     89.3833    115.1576    -28.5571     11.0849     11.1878
   207.0000     88.4355    115.6462    -27.0236     11.1246     11.3077
   206.5000     87.3276    115.7316    -23.9276     11.1773     11.4511
   206.0000     86.3276    116.8345    -22.1958     11.2707     11.5838
   205.5000     85.4158    116.7765    -27.1898     11.4149     11.7074
   205.0000     84.4341    114.3388    -32.4776     11.5963     11.8436
   204.5000     83.3794    112.8258    -33.6024     11.7836     11.9934
   204.0000     82.4814    113.3340    -32.8872     11.9265     12.1240
   203.5000     82.0136    112.1649    -32.1915     11.9934     12.1931
   203.0000     81.9416    110.4481    -31.9884     12.0184     12.2038
   202.5000     82.0073    112.2015    -29.0067     12.0416     12.1940
   202.0000     82.1235    115.8338    -26.4267     12.0508     12.1768
   201.5000     82.3916    117.1988    -26.8406     12.0231     12.1372
   201.0000     82.7772    115.1107    -29.0967     11.9685     12.0806
   200.5000     83.2772    112.1461    -29.8494     11.9028     12.0081
   200.0000     83.9978    111.1787    -28.8908     11.8101     11.9051
   199.5000     85.0701    112.6079    -27.2176     11.6662     11.7550
   199.0000     86.5278    113.4936    -29.3343     11.4836     11.5570
   198.5000     88.2938    115.2205    -32.5014     11.2979     11.3258
   198.0000     90.1208    119.4700    -26.3453     11.1248     11.0962
   197.5000     91.8083    125.2527    -18.8344     10.9526     10.8923
   197.0000     93.4000    129.1873    -20.8126     10.7567     10.7066
   196.5000     95.0445    129.9505    -26.8138     10.5277     10.5214
   196.0000     96.9107    128.3733    -28.6258     10.2896     10.3188
   195.5000     98.9939    126.7733    -27.3429     10.0837     10.1016
   195.0000    101.1455    124.5234    -28.7170      9.9184      9.8867
   194.5000    103.2326    120.9929    -32.2028      9.7680      9.6869
   194.0000    105.3313    119.4682    -32.3919      9.6040      9.4939
   193.5000    107.5771    121.9998    -30.1803      9.4192      9.2957
   193.0000    109.9033    125.2993    -31.2369      9.2301      9.0989
   192.5000    112.1633    125.5056    -36.4027      9.0596      8.9156
   192.0000    114.2169    124.5892    -41.3647      8.9077      8.7553
   191.5000    115.9212    126.5310    -39.1220      8.7511      8.6265
   191.0000    117.1660    129.3475    -33.5271      8.5931      8.5349
   190.5000    118.0669    128.5800    -32.7369      8.4758      8.4698
   190.0000    118.7531    126.0606    -34.6315      8.4196      8.4208
   189.5000    119.1228    124.9402    -33.0654      8.4067      8.3947
   189.0000    119.1766    126.0957    -30.5229      8.4164      8.3909
   188.5000    119.1242    129.0639    -30.6004      8.4492      8.3946
   188.0000    118.9448    131.7145    -31.4568      8.5026      8.4073
   187.5000    118.4319    134.4977    -28.4211      8.5548      8.4437
   187.0000    117.5705    137.9767    -25.8954      8.5827      8.5055
   186.5000    116.4893    139.9984    -28.1542      8.5923      8.5845
   186.0000    115.3831    138.4571    -27.5995      8.6049      8.6668
   185.5000    114.4714    134.9290    -25.5529      8.6400      8.7358
   185.0000    113.8014    132.8272    -28.1707      8.7131      8.7872
   184.5000    113.3284    134.6523    -31.0954      8.8130      8.8239
   184.0000    113.0574    136.4315    -31.3811      8.8980      8.8451
   183.5000    113.1319    134.0347    -32.4557      8.9335      8.8392
   183.0000    113.7245    130.5578    -30.8825      8.9072      8.7932
   182.5000    114.7854    128.5288    -24.0685      8.8164      8.7119
   182.0000    116.0951    125.9576    -19.0421      8.6834      8.6136
   181.5000    117.6161    124.0907    -23.2093      8.5539      8.5022
   181.0000    119.3909    126.9333    -30.0297      8.4453      8.3758
   180.5000    121.0985    132.4687    -31.9646      8.3459      8.2577
   180.0000    122.5395    134.8258    -29.1089      8.2503      8.1606
   179.5000    124.1024    133.4184    -25.5392      8.1649      8.0579
   179.0000    125.9570    131.3237    -21.8438      8.0900      7.9392
   178.5000    127.5481    129.6035    -15.9423      8.0208      7.8402
   178.0000    128.4832    128.8560     -9.9991      7.9513      7.7831
   177.5000    129.0060    129.6679     -7.2428      7.8802      7.7516
   177.0000    129.3382    133.4138     -6.3504      7.8133      7.7317
   176.5000    129.4749    137.8755     -7.9498      7.7641      7.7235
   176.0000    129.3684    136.8897    -12.9607      7.7487      7.7299
   175.5000    128.9373    132.0342    -14.9932      7.7720      7.7557
   175.0000    128.0578    131.3585    -14.8413      7.8272      7.8090
   174.5000    126.7569    133.4585    -17.1752      7.9055      7.8891
   174.0000    125.3360    132.6158    -16.8070      7.9956      7.9786
   173.5000    123.9208    128.9488    -12.6157      8.0881      8.0697
   173.0000    122.4124    124.6160    -10.9410      8.1852      8.1691
   172.5000    120.8941    122.1328    -13.5030      8.2847      8.2717
   172.0000    119.5404    124.3903    -19.9089      8.3701      8.3654
   171.5000    118.2999    130.0076    -27.6187      8.4310      8.4531
   171.0000    117.2033    132.7828    -27.7327      8.4815      8.5322
   170.5000    116.3958    131.1686    -19.3397      8.5353      8.5914
   170.0000    115.8436    128.6133    -13.6921      8.5955      8.6323
   169.5000    115.4574    126.5508    -17.6394      8.6583      8.6612
   169.0000    115.0725    124.5127    -24.3600      8.7156      8.6902
   168.5000    114.4372    126.9854    -23.9422      8.7659      8.7384
   168.0000    113.6751    132.2315    -20.7220      8.8069      8.7970
   167.5000    113.2848    132.5237    -20.7659      8.8139      8.8273
   167.0000    113.5217    126.7692    -22.8887      8.7738      8.8089
   166.5000    114.2799    122.2661    -26.7628      8.7322      8.7504
   166.0000    115.3270    122.2122    -28.8600      8.7326      8.6710
   165.5000    116.4283    124.4206    -21.5772      8.7445      8.5890
   165.0000    117.5503    127.5920    -13.8168      8.7004      8.5070
   164.5000    118.8354    130.4414    -18.7712      8.5812      8.4150
   164.0000    120.3171    131.7761    -23.8788      8.4283      8.3114
   163.5000    121.9034    133.7187    -20.7366      8.2867      8.2032
   163.0000    123.4367    135.9717    -20.7312      8.1703      8.1013
   162.5000    124.5978    134.2293    -25.3751      8.0735      8.0258
   162.0000    125.2606    130.9961    -28.7170      8.0007      7.9834
   161.5000    125.5915    131.1658    -29.7756      7.9688      7.9623
   161.0000    125.6280    131.7326    -28.9012      7.9826      7.9600
   160.5000    125.2272    130.9028    -26.5914      8.0262      7.9855
   160.0000    124.5536    131.1421    -26.8196      8.0733      8.0287
   159.5000    123.9362    132.8816    -27.6574      8.1073      8.0687
   159.0000    123.3815    134.9132    -25.7649      8.1392      8.1049
   158.5000    122.7561    134.2900    -24.8804      8.1903      8.1462
   158.0000    122.0986    129.5122    -26.4267      8.2456      8.1901
   157.5000    121.5277    125.2833    -27.5278      8.2714      8.2286
   157.0000    120.9910    125.8453    -30.3283      8.2762      8.2651
   156.5000    120.4803    128.6576    -32.5545      8.2921      8.3001
   156.0000    120.0664    127.9804    -30.6278      8.3160      8.3287
   155.5000    119.8585    123.8956    -29.1888      8.3321      8.3432
   155.0000    119.7807    120.4522    -29.9583      8.3510      8.3486
   154.5000    119.6460    120.7019    -26.5573      8.3774      8.3580
   154.0000    119.3855    123.0077    -20.6714      8.3956      8.3762
   153.5000    119.1525    126.1842    -20.0345      8.3927      8.3926
   153.0000    118.9684    130.5739    -28.0673      8.3832      8.4056
   152.5000    118.7170    135.3123    -37.0968      8.3944      8.4234
