~Version Information
 VERS.                2.00:   CWLS log ASCII Standard -VERSION 2.00
 WRAP.                  NO:   One line per frame
~Well Information Block
#MNEM.UNIT              Data                Description
#--------- -------------------------------  -------------------------------
 STRT.F                          600.0000:   Starting Depth
 STOP.F                           -7.7500:   Ending Depth
 STEP.F                           -0.5000:   Level Spacing
 NULL.                          -999.2500:   Absent Value
 COMP.     FLUOR DANIEL (NPSOR), INC.    :   Company
 WELL.     88-1 X 10                     :   Well
 FLD .                                   :   Field
 LOC .                                   :   Location
 CNTY.                                   :   County
 STAT.                                   :   State
 SRVC.                                   :   Service Company
 LIC .                                   :   License Number
 DATE.                                   :   Log Date
 API .                                   :   API Number
~Curve Information Block
#MNEM.UNIT       API Codes    Curve Description
#---------    -------------   -------------------------------
 DEPT.F        0   0  0  0:   Depth
 CILD.MMHO     0   0  0  0:   Conductivity of Deep Induction
 GR  .API      0   0  0  0:   Gamma ray counts
 TEN .LBF      0   0  0  0:   Differential Tension
 RILM.OHMM     0   0  0  0:   Resistivity from CILM
 RILD.OHMM     0   0  0  0:   Resistivity from CILD
#  Curve Data
~A
# ...
   320.0000    125.6204    141.1351    -17.0678      7.9751      7.9605
   319.5000    130.2276    143.2036    -14.4680      7.7574      7.6789
   319.0000    138.1761    142.1383    -11.8453      7.4984      7.2371
   318.5000    149.8352    138.3682    -10.4996      7.1538      6.6740
   318.0000    164.1571    135.2763     -9.0859      6.7058      6.0917
   317.5000    177.7840    135.7235     -9.3583      6.2355      5.6248
   317.0000    187.1800    138.8089    -12.9576      5.8235      5.3425
   316.5000    192.1271    142.3130    -17.5079      5.4505      5.2049
   316.0000    194.6120    144.5797    -19.0546      5.0800      5.1384
   315.5000    196.1446    144.5570    -19.2675      4.7804      5.0983
   315.0000    196.2060    144.1485    -19.1991      4.7083      5.0967
   314.5000    192.0473    144.9048    -18.2433      4.9452      5.2071
   314.0000    181.9047    146.4688    -18.0831      5.4270      5.4974
   313.5000    168.0164    146.5035    -19.6207      6.0065      5.9518
   313.0000    154.5726    144.3896    -19.3315      6.5406      6.4695
   312.5000    144.0453    142.0617    -17.0690      6.9688      6.9423
   312.0000    136.8606    140.9942    -16.8668      7.2845      7.3067
   311.5000    132.6340    139.5821    -17.7547      7.4985      7.5395
   311.0000    130.9920    137.3463    -17.2227      7.6199      7.6341
   310.5000    132.2477    136.3871    -15.3235      7.6476      7.5616
   310.0000    136.6933    136.2538    -14.7101      7.5739      7.3156
   309.5000    143.7503    133.7284    -17.7202      7.3846      6.9565
   309.0000    151.7387    130.2081    -22.5453      7.1060      6.5903
   308.5000    157.9134    132.9167    -24.2155      6.8193      6.3326
   308.0000    160.4205    142.2792    -22.5733      6.5560      6.2336
   307.5000    160.4568    148.2979    -20.4152      6.2384      6.2322
   307.0000    160.7587    144.6762    -20.8013      5.8516      6.2205
   306.5000    162.4003    137.9536    -23.4356      5.5626      6.1576
   306.0000    163.7033    135.7160    -27.4540      5.5496      6.1086
   305.5000    161.9485    137.1378    -30.1096      5.8295      6.1748
   305.0000    156.6079    137.4937    -28.5901      6.2458      6.3854
   304.5000    150.2870    138.3164    -23.8879      6.5834      6.6539
   304.0000    145.9564    140.4165    -20.7876      6.7400      6.8514
   303.5000    145.2419    140.4397    -21.2866      6.7469      6.8851
   303.0000    148.8741    136.3036    -21.7020      6.6663      6.7171
   302.5000    156.8794    131.5836    -19.1891      6.5223      6.3743
   302.0000    169.0427    130.1479    -17.4368      6.2944      5.9157
   301.5000    185.8167    133.4902    -20.7266      5.9532      5.3816
   301.0000    208.5657    137.8437    -26.6051      5.4799      4.7947
   300.5000    237.3850    136.3221    -28.7932      4.8878      4.2126
   300.0000    271.5637    127.0231    -24.6105      4.2522      3.6824
   299.5000    306.1172    118.4837    -18.1881      3.7037      3.2667
   299.0000    334.0947    118.5849    -16.3501      3.2983      2.9932
   298.5000    351.3894    122.8539    -20.6543      3.0269      2.8458
   298.0000    358.0366    124.4759    -23.4392      2.8603      2.7930
   297.5000    355.5857    124.4139    -20.3386      2.7845      2.8123
   297.0000    344.5129    125.1320    -18.3579      2.8122      2.9026
   296.5000    324.7146    127.0380    -18.4955      2.9768      3.0796
   296.0000    296.5640    128.4003    -16.3895      3.3097      3.3720
   295.5000    262.4502    127.3235    -15.6038      3.8123      3.8102
   295.0000    228.9207    126.7113    -18.6931      4.4377      4.3683
   294.5000    199.7920    129.2449    -19.5447      5.1055      5.0052
   294.0000    176.3746    132.3433    -18.1978      5.7233      5.6698
   293.5000    158.7257    134.6953    -17.8819      6.2669      6.3002
   293.0000    145.7985    137.4919    -16.3379      6.7286      6.8588
   292.5000    135.9507    139.2068    -12.4748      7.1275      7.3556
   292.0000    128.4571    137.1555     -9.0234      7.4886      7.7847
   291.5000    122.8414    131.8230    -10.1059      7.8149      8.1406
   291.0000    118.5019    125.9756    -15.7105      8.0949      8.4387
   290.5000    115.1160    123.6388    -21.2878      8.3245      8.6869
   290.0000    112.7535    126.1867    -22.3175      8.5045      8.8689
   289.5000    111.4903    131.5013    -18.3238      8.6331      8.9694
   289.0000    111.1569    134.3660    -13.9028      8.7163      8.9963
   288.5000    111.3800    133.1811    -15.0899      8.7799      8.9783
   288.0000    111.6334    130.4893    -20.9166      8.8503      8.9579
   287.5000    111.5151    128.3840    -24.1060      8.9315      8.9674
   287.0000    110.9825    125.2733    -22.3656      9.0173      9.0104
   286.5000    110.3302    122.1374    -20.2413      9.1047      9.0637
   286.0000    109.8367    120.3190    -22.9720      9.1877      9.1044
   285.5000    109.5749    120.7577    -27.4878      9.2594      9.1262
   285.0000    109.3577    123.6843    -27.0068      9.3099      9.1443
   284.5000    109.2179    126.5198    -20.9480      9.3233      9.1560
   284.0000    109.3710    126.8669    -16.5289      9.2956      9.1432
   283.5000    109.8716    126.9192    -18.6837      9.2429      9.1015
   283.0000    110.6139    127.8263    -22.8372      9.1816      9.0405
   282.5000    111.5521    127.0707    -23.6531      9.1132      8.9644
   282.0000    112.4769    124.0876    -20.9758      9.0349      8.8907
   281.5000    113.1417    122.7773    -18.6812      8.9493      8.8385
   281.0000    113.7219    123.8176    -18.5608      8.8624      8.7934
   280.5000    114.4866    126.1510    -22.1924      8.7737      8.7346
   280.0000    115.3762    129.2483    -25.0011      8.6878      8.6673
   279.5000    116.2810    132.2150    -24.8291      8.6138      8.5999
   279.0000    117.3939    133.3002    -20.3060      8.5513      8.5183
   278.5000    118.9356    131.9680    -15.4879      8.4795      8.4079
   278.0000    120.7567    128.6418    -17.6089      8.3773      8.2811
   277.5000    122.5270    125.5421    -23.6470      8.2466      8.1615
   277.0000    124.2002    125.5664    -22.9665      8.1147      8.0515
   276.5000    126.0880    126.4149    -17.6507      8.0003      7.9310
   276.0000    128.2052    125.2648    -17.9971      7.8955      7.8000
   275.5000    130.3489    124.2422    -23.8141      7.7881      7.6717
   275.0000    133.0302    124.6720    -30.4277      7.6751      7.5171
   274.5000    137.2859    123.7312    -31.6868      7.5347      7.2841
   274.0000    144.0242    121.9507    -25.3537      7.3147      6.9433
   273.5000    153.6249    122.2507    -18.8386      6.9838      6.5094
   273.0000    164.6578    124.3520    -19.1595      6.5973      6.0732
   272.5000    173.7857    124.1617    -19.7030      6.2540      5.7542
   272.0000    178.9310    122.6704    -18.5370      5.9859      5.5887
   271.5000    181.0621    121.5509    -19.2498      5.7269      5.5230
   271.0000    181.9403    120.8537    -20.9691      5.4454      5.4963
   270.5000    182.2004    120.4605    -19.7295      5.2523      5.4885
   270.0000    180.6205    119.5874    -16.4999      5.2954      5.5365
   269.5000    175.2134    118.4592    -17.5948      5.6115      5.7073
   269.0000    166.0438    118.3114    -23.3477      6.0970      6.0225
   268.5000    155.8159    120.4100    -26.6988      6.5840      6.4178
   268.0000    147.1152    124.7279    -23.7930      6.9636      6.7974
   267.5000    140.6792    130.7255    -18.9704      7.2203      7.1084
   267.0000    136.2968    134.5911    -16.6518      7.3854      7.3369
   266.5000    133.2996    133.7029    -17.6241      7.4972      7.5019
   266.0000    131.0369    127.7635    -22.9079      7.5889      7.6314
   265.5000    129.0996    120.0053    -26.7900      7.6859      7.7460
   265.0000    127.3162    116.2624    -26.5914      7.7937      7.8545
   264.5000    125.7485    118.7621    -23.5960      7.8979      7.9524
