~Version Information
 VERS.                2.00:   CWLS log ASCII Standard -VERSION 2.00
 WRAP.                  NO:   One line per frame
~Well Information Block
#MNEM.UNIT              Data                Description
#--------- -------------------------------  -------------------------------
 STRT.F                          600.0000:   Starting Depth
 STOP.F                           -7.7500:   Ending Depth
 STEP.F                           -0.5000:   Level Spacing
 NULL.                          -999.2500:   Absent Value
 COMP.     FLUOR DANIEL (NPSOR), INC.    :   Company
 WELL.     88-1 X 10                     :   Well
 FLD .                                   :   Field
 LOC .                                   :   Location
 CNTY.                                   :   County
 STAT.                                   :   State
 SRVC.                                   :   Service Company
 LIC .                                   :   License Number
 DATE.                                   :   Log Date
 API .                                   :   API Number
~Curve Information Block
#MNEM.UNIT       API Codes    Curve Description
#---------    -------------   -------------------------------
 DEPT.F        0   0  0  0:   Depth
 CILD.MMHO     0   0  0  0:   Conductivity of Deep Induction
 GR  .API      0   0  0  0:   Gamma ray counts
 TEN .LBF      0   0  0  0:   Differential Tension
 RILM.OHMM     0   0  0  0:   Resistivity from CILM
 RILD.OHMM     0   0  0  0:   Resistivity from CILD
#  Curve Data
~A
   600.0000      0.0000      0.0000   -250.0000      0.2000      0.2000
   599.5000      0.0000      0.0000   -250.0000      0.2000      0.2000
   599.0000      0.0000      0.0000   -250.0000      0.2000      0.2000
   598.5000      0.0000      0.0000   -250.0000      0.2000      0.2000
   598.0000      0.0000      0.0000   -250.0000      0.2000      0.2000
   597.5000      0.0000      0.0000   -250.0000      0.2000      0.2000
   597.0000      0.0000      0.0000   -250.0000      0.2000      0.2000
   596.5000      0.0000      0.0000   -250.0000      0.2000      0.2000
   596.0000      0.0000      0.0000   -250.0000      0.2000      0.2000
   595.5000      0.0000      0.0000   -250.0000      0.2000      0.2000
   595.0000      0.0000      0.0000   -250.0000      0.2000      0.2000
   594.5000      0.0000      0.0000   -250.0000      0.2000      0.2000
   594.0000      0.0000      0.0000   -250.0000      0.2000      0.2000
   593.5000      0.0000      0.0000   -250.0000      0.2000      0.2000
   593.0000      0.0000      0.0000   -250.0000      0.2000      0.2000
   592.5000      0.0000      0.0000   -250.0000      0.2000      0.2000
   592.0000      0.0000      0.0000   -250.0000      0.2000      0.2000
   591.5000      0.0000      0.0000   -250.0000      0.2000      0.2000
   591.0000      0.0000      0.0000   -250.0000      0.2000      0.2000
   590.5000      0.0000      0.0000   -250.0000      0.2000      0.2000
   590.0000      0.0000      0.0000   -247.8399      0.2000      0.2000
   589.5000      0.0000      0.0000   -241.9815      0.2000      0.2000
   589.0000      0.0000      0.0000   -230.5793      0.2000      0.2000
   588.5000      0.0000      0.0000   -220.5333      0.2000      0.2000
   588.0000      0.0000      0.0000   -215.5063      0.2000      0.2000
   587.5000      0.0000      0.0000   -213.7943      0.2000      0.2000
   587.0000      0.0000      0.0000   -210.6427      0.2000      0.2000
   586.5000      0.0000      0.0000   -204.6113      0.2000      0.2000
   586.0000      0.0000      0.0000   -197.9785      0.2000      0.2000
   585.5000      0.0000      0.0000   -191.9661      0.2000      0.2000
   585.0000      0.0000      0.0000   -186.1841      0.2000      0.2000
   584.5000      0.0000      0.0000   -181.5902      0.2000      0.2000
   584.0000      0.0000      0.0000   -179.4138      9.7446      0.2000
   583.5000      0.0000      0.0000   -176.0722      9.7463      0.2000
   583.0000      0.0000      0.0000   -169.4235      9.7409      0.2000
   582.5000      0.0000      0.0000   -163.0963      9.7348      0.2000
   582.0000      0.0000      0.0000   -158.7296      9.7310      0.2000
   581.5000      0.0000      0.0000   -151.3983      9.7303      0.2000
   581.0000      0.0000      0.0000   -119.5191      9.7370      0.2000
   580.5000      0.0000      0.0000    -26.9913      9.7481      0.2000
   580.0000      0.0000      0.0000    115.4586      9.7546      0.2000
   579.5000      0.0000      0.0000    234.4727      9.7517      0.2000
   579.0000      0.0000      0.0000    290.6213      9.7426      0.2000
   578.5000      0.0000      0.0000    307.2283      9.7365      0.2000
   578.0000      0.0000      0.0000    306.7249      9.7302      0.2000
   577.5000      0.0000      0.0000    296.1553      9.7268      0.2000
   577.0000      0.0000      0.0000    289.3442      9.7370      0.2000
   576.5000      0.0000      0.0000    289.3352      9.7523      0.2000
   576.0000      0.0000      0.0000    287.6296      9.7561      0.2000
   575.5000      0.0000      0.0000    283.4448      9.7484      0.2000
   575.0000      0.0000      0.0000    277.7227      9.7430      0.2000
   574.5000      0.0000      0.0000    270.0313      9.7371      0.2000
   574.0000    112.8475      0.0000    263.6887      9.7171      8.8615
   573.5000    112.7018      0.0000    267.3804      9.6738      8.8730
   573.0000    112.6561      0.0000    273.0046      9.6238      8.8766
   572.5000    112.7620      0.0000    270.5862      9.5831      8.8682
   572.0000    113.1405      0.0000    267.1230      9.5226      8.8386
   571.5000    114.0396      0.0000    268.1377      9.3866      8.7689
   571.0000    116.2322      0.0000    268.4451      9.1550      8.6035
   570.5000    120.8158      0.0000    266.1240      8.8392      8.2771
   570.0000    128.1260      0.0000    262.5559      8.4346      7.8048
   569.5000    136.7064      0.0000    258.1230      7.9661      7.3149
   569.0000    143.9066      0.0000    256.3396      7.5252      6.9489
   568.5000    148.2634      0.0000    256.6846      7.1776      6.7448
   568.0000    150.4236      0.0000    255.3268      6.8823      6.6479
   567.5000    151.6428      0.0000    252.1721      6.5761      6.5944
   567.0000    152.6117      0.0000    252.0733      6.3247      6.5526
   566.5000    152.8864    123.0293    254.8704      6.2807      6.5408
   566.0000    150.8245    124.3135    253.6819      6.5146      6.6302
   565.5000    145.6686    126.7136    247.3669      6.9353      6.8649
   565.0000    139.1474    128.1028    243.6904      7.3552      7.1866
   564.5000    133.6326    127.6189    244.7140      7.6460      7.4832
   564.0000    129.8771    125.1877    246.4808      7.8060      7.6996
   563.5000    127.5394    122.9427    247.0640      7.8902      7.8407
   563.0000    126.1075    123.3045    245.3575      7.9469      7.9297
   562.5000    125.0067    124.4504    242.1971      8.0025      7.9996
   562.0000    123.7173    122.3838    242.6613      8.0689      8.0829
   561.5000    122.1589    118.3551    250.9720      8.1579      8.1861
   561.0000    120.3322    118.2662    254.2193      8.2759      8.3103
   560.5000    118.2015    122.6885    244.0905      8.4141      8.4601
   560.0000    115.8739    124.6552    231.7399      8.5602      8.6301
   559.5000    113.6001    122.6878    228.2693      8.7117      8.8028
   559.0000    111.7047    122.2695    227.0020      8.8713      8.9522
   558.5000    110.3239    125.2763    225.2833      9.0325      9.0642
   558.0000    109.2190    127.0156    225.5481      9.1807      9.1559
   557.5000    108.2675    125.1025    226.1147      9.2967      9.2364
   557.0000    107.7469    121.1725    223.0255      9.3711      9.2810
   556.5000    107.6412    119.0398    217.8947      9.4004      9.2901
   556.0000    107.5742    120.7929    215.3464      9.3901      9.2959
   555.5000    107.4054    123.6477    215.8128      9.3670      9.3105
   555.0000    107.1003    123.6497    216.1986      9.3622      9.3370
   554.5000    106.5302    121.7714    215.1628      9.3783      9.3870
   554.0000    105.8057    121.2952    213.7604      9.4129      9.4513
   553.5000    105.1196    123.2066    211.5870      9.4789      9.5130
   553.0000    104.3384    123.7555    208.0890      9.5847      9.5842
   552.5000    103.1796    119.4839    205.3409      9.7251      9.6918
   552.0000    101.6579    114.0786    202.2943      9.8876      9.8369
   551.5000    100.1164    113.1887    197.7940     10.0450      9.9884
   551.0000     98.7975    116.5936    196.4676     10.1748     10.1217
   550.5000     97.5442    120.7318    201.2664     10.2899     10.2518
   550.0000     96.1965    122.1379    206.7241     10.4119     10.3954
   549.5000     94.7425    120.4658    205.3382     10.5395     10.5549
   549.0000     93.1859    118.0816    196.2132     10.6636     10.7312
   548.5000     91.5993    118.3608    193.6518     10.8022     10.9171
   548.0000     90.0574    120.5201    205.3034     10.9825     11.1040
   547.5000     88.4779    119.4418    213.7339     11.2024     11.3023
   547.0000     86.8787    113.9650    206.3730     11.4319     11.5103
   546.5000     85.3938    110.7232    196.0161     11.6432     11.7104
   546.0000     84.1817    112.1609    193.0451     11.8227     11.8791
   545.5000     83.3076    113.2992    192.7511     11.9723     12.0037
   545.0000     82.7735    112.2296    190.5237     12.0880     12.0812
   544.5000     82.4918    112.6518    184.8370     12.1557     12.1224
