~Version Information
 VERS.                2.00:   CWLS log ASCII Standard -VERSION 2.00
 WRAP.                  NO:   One line per frame
~Well Information Block
#MNEM.UNIT              Data                Description
#--------- -------------------------------  -------------------------------
 STRT.F                          600.0000:   Starting Depth
 STOP.F                           -7.7500:   Ending Depth
 STEP.F                           -0.5000:   Level Spacing
 NULL.                          -999.2500:   Absent Value
 COMP.     FLUOR DANIEL (NPSOR), INC.    :   Company
 WELL.     88-1 X 10                     :   Well
 FLD .                                   :   Field
 LOC .                                   :   Location
 CNTY.                                   :   County
 STAT.                                   :   State
 SRVC.                                   :   Service Company
 LIC .                                   :   License Number
 DATE.                                   :   Log Date
 API .                                   :   API Number
~Curve Information Block
#MNEM.UNIT       API Codes    Curve Description
#---------    -------------   -------------------------------
 DEPT.F        0   0  0  0:   Depth
 CILD.MMHO     0   0  0  0:   Conductivity of Deep Induction
 GR  .API      0   0  0  0:   Gamma ray counts
 TEN .LBF      0   0  0  0:   Differential Tension
 RILM.OHMM     0   0  0  0:   Resistivity from CILM
 RILD.OHMM     0   0  0  0:   Resistivity from CILD
#  Curve Data
~A
# ...
   376.0000     39.0663     66.5947     -1.0440     26.1708     25.5975
   375.5000     43.1677     66.9809      3.5264     25.0944     23.1655
   375.0000     48.4046     70.9905      6.0359     23.3539     20.6592
   374.5000     54.4809     80.1353      4.7519     20.9471     18.3551
   374.0000     61.0930     94.0311      2.5025     18.2926     16.3685
   373.5000     68.0322    108.6151      1.7583     15.8073     14.6989
   373.0000     75.2942    119.3146      1.5698     13.7311     13.2812
   372.5000     82.4769    124.3914      1.5768     12.1770     12.1246
   372.0000     88.8142    125.3932      2.0258     11.1407     11.2595
   371.5000     93.6571    124.8719      2.4519     10.5331     10.6772
   371.0000     96.7014    123.0529      2.1097     10.2572     10.3411
   370.5000     98.1707    121.0799      0.2894     10.2321     10.1863
   370.0000     98.4959    120.8566     -2.1011     10.3512     10.1527
   369.5000     98.4080    122.1751     -2.3982     10.4696     10.1618
   369.0000     99.4318    123.1899     -0.1909     10.4513     10.0571
   368.5000    103.7914    123.5750      2.0243     10.2214      9.6347
   368.0000    112.9227    122.0840      0.0759      9.7469      8.8556
   367.5000    126.4932    120.2457     -5.2292      9.0376      7.9056
   367.0000    141.5244    122.4178     -7.5231      8.2262      7.0659
   366.5000    153.1808    129.2133     -6.1186      7.5101      6.5282
   366.0000    158.8737    138.3391     -7.2291      6.9619      6.2943
   365.5000    160.3992    145.6166    -10.8052      6.4875      6.2344
   365.0000    160.7768    146.3609    -12.7319      6.0383      6.2198
   364.5000    160.6823    140.1434    -11.2386      5.7656      6.2235
   364.0000    158.1065    132.8581     -6.8613      5.8816      6.3248
   363.5000    150.7278    129.4298     -4.8568      6.4853      6.6345
   363.0000    138.9983    129.0491     -6.6459      7.4701      7.1943
   362.5000    126.7703    127.0718     -7.0632      8.4837      7.8883
   362.0000    117.8854    123.8672     -5.6245      9.1510      8.4828
   361.5000    113.5062    125.4443     -5.3527      9.3767      8.8101
   361.0000    112.6951    132.5003     -3.9912      9.2961      8.8735
   360.5000    113.7822    138.0832     -0.0933      9.0812      8.7887
   360.0000    115.3780    139.1176      3.1866      8.8394      8.6672
   359.5000    116.8621    138.2766      2.1445      8.6235      8.5571
   359.0000    118.1692    137.0954     -4.0135      8.4683      8.4624
   358.5000    119.0581    134.0186    -10.7750      8.3962      8.3993
   358.0000    119.3091    129.6209    -15.3028      8.4024      8.3816
   357.5000    119.1582    124.9823    -14.1221      8.4529      8.3922
   357.0000    118.9681    122.9567     -9.2781      8.5003      8.4056
   356.5000    118.9666    126.8749     -5.8218      8.5134      8.4057
   356.0000    119.4155    133.3392     -4.8873      8.4926      8.3741
   355.5000    120.1765    135.8694     -2.6559      8.4560      8.3211
   355.0000    120.6902    133.6556     -3.3910      8.4176      8.2857
   354.5000    120.7539    131.4560     -6.9592      8.3824      8.2813
   354.0000    120.9124    131.8210     -7.0839      8.3611      8.2705
   353.5000    121.5364    134.8968     -5.5775      8.3562      8.2280
   353.0000    122.4959    137.7468     -7.2947      8.3374      8.1635
   352.5000    123.7676    137.3402     -9.1354      8.2724      8.0797
   352.0000    125.7320    133.8834     -7.2688      8.1704      7.9534
   351.5000    128.7500    131.3962     -2.8469      8.0504      7.7670
   351.0000    132.6620    132.4330      0.1665      7.8992      7.5380
   350.5000    137.1713    136.2112     -2.5516      7.6946      7.2902
   350.0000    142.4138    142.4907     -9.7228      7.4380      7.0218
   349.5000    149.0707    148.7009    -13.5005      7.1432      6.7082
   349.0000    158.0595    150.1692    -11.2664      6.7930      6.3267
   348.5000    170.0250    144.4595     -9.8680      6.3703      5.8815
   348.0000    182.9475    138.1811    -13.3563      5.9465      5.4660
   347.5000    192.2617    138.7956    -17.4738      5.6446      5.2012
   347.0000    194.9608    143.9264    -17.5366      5.4836      5.1292
   346.5000    192.7894    145.9629    -11.4442      5.3452      5.1870
   346.0000    189.6432    143.6109     -4.4728      5.1521      5.2731
   345.5000    187.4155    139.7583     -3.6146      5.0201      5.3357
   345.0000    184.4507    137.4997     -6.8195      5.1292      5.4215
   344.5000    177.7208    139.4433     -8.6419      5.5421      5.6268
   344.0000    166.8211    143.6478     -9.1604      6.1539      5.9944
   343.5000    155.1391    144.8895     -8.9941      6.7478      6.4458
   343.0000    146.0998    143.1370    -10.7235      7.1522      6.8446
   342.5000    141.0914    143.3721    -14.9767      7.3203      7.0876
   342.0000    140.6690    145.6668    -16.6292      7.2969      7.1089
   341.5000    144.5089    144.4158    -13.4349      7.1625      6.9200
   341.0000    151.5025    140.7202    -10.6021      6.9608      6.6005
   340.5000    160.5264    139.1416     -9.3321      6.6963      6.2295
   340.0000    169.9347    139.1218     -8.2652      6.3974      5.8846
   339.5000    177.0491    138.0398     -7.9465      6.1265      5.6482
   339.0000    180.6606    139.2775     -9.1540      5.9068      5.5352
   338.5000    181.8225    143.6282    -10.7561      5.6926      5.4999
   338.0000    182.3818    145.8463    -11.7364      5.4693      5.4830
   337.5000    183.2490    145.4247    -13.5755      5.3378      5.4571
   337.0000    183.2053    147.8917    -15.1896      5.4236      5.4584
   336.5000    180.1112    153.3921    -14.1746      5.7359      5.5521
   336.0000    173.7274    156.3630    -11.0392      6.1393      5.7561
   335.5000    165.7486    156.6371    -10.7183      6.4698      6.0332
   335.0000    158.0966    158.8941    -13.8357      6.6658      6.3252
   334.5000    152.2961    161.5465    -15.2582      6.7440      6.5662
   334.0000    148.8017    159.2746    -15.5489      6.7450      6.7204
   333.5000    146.6075    152.8784    -17.6290      6.7595      6.8209
   333.0000    144.2096    147.7316    -19.4352      6.8962      6.9344
   332.5000    140.5888    147.3745    -20.1010      7.1770      7.1129
   332.0000    135.8192    149.8021    -20.3847      7.5028      7.3627
   331.5000    131.1470    148.6845    -19.2135      7.7598      7.6250
   331.0000    127.8894    144.2523    -15.7279      7.9163      7.8193
   330.5000    126.1523    142.3260    -10.8214      7.9950      7.9269
   330.0000    125.4670    143.5874     -6.1037      8.0353      7.9702
   329.5000    125.4182    145.4761     -5.2045      8.0740      7.9733
   329.0000    125.5855    147.0095     -8.6647      8.1186      7.9627
   328.5000    125.5359    148.2606    -12.4849      8.1550      7.9658
   328.0000    125.2146    148.2672    -13.5707      8.1744      7.9863
   327.5000    124.8029    146.2948    -13.6731      8.1856      8.0126
   327.0000    124.3718    143.0473    -12.5437      8.2033      8.0404
   326.5000    123.7767    142.4178    -11.0517      8.2395      8.0791
   326.0000    122.8502    144.5925    -12.0021      8.2908      8.1400
   325.5000    121.6830    147.4788    -15.7871      8.3460      8.2181
   325.0000    120.4279    147.1621    -18.8624      8.3990      8.3037
   324.5000    119.2210    144.1180    -19.6759      8.4509      8.3878
   324.0000    118.3095    141.6448    -17.8279      8.5014      8.4524
   323.5000    118.0530    141.6031    -12.7087      8.5468      8.4708
   323.0000    118.4697    142.0430     -8.5138      8.5701      8.4410
   322.5000    119.3530    142.5179     -9.3357      8.5445      8.3785
   322.0000    120.4287    144.0085    -13.3258      8.4657      8.3037
   321.5000    121.4553    144.3458    -16.1315      8.3644      8.2335
   321.0000    122.3205    141.8300    -17.1895      8.2645      8.1752
   320.5000    123.4038    139.7055    -17.9041      8.1459      8.1035
