~Version Information
 VERS.                2.00:   CWLS log ASCII Standard -VERSION 2.00
 WRAP.                  NO:   One line per frame
~Well Information Block
#MNEM.UNIT              Data                Description
#--------- -------------------------------  -------------------------------
 STRT.F                          600.0000:   Starting Depth
 STOP.F                           -7.7500:   Ending Depth
 STEP.F                           -0.5000:   Level Spacing
 NULL.                          -999.2500:   Absent Value
 COMP.     FLUOR DANIEL (NPSOR), INC.    :   Company
 WELL.     88-1 X 10                     :   Well
 FLD .                                   :   Field
 LOC .                                   :   Location
 CNTY.                                   :   County
 STAT.                                   :   State
 SRVC.                                   :   Service Company
 LIC .                                   :   License Number
 DATE.                                   :   Log Date
 API .                                   :   API Number
~Curve Information Block
#MNEM.UNIT       API Codes    Curve Description
#---------    -------------   -------------------------------
 DEPT.F        0   0  0  0:   Depth
 CILD.MMHO     0   0  0  0:   Conductivity of Deep Induction
 GR  .API      0   0  0  0:   Gamma ray counts
 TEN .LBF      0   0  0  0:   Differential Tension
 RILM.OHMM     0   0  0  0:   Resistivity from CILM
 RILD.OHMM     0   0  0  0:   Resistivity from CILD
#  Curve Data
~A
# ...
   152.0000    118.2837    136.4881    -34.1091      8.4343      8.4542
   151.5000    117.7202    132.0681    -25.6941      8.4895      8.4947
   151.0000    117.1249    127.3583    -23.4307      8.5413      8.5379
   150.5000    116.5361    127.4138    -23.6890      8.5774      8.5810
   150.0000    116.0646    128.2274    -20.2313      8.5965      8.6159
   149.5000    115.8815    126.7648    -15.3976      8.6068      8.6295
   149.0000    115.9101    128.4794    -15.0078      8.6135      8.6274
   148.5000    115.9271    135.6320    -23.0296      8.6119      8.6261
   148.0000    115.8931    138.9760    -31.0386      8.5994      8.6286
   147.5000    115.7814    134.0181    -29.3895      8.5860      8.6370
   147.0000    115.5116    126.9247    -22.2827      8.5857      8.6571
   146.5000    115.0901    124.9423    -19.2461      8.6001      8.6888
   146.0000    114.4895    128.1840    -23.5847      8.6351      8.7344
   145.5000    113.6394    132.3601    -27.9584      8.7024      8.7998
   145.0000    112.9065    132.5639    -26.4237      8.7808      8.8569
   144.5000    112.7964    129.8195    -21.5943      8.8296      8.8655
   144.0000    113.2820    127.3202    -20.7394      8.8337      8.8275
   143.5000    114.0014    126.4019    -22.4349      8.8079      8.7718
   143.0000    114.9462    128.5674    -21.7965      8.7632      8.6997
   142.5000    116.2363    133.1026    -20.8382      8.6940      8.6032
   142.0000    117.6654    134.9361    -23.5863      8.5889      8.4987
   141.5000    118.9775    132.8066    -24.4546      8.4601      8.4049
   141.0000    120.0740    130.6540    -22.4632      8.3428      8.3282
   140.5000    120.9181    128.8403    -25.3415      8.2564      8.2701
   140.0000    121.3081    124.6906    -30.3322      8.2032      8.2435
   139.5000    121.1653    120.4531    -31.5779      8.1855      8.2532
   139.0000    120.6527    120.5031    -29.5484      8.2029      8.2883
   138.5000    119.9168    123.9005    -24.8029      8.2537      8.3391
   138.0000    118.9222    127.1432    -18.4278      8.3440      8.4089
   137.5000    117.6982    131.1880    -16.5850      8.4672      8.4963
   137.0000    116.4971    135.5176    -20.1730      8.5923      8.5839
   136.5000    115.6084    136.7659    -23.1294      8.6847      8.6499
   136.0000    115.2605    133.6124    -25.0268      8.7256      8.6760
   135.5000    115.7349    128.4826    -30.3255      8.7052      8.6404
   135.0000    117.2670    124.7936    -34.8420      8.6200      8.5275
   134.5000    119.6648    125.9152    -33.2102      8.4902      8.3567
   134.0000    122.3444    130.8911    -29.4755      8.3483      8.1736
   133.5000    124.9752    134.8741    -25.9951      8.1967      8.0016
   133.0000    127.5859    136.6306    -23.1562      8.0116      7.8379
   132.5000    130.1094    138.2627    -25.2421      7.7964      7.6858
   132.0000    132.1460    140.6466    -31.0923      7.5948      7.5674
   131.5000    133.3006    142.5842    -38.0137      7.4625      7.5018
   131.0000    133.3312    144.2037    -44.5629      7.4302      7.5001
   130.5000    132.0006    144.8360    -44.4165      7.4907      7.5757
   130.0000    129.3684    142.9804    -37.1093      7.6226      7.7299
   129.5000    126.0815    140.3793    -30.9154      7.8123      7.9314
   129.0000    122.7773    140.2078    -27.1121      8.0449      8.1448
   128.5000    119.7235    139.6785    -26.5130      8.2961      8.3526
   128.0000    116.9936    137.5529    -29.4017      8.5411      8.5475
   127.5000    114.5685    136.3045    -28.0091      8.7497      8.7284
   127.0000    112.4671    136.9646    -23.5939      8.8949      8.8915
   126.5000    110.8171    140.8733    -26.7738      8.9784      9.0239
   126.0000    109.5790    145.2258    -32.0836      9.0246      9.1258
   125.5000    108.5640    144.3097    -28.8841      9.0624      9.2112
   125.0000    107.6932    139.0918    -24.9426      9.1189      9.2856
   124.5000    106.9460    135.3153    -31.0261      9.2000      9.3505
   124.0000    106.4536    132.0896    -36.4954      9.2779      9.3938
   123.5000    106.2908    129.2070    -30.3283      9.3339      9.4081
   123.0000    106.2657    130.7787    -21.1841      9.3797      9.4104
   122.5000    106.1473    134.9281    -18.4135      9.4119      9.4209
   122.0000    106.0287    134.7482    -21.1886      9.4030      9.4314
   121.5000    106.0318    130.6846    -24.6266      9.3503      9.4311
   121.0000    106.2230    127.7409    -26.9553      9.2952      9.4142
   120.5000    106.4495    126.7603    -27.3613      9.2802      9.3941
   120.0000    106.3365    128.5759    -24.9255      9.3187      9.4041
   119.5000    105.7503    133.5930    -22.1531      9.3880      9.4562
   119.0000    104.9872    135.5619    -24.4961      9.4569      9.5250
   118.5000    104.2898    132.0766    -29.3199      9.5128      9.5887
   118.0000    103.7182    129.5172    -29.7546      9.5613      9.6415
   117.5000    103.3272    130.7338    -29.7225      9.6066      9.6780
   117.0000    102.9934    132.6058    -31.9628      9.6487      9.7094
   116.5000    102.5551    132.0009    -30.1886      9.6873      9.7509
   116.0000    102.1054    129.7010    -26.2690      9.7244      9.7938
   115.5000    101.7392    128.1740    -26.4313      9.7648      9.8291
   115.0000    101.3916    128.6268    -30.2078      9.8080      9.8628
   114.5000    100.8409    128.9609    -30.2987      9.8506      9.9166
   114.0000     99.9908    127.9839    -23.5439      9.8964     10.0009
   113.5000     99.0026    127.6510    -18.7151      9.9573     10.1007
   113.0000     97.8927    128.1303    -21.8331     10.0378     10.2153
   112.5000     96.6368    126.5025    -24.8127     10.1330     10.3480
   112.0000     95.3678    122.9660    -23.6262     10.2450     10.4857
   111.5000     94.2959    123.5051    -21.6117     10.3714     10.6049
   111.0000     93.4490    127.1638    -20.7415     10.4944     10.7010
   110.5000     92.7936    127.4224    -22.2601     10.6047     10.7766
   110.0000     92.4348    124.3336    -27.9944     10.6939     10.8184
   109.5000     92.5005    123.6953    -30.6494     10.7333     10.8108
   109.0000     93.0306    127.0040    -27.8855     10.6961     10.7491
   108.5000     94.0349    131.0724    -25.9079     10.5927     10.6343
   108.0000     95.3498    132.0170    -27.8846     10.4507     10.4877
   107.5000     96.6529    129.2614    -28.9890     10.2915     10.3463
   107.0000     97.8947    126.3846    -28.6868     10.1252     10.2151
   106.5000     99.3279    125.1874    -29.7274      9.9560     10.0677
   106.0000    101.0504    126.9637    -27.7108      9.8026      9.8960
   105.5000    102.9209    131.7327    -23.0836      9.6826      9.7162
   105.0000    104.8797    135.6321    -25.3519      9.5770      9.5347
   104.5000    107.0047    133.9969    -32.8162      9.4488      9.3454
   104.0000    109.2106    129.3647    -34.7227      9.2892      9.1566
   103.5000    111.3252    128.8650    -28.9601      9.1138      8.9827
   103.0000    113.2640    133.1879    -26.5225      8.9341      8.8289
   102.5000    114.9109    136.1317    -31.1313      8.7597      8.7024
   102.0000    116.2411    136.0202    -33.4588      8.6154      8.6028
   101.5000    117.2970    136.1087    -27.9401      8.5240      8.5254
   101.0000    118.0501    135.2126    -23.4621      8.4798      8.4710
   100.5000    118.5252    131.8218    -22.3291      8.4574      8.4370
   100.0000    119.0723    129.0018    -21.5354      8.4379      8.3983
    99.5000    119.9803    129.0413    -22.6389      8.4156      8.3347
    99.0000    121.1789    132.3443    -21.8871      8.3889      8.2523
    98.5000    122.4203    136.2675    -17.2929      8.3457      8.1686
    98.0000    123.6628    136.7374    -17.4082      8.2634      8.0865
    97.5000    125.0270    133.5652    -25.7944      8.1326      7.9983
    97.0000    126.5393    129.4037    -34.0139      7.9732      7.9027
    96.5000    128.1914    127.1055    -35.0055      7.8226      7.8008
