~Version Information
 VERS.                2.00:   CWLS log ASCII Standard -VERSION 2.00
 WRAP.                  NO:   One line per frame
~Well Information Block
#MNEM.UNIT              Data                Description
#--------- -------------------------------  -------------------------------
 STRT.F                          600.0000:   Starting Depth
 STOP.F                           -7.7500:   Ending Depth
 STEP.F                           -0.5000:   Level Spacing
 NULL.                          -999.2500:   Absent Value
 COMP.     FLUOR DANIEL (NPSOR), INC.    :   Company
 WELL.     88-1 X 10                     :   Well
 FLD .                                   :   Field
 LOC .                                   :   Location
 CNTY.                                   :   County
 STAT.                                   :   State
 SRVC.                                   :   Service Company
 LIC .                                   :   License Number
 DATE.                                   :   Log Date
 API .                                   :   API Number
~Curve Information Block
#MNEM.UNIT       API Codes    Curve Description
#---------    -------------   -------------------------------
 DEPT.F        0   0  0  0:   Depth
 CILD.MMHO     0   0  0  0:   Conductivity of Deep Induction
 GR  .API      0   0  0  0:   Gamma ray counts
 TEN .LBF      0   0  0  0:   Differential Tension
 RILM.OHMM     0   0  0  0:   Resistivity from CILM
 RILD.OHMM     0   0  0  0:   Resistivity from CILD
#  Curve Data
~A
# ...
    96.0000    129.9917    126.7896    -28.5944      7.7120      7.6928
    95.5000    131.6656    127.2896    -24.3216      7.6524      7.5950
    95.0000    132.7767    130.5848    -26.4100      7.6244      7.5314
    94.5000    133.3813    135.6250    -24.6068      7.6010      7.4973
    94.0000    133.9966    135.2129    -18.8963      7.5609      7.4629
    93.5000    134.9659    129.6342    -17.7309      7.4936      7.4093
    93.0000    136.1352    127.7327    -20.0760      7.4101      7.3456
    92.5000    137.2820    130.7120    -20.6674      7.3373      7.2843
    92.0000    138.3951    132.7460    -20.4130      7.2851      7.2257
    91.5000    139.3687    131.9959    -21.7203      7.2427      7.1752
    91.0000    139.9056    130.0274    -26.1095      7.2059      7.1477
    90.5000    140.0446    128.1590    -29.6365      7.1813      7.1406
    90.0000    140.1040    126.6544    -30.1334      7.1722      7.1376
    89.5000    140.3558    125.3315    -26.9937      7.1724      7.1248
    89.0000    140.7940    124.8507    -20.2349      7.1760      7.1026
    88.5000    141.1672    125.6963    -17.3277      7.1799      7.0838
    88.0000    141.2795    125.8786    -21.3399      7.1797      7.0782
    87.5000    141.2130    124.3285    -22.9204      7.1683      7.0815
    87.0000    141.0710    121.9987    -19.8866      7.1446      7.0886
    86.5000    140.7645    121.4334    -18.8542      7.1202      7.1041
    86.0000    140.0654    124.7278    -24.0700      7.1211      7.1395
    85.5000    138.6416    127.5509    -31.8277      7.1694      7.2128
    85.0000    136.5422    125.5363    -31.7596      7.2575      7.3237
    84.5000    134.3213    123.3384    -22.9226      7.3546      7.4448
    84.0000    132.5653    123.9841    -20.3508      7.4424      7.5435
    83.5000    131.5354    125.1799    -25.5270      7.5250      7.6025
    83.0000    131.3412    126.4979    -28.8536      7.5985      7.6138
    82.5000    131.7197    127.9688    -31.7587      7.6385      7.5919
    82.0000    132.3500    128.0970    -35.3410      7.6217      7.5557
    81.5000    133.2675    126.5747    -32.0082      7.5457      7.5037
    81.0000    134.7609    126.9353    -23.5338      7.4239      7.4205
    80.5000    136.8225    130.5503    -19.0180      7.2783      7.3087
    80.0000    139.1904    130.8790    -19.9232      7.1373      7.1844
    79.5000    141.7453    125.0362    -24.2240      7.0224      7.0549
    79.0000    144.4883    121.1349    -30.5955      6.9361      6.9210
    78.5000    147.2440    122.3296    -35.1107      6.8629      6.7914
    78.0000    149.7389    122.6200    -34.4912      6.7817      6.6783
    77.5000    152.1722    121.6014    -30.8959      6.6792      6.5715
    77.0000    154.9165    121.1227    -30.0080      6.5576      6.4551
    76.5000    157.7681    121.0624    -32.0744      6.4366      6.3384
    76.0000    159.9012    123.1659    -35.4157      6.3405      6.2539
    75.5000    160.7992    126.7026    -36.7556      6.2805      6.2189
    75.0000    160.4425    128.0984    -33.8830      6.2590      6.2328
    74.5000    159.0650    127.1797    -33.4884      6.2814      6.2867
    74.0000    156.7975    127.2385    -38.2177      6.3522      6.3777
    73.5000    153.7074    127.9099    -39.6704      6.4671      6.5059
    73.0000    150.1518    128.0997    -37.6169      6.6144      6.6599
    72.5000    146.7751    128.1747    -38.2296      6.7787      6.8131
    72.0000    144.0865    127.8696    -35.7985      6.9420      6.9403
    71.5000    142.1908    126.5043    -30.0455      7.0877      7.0328
    71.0000    141.1413    122.2216    -32.5432      7.1979      7.0851
    70.5000    141.1548    118.3043    -40.9944      7.2470      7.0844
    70.0000    142.4857    119.1495    -41.1768      7.2057      7.0182
    69.5000    145.2251    123.7941    -33.9450      7.0747      6.8859
    69.0000    149.2140    124.5862    -29.5270      6.8941      6.7018
    68.5000    153.8815    121.4829    -30.9419      6.7052      6.4985
    68.0000    158.4145    119.9715    -32.9507      6.5214      6.3126
    67.5000    162.4723    120.6856    -31.1268      6.3451      6.1549
    67.0000    166.9728    120.4607    -27.6809      6.1810      5.9890
    66.5000    173.7157    121.6144    -32.5395      6.0330      5.7565
    66.0000    178.3293    126.1220    -36.8537      5.9077      5.6076
    65.5000    174.9377    129.6672    -31.6471      5.8240      5.7163
    65.0000    166.6886    129.0062    -25.2665      5.7917      5.9992
    64.5000    159.2895    125.0736    -27.6775      5.7932      6.2779
    64.0000    155.8922    121.9179    -34.1710      5.8045      6.4147
    63.5000    168.8043    121.0459    -34.3482      5.8830      5.9240
    63.0000    197.5814    121.2089    -26.9434      6.2944      5.0612
    62.5000    216.6347    120.4294    -20.2364      6.7463      4.6161
    62.0000    213.8160    118.9659    -20.7787      6.3428      4.6769
    61.5000    203.7962    118.1758    -21.8017      5.7491      4.9069
    61.0000    197.9808    119.9006    -21.9051      5.9379      5.0510
    60.5000    192.6755    123.0614    -23.0305      6.8786      5.1901
    60.0000    162.7608    124.5210    -21.7413      7.6008      6.1440
    59.5000    117.5323    123.9252    -20.9062      6.6559      8.5083
    59.0000    141.1629    123.5659    -27.0474      5.0258      7.0840
    58.5000    255.9899    124.5511    -32.3425      4.0767      3.9064
    58.0000    393.1702    124.9179    -32.7323      3.5402      2.5434
    57.5000    526.5059    122.7239    -32.7784      2.6991      1.8993
    57.0000    536.9888    120.5924    -35.9592      2.3001      1.8622
    56.5000    245.5298    121.3486    -38.1613      3.3251      4.0728
    56.0000    -85.4590    118.6996    -36.9776     61.6956  10000.0000
    55.5000   -195.7504    106.7189    -30.5811  10000.0000  10000.0000
    55.0000   -135.5185     91.0095    -26.3242  10000.0000  10000.0000
    54.5000    -69.7335     82.3824    -29.8933  10000.0000  10000.0000
    54.0000    -45.1407     81.7728    -32.4581  10000.0000  10000.0000
    53.5000    -32.9038     83.9613    -29.3596  10000.0000  10000.0000
    53.0000     25.6276     85.0359    -28.7514  10000.0000     39.0204
    52.5000    126.5055     84.9467    -30.5366  10000.0000      7.9048
    52.0000    182.8292     83.8211    -30.0340  10000.0000      5.4696
    51.5000    176.7763     82.8729    -27.3866  10000.0000      5.6569
    51.0000    156.7320     82.7385    -23.9288  10000.0000      6.3803
    50.5000    146.6110     82.4922    -25.2872  10000.0000      6.8208
    50.0000    161.3626     82.0771    -34.1472  10000.0000      6.1972
    49.5000    191.2387     80.9664    -38.2235  10000.0000      5.2291
    49.0000    204.0930     78.7168    -35.2748  10000.0000      4.8997
    48.5000    197.0091     78.8766    -35.0427  10000.0000      5.0759
    48.0000    193.3849     82.3337    -33.1364  10000.0000      5.1710
    47.5000    199.1661     83.4087    -25.2598  10000.0000      5.0209
    47.0000    200.0288     79.9547    -20.7376  10000.0000      4.9993
    46.5000    187.0027     78.5448    -22.9726  10000.0000      5.3475
    46.0000    169.4046     79.5016    -24.9740  10000.0000      5.9030
    45.5000    163.4575     77.8362    -25.5770  10000.0000      6.1178
    45.0000    170.4482     74.2446    -28.0359  10000.0000      5.8669
    44.5000    173.2585     72.1171    -32.5868  10000.0000      5.7717
    44.0000    166.3799     70.8051    -35.0982  10000.0000      6.0103
    43.5000    163.3836     70.5488    -31.6117  10000.0000      6.1206
    43.0000    171.6175     73.0266    -28.1186  10000.0000      5.8269
    42.5000    180.0975     75.2231    -31.1463  10000.0000      5.5525
    42.0000    172.6309     76.0807    -31.4290  10000.0000      5.7927
    41.5000    151.1343     77.6515    -26.1513  10000.0000      6.6166
    41.0000    139.7331     79.0148    -25.8820  10000.0000      7.1565
    40.5000    154.7123     77.7588    -29.0515  10000.0000      6.4636
