~Version Information
 VERS.                2.00:   CWLS log ASCII Standard -VERSION 2.00
 WRAP.                  NO:   One line per frame
~Well Information Block
#MNEM.UNIT              Data                Description
#--------- -------------------------------  -------------------------------
 STRT.F                          600.0000:   Starting Depth
 STOP.F                           -7.7500:   Ending Depth
 STEP.F                           -0.5000:   Level Spacing
 NULL.                          -999.2500:   Absent Value
 COMP.     FLUOR DANIEL (NPSOR), INC.    :   Company
 WELL.     88-1 X 10                     :   Well
 FLD .                                   :   Field
 LOC .                                   :   Location
 CNTY.                                   :   County
 STAT.                                   :   State
 SRVC.                                   :   Service Company
 LIC .                                   :   License Number
 DATE.                                   :   Log Date
 API .                                   :   API Number
~Curve Information Block
#MNEM.UNIT       API Codes    Curve Description
#---------    -------------   -------------------------------
 DEPT.F        0   0  0  0:   Depth
 CILD.MMHO     0   0  0  0:   Conductivity of Deep Induction
 GR  .API      0   0  0  0:   Gamma ray counts
 TEN .LBF      0   0  0  0:   Differential Tension
 RILM.OHMM     0   0  0  0:   Resistivity from CILM
 RILD.OHMM     0   0  0  0:   Resistivity from CILD
#  Curve Data
~A
# ...
   488.0000     69.3279     92.0692     90.9751     14.1496     14.4242
   487.5000     69.0107     93.0735     89.3012     14.0683     14.4905
   487.0000     68.6527     93.1470     87.7680     14.0954     14.5661
   486.5000     68.1177     94.3838     86.9622     14.2059     14.6805
   486.0000     67.4371     95.3732     86.0018     14.3379     14.8286
   485.5000     66.7099     93.6955     85.1209     14.4739     14.9903
   485.0000     66.0055     91.5519     84.3663     14.6311     15.1503
   484.5000     65.2301     92.1995     80.5782     14.8030     15.3303
   484.0000     64.3582     94.4314     74.9928     14.9505     15.5380
   483.5000     63.6372     96.4724     73.3360     15.0446     15.7141
   483.0000     63.2460     97.0986     76.0151     15.1037     15.8113
   482.5000     62.9613     97.0919     78.6134     15.1753     15.8828
   482.0000     62.6082     97.2223     79.4625     15.2928     15.9724
   481.5000     62.1699     96.6784     78.9529     15.4391     16.0849
   481.0000     61.6516     95.3694     77.4148     15.5563     16.2202
   480.5000     61.1313     93.8757     74.6622     15.6055     16.3582
   480.0000     60.8363     93.6259     73.3531     15.5973     16.4376
   479.5000     60.8850     95.7467     73.3906     15.5775     16.4244
   479.0000     61.2191     98.4057     72.2874     15.5734     16.3348
   478.5000     61.7041     98.6508     71.9635     15.5674     16.2064
   478.0000     62.2521     96.8645     73.9015     15.5224     16.0637
   477.5000     62.7536     96.0490     72.9450     15.4381     15.9354
   477.0000     63.0067     97.8368     68.1355     15.3429     15.8713
   476.5000     62.8034    100.0961     66.4177     15.2668     15.9227
   476.0000     62.2102    101.3416     67.8009     15.2278     16.0745
   475.5000     61.3214    102.9429     64.6637     15.2503     16.3075
   475.0000     60.0335    103.9931     57.5078     15.3982     16.6574
   474.5000     58.2945    101.0339     57.3808     15.7474     17.1543
   474.0000     56.3078     95.4559     65.5704     16.3272     17.7595
   473.5000     54.1187     92.1397     71.9324     17.1063     18.4779
   473.0000     51.6982     91.7021     69.9545     17.9725     19.3430
   472.5000     49.1795     90.6181     64.5615     18.7988     20.3337
   472.0000     46.6167     88.2274     62.0327     19.6086     21.4516
   471.5000     44.0572     86.9986     62.9712     20.5090     22.6978
   471.0000     41.8953     85.6316     62.9154     21.4444     23.8690
   470.5000     40.5251     82.7745     61.5359     22.2301     24.6761
   470.0000     39.8618     80.3991     62.1163     22.8577     25.0867
   469.5000     39.5866     82.1465     60.6300     23.4999     25.2611
   469.0000     39.3827     87.0666     51.9083     24.1467     25.3919
   468.5000     39.1982     91.9713     44.2762     24.4073     25.5114
   468.0000     39.3285     94.7406     47.6861     23.9280     25.4269
   467.5000     40.0320     94.5233     55.9120     22.9155     24.9800
   467.0000     41.1457     92.1621     58.9406     21.8950     24.3039
   466.5000     42.1558     90.9635     56.1377     21.2192     23.7215
   466.0000     42.8352     93.3037     50.9853     20.9501     23.3453
   465.5000     43.2379     94.1126     46.3399     20.9174     23.1279
   465.0000     43.5265     90.2646     45.3968     20.9033     22.9745
   464.5000     43.7930     86.2989     48.8412     20.8707     22.8347
   464.0000     43.9877     87.0592     53.8218     20.9160     22.7336
   463.5000     43.9364     90.2017     54.8851     21.0286     22.7602
   463.0000     43.5732     91.3337     53.1612     21.0748     22.9499
   462.5000     42.9984     89.4095     53.6626     21.0622     23.2567
   462.0000     42.3616     87.3008     56.8261     21.1660     23.6063
   461.5000     41.6299     86.9469     58.3337     21.4884     24.0212
   461.0000     40.6070     87.2487     56.1624     21.9736     24.6263
   460.5000     39.3921     86.4398     51.7161     22.5450     25.3858
   460.0000     38.3221     84.2918     51.4944     23.2110     26.0946
   459.5000     37.5275     81.6855     56.1831     24.0062     26.6471
   459.0000     36.8653     80.1153     58.0302     24.8634     27.1258
   458.5000     36.2573     80.9778     54.3171     25.5582     27.5807
   458.0000     35.5897     83.4065     50.3692     25.9362     28.0980
   457.5000     34.7283     85.2516     48.8949     26.0972     28.7950
   457.0000     33.7255     84.8063     48.0210     26.2297     29.6511
   456.5000     32.8741     82.7341     46.2572     26.3759     30.4191
   456.0000     32.3047     80.8689     46.8703     26.5323     30.9553
   455.5000     31.7561     80.7310     51.5361     26.9281     31.4900
   455.0000     30.9061     82.2137     54.2012     27.8221     32.3561
   454.5000     29.8348     83.7770     51.9012     29.0885     33.5179
   454.0000     28.9645     84.0939     48.1467     30.1672     34.5250
   453.5000     28.5172     84.1724     45.7503     30.6137     35.0666
   453.0000     28.3766     84.4134     45.7805     30.5611     35.2402
   452.5000     28.3367     83.3812     46.7690     30.4129     35.2900
   452.0000     28.5058     81.4323     46.1746     30.2783     35.0806
   451.5000     29.4354     81.3047     44.9488     29.8732     33.9727
   451.0000     31.8015     83.0221     44.4425     28.8444     31.4450
   450.5000     35.7501     84.2933     44.5123     27.0545     27.9720
   450.0000     40.8477     86.0823     45.0220     24.7938     24.4812
   449.5000     46.6868     89.8008     44.6343     22.4314     21.4194
   449.0000     52.6839     96.3047     43.3436     20.0381     18.9811
   448.5000     58.8011    103.0736     43.3820     17.6259     17.0065
   448.0000     65.0569    106.1130     45.1168     15.4551     15.3712
   447.5000     71.0846    105.0189     46.9197     13.7978     14.0678
   447.0000     76.1940    104.6608     47.4836     12.7166     13.1244
   446.5000     79.9291    106.1184     46.1428     12.1187     12.5111
   446.0000     82.2621    106.4562     44.6468     11.8558     12.1563
   445.5000     83.3209    105.3448     43.7879     11.7796     12.0018
   445.0000     83.3503    104.2758     42.4307     11.7944     11.9976
   444.5000     82.7159    102.3292     40.7080     11.8727     12.0896
   444.0000     81.6454     99.8643     41.1488     12.0107     12.2481
   443.5000     80.1922     98.7419     44.5943     12.1946     12.4700
   443.0000     78.5301     98.4961     45.8305     12.4070     12.7340
   442.5000     76.8734     98.6682     40.6101     12.6357     13.0084
   442.0000     75.3137     99.2591     33.6845     12.8767     13.2778
   441.5000     73.8392     99.7650     31.1936     13.1326     13.5429
   441.0000     72.4917     98.7629     33.1590     13.3794     13.7947
   440.5000     71.4574     95.6569     38.4382     13.5624     13.9944
   440.0000     70.9337     92.7577     44.2003     13.6395     14.0977
   439.5000     70.9199     94.7769     44.6712     13.6247     14.1004
   439.0000     71.2752     99.5271     38.8420     13.5686     14.0301
   438.5000     71.8666    101.6245     32.5597     13.4883     13.9147
   438.0000     72.6059    101.5320     30.7361     13.3623     13.7730
   437.5000     73.4560    102.0803     30.9206     13.1994     13.6136
   437.0000     74.2772    102.3572     29.6173     13.0442     13.4631
   436.5000     74.8845    102.4325     28.3147     12.9183     13.3539
   436.0000     75.2128    102.1599     29.8863     12.8274     13.2956
   435.5000     75.4045    100.5318     32.4843     12.7860     13.2618
   435.0000     75.5066     99.4023     33.1691     12.8003     13.2439
   434.5000     75.4077     99.8159     31.8216     12.8618     13.2612
   434.0000     75.1139     99.6686     32.5889     12.9595     13.3131
   433.5000     74.7293     97.5925     35.0674     13.0810     13.3816
   433.0000     74.1221     95.9896     33.0998     13.2158     13.4913
   432.5000     73.1869     95.3795     27.6394     13.3339     13.6636
