~Version Information
 VERS.                2.00:   CWLS log ASCII Standard -VERSION 2.00
 WRAP.                  NO:   One line per frame
~Well Information Block
#MNEM.UNIT              Data                Description
#--------- -------------------------------  -------------------------------
 STRT.F                          600.0000:   Starting Depth
 STOP.F                           -7.7500:   Ending Depth
 STEP.F                           -0.5000:   Level Spacing
 NULL.                          -999.2500:   Absent Value
 COMP.     FLUOR DANIEL (NPSOR), INC.    :   Company
 WELL.     88-1 X 10                     :   Well
 FLD .                                   :   Field
 LOC .                                   :   Location
 CNTY.                                   :   County
 STAT.                                   :   State
 SRVC.                                   :   Service Company
 LIC .                                   :   License Number
 DATE.                                   :   Log Date
 API .                                   :   API Number
~Curve Information Block
#MNEM.UNIT       API Codes    Curve Description
#---------    -------------   -------------------------------
 DEPT.F        0   0  0  0:   Depth
 CILD.MMHO     0   0  0  0:   Conductivity of Deep Induction
 GR  .API      0   0  0  0:   Gamma ray counts
 TEN .LBF      0   0  0  0:   Differential Tension
 RILM.OHMM     0   0  0  0:   Resistivity from CILM
 RILD.OHMM     0   0  0  0:   Resistivity from CILD
#  Curve Data
~A
# ...
   432.0000     72.1877     95.1835     25.3190     13.4076     13.8528
   431.5000     71.4025     96.2056     26.7729     13.4654     14.0051
   431.0000     70.7327     97.3624     28.5956     13.5586     14.1377
   430.5000     70.0068     95.3507     28.1719     13.7133     14.2843
   430.0000     69.1629     90.7865     26.1864     13.9247     14.4586
   429.5000     68.2278     88.1102     26.1962     14.1682     14.6568
   429.0000     67.3235     88.9454     28.2375     14.3985     14.8537
   428.5000     66.5617     92.6458     28.7713     14.5798     15.0237
   428.0000     66.0070     96.6680     26.2919     14.6870     15.1499
   427.5000     65.8135     99.5418     22.2391     14.7108     15.1945
   427.0000     65.8992     99.0604     20.7745     14.6803     15.1747
   426.5000     65.9977     94.4291     24.6480     14.6412     15.1520
   426.0000     65.9470     89.9418     28.8094     14.6210     15.1637
   425.5000     65.7196     89.1353     27.6174     14.6312     15.2162
   425.0000     65.2243     91.0020     24.5400     14.6826     15.3317
   424.5000     64.5153     94.1617     26.7845     14.7738     15.5002
   424.0000     63.6834     96.6212     31.9719     14.9041     15.7027
   423.5000     62.7425     95.1330     32.3568     15.0886     15.9382
   423.0000     61.7078     92.2599     26.1107     15.3428     16.2054
   422.5000     60.5905     92.1587     14.8578     15.6510     16.5042
   422.0000     59.4173     93.0211      8.2975     15.9468     16.8301
   421.5000     58.3631     92.0231     13.6710     16.1686     17.1341
   421.0000     57.5934     91.3205     22.2080     16.3109     17.3631
   420.5000     56.9688     92.7675     23.5112     16.4188     17.5535
   420.0000     56.3176     94.7124     23.1099     16.5529     17.7565
   419.5000     55.6081     95.2791     24.0093     16.7299     17.9830
   419.0000     54.9226     96.2983     22.6386     16.9211     18.2074
   418.5000     54.3284     99.0845     19.2778     17.1202     18.4066
   418.0000     53.8632    100.9445     16.6393     17.3371     18.5656
   417.5000     53.5610     99.1287     18.7892     17.5430     18.6703
   417.0000     53.4474     94.7038     23.6659     17.6944     18.7100
   416.5000     53.4498     92.2363     25.1585     17.7789     18.7091
   416.0000     53.5735     94.6820     22.5111     17.8046     18.6659
   415.5000     53.8505     98.8717     21.7672     17.7649     18.5699
   415.0000     54.1575     99.4933     22.8716     17.6473     18.4646
   414.5000     54.3480     95.7361     21.7340     17.4683     18.3999
   414.0000     54.4268     91.6934     20.0772     17.2996     18.3733
   413.5000     54.3960     90.9670     20.7772     17.2420     18.3837
   413.0000     54.1865     93.2029     18.9731     17.3456     18.4548
   412.5000     53.7434     95.5240     12.0682     17.5570     18.6069
   412.0000     53.1582     98.0615      6.8427     17.7699     18.8118
   411.5000     52.5751    101.4180      9.8521     17.9405     19.0204
   411.0000     51.9753    103.2730     15.7682     18.1046     19.2399
   410.5000     51.3199    102.9314     16.7344     18.3028     19.4856
   410.0000     50.6597    102.5535     14.2572     18.5305     19.7395
   409.5000     50.0166    101.9975     15.8835     18.7440     19.9933
   409.0000     49.3578     99.4822     20.3716     18.9130     20.2602
   408.5000     48.7974     94.7218     21.5376     19.0611     20.4929
   408.0000     48.3989     91.9442     19.2967     19.2190     20.6616
   407.5000     48.0328     94.2901     16.5295     19.3808     20.8191
   407.0000     47.5951     98.3246     14.9243     19.5307     21.0106
   406.5000     47.1792     98.9402     14.4302     19.6514     21.1958
   406.0000     46.9211     97.3848     14.6888     19.7195     21.3124
   405.5000     46.8889     97.1045     14.1886     19.7185     21.3270
   405.0000     47.0919     97.6537     13.7232     19.6579     21.2351
   404.5000     47.4200     98.2125     13.7369     19.5894     21.0882
   404.0000     47.7681     98.0840     13.6356     19.5498     20.9345
   403.5000     48.0973     96.3921     12.3635     19.5060     20.7912
   403.0000     48.3352     93.7985     10.7018     19.4264     20.6889
   402.5000     48.4589     92.3108      9.6471     19.3179     20.6361
   402.0000     48.5925     91.8024     10.2370     19.2012     20.5793
   401.5000     48.7997     91.2195     11.6583     19.1217     20.4919
   401.0000     48.9482     90.9730     12.2055     19.0985     20.4298
   400.5000     48.8227     91.1862     12.9832     19.1053     20.4823
   400.0000     48.2704     92.7338     13.1083     19.1761     20.7166
   399.5000     47.4120     94.5231     12.1552     19.3574     21.0917
   399.0000     46.5375     94.1369     12.9631     19.6169     21.4880
   398.5000     45.7248     91.4635     13.3447     19.9293     21.8700
   398.0000     44.7808     90.2590     10.2501     20.3573     22.3310
   397.5000     43.5923     90.4437      7.7311     20.9211     22.9398
   397.0000     42.2611     89.3638      9.8326     21.5673     23.6624
   396.5000     40.9735     86.8334     13.7967     22.2018     24.4060
   396.0000     39.8111     85.3302     15.2372     22.7324     25.1186
   395.5000     38.7476     84.4020     11.3750     23.1779     25.8080
   395.0000     37.6573     83.3758      7.9883     23.6985     26.5552
   394.5000     36.5268     84.0715      9.2891     24.3843     27.3772
   394.0000     35.4191     86.5486     10.9153     25.0820     28.2333
   393.5000     34.5483     87.8591     10.0534     25.5670     28.9450
   393.0000     34.0726     87.6804      8.7504     25.8626     29.3491
   392.5000     33.6938     87.4489      7.1974     26.2697     29.6790
   392.0000     33.0252     87.2639      7.7510     27.0259     30.2799
   391.5000     32.0465     85.4862     10.3651     27.9661     31.2047
   391.0000     30.9125     81.5888     10.5835     28.6439     32.3493
   390.5000     29.7816     78.6481      9.8323     29.0091     33.5778
   390.0000     28.9776     78.0717     10.8132     29.4729     34.5094
   389.5000     28.7984     76.1306     11.1337     30.2216     34.7242
   389.0000     29.1254     70.5289     12.0164     31.0829     34.3344
   388.5000     29.4841     66.5266     13.8995     32.0602     33.9165
   388.0000     29.4395     68.1311     10.9705     33.2171     33.9679
   387.5000     28.9403     72.0702      3.3495     34.0211     34.5539
   387.0000     28.3864     73.5489     -0.5572     33.6548     35.2281
   386.5000     28.3203     73.1306      2.9204     32.2635     35.3103
   386.0000     28.9797     71.7037      9.0521     30.8208     34.5069
   385.5000     30.0563     69.7329     10.9004     30.1160     33.2709
   385.0000     30.9732     69.3326      8.5467     30.3902     32.2860
   384.5000     31.4562     71.0323      6.6139     31.2387     31.7903
   384.0000     31.6597     73.4988      6.7216     31.6262     31.5859
   383.5000     31.9722     75.7916      6.7219     30.8802     31.2772
   383.0000     32.6297     77.6784      5.9969     29.5549     30.6469
   382.5000     33.4085     79.6189      4.7162     28.4915     29.9325
   382.0000     33.8301     81.3753      4.0065     27.9147     29.5595
   381.5000     33.9019     79.9488      2.4882     27.5999     29.4969
   381.0000     34.0192     74.6841     -1.2892     27.3027     29.3952
   380.5000     34.3714     68.2104     -3.5661     27.0891     29.0939
   380.0000     34.7473     64.4806     -2.1966     27.2999     28.7792
   379.5000     34.9035     67.1642     -1.9508     27.9219     28.6504
   379.0000     34.8003     74.3024     -3.1171     28.3491     28.7354
   378.5000     34.6615     78.6339     -0.4602     28.1631     28.8504
   378.0000     34.6288     78.3158      3.5231     27.7033     28.8777
   377.5000     34.7201     76.4371      3.6887     27.4177     28.8018
   377.0000     35.1291     73.5246      0.3373     27.2381     28.4664
   376.5000     36.4239     69.4393     -2.1856     26.8578     27.4545
