~Version Information
 VERS.                2.00:   CWLS log ASCII Standard -VERSION 2.00
 WRAP.                  NO:   One line per frame
~Well Information Block
#MNEM.UNIT              Data                Description
#--------- -------------------------------  -------------------------------
 STRT.F                          600.0000:   Starting Depth
 STOP.F                           -7.7500:   Ending Depth
 STEP.F                           -0.5000:   Level Spacing
 NULL.                          -999.2500:   Absent Value
 COMP.     FLUOR DANIEL (NPSOR), INC.    :   Company
 WELL.     88-1 X 10                     :   Well
 FLD .                                   :   Field
 LOC .                                   :   Location
 CNTY.                                   :   County
 STAT.                                   :   State
 SRVC.                                   :   Service Company
 LIC .                                   :   License Number
 DATE.                                   :   Log Date
 API .                                   :   API Number
~Curve Information Block
#MNEM.UNIT       API Codes    Curve Description
#---------    -------------   -------------------------------
 DEPT.F        0   0  0  0:   Depth
 CILD.MMHO     0   0  0  0:   Conductivity of Deep Induction
 GR  .API      0   0  0  0:   Gamma ray counts
 TEN .LBF      0   0  0  0:   Differential Tension
 RILM.OHMM     0   0  0  0:   Resistivity from CILM
 RILD.OHMM     0   0  0  0:   Resistivity from CILD
#  Curve Data
~A
# ...
   544.0000     82.3491    114.4550    180.7997     12.1773     12.1434
   543.5000     82.2370    113.6495    181.6949     12.1834     12.1600
   543.0000     82.0568    111.1982    185.0709     12.1886     12.1867
   542.5000     81.7488    111.2481    187.3044     12.1850     12.2326
   542.0000     81.3502    113.9500    187.9007     12.1734     12.2925
   541.5000     80.9164    115.5484    185.6297     12.1847     12.3584
   541.0000     80.5398    115.1964    181.9279     12.2458     12.4162
   540.5000     80.3185    113.7600    178.0913     12.3548     12.4504
   540.0000     80.2162    111.0807    176.0609     12.4797     12.4663
   539.5000     80.0882    106.6301    177.1766     12.5685     12.4862
   539.0000     79.9761    104.2056    178.5208     12.5818     12.5037
   538.5000     80.0233    106.2697    177.2696     12.5177     12.4964
   538.0000     80.3043    107.7813    175.2163     12.4084     12.4526
   537.5000     80.8291    107.6002    172.8862     12.2918     12.3718
   537.0000     81.4528    110.5225    171.5631     12.1946     12.2770
   536.5000     82.0531    115.0341    172.2356     12.1265     12.1872
   536.0000     82.6645    115.8065    170.7673     12.0776     12.0971
   535.5000     83.3480    114.1012    166.6944     12.0229     11.9979
   535.0000     84.1141    114.0329    165.0968     11.9339     11.8886
   534.5000     85.1074    114.4389    165.7126     11.7980     11.7499
   534.0000     86.4531    113.4484    164.9693     11.6276     11.5670
   533.5000     87.9080    112.7440    164.1174     11.4516     11.3755
   533.0000     89.1540    113.9668    164.0031     11.2873     11.2165
   532.5000     90.2007    116.4354    163.0368     11.1177     11.0864
   532.0000     91.2409    118.7099    161.1979     10.9146     10.9600
   531.5000     92.4433    119.2895    159.7733     10.6917     10.8174
   531.0000     94.0235    117.3273    158.9480     10.4927     10.6356
   530.5000     95.9400    116.1184    157.6801     10.3281     10.4232
   530.0000     97.9113    116.6882    154.8451     10.1632     10.2133
   529.5000     99.8826    117.1649    149.5028      9.9706     10.0118
   529.0000    102.0614    117.4677    144.6981      9.7647      9.7980
   528.5000    104.2261    117.5654    144.7643      9.5988      9.5945
   528.0000    106.0671    115.1613    147.9079      9.5068      9.4280
   527.5000    107.6612    112.5520    150.3570      9.4572      9.2884
   527.0000    109.9002    112.5376    153.6193      9.3651      9.0992
   526.5000    114.4357    113.8910    157.0545      9.1503      8.7385
   526.0000    122.8879    114.6637    156.6523      8.7687      8.1375
   525.5000    135.9502    114.5913    154.1717      8.2063      7.3556
   525.0000    152.1161    114.0978    150.3793      7.5154      6.5739
   524.5000    167.3167    115.0998    145.2654      6.8335      5.9767
   524.0000    177.5104    119.6781    143.0331      6.2710      5.6335
   523.5000    182.3973    126.3558    145.3017      5.8267      5.4825
   523.0000    184.4367    133.0134    146.9996      5.4635      5.4219
   522.5000    184.9204    137.6101    145.3133      5.2236      5.4077
   522.0000    182.7527    136.5050    139.0495      5.2195      5.4719
   521.5000    175.7539    126.6626    133.6391      5.5396      5.6898
   521.0000    163.2084    114.4250    134.5156      6.1780      6.1271
   520.5000    147.8348    108.1363    136.9581      7.0030      6.7643
   520.0000    133.4735    108.0865    138.0549      7.8071      7.4921
   519.5000    122.3427    111.1280    138.8409      8.4359      8.1738
   519.0000    114.5905    115.3347    137.5806      8.8601      8.7267
   518.5000    109.5489    117.1767    132.9062      9.1501      9.1283
   518.0000    106.1770    115.3416    129.4164      9.3769      9.4182
   517.5000    103.4519    113.4246    129.6579      9.5728      9.6663
   517.0000    100.9476    114.1763    129.4188      9.7628      9.9061
   516.5000     98.7144    114.7532    126.3719      9.9656     10.1302
   516.0000     96.7024    113.7240    123.8715     10.1656     10.3410
   515.5000     94.8401    113.5200    123.3463     10.3395     10.5441
   515.0000     93.2192    113.9368    123.8361     10.4832     10.7274
   514.5000     92.0370    111.2413    127.8502     10.6154     10.8652
   514.0000     91.3159    106.8646    131.9567     10.7497     10.9510
   513.5000     90.7876    104.7002    129.9440     10.8850     11.0147
   513.0000     90.1087    104.8555    124.6568     11.0225     11.0977
   512.5000     89.2569    103.4621    121.1390     11.1611     11.2036
   512.0000     88.4505    100.6618    120.4918     11.2919     11.3058
   511.5000     87.7357     99.4360    122.5215     11.4117     11.3979
   511.0000     86.9719    101.1800    122.3404     11.5200     11.4980
   510.5000     86.2097    102.6690    117.0660     11.6135     11.5996
   510.0000     85.6457    102.0493    113.2767     11.7020     11.6760
   509.5000     85.1628    101.7445    112.8183     11.7851     11.7422
   509.0000     84.6456    104.5968    115.0475     11.8481     11.8140
   508.5000     84.2194    107.4922    120.5582     11.8866     11.8737
   508.0000     83.9505    106.8716    122.5197     11.9155     11.9118
   507.5000     83.7678    104.7523    118.5712     11.9434     11.9378
   507.0000     83.6951    103.0324    116.0690     11.9596     11.9481
   506.5000     83.7029    102.9476    117.8376     11.9467     11.9470
   506.0000     83.7164    106.4810    121.5596     11.9177     11.9451
   505.5000     83.9218    110.3124    123.5323     11.9005     11.9159
   505.0000     84.2814    108.9679    120.7117     11.8851     11.8650
   504.5000     84.3229    104.8714    118.6203     11.8526     11.8592
   504.0000     83.9952    103.7736    117.6354     11.8255     11.9054
   503.5000     83.6653    105.4214    112.1360     11.8464     11.9524
   503.0000     83.3331    106.1790    105.7664     11.9228     12.0000
   502.5000     82.8133    104.3552    102.8512     12.0268     12.0754
   502.0000     82.1996    100.9178    100.3008     12.1255     12.1655
   501.5000     81.6148     99.9654     99.6285     12.2134     12.2527
   501.0000     81.0985    101.3607    103.7897     12.2988     12.3307
   500.5000     80.5782    102.1770    107.7879     12.3735     12.4103
   500.0000     79.9227    102.0332    107.0645     12.4219     12.5121
   499.5000     79.3166    101.3320    103.9504     12.4582     12.6077
   499.0000     78.9305    100.5332    101.0925     12.5100     12.6694
   498.5000     78.5664    100.7423     98.9877     12.5743     12.7281
   498.0000     78.0871    101.6349     96.5194     12.6420     12.8062
   497.5000     77.6634    101.6775     95.0596     12.7185     12.8761
   497.0000     77.3648    101.8262     95.7621     12.8028     12.9258
   496.5000     77.1316    102.3218     97.8306     12.8794     12.9649
   496.0000     76.9759    101.5741     97.2498     12.9313     12.9911
   495.5000     76.9706    100.9624     96.7817     12.9366     12.9920
   495.0000     77.0498    100.8063     97.0800     12.9064     12.9786
   494.5000     77.0616    100.6929     93.7869     12.8808     12.9766
   494.0000     76.9434    101.5905     88.0044     12.8792     12.9966
   493.5000     76.7335    103.4452     86.1396     12.8874     13.0321
   493.0000     76.3774    102.4131     87.8516     12.9018     13.0929
   492.5000     75.7269     97.5721     88.8013     12.9384     13.2053
   492.0000     74.7920     93.0703     87.5670     13.0234     13.3704
   491.5000     73.8979     90.1085     86.9348     13.1597     13.5322
   491.0000     73.2375     87.3710     87.5798     13.3214     13.6542
   490.5000     72.6075     85.6455     87.7891     13.5024     13.7727
   490.0000     71.8455     87.0733     89.1597     13.7408     13.9188
   489.5000     71.0614     89.7929     93.2382     14.0238     14.0723
   489.0000     70.3742     91.0318     95.5049     14.2301     14.2098
   488.5000     69.7783     91.0959     93.3815     14.2536     14.3311
