~Version Information
 VERS.                2.00:   CWLS log ASCII Standard -VERSION 2.00
 WRAP.                  NO:   One line per frame
~Well Information Block
#MNEM.UNIT              Data                Description
#--------- -------------------------------  -------------------------------
 STRT.F                          600.0000:   Starting Depth
 STOP.F                           -7.7500:   Ending Depth
 STEP.F                           -0.5000:   Level Spacing
 NULL.                          -999.2500:   Absent Value
 COMP.     FLUOR DANIEL (NPSOR), INC.    :   Company
 WELL.     88-1 X 10                     :   Well
 FLD .                                   :   Field
 LOC .                                   :   Location
 CNTY.                                   :   County
 STAT.                                   :   State
 SRVC.                                   :   Service Company
 LIC .                                   :   License Number
 DATE.                                   :   Log Date
 API .                                   :   API Number
~Curve Information Block
#MNEM.UNIT       API Codes    Curve Description
#---------    -------------   -------------------------------
 DEPT.F        0   0  0  0:   Depth
 CILD.MMHO     0   0  0  0:   Conductivity of Deep Induction
 GR  .API      0   0  0  0:   Gamma ray counts
 TEN .LBF      0   0  0  0:   Differential Tension
 RILM.OHMM     0   0  0  0:   Resistivity from CILM
 RILD.OHMM     0   0  0  0:   Resistivity from CILD
#  Curve Data
~A
# ...
   264.0000    124.4857    122.2039    -21.9896      7.9808      8.0330
   263.5000    123.4848    122.6461    -22.5218      8.0318      8.0982
   263.0000    123.0413    120.5209    -23.5686      8.0610      8.1273
   262.5000    123.5448    116.7891    -20.8943      8.0814      8.0942
   262.0000    124.7168    113.3514    -17.0364      8.0830      8.0182
   261.5000    126.0419    113.6158    -16.8265      8.0536      7.9339
   261.0000    127.4802    118.8404    -14.7974      7.9959      7.8444
   260.5000    129.4746    124.8535    -12.8713      7.8990      7.7235
   260.0000    132.4802    127.6322    -16.9074      7.7433      7.5483
   259.5000    136.6098    128.4984    -21.6007      7.5481      7.3201
   259.0000    140.9660    129.9084    -23.3136      7.3650      7.0939
   258.5000    144.3506    128.9209    -24.0105      7.2175      6.9276
   258.0000    146.2173    123.3330    -23.8550      7.0797      6.8391
   257.5000    146.9677    118.3128    -24.2625      6.9225      6.8042
   257.0000    147.3097    117.7980    -26.7034      6.7713      6.7884
   256.5000    147.3625    119.4820    -27.2676      6.6967      6.7860
   256.0000    146.3966    121.2593    -23.2288      6.7485      6.8308
   255.5000    143.9234    124.0274    -19.3556      6.9182      6.9481
   255.0000    140.2676    127.4591    -21.7560      7.1638      7.1292
   254.5000    136.0755    129.3816    -24.2570      7.4332      7.3489
   254.0000    131.9764    128.3300    -21.3692      7.6673      7.5771
   253.5000    128.6904    125.2525    -21.4308      7.8308      7.7706
   253.0000    126.5194    121.2465    -27.4146      7.9383      7.9039
   252.5000    125.0199    118.4673    -30.1743      8.0261      7.9987
   252.0000    123.6167    119.2283    -28.9497      8.1252      8.0895
   251.5000    122.2085    122.9396    -28.4821      8.2369      8.1827
   251.0000    120.8392    126.6805    -28.9390      8.3232      8.2755
   250.5000    119.6016    129.5941    -27.5333      8.3569      8.3611
   250.0000    118.6449    130.6846    -24.8197      8.3724      8.4285
   249.5000    117.8298    129.0818    -25.4675      8.4215      8.4868
   249.0000    116.8960    126.4692    -28.1539      8.5125      8.5546
   248.5000    115.9447    125.2173    -28.9585      8.6174      8.6248
   248.0000    115.0819    124.0676    -26.7110      8.7106      8.6895
   247.5000    114.2504    121.6212    -25.4873      8.7817      8.7527
   247.0000    113.5604    119.4347    -29.4572      8.8357      8.8059
   246.5000    113.1885    118.9389    -33.7156      8.8778      8.8348
   246.0000    113.2321    118.9409    -32.9440      8.8939      8.8314
   245.5000    113.6507    118.3130    -30.9142      8.8800      8.7989
   245.0000    114.0524    117.8168    -31.2119      8.8589      8.7679
   244.5000    114.1174    117.3536    -33.3734      8.8426      8.7629
   244.0000    114.2094    117.5775    -36.7113      8.8058      8.7558
   243.5000    114.6262    117.7270    -35.0921      8.7360      8.7240
   243.0000    115.0370    116.8214    -28.9442      8.6750      8.6929
   242.5000    115.0449    118.3746    -25.5764      8.6739      8.6923
   242.0000    114.5815    124.6917    -24.2704      8.7252      8.7274
   241.5000    113.8518    128.2466    -23.4612      8.7851      8.7833
   241.0000    113.0922    126.3892    -25.8994      8.8341      8.8423
   240.5000    112.4932    124.6608    -30.2798      8.8736      8.8894
   240.0000    112.3239    123.9504    -33.4408      8.9011      8.9028
   239.5000    112.7332    121.6806    -36.0278      8.9156      8.8705
   239.0000    113.5025    120.4810    -35.6591      8.9124      8.8104
   238.5000    114.3534    121.5104    -32.3645      8.8764      8.7448
   238.0000    115.2878    122.9370    -28.9698      8.7976      8.6739
   237.5000    116.3740    123.8223    -26.8531      8.6846      8.5930
   237.0000    117.5636    123.0964    -28.5544      8.5555      8.5060
   236.5000    118.7177    122.5640    -32.7884      8.4301      8.4233
   236.0000    119.8088    124.3256    -35.5477      8.3328      8.3466
   235.5000    120.7943    126.4827    -33.4942      8.2897      8.2785
   235.0000    121.3365    126.2962    -30.8212      8.3038      8.2415
   234.5000    121.2081    124.2114    -28.0981      8.3443      8.2503
   234.0000    120.7758    120.0405    -23.0583      8.3711      8.2798
   233.5000    120.7600    115.6089    -18.1933      8.3612      8.2809
   233.0000    121.7462    113.3553    -16.5350      8.3107      8.2138
   232.5000    123.8239    113.1930    -18.6077      8.2310      8.0760
   232.0000    126.2485    113.7988    -26.1617      8.1437      7.9209
   231.5000    127.9613    115.6032    -34.1182      8.0672      7.8149
   231.0000    128.5862    118.5172    -34.0148      7.9988      7.7769
   230.5000    128.3046    123.1238    -28.1100      7.9157      7.7940
   230.0000    127.2258    126.9017    -23.0708      7.8200      7.8600
   229.5000    125.3908    125.8198    -20.0309      7.7732      7.9751
   229.0000    122.7011    120.2273    -22.0707      7.8589      8.1499
   228.5000    118.9983    114.3338    -29.2773      8.1086      8.4035
   228.0000    114.6116    108.4982    -31.6855      8.4799      8.7251
   227.5000    110.3617    100.8316    -26.5249      8.8926      9.0611
   227.0000    106.8163     96.0797    -23.8849      9.2871      9.3619
   226.5000    104.2933    100.6081    -26.8842      9.6404      9.5883
   226.0000    102.7575    109.1860    -29.5194      9.9309      9.7316
   225.5000    101.8844    112.5452    -28.5550     10.0805      9.8150
   225.0000    101.7015    112.1608    -28.1936     10.0182      9.8327
   224.5000    102.6097    111.6800    -30.0260      9.7910      9.7457
   224.0000    104.3466    111.3523    -29.3480      9.5480      9.5834
   223.5000    105.9966    111.5421    -26.1641      9.3858      9.4343
   223.0000    106.8634    112.6941    -28.0615      9.3163      9.3577
   222.5000    107.0129    113.5076    -33.6671      9.3060      9.3447
   222.0000    106.9321    114.7538    -35.6758      9.3089      9.3517
   221.5000    106.8198    118.1526    -31.9811      9.3052      9.3616
   221.0000    106.5955    121.5286    -26.1522      9.3171      9.3813
   220.5000    106.3040    120.6801    -24.8734      9.3685      9.4070
   220.0000    105.9354    116.9366    -28.3555      9.4486      9.4397
   219.5000    105.2912    114.9209    -29.0183      9.5283      9.4975
   219.0000    104.3063    113.3866    -26.2193      9.5971      9.5872
   218.5000    103.3328    109.9611    -25.9265      9.6622      9.6775
   218.0000    102.6417    109.2921    -28.2531      9.7314      9.7426
   217.5000    102.0187    113.5841    -30.3655      9.8042      9.8021
   217.0000    101.3248    117.1326    -31.1753      9.8707      9.8693
   216.5000    100.6690    116.7633    -34.7987      9.9249      9.9335
   216.0000     99.9357    115.6482    -38.6084      9.9679     10.0064
   215.5000     99.0274    115.5824    -35.0872     10.0030     10.0982
   215.0000     98.1732    117.0648    -28.7127     10.0329     10.1861
   214.5000     97.4595    120.0038    -23.7381     10.0604     10.2607
   214.0000     96.6949    121.7184    -18.6462     10.1033     10.3418
   213.5000     95.8026    120.2504    -19.8817     10.1985     10.4381
   213.0000     94.7261    117.9754    -27.2466     10.3514     10.5568
   212.5000     93.4601    117.3012    -31.3787     10.5182     10.6998
   212.0000     92.2809    117.0239    -31.5940     10.6615     10.8365
   211.5000     91.4365    115.0666    -27.3667     10.7835     10.9365
   211.0000     90.7671    112.6547    -21.7575     10.8987     11.0172
   210.5000     90.1740    111.5207    -24.4061     10.9968     11.0897
   210.0000     89.7949    110.8912    -30.0440     11.0452     11.1365
   209.5000     89.7587    109.1406    -28.2271     11.0326     11.1410
   209.0000     89.9621    107.6788    -28.6981     11.0017     11.1158
   208.5000     90.1058    108.9047    -33.0287     11.0037     11.0981
