~Version Information
 VERS.                2.00:   CWLS log ASCII Standard -VERSION 2.00
 WRAP.                  NO:   One line per frame
~Well Information Block
#MNEM.UNIT              Data                Description
#--------- -------------------------------  -------------------------------
 STRT.F                          653.0000:   Starting Depth
 STOP.F                           -2.7500:   Ending Depth
 STEP.F                           -0.5000:   Level Spacing
 NULL.                          -999.2500:   Absent Value
 COMP.     FLUOR DANIEL (NPOSR), INC.    :   Company
 WELL.     14-1 X 11                     :   Well
 FLD .     N.P.R. #3                     :   Field
 LOC .     11-38N-78W                    :   Location
 PROV.                                   :   Province
 SRVC.     Western Atlas International   :   Service Company
 LIC .                                   :   License Number
 DATE.     4-August-1995                 :   Log Date
 UWI .     92800                         :   Unique Well ID
~Curve Information Block
#MNEM.UNIT       API Codes    Curve Description
#---------    -------------   -------------------------------
 DEPT.F        0   1  0  1:   Depth
 CILD.MMHO     0 110 46  1:   Conductivity of Deep Induction
 GR  .API      0 310  1  1:   Gamma ray counts
 TEN .LBF      0 635 99  1:   Differential Tension
 RILM.OHMM     0 120 44  1:   Resistivity from CILM
 RILD.OHMM     0 120 46  1:   Resistivity from CILD
#  Curve Data
~A   DEPT        CILD        GR          TEN         RILM        RILD
# ...
    93.0000    144.3361    123.9865    -20.7254      6.9838      6.9283
    92.5000    142.6962    127.2751    -22.4901      7.0782      7.0079
    92.0000    141.4127    129.6916    -19.8497      7.1569      7.0715
    91.5000    140.6852    127.8409    -18.6739      7.2177      7.1081
    91.0000    140.5103    124.9647    -22.1833      7.2533      7.1169
    90.5000    140.5848    124.4689    -23.6079      7.2475      7.1131
    90.0000    140.8657    124.3558    -21.2112      7.1996      7.0990
    89.5000    141.6690    122.2204    -21.0108      7.1310      7.0587
    89.0000    143.2148    120.3271    -25.7182      7.0596      6.9825
    88.5000    145.3703    120.7850    -26.1309      6.9853      6.8790
    88.0000    147.8135    122.9275    -20.8080      6.9040      6.7653
    87.5000    150.3166    125.8339    -16.4987      6.8122      6.6526
    87.0000    152.8293    128.3222    -13.7256      6.7022      6.5432
    86.5000    155.2192    129.0273    -14.5845      6.5736      6.4425
    86.0000    157.2547    128.8533    -20.7244      6.4461      6.3591
    85.5000    158.7318    129.1925    -26.1852      6.3480      6.2999
    85.0000    159.5679    128.9604    -27.5293      6.2941      6.2669
    84.5000    159.8168    129.0301    -27.3195      6.2839      6.2572
    84.0000    159.6533    129.2113    -23.3462      6.3133      6.2636
    83.5000    159.1562    126.2032    -16.4935      6.3744      6.2831
    83.0000    158.3503    121.6704    -11.8572      6.4481      6.3151
    82.5000    157.4205    121.8644    -14.6922      6.5121      6.3524
    82.0000    156.6277    126.4826    -20.9812      6.5487      6.3846
    81.5000    156.0490    129.6515    -21.2271      6.5512      6.4082
    81.0000    155.6252    129.4904    -19.3309      6.5313      6.4257
    80.5000    155.1934    129.1652    -24.9588      6.5139      6.4436
    80.0000    154.4272    129.6906    -29.0939      6.5168      6.4755
    79.5000    153.0296    131.2086    -23.7159      6.5481      6.5347
    79.0000    150.9255    133.5009    -19.0671      6.6150      6.6258
    78.5000    148.2357    135.2065    -20.1309      6.7174      6.7460
    78.0000    145.2913    134.1049    -22.6966      6.8461      6.8827
    77.5000    142.5319    131.1492    -27.5128      6.9904      7.0160
    77.0000    140.2691    127.7333    -30.1175      7.1382      7.1292
    76.5000    138.7256    125.7137    -29.6552      7.2729      7.2085
    76.0000    138.0027    126.3402    -31.4836      7.3751      7.2462
    75.5000    137.9417    127.3363    -34.2280      7.4250      7.2494
    75.0000    138.3839    127.4086    -32.9208      7.4091      7.2263
    74.5000    139.2156    127.3151    -32.4215      7.3283      7.1831
    74.0000    140.2035    127.1020    -30.6043      7.2070      7.1325
    73.5000    141.0449    126.0301    -22.6658      7.0933      7.0899
    73.0000    141.6096    126.0401    -16.4673      7.0259      7.0617
    72.5000    141.9877    126.9356    -16.5368      7.0069      7.0429
    72.0000    142.3286    126.5230    -17.1190      7.0150      7.0260
    71.5000    142.8191    124.4485    -14.6104      7.0346      7.0019
    71.0000    143.5559    123.7588    -15.6380      7.0615      6.9659
    70.5000    144.3839    124.8415    -24.1984      7.0848      6.9260
    70.0000    144.9591    126.9320    -31.9121      7.0828      6.8985
    69.5000    145.1369    128.4120    -30.8160      7.0475      6.8900
    69.0000    144.9355    127.2623    -26.6396      6.9979      6.8996
    68.5000    144.6640    123.4294    -27.5180      6.9468      6.9126
    68.0000    145.0350    117.2802    -32.1510      6.8826      6.8949
    67.5000    146.2715    109.8369    -33.6223      6.8108      6.8366
    67.0000    147.5775    105.9160    -32.7439      6.7871      6.7761
    66.5000    148.0073    108.3037    -31.0990      6.8654      6.7564
    66.0000    147.2273    112.9492    -28.3211      7.0101      6.7922
    65.5000    145.7348    116.7824    -25.2253      7.0937      6.8618
    65.0000    145.1688    121.7823    -20.8531      7.0429      6.8885
    64.5000    149.0285    128.1451    -15.8515      6.9365      6.7101
    64.0000    158.1893    131.0849    -17.8770      6.8883      6.3215
    63.5000    165.6971    128.2490    -28.2055      6.9300      6.0351
    63.0000    165.2669    123.3885    -37.2884      7.0268      6.0508
    62.5000    158.2201    121.3081    -39.8824      7.1412      6.3203
    62.0000    145.7012    120.5129    -36.6750      7.2583      6.8634
    61.5000    131.7215    119.8994    -30.6327      7.4253      7.5918
    61.0000    127.2379    119.7764    -27.5747      8.0414      7.8593
    60.5000    130.5457    119.6341    -26.4325      9.5570      7.6602
    60.0000    129.9982    119.8667    -23.9059     10.5979      7.6924
    59.5000    123.8265    123.2329    -21.8148      9.9663      8.0758
    59.0000    119.1560    127.8863    -20.4527      9.8497      8.3924
    58.5000    121.0020    128.2153    -15.3442     11.5158      8.2643
    58.0000    112.6644    125.1312     -9.9259     15.2103      8.8759
    57.5000     49.6386    123.5122    -13.5283     19.7745     20.1456
    57.0000    -40.8323    124.5035    -23.7613     18.4658  10000.0000
    56.5000    -87.5462    126.0268    -27.3118     13.6384  10000.0000
    56.0000    -70.5187    127.5044    -19.4193     11.0734  10000.0000
    55.5000      3.5639    128.3925    -12.2988      7.0114    280.5903
    55.0000    162.3501    128.0378    -14.9038      3.7498      6.1595
    54.5000    286.0000    126.9282    -22.1744      2.9751      3.4965
    54.0000    256.9346    124.0960    -29.0412      4.4305      3.8920
    53.5000    205.9189    115.6003    -33.5067    101.5419      4.8563
    53.0000    257.3955    101.2282    -32.2656  10000.0000      3.8851
    52.5000    360.0945     89.8362    -27.8380  10000.0000      2.7770
    52.0000    392.5632     86.6359    -23.2264  10000.0000      2.5474
    51.5000    285.0884     86.3026    -20.1913  10000.0000      3.5077
    51.0000    130.4660     83.7152    -21.3976  10000.0000      7.6648
    50.5000     67.0997     82.2554    -24.1105  10000.0000     14.9032
    50.0000     79.6628     83.8698    -23.8303  10000.0000     12.5529
    49.5000     83.5429     85.7296    -25.7249  10000.0000     11.9699
    49.0000     70.8144     85.4852    -28.4562  10000.0000     14.1214
    48.5000     55.1774     84.1693    -23.7134  10000.0000     18.1234
    48.0000     41.2654     82.9360    -16.4075  10000.0000     24.2334
    47.5000     33.2454     81.9089    -17.6549  10000.0000     30.0794
    47.0000     29.7259     81.4833    -23.9632  10000.0000     33.6407
    46.5000     27.3504     83.2580    -26.3450  10000.0000     36.5625
    46.0000     24.8270     86.9993    -22.3550  10000.0000     40.2787
    45.5000     23.0846     89.6816    -17.8971  10000.0000     43.3189
    45.0000     24.4285     90.0989    -17.6882  10000.0000     40.9358
    44.5000     27.9287     88.9685    -21.5193  10000.0000     35.8054
    44.0000     28.4728     87.1153    -24.5046  10000.0000     35.1213
    43.5000     25.1415     85.9570    -26.5801  10000.0000     39.7748
    43.0000     21.9148     86.3791    -29.3935  10000.0000     45.6312
    42.5000     19.8677     85.5148    -30.4619  10000.0000     50.3331
    42.0000     17.3704     82.4924    -29.1162  10000.0000     57.5693
    41.5000     14.0179     81.1992    -23.7696  10000.0000     71.3375
    41.0000     10.0876     85.2249    -15.3360  10000.0000     99.1321
    40.5000      6.7123     90.7008    -10.3374  10000.0000    148.9795
    40.0000      6.7813     91.7504    -13.2373  10000.0000    147.4641
    39.5000      9.0565     88.7648    -18.2417  10000.0000    110.4176
    39.0000      9.6279     85.6416    -18.9426  10000.0000    103.8644
    38.5000      7.0077     83.7466    -15.7563  10000.0000    142.6997
    38.0000      4.5492     83.0266    -15.4940  10000.0000    219.8204
    37.5000      5.9228     81.7216    -18.9750  10000.0000    168.8394
