~Version Information
 VERS.                1.20:   CWLS log ASCII Standard -VERSION 1.20
 WRAP.                  NO:   One line per frame
~Well Information Block
#MNEM.UNIT       Data Type    Information
#---------    -------------   -------------------------------
 STRT.F          2547.0000:   Starting Depth
 STOP.F           -12.5000:   Ending Depth
 STEP.F            -0.5000:   Level Spacing
 NULL.           -999.2500:   Absent Value
 COMP.             COMPANY:   FLUOR DANIEL (NPOSR), INC.
 WELL.                WELL:   46-1 X 11
 FLD .               FIELD:   
 LOC .            LOCATION:   
 CNTY.              COUNTY:   
 STAT.               STATE:   
 SRVC.     SERVICE COMPANY:   
 LIC .      LICENSE NUMBER:   
 DATE.            LOG DATE:   
 API .          API NUMBER:   
~Curve Information Block
#MNEM.UNIT       API Codes    Curve Description
#---------    -------------   -------------------------------
 DEPT.F        0   1  0  1:   Depth
 GR  .API      0 310  1  1:   Gamma ray counts
 TEN .LBF      0 635 99  1:   Differential Tension
 RILM.OHMM     0 120 44  1:   Resistivity from CILM
 RILD.OHMM     0 120 46  1:   Resistivity from CILD
#  Curve Data
~A   DEPT        GR          TEN         RILM        RILD
# ...
  1743.0000    121.4136    -38.1156      7.0121      6.9406
  1742.5000    119.5904    -45.4621      6.9895      6.9519
  1742.0000    119.6871    -51.0054      7.0374      6.9753
  1741.5000    119.0431    -54.6264      7.1252      7.0010
  1741.0000    116.8901    -54.9214      7.2003      7.0115
  1740.5000    116.0249    -48.3300      7.2508      7.0007
  1740.0000    115.3832    -44.9924      7.2763      6.9742
  1739.5000    111.7295    -51.6203      7.2537      6.9394
  1739.0000    107.6321    -56.8907      7.1717      6.9009
  1738.5000    108.8254    -51.4984      7.0670      6.8522
  1738.0000    113.1913    -44.8234      6.9799      6.7898
  1737.5000    114.2744    -48.3538      6.9175      6.7284
  1737.0000    112.8381    -51.1391      6.8780      6.6864
  1736.5000    113.6555    -49.2776      6.8708      6.6679
  1736.0000    116.4636    -48.4398      6.8830      6.6656
  1735.5000    117.4962    -49.7156      6.8765      6.6464
  1735.0000    116.4406    -46.4969      6.8470      6.5902
  1734.5000    116.2784    -43.2426      6.8253      6.5216
  1734.0000    119.3108    -39.8156      6.8124      6.4691
  1733.5000    124.2360    -38.7445      6.7705      6.4353
  1733.0000    128.5995    -43.2816      6.6785      6.4153
  1732.5000    130.5186    -49.2343      6.5634      6.3999
  1732.0000    130.5390    -55.1120      6.4733      6.3832
  1731.5000    130.1021    -60.5108      6.4418      6.3788
  1731.0000    127.8225    -62.1615      6.4775      6.3984
  1730.5000    124.0923    -59.1364      6.5628      6.4393
  1730.0000    121.7346    -59.9581      6.6532      6.4895
  1729.5000    121.6991    -62.4094      6.7109      6.5306
  1729.0000    122.2853    -59.0901      6.7406      6.5523
  1728.5000    122.1486    -51.1946      6.7579      6.5644
  1728.0000    121.6915    -45.7097      6.7537      6.5834
  1727.5000    121.0561    -46.5790      6.7230      6.6201
  1727.0000    119.5899    -52.4509      6.7023      6.6705
  1726.5000    116.5190    -53.6632      6.7300      6.7179
  1726.0000    113.2643    -52.3505      6.7961      6.7538
  1725.5000    112.5228    -56.3503      6.8706      6.7836
  1725.0000    113.3200    -60.6468      6.9517      6.8067
  1724.5000    113.4910    -62.4167      7.0342      6.8206
  1724.0000    113.7246    -64.6594      7.0692      6.8215
  1723.5000    116.2672    -63.4598      7.0214      6.7995
  1723.0000    118.7222    -54.9680      6.9241      6.7493
  1722.5000    120.0861    -49.8242      6.8344      6.6869
  1722.0000    122.4776    -52.5619      6.7743      6.6369
  1721.5000    125.4096    -55.9980      6.7370      6.6100
  1721.0000    125.0050    -58.9681      6.7234      6.6003
  1720.5000    122.3980    -61.6268      6.7439      6.6031
  1720.0000    121.2169    -61.1595      6.7886      6.6167
  1719.5000    120.2762    -54.5605      6.8241      6.6326
  1719.0000    119.1837    -48.7350      6.8262      6.6427
  1718.5000    121.0860    -43.2847      6.8052      6.6517
  1718.0000    124.1685    -36.5774      6.7870      6.6647
  1717.5000    123.6248    -31.6029      6.7887      6.6851
  1717.0000    121.4231    -34.2640      6.8064      6.7152
  1716.5000    122.0051    -42.0345      6.8400      6.7513
  1716.0000    122.5009    -45.4975      6.8968      6.7910
  1715.5000    119.2655    -45.8333      6.9694      6.8406
  1715.0000    115.6241    -49.9767      7.0387      6.8979
  1714.5000    117.9528    -51.6841      7.0996      6.9566
  1714.0000    122.8606    -46.6940      7.1499      7.0100
  1713.5000    124.3418    -44.5196      7.1733      7.0404
  1713.0000    122.5048    -45.5219      7.1580      7.0326
  1712.5000    118.6601    -43.4582      7.1205      6.9937
  1712.0000    114.5446    -42.6445      7.0917      6.9381
  1711.5000    116.2103    -52.2410      7.0867      6.8835
  1711.0000    123.4824    -69.9780      7.0836      6.8507
  1710.5000    127.9603    -79.5190      7.0600      6.8413
  1710.0000    127.1712    -67.6020      7.0236      6.8493
  1709.5000    124.6211    -49.1129      7.0041      6.8782
  1709.0000    121.7811    -44.9082      7.0164      6.9218
  1708.5000    119.3213    -50.4095      7.0498      6.9511
  1708.0000    118.0354    -52.9154      7.0834      6.9471
  1707.5000    117.6813    -52.6293      7.1272      6.9274
  1707.0000    117.8939    -51.7146      7.2080      6.9234
  1706.5000    118.6551    -48.4551      7.3017      6.9453
  1706.0000    119.2761    -46.2057      7.3360      6.9825
  1705.5000    119.6194    -49.8208      7.2746      7.0035
  1705.0000    119.7886    -55.5469      7.1519      6.9741
  1704.5000    116.7526    -59.3039      7.0309      6.9059
  1704.0000    112.1655    -57.1421      6.9770      6.8546
  1703.5000    112.7407    -56.0547      7.0282      6.8572
  1703.0000    118.3705    -57.4568      7.1524      6.9198
  1702.5000    120.9108    -54.1064      7.2476      7.0177
  1702.0000    117.5149    -50.0941      7.2537      7.0868
  1701.5000    112.4718    -51.1586      7.2213      7.0935
  1701.0000    109.9178    -53.0831      7.2269      7.0772
  1700.5000    111.8553    -51.1824      7.2932      7.0848
  1700.0000    115.1651    -48.4639      7.3881      7.1300
  1699.5000    116.3244    -50.3488      7.4483      7.2063
  1699.0000    117.6004    -56.7166      7.4450      7.2713
  1698.5000    120.3072    -55.8104      7.4156      7.2830
  1698.0000    119.8657    -47.4916      7.3995      7.2474
  1697.5000    115.3103    -46.9264      7.4140      7.2016
  1697.0000    111.7532    -50.1277      7.4663      7.1686
  1696.5000    112.5021    -48.5405      7.5194      7.1518
  1696.0000    115.8207    -46.8578      7.5015      7.1374
  1695.5000    119.0894    -47.7462      7.4034      7.1129
  1695.0000    121.7314    -44.2531      7.2951      7.0759
  1694.5000    121.3108    -36.4405      7.2309      7.0329
  1694.0000    116.4701    -36.9883      7.2038      6.9926
  1693.5000    111.6914    -44.8560      7.1953      6.9604
  1693.0000    111.7456    -46.2941      7.2059      6.9396
  1692.5000    114.9390    -42.7024      7.2338      6.9456
  1692.0000    121.3322    -40.8142      7.2609      6.9902
  1691.5000    128.6093    -46.4832      7.2775      7.0600
  1691.0000    130.8007    -54.9070      7.2807      7.1335
  1690.5000    127.5739    -61.3700      7.2752      7.2007
  1690.0000    123.1630    -58.0470      7.2926      7.2592
  1689.5000    119.5725    -51.6807      7.3711      7.3136
  1689.0000    117.6458    -49.3582      7.5014      7.3680
  1688.5000    117.8619    -47.6282      7.6242      7.4098
  1688.0000    117.8858    -46.4430      7.6754      7.4207
  1687.5000    118.3968    -52.1974      7.6374      7.3959
  1687.0000    119.6663    -58.6927      7.5344      7.3353
  1686.5000    119.2065    -53.2265      7.3928      7.2417
  1686.0000    118.2768    -48.0509      7.2332      7.1260
  1685.5000    120.4830    -53.2649      7.0940      7.0081
  1685.0000    124.8054    -55.7324      7.0132      6.9188
  1684.5000    127.6420    -48.7350      6.9941      6.8888
  1684.0000    127.9293    -43.6074      7.0083      6.9172
  1683.5000    126.0302    -46.6790      7.0246      6.9668
  1683.0000    121.9898    -49.2340      7.0345      7.0040
  1682.5000    117.4470    -47.0780      7.0560      7.0236
  1682.0000    114.3301    -47.5623      7.1179      7.0368
  1681.5000    112.5163    -47.1661      7.2216      7.0580
  1681.0000    111.8665    -42.4868      7.3261      7.0952
  1680.5000    113.7002    -44.6044      7.3848      7.1372
  1680.0000    118.2879    -54.7371      7.3822      7.1675
  1679.5000    122.2743    -56.5571      7.3265      7.1767
  1679.0000    122.2350    -51.8445      7.2449      7.1596
  1678.5000    118.1387    -49.9871      7.1939      7.1294
  1678.0000    115.0656    -48.5142      7.2220      7.1200
  1677.5000    115.5483    -47.2451      7.3166      7.1484
  1677.0000    117.9256    -51.3016      7.4015      7.1954
  1676.5000    119.4339    -52.2557      7.4122      7.2360
