~Version Information
 VERS.                1.20:   CWLS log ASCII Standard -VERSION 1.20
 WRAP.                  NO:   One line per frame
~Well Information Block
#MNEM.UNIT       Data Type    Information
#---------    -------------   -------------------------------
 STRT.F          2547.0000:   Starting Depth
 STOP.F           -12.5000:   Ending Depth
 STEP.F            -0.5000:   Level Spacing
 NULL.           -999.2500:   Absent Value
 COMP.             COMPANY:   FLUOR DANIEL (NPOSR), INC.
 WELL.                WELL:   46-1 X 11
 FLD .               FIELD:   
 LOC .            LOCATION:   
 CNTY.              COUNTY:   
 STAT.               STATE:   
 SRVC.     SERVICE COMPANY:   
 LIC .      LICENSE NUMBER:   
 DATE.            LOG DATE:   
 API .          API NUMBER:   
~Curve Information Block
#MNEM.UNIT       API Codes    Curve Description
#---------    -------------   -------------------------------
 DEPT.F        0   1  0  1:   Depth
 GR  .API      0 310  1  1:   Gamma ray counts
 TEN .LBF      0 635 99  1:   Differential Tension
 RILM.OHMM     0 120 44  1:   Resistivity from CILM
 RILD.OHMM     0 120 46  1:   Resistivity from CILD
#  Curve Data
~A   DEPT        GR          TEN         RILM        RILD
# ...
  1073.0000    119.1732    -65.1626      8.4151      8.5047
  1072.5000    121.8677    -61.4258      8.5018      8.6039
  1072.0000    122.9553    -62.4064      8.5821      8.6837
  1071.5000    121.2893    -62.5936      8.6483      8.7554
  1071.0000    119.0528    -56.9621      8.7161      8.8221
  1070.5000    119.2420    -49.3667      8.8055      8.8779
  1070.0000    118.8888    -46.3560      8.9019      8.9286
  1069.5000    113.9221    -47.2173      8.9735      8.9821
  1069.0000    108.9516    -47.6922      9.0090      9.0318
  1068.5000    110.0928    -48.4169      9.0223      9.0621
  1068.0000    114.2437    -52.5918      9.0369      9.0768
  1067.5000    116.0911    -58.3630      9.0620      9.0899
  1067.0000    115.9787    -58.3343      9.0940      9.1006
  1066.5000    115.8028    -55.2868      9.1351      9.1077
  1066.0000    115.1373    -58.7515      9.1879      9.1329
  1065.5000    113.1465    -61.5685      9.2443      9.1866
  1065.0000    111.0247    -48.6503      9.2909      9.2396
  1064.5000    109.8424    -26.8406      9.3182      9.2624
  1064.0000    109.6694    -18.7581      9.3318      9.2654
  1063.5000    110.4936    -28.4150      9.3602      9.2785
  1063.0000    112.0850    -44.6660      9.4163      9.3083
  1062.5000    113.3959    -61.3764      9.4661      9.3392
  1062.0000    114.1906    -73.2690      9.4701      9.3592
  1061.5000    115.1437    -72.4464      9.4421      9.3636
  1061.0000    115.2614    -66.3738      9.4231      9.3659
  1060.5000    115.5476    -66.1646      9.4251      9.3812
  1060.0000    117.7947    -64.0634      9.4384      9.4097
  1059.5000    119.5867    -57.3159      9.4549      9.4457
  1059.0000    118.0509    -58.9153      9.4738      9.4760
  1058.5000    115.5919    -65.2285      9.5037      9.4880
  1058.0000    115.5057    -58.5945      9.5560      9.5010
  1057.5000    116.5691    -47.1439      9.6201      9.5456
  1057.0000    115.1693    -50.6462      9.6710      9.6074
  1056.5000    111.2453    -60.1427      9.6948      9.6480
  1056.0000    109.0504    -59.4589      9.6965      9.6631
  1055.5000    111.0755    -54.9842      9.6942      9.6786
  1055.0000    115.1919    -54.8963      9.7102      9.7085
  1054.5000    116.8139    -51.2336      9.7529      9.7435
  1054.0000    115.0661    -45.5682      9.8105      9.7734
  1053.5000    113.4079    -47.9744      9.8595      9.7884
  1053.0000    113.0472    -55.8476      9.8817      9.7798
  1052.5000    112.4812    -58.9794      9.8806      9.7558
  1052.0000    111.0679    -50.8932      9.8784      9.7353
  1051.5000    109.8060    -33.4079      9.8766      9.7205
  1051.0000    109.7762    -15.9805      9.8479      9.6980
  1050.5000    111.3073     -9.9717      9.7825      9.6573
  1050.0000    111.4489    -14.5863      9.7041      9.6021
  1049.5000    109.8757    -26.1629      9.6404      9.5461
  1049.0000    111.9218    -42.1971      9.6141      9.5130
  1048.5000    116.3236    -54.4889      9.6316      9.5160
  1048.0000    117.0703    -53.3671      9.6620      9.5422
  1047.5000    115.0352    -45.8147      9.6727      9.5704
  1047.0000    113.9121    -42.2117      9.6709      9.5934
  1046.5000    112.9494    -40.8050      9.6807      9.6058
  1046.0000    113.0799    -42.5582      9.6956      9.6035
  1045.5000    114.4385    -54.3815      9.6970      9.5987
  1045.0000    115.0820    -68.7726      9.6805      9.5984
  1044.5000    115.8768    -70.0216      9.6515      9.5861
  1044.0000    118.0400    -64.4798      9.6243      9.5561
  1043.5000    119.6191    -62.5287      9.6235      9.5482
  1043.0000    119.0118    -59.5348      9.6494      9.5954
  1042.5000    117.6627    -52.1004      9.6817      9.6704
  1042.0000    116.7599    -52.4865      9.7166      9.7353
  1041.5000    116.0403    -60.8179      9.7683      9.7926
  1041.0000    114.6455    -61.8976      9.8455      9.8544
  1040.5000    113.0722    -51.8033      9.9514      9.9304
  1040.0000    111.7580    -41.0869     10.0789     10.0329
  1039.5000    112.0375    -38.5776     10.2108     10.1536
  1039.0000    113.6352    -43.1941     10.3262     10.2694
  1038.5000    114.1076    -52.8409     10.4124     10.3703
  1038.0000    113.1588    -57.5480     10.4805     10.4569
  1037.5000    114.1471    -53.5757     10.5512     10.5144
  1037.0000    116.6095    -48.7433     10.6267     10.5409
  1036.5000    116.5339    -49.1654     10.6917     10.5517
  1036.0000    115.1755    -51.2159     10.7239     10.5498
  1035.5000    116.4845    -53.9661     10.7000     10.5132
  1035.0000    119.2873    -59.3759     10.6228     10.4496
  1034.5000    119.1533    -62.2810     10.5311     10.3984
  1034.0000    116.5366    -54.8634     10.4515     10.3551
  1033.5000    114.5855    -46.7397     10.3720     10.2773
  1033.0000    114.8140    -47.0328     10.2800     10.1698
  1032.5000    116.7900    -49.9273     10.1909     10.0754
  1032.0000    117.9733    -49.0461     10.1201     10.0056
  1031.5000    114.4727    -48.3553     10.0682      9.9570
  1031.0000    108.5134    -45.2870     10.0298      9.9392
  1030.5000    106.9573    -41.0027     10.0033      9.9421
  1030.0000    110.4459    -42.7522     10.0015      9.9488
  1029.5000    112.4183    -46.4253     10.0382      9.9675
  1029.0000    111.6530    -46.5079     10.1072     10.0120
  1028.5000    111.6031    -44.0121     10.1789     10.0636
  1028.0000    113.1426    -40.8343     10.2231     10.0917
  1027.5000    114.4759    -42.0586     10.2220     10.0845
  1027.0000    114.9708    -51.4770     10.1756     10.0465
  1026.5000    115.2729    -59.6434     10.0951      9.9819
  1026.0000    115.0776    -61.7000     10.0017      9.8871
  1025.5000    114.1965    -64.0073      9.9047      9.7697
  1025.0000    113.1861    -66.0554      9.7958      9.6472
  1024.5000    112.9127    -60.0646      9.6659      9.5364
  1024.0000    114.0277    -46.0041      9.5347      9.4356
  1023.5000    115.6804    -34.3003      9.4314      9.3410
  1023.0000    115.5193    -40.8218      9.3620      9.2674
  1022.5000    114.6983    -58.0869      9.3089      9.2146
  1022.0000    115.0221    -65.3496      9.2493      9.1506
  1021.5000    115.7185    -66.9987      9.1679      9.0392
  1021.0000    115.9142    -71.5866      9.0532      8.8491
  1020.5000    115.0417    -69.1130      8.8901      8.5710
  1020.0000    114.3857    -59.6891      8.6734      8.2504
  1019.5000    117.5668    -57.6682      8.4162      7.9343
  1019.0000    124.8472    -60.0573      8.1257      7.6359
  1018.5000    130.6132    -56.6434      7.7878      7.3573
  1018.0000    131.2577    -50.5047      7.4074      7.0977
  1017.5000    129.5840    -48.8875      7.0399      6.8472
  1017.0000    129.2599    -48.9888      6.7533      6.6151
  1016.5000    130.1634    -49.7269      6.5715      6.4338
  1016.0000    130.3240    -54.3955      6.4664      6.3218
  1015.5000    130.5518    -63.3958      6.3948      6.2608
  1015.0000    130.5725    -72.1496      6.3331      6.2201
  1014.5000    130.2210    -74.1016      6.2803      6.1821
  1014.0000    129.6378    -62.3307      6.2400      6.1353
  1013.5000    128.0564    -41.8564      6.2114      6.0861
  1013.0000    128.0695    -31.5672      6.1880      6.0537
  1012.5000    130.4719    -41.7017      6.1598      6.0392
  1012.0000    132.1876    -57.4586      6.1238      6.0294
  1011.5000    133.3915    -64.2983      6.0898      6.0196
  1011.0000    134.8824    -66.4351      6.0694      6.0082
  1010.5000    135.2173    -66.0566      6.0671      6.0013
  1010.0000    135.3492    -56.2899      6.0791      6.0113
  1009.5000    136.2104    -43.4207      6.0952      6.0275
  1009.0000    134.5666    -42.2934      6.1045      6.0248
  1008.5000    132.8207    -51.2275      6.1011      6.0020
  1008.0000    134.7577    -58.9605      6.0841      5.9697
  1007.5000    136.6993    -59.6412      6.0566      5.9285
  1007.0000    134.8132    -53.2063      6.0206      5.8808
  1006.5000    132.2053    -38.6652      5.9761      5.8317
