~Version Information
 VERS.                2.00:   CWLS log ASCII Standard -VERSION 2.00
 WRAP.                  NO:   One line per frame
~Well Information Block
#MNEM.UNIT              Data                Description
#--------- -------------------------------  -------------------------------
 STRT.F                          653.0000:   Starting Depth
 STOP.F                           -2.7500:   Ending Depth
 STEP.F                           -0.5000:   Level Spacing
 NULL.                          -999.2500:   Absent Value
 COMP.     FLUOR DANIEL (NPOSR), INC.    :   Company
 WELL.     14-1 X 11                     :   Well
 FLD .     N.P.R. #3                     :   Field
 LOC .     11-38N-78W                    :   Location
 PROV.                                   :   Province
 SRVC.     Western Atlas International   :   Service Company
 LIC .                                   :   License Number
 DATE.     4-August-1995                 :   Log Date
 UWI .     92800                         :   Unique Well ID
~Curve Information Block
#MNEM.UNIT       API Codes    Curve Description
#---------    -------------   -------------------------------
 DEPT.F        0   1  0  1:   Depth
 CILD.MMHO     0 110 46  1:   Conductivity of Deep Induction
 GR  .API      0 310  1  1:   Gamma ray counts
 TEN .LBF      0 635 99  1:   Differential Tension
 RILM.OHMM     0 120 44  1:   Resistivity from CILM
 RILD.OHMM     0 120 46  1:   Resistivity from CILD
#  Curve Data
~A   DEPT        CILD        GR          TEN         RILM        RILD
# ...
   205.0000    118.2345    130.9437    -26.0180      8.5256      8.4578
   204.5000    118.2334    131.2475    -22.4212      8.5266      8.4578
   204.0000    117.7675    134.2866    -20.4414      8.5383      8.4913
   203.5000    117.2140    135.7056    -21.9853      8.5485      8.5314
   203.0000    117.0324    133.2194    -26.2861      8.5608      8.5446
   202.5000    117.3677    129.3592    -27.9523      8.5802      8.5202
   202.0000    118.0496    127.3564    -27.8474      8.6019      8.4710
   201.5000    118.8678    127.1078    -28.6239      8.6201      8.4127
   201.0000    119.8124    127.4297    -29.5710      8.6192      8.3464
   200.5000    120.9843    129.3640    -29.0699      8.5664      8.2655
   200.0000    122.3464    131.7035    -26.9943      8.4338      8.1735
   199.5000    123.7779    134.1997    -25.0762      8.2517      8.0790
   199.0000    125.1286    137.5616    -25.2528      8.0905      7.9918
   198.5000    126.1768    140.0305    -24.5720      7.9870      7.9254
   198.0000    126.7721    140.2929    -21.6150      7.9266      7.8882
   197.5000    126.9865    140.3680    -20.5335      7.8990      7.8749
   197.0000    126.8412    141.7553    -18.4421      7.9169      7.8839
   196.5000    126.3309    141.0430    -15.3760      7.9766      7.9157
   196.0000    125.6481    137.3057    -16.5127      8.0470      7.9587
   195.5000    124.9246    134.3971    -20.4987      8.1022      8.0048
   195.0000    124.1378    134.3101    -17.9245      8.1388      8.0556
   194.5000    123.5185    134.2078    -13.0869      8.1597      8.0960
   194.0000    123.2852    131.5105    -14.6193      8.1707      8.1113
   193.5000    123.1960    129.7878    -18.6617      8.1793      8.1171
   193.0000    122.9711    131.4989    -21.5989      8.1929      8.1320
   192.5000    122.5008    134.0623    -26.6933      8.2193      8.1632
   192.0000    121.6817    135.4731    -29.5966      8.2591      8.2182
   191.5000    120.6586    136.5171    -24.8548      8.3038      8.2878
   191.0000    119.7700    134.4462    -19.5542      8.3507      8.3493
   190.5000    119.0901    128.0397    -22.1033      8.4003      8.3970
   190.0000    118.5172    124.3888    -28.0176      8.4537      8.4376
   189.5000    118.0310    128.1130    -27.7895      8.5093      8.4723
   189.0000    117.5564    134.9927    -22.4657      8.5622      8.5066
   188.5000    117.0775    138.1792    -20.5918      8.6047      8.5413
   188.0000    116.6482    135.3627    -23.5744      8.6303      8.5728
   187.5000    116.3096    130.6551    -26.7436      8.6382      8.5977
   187.0000    116.1684    130.2964    -26.3157      8.6388      8.6082
   186.5000    116.2247    134.2458    -24.7883      8.6425      8.6040
   186.0000    116.3497    134.7235    -24.3951      8.6445      8.5948
   185.5000    116.5408    131.0222    -23.8409      8.6438      8.5807
   185.0000    116.8266    128.3747    -23.5155      8.6426      8.5597
   184.5000    116.9421    130.4980    -25.2982      8.6327      8.5512
   184.0000    116.8068    134.2338    -25.6728      8.6055      8.5611
   183.5000    116.6724    134.8699    -24.7864      8.5641      8.5710
   183.0000    116.6692    131.9340    -26.1168      8.5221      8.5712
   182.5000    116.6224    129.7833    -26.3819      8.5075      8.5747
   182.0000    116.3601    129.7884    -23.1132      8.5455      8.5940
   181.5000    115.9371    131.2688    -21.7218      8.6253      8.6254
   181.0000    115.5598    132.4793    -20.8589      8.7046      8.6535
   180.5000    115.4441    130.9956    -18.0197      8.7478      8.6622
   180.0000    115.7290    127.2954    -18.4540      8.7492      8.6409
   179.5000    116.4183    125.3361    -23.0223      8.7230      8.5897
   179.0000    117.3741    127.9162    -26.9147      8.6756      8.5198
   178.5000    118.4308    131.4475    -27.5610      8.5926      8.4437
   178.0000    119.5378    132.3896    -26.2538      8.4655      8.3656
   177.5000    120.7163    129.3313    -22.4953      8.3165      8.2839
   177.0000    121.9250    122.6869    -18.6434      8.1894      8.2018
   176.5000    122.9717    117.0489    -19.2156      8.1145      8.1320
   176.0000    123.5240    117.6264    -27.3722      8.0963      8.0956
   175.5000    123.4171    121.7153    -36.3999      8.1180      8.1026
   175.0000    122.8031    124.5109    -34.2527      8.1533      8.1431
   174.5000    122.0174    127.2176    -24.0310      8.1813      8.1956
   174.0000    121.3062    130.2823    -21.8121      8.2099      8.2436
   173.5000    120.8236    129.7040    -28.3287      8.2606      8.2765
   173.0000    120.4664    125.5736    -31.0054      8.3370      8.3011
   172.5000    119.8965    123.8990    -29.6801      8.4218      8.3405
   172.0000    119.1485    125.6924    -27.6382      8.4938      8.3929
   171.5000    118.8538    126.5602    -24.3387      8.5262      8.4137
   171.0000    119.6825    124.3007    -21.8337      8.4864      8.3554
   170.5000    121.7061    122.0791    -23.2358      8.3775      8.2165
   170.0000    124.4397    126.4744    -25.4602      8.2432      8.0360
   169.5000    127.2983    137.1835    -26.0318      8.1084      7.8556
   169.0000    129.9201    144.7769    -26.9257      7.9498      7.6970
   168.5000    132.1557    145.0125    -27.6238      7.7511      7.5668
   168.0000    134.0199    145.4746    -25.5450      7.5486      7.4616
   167.5000    135.3567    148.1517    -24.7114      7.4034      7.3879
   167.0000    135.6740    149.6590    -27.5473      7.3461      7.3706
   166.5000    134.6516    149.3886    -29.2803      7.3705      7.4266
   166.0000    132.5574    147.4848    -26.6793      7.4641      7.5439
   165.5000    129.8679    143.3636    -23.2404      7.6203      7.7001
   165.0000    126.9596    140.4964    -21.7401      7.8268      7.8765
   164.5000    124.0944    142.1672    -19.2912      8.0636      8.0584
   164.0000    121.3519    144.3092    -14.3036      8.3083      8.2405
   163.5000    118.8102    144.3702    -14.7544      8.5289      8.4168
   163.0000    116.6701    143.8024    -20.5948      8.6919      8.5712
   162.5000    115.0936    144.6937    -21.3921      8.7914      8.6886
   162.0000    113.8965    146.1979    -19.1052      8.8497      8.7799
   161.5000    112.8397    144.4699    -21.2823      8.8891      8.8621
   161.0000    111.9228    138.1870    -27.2130      8.9277      8.9347
   160.5000    111.2429    134.2115    -33.2956      8.9893      8.9893
   160.0000    110.7580    137.2460    -36.9468      9.0708      9.0287
   159.5000    110.4398    141.6367    -36.1895      9.1377      9.0547
   159.0000    110.2841    142.1534    -34.6053      9.1717      9.0675
   158.5000    110.1965    139.3729    -35.7768      9.1852      9.0747
   158.0000    110.0929    135.1722    -37.5107      9.1872      9.0832
   157.5000    110.0595    131.9611    -37.1956      9.1689      9.0860
   157.0000    110.1376    131.1236    -34.3342      9.1389      9.0795
   156.5000    110.1743    130.3685    -33.3932      9.1263      9.0765
   156.0000    109.8883    127.9305    -36.3206      9.1573      9.1001
   155.5000    109.2191    126.7226    -38.6798      9.2311      9.1559
   155.0000    108.4229    128.0061    -36.1776      9.3109      9.2231
   154.5000    107.8133    129.4438    -32.3016      9.3605      9.2753
   154.0000    107.3846    130.5534    -30.0029      9.3800      9.3123
   153.5000    106.9495    130.8575    -28.6578      9.4017      9.3502
   153.0000    106.5824    130.0279    -26.1053      9.4478      9.3824
   152.5000    106.3963    130.6815    -24.9588      9.5058      9.3988
   152.0000    106.2248    133.5633    -23.2133      9.5479      9.4140
   151.5000    105.9612    134.6830    -17.1803      9.5684      9.4374
   151.0000    105.7670    132.8485    -15.1042      9.5839      9.4547
   150.5000    105.6380    132.6795    -20.9974      9.5994      9.4663
   150.0000    105.3133    134.6487    -23.1730      9.6205      9.4955
   149.5000    104.6737    133.9376    -16.8439      9.6581      9.5535
