~Version Information
 VERS.                1.20:   CWLS log ASCII Standard -VERSION 1.20
 WRAP.                  NO:   One line per frame
~Well Information Block
#MNEM.UNIT       Data Type    Information
#---------    -------------   -------------------------------
 STRT.F          2547.0000:   Starting Depth
 STOP.F           -12.5000:   Ending Depth
 STEP.F            -0.5000:   Level Spacing
 NULL.           -999.2500:   Absent Value
 COMP.             COMPANY:   FLUOR DANIEL (NPOSR), INC.
 WELL.                WELL:   46-1 X 11
 FLD .               FIELD:   
 LOC .            LOCATION:   
 CNTY.              COUNTY:   
 STAT.               STATE:   
 SRVC.     SERVICE COMPANY:   
 LIC .      LICENSE NUMBER:   
 DATE.            LOG DATE:   
 API .          API NUMBER:   
~Curve Information Block
#MNEM.UNIT       API Codes    Curve Description
#---------    -------------   -------------------------------
 DEPT.F        0   1  0  1:   Depth
 GR  .API      0 310  1  1:   Gamma ray counts
 TEN .LBF      0 635 99  1:   Differential Tension
 RILM.OHMM     0 120 44  1:   Resistivity from CILM
 RILD.OHMM     0 120 46  1:   Resistivity from CILD
#  Curve Data
~A   DEPT        GR          TEN         RILM        RILD
  2547.0000      0.0000   -250.0000      0.2000      0.2000
  2546.5000      0.0000   -250.0000      0.2000      0.2000
  2546.0000      0.0000   -250.0000      0.2000      0.2000
  2545.5000      0.0000   -250.0000      0.2000      0.2000
  2545.0000      0.0000   -250.0000      0.2000      0.2000
  2544.5000      0.0000   -250.0000      0.2000      0.2000
  2544.0000      0.0000   -250.0000      0.2000      0.2000
  2543.5000      0.0000   -250.0000      0.2000      0.2000
  2543.0000      0.0000   -250.0000      0.2000      0.2000
  2542.5000      0.0000   -250.0000      0.2000      0.2000
  2542.0000      0.0000   -250.0000      0.2000      0.2000
  2541.5000      0.0000   -250.0000      0.2000      0.2000
  2541.0000      0.0000   -250.0000      0.2000      0.2000
  2540.5000      0.0000   -250.0000      0.2000      0.2000
  2540.0000      0.0000   -250.0000      0.2000      0.2000
  2539.5000      0.0000   -250.0000      0.2000      0.2000
  2539.0000      0.0000   -250.0000      0.2000      0.2000
  2538.5000      0.0000   -250.0000      0.2000      0.2000
  2538.0000      0.0000    -51.1695      0.2000      0.2000
  2537.5000      0.0000    102.9400      0.2000      0.2000
  2537.0000      0.0000    231.0388      0.2000      0.2000
  2536.5000      0.0000    233.1305      0.2000      0.2000
  2536.0000      0.0000    129.8169      0.2000      0.2000
  2535.5000      0.0000     28.7161      0.2000      0.2000
  2535.0000      0.0000     -2.5583      0.2000      0.2000
  2534.5000      0.0000      4.9727      0.2000      0.2000
  2534.0000      0.0000      4.7742      0.2000      0.2000
  2533.5000      0.0000     -0.9586      0.2000      0.2000
  2533.0000      0.0000     -4.1706      0.2000      0.2000
  2532.5000      0.0000     -6.3034      0.2000      0.2000
  2532.0000      0.0000     -9.5072      7.4311      0.2000
  2531.5000      0.0000    -17.3759      7.4065      0.2000
  2531.0000      0.0000    -28.4870      7.4594      0.2000
  2530.5000      0.0000    -27.9734      7.5429      0.2000
  2530.0000      0.0000    -18.0575      7.6252      0.2000
  2529.5000      0.0000    -15.4693      7.6998      0.2000
  2529.0000      0.0000    -18.5263      7.8181      0.2000
  2528.5000      0.0000    -20.4374      8.0073      0.2000
  2528.0000      0.0000    -23.9770      8.1770      0.2000
  2527.5000      0.0000    -26.7711      8.1998      0.2000
  2527.0000      0.0000    -24.0224      8.1025      0.2000
  2526.5000      0.0000    -20.2624      8.0366      0.2000
  2526.0000      0.0000    -18.9262      8.0515      0.2000
  2525.5000      0.0000    -19.0909      8.0584      0.2000
  2525.0000      0.0000    -21.9893      8.0510      0.2000
  2524.5000      0.0000    -18.2521      8.1487      0.2000
  2524.0000      0.0000     -8.2356      8.3862      0.2000
  2523.5000      0.0000     -4.2645      8.6539      0.2000
  2523.0000      0.0000     -7.6381      8.8341      0.2000
  2522.5000      0.0000    -10.1419      8.8728      0.2000
  2522.0000      0.0000    -13.4435      8.7989      8.7196
  2521.5000      0.0000    -17.5552      8.7274      8.6999
  2521.0000      0.0000    -19.5862      8.7391      8.6007
  2520.5000      0.0000    -22.7274      8.8233      8.5147
  2520.0000      0.0000    -26.2477      8.9438      8.5096
  2519.5000      0.0000    -26.9846      9.0531      8.5811
  2519.0000      0.0000    -25.5904      9.0668      8.6639
  2518.5000      0.0000    -24.1551      8.9458      8.7050
  2518.0000      0.0000    -20.4954      8.7755      8.7064
  2517.5000      0.0000    -15.5629      8.7002      8.7017
  2517.0000      0.0000    -13.2434      8.7943      8.7261
  2516.5000      0.0000    -17.0522      9.0058      8.7765
  2516.0000      0.0000    -21.0112      9.1901      8.7904
  2515.5000      0.0000    -15.0081      9.2396      8.7361
  2515.0000      0.0000     -6.7509      9.1775      8.6515
  2514.5000    116.6305     -7.8431      9.0889      8.5699
  2514.0000    119.0539    -11.1209      8.9644      8.4927
  2513.5000    120.6161     -7.9422      8.7318      8.4124
  2513.0000    122.6207    -11.1801      8.4283      8.3122
  2512.5000    123.6692    -22.3830      8.2077      8.1976
  2512.0000    121.5124    -25.8762      8.1709      8.1204
  2511.5000    119.9825    -22.4428      8.2852      8.1131
  2511.0000    122.9435    -22.1033      8.4353      8.1452
  2510.5000    127.6400    -24.4415      8.5111      8.1496
  2510.0000    129.8809    -26.9623      8.4598      8.0859
  2509.5000    130.4400    -28.1170      8.2975      7.9739
  2509.0000    132.5343    -24.9881      8.1131      7.8831
  2508.5000    140.5667    -21.0648      8.0043      7.8610
  2508.0000    151.9474    -21.7831      7.9733      7.8957
  2507.5000    156.9927    -24.9960      7.9452      7.9510
  2507.0000    153.0218    -28.9061      7.9176      8.0089
  2506.5000    149.1528    -31.7783      7.9919      8.0587
  2506.0000    149.2722    -35.1918      8.2249      8.1102
  2505.5000    150.5145    -34.5117      8.5248      8.1892
  2505.0000    154.0873    -24.7730      8.7357      8.2843
  2504.5000    157.8041    -10.7595      8.7852      8.3278
  2504.0000    154.4133     -6.5352      8.6919      8.2908
  2503.5000    145.5612    -15.3086      8.5155      8.2152
  2503.0000    137.8539    -29.0272      8.3554      8.1462
  2502.5000    132.2060    -39.9605      8.2750      8.0827
  2502.0000    128.5457    -39.9309      8.2425      8.0145
  2501.5000    128.8192    -24.8697      8.2140      7.9467
  2501.0000    131.5394     -8.6916      8.2188      7.9131
  2500.5000    134.4737     -5.4568      8.2738      7.9317
  2500.0000    138.9642    -14.8517      8.2924      7.9558
  2499.5000    143.3188    -31.2909      8.1808      7.9125
  2499.0000    143.5138    -45.1492      7.9916      7.7816
  2498.5000    140.5613    -46.1355      7.8448      7.5922
  2498.0000    136.9911    -39.1355      7.7640      7.3790
  2497.5000    134.3555    -35.4541      7.6660      7.1443
  2497.0000    134.0276    -31.2570      7.4626      6.8613
  2496.5000    136.3307    -25.8991      7.1331      6.5283
  2496.0000    139.5281    -21.1807      6.7189      6.1721
  2495.5000    144.1571    -18.7688      6.2826      5.8115
  2495.0000    149.9791    -20.3737      5.8754      5.4971
  2494.5000    153.4353    -27.3155      5.5292      5.2718
  2494.0000    153.8498    -26.8211      5.2743      5.1507
  2493.5000    153.4849    -17.2523      5.1254      5.1125
  2493.0000    151.4731    -16.4810      5.0594      5.1111
  2492.5000    144.8212    -31.6932      5.0440      5.1028
  2492.0000    137.2265    -40.1276      5.0766      5.0746
  2491.5000    135.4648    -30.8968      5.1585      5.0335
  2491.0000    140.5011    -20.0132      5.2495      4.9767
  2490.5000    148.0961    -16.9931      5.2657      4.8877
  2490.0000    154.1054    -18.4071      5.1149      4.7154
  2489.5000    156.8243    -19.6246      4.7729      4.4167
  2489.0000    158.5537    -17.9685      4.3538      4.0445
  2488.5000    160.3171    -18.6520      3.9969      3.6640
  2488.0000    159.2855    -25.7326      3.7149      3.3320
  2487.5000    153.5298    -28.1539      3.4336      3.0476
  2487.0000    146.2270    -23.5430      3.1436      2.8241
  2486.5000    142.4273    -24.9356      2.9247      2.6780
  2486.0000    143.4795    -34.2966      2.8077      2.6044
  2485.5000    144.0394    -40.6150      2.7292      2.5761
  2485.0000    139.6733    -40.8242      2.6425      2.5613
  2484.5000    134.5727    -33.4747      2.5930      2.5364
  2484.0000    133.3293    -22.7786      2.6204      2.4950
  2483.5000    133.3680    -18.0285      2.6849      2.4607
  2483.0000    133.8730    -18.0819      2.7336      2.4592
  2482.5000    137.4199    -15.6932      2.7744      2.4970
  2482.0000    142.7925    -17.8971      2.8151      2.5900
  2481.5000    145.9367    -30.0282      2.8258      2.7495
  2481.0000    145.8967    -35.3019      2.8208      2.9336
  2480.5000    142.8974    -25.8701      2.8766      3.0980
