~Version Information
 VERS.                1.20:   CWLS log ASCII Standard -VERSION 1.20
 WRAP.                  NO:   One line per frame
~Well Information Block
#MNEM.UNIT       Data Type    Information
#---------    -------------   -------------------------------
 STRT.F          2547.0000:   Starting Depth
 STOP.F           -12.5000:   Ending Depth
 STEP.F            -0.5000:   Level Spacing
 NULL.           -999.2500:   Absent Value
 COMP.             COMPANY:   FLUOR DANIEL (NPOSR), INC.
 WELL.                WELL:   46-1 X 11
 FLD .               FIELD:   
 LOC .            LOCATION:   
 CNTY.              COUNTY:   
 STAT.               STATE:   
 SRVC.     SERVICE COMPANY:   
 LIC .      LICENSE NUMBER:   
 DATE.            LOG DATE:   
 API .          API NUMBER:   
~Curve Information Block
#MNEM.UNIT       API Codes    Curve Description
#---------    -------------   -------------------------------
 DEPT.F        0   1  0  1:   Depth
 GR  .API      0 310  1  1:   Gamma ray counts
 TEN .LBF      0 635 99  1:   Differential Tension
 RILM.OHMM     0 120 44  1:   Resistivity from CILM
 RILD.OHMM     0 120 46  1:   Resistivity from CILD
#  Curve Data
~A   DEPT        GR          TEN         RILM        RILD
# ...
  2212.0000    152.3883    -32.0451      8.6272      8.3496
  2211.5000    155.3261    -21.5013      8.6833      8.4161
  2211.0000    156.8605    -17.9703      8.6902      8.4434
  2210.5000    156.7506    -30.5781      8.6557      8.4424
  2210.0000    155.5506    -46.8422      8.5926      8.4159
  2209.5000    153.0696    -49.0010      8.5217      8.3559
  2209.0000    151.2646    -41.9900      8.4683      8.2699
  2208.5000    151.0587    -40.6562      8.4486      8.1980
  2208.0000    154.4091    -47.4949      8.4580      8.1737
  2207.5000    161.0260    -54.4861      8.4731      8.1792
  2207.0000    165.1123    -60.3702      8.4717      8.1739
  2206.5000    163.7521    -62.7385      8.4507      8.1491
  2206.0000    161.5399    -59.6028      8.4281      8.1142
  2205.5000    162.7784    -54.2766      8.4159      8.0765
  2205.0000    165.9357    -51.9354      8.4014      8.0492
  2204.5000    166.8328    -49.6052      8.3626      8.0362
  2204.0000    164.7533    -44.2942      8.2944      8.0113
  2203.5000    160.9703    -42.1632      8.2113      7.9568
  2203.0000    156.8987    -44.5971      8.1343      7.8865
  2202.5000    156.4323    -45.6115      8.0796      7.8212
  2202.0000    161.0532    -40.8840      8.0449      7.7766
  2201.5000    165.4910    -38.0844      8.0137      7.7602
  2201.0000    166.5673    -42.9181      7.9766      7.7643
  2200.5000    166.3701    -52.1654      7.9501      7.7884
  2200.0000    165.2014    -59.7480      7.9602      7.8549
  2199.5000    162.9115    -63.7295      8.0155      7.9683
  2199.0000    160.1583    -56.2780      8.0966      8.0937
  2198.5000    156.1740    -38.3172      8.1782      8.1979
  2198.0000    153.0918    -31.2225      8.2599      8.2843
  2197.5000    156.2705    -41.4879      8.3592      8.3679
  2197.0000    162.0681    -52.2907      8.4777      8.4585
  2196.5000    161.1635    -55.2913      8.5959      8.5557
  2196.0000    155.2696    -54.2687      8.7030      8.6448
  2195.5000    152.5055    -50.3988      8.7906      8.7026
  2195.0000    152.3830    -50.8350      8.8402      8.7193
  2194.5000    151.0634    -51.0558      8.8534      8.7058
  2194.0000    149.5429    -45.6802      8.8497      8.6727
  2193.5000    149.1216    -41.8811      8.8269      8.6096
  2193.0000    148.2079    -41.9162      8.7736      8.5232
  2192.5000    146.8017    -40.0264      8.7031      8.4565
  2192.0000    146.9824    -43.0077      8.6356      8.4337
  2191.5000    148.9461    -52.9370      8.5749      8.4372
  2191.0000    150.0889    -61.3129      8.5188      8.4436
  2190.5000    151.3279    -63.9603      8.4897      8.4471
  2190.0000    153.8619    -56.3039      8.5334      8.4549
  2189.5000    156.1481    -41.0125      8.6671      8.4877
  2189.0000    156.9063    -36.4731      8.8384      8.5527
  2188.5000    157.5285    -44.8680      8.9689      8.6287
  2188.0000    159.1767    -47.0923      9.0289      8.6766
  2187.5000    160.2103    -41.4824      9.0411      8.6933
  2187.0000    158.2549    -42.5167      9.0250      8.6979
  2186.5000    154.3069    -51.3401      8.9766      8.6808
  2186.0000    151.3871    -58.8955      8.8936      8.6172
  2185.5000    150.4060    -57.1921      8.8055      8.5202
  2185.0000    152.3563    -44.2290      8.7526      8.4142
  2184.5000    154.9736    -36.3017      8.7191      8.3122
  2184.0000    155.5636    -44.7160      8.6403      8.2350
  2183.5000    155.0154    -53.7761      8.5258      8.2023
  2183.0000    156.2651    -54.6237      8.4612      8.2074
  2182.5000    157.5942    -51.6841      8.4610      8.2345
  2182.0000    156.8632    -45.2788      8.4549      8.2675
  2181.5000    156.1864    -41.4983      8.4304      8.3008
  2181.0000    157.3238    -50.5086      8.4568      8.3397
  2180.5000    157.5307    -67.8970      8.5681      8.4015
  2180.0000    155.3393    -86.5599      8.7145      8.4926
  2179.5000    154.2020    -99.5505      8.8185      8.5873
  2179.0000    154.4666   -101.0843      8.8533      8.6473
  2178.5000    152.8693    -91.3448      8.8447      8.6504
  2178.0000    152.6678    -70.6966      8.8202      8.6019
  2177.5000    156.5026    -50.8731      8.7853      8.5129
  2177.0000    160.1136    -46.8044      8.7327      8.3990
  2176.5000    158.5123    -50.6828      8.6633      8.2811
  2176.0000    155.7193    -48.3654      8.5817      8.1701
  2175.5000    155.4000    -40.4970      8.4770      8.0640
  2175.0000    156.9733    -32.3861      8.3318      7.9691
  2174.5000    158.8071    -33.8678      8.1635      7.8786
  2174.0000    159.0612    -47.5727      8.0053      7.7586
  2173.5000    157.8535    -57.9701      7.8630      7.6004
  2173.0000    156.8016    -54.4114      7.7423      7.4600
  2172.5000    155.9164    -45.4334      7.6794      7.3936
  2172.0000    155.3104    -45.6640      7.6752      7.4037
  2171.5000    157.2087    -52.5070      7.6541      7.4504
  2171.0000    159.6261    -49.4198      7.5769      7.4829
  2170.5000    158.9196    -37.0947      7.5272      7.4834
  2170.0000    157.3842    -36.0184      7.6055      7.4967
  2169.5000    157.5752    -42.6491      7.8042      7.5760
  2169.0000    157.0615    -37.4345      8.0227      7.7066
  2168.5000    154.8618    -24.8426      8.1700      7.8352
  2168.0000    153.5573    -27.6720      8.2323      7.9179
  2167.5000    153.8958    -46.2612      8.2360      7.9391
  2167.0000    153.0832    -57.4532      8.1926      7.9182
  2166.5000    152.7065    -52.4786      8.1066      7.8713
  2166.0000    153.0962    -43.8895      8.0074      7.8043
  2165.5000    152.7621    -36.6476      7.9353      7.7346
  2165.0000    151.3703    -24.6205      7.8947      7.6778
  2164.5000    151.3971    -14.4902      7.8558      7.6252
  2164.0000    152.4466    -21.2356      7.8014      7.5718
  2163.5000    153.0937    -41.2067      7.7409      7.5156
  2163.0000    151.3575    -50.4479      7.6842      7.4560
  2162.5000    149.2099    -46.2475      7.6280      7.3981
  2162.0000    150.4025    -44.5361      7.5611      7.3432
  2161.5000    153.3245    -50.3875      7.4744      7.2847
  2161.0000    154.8865    -55.9068      7.3837      7.2280
  2160.5000    154.6862    -54.1509      7.3244      7.1909
  2160.0000    152.9256    -48.1748      7.3086      7.1776
  2159.5000    149.7351    -48.2385      7.3034      7.1767
  2159.0000    147.7364    -58.6988      7.2804      7.1669
  2158.5000    147.3527    -72.0758      7.2584      7.1386
  2158.0000    147.6096    -79.3024      7.2708      7.1119
  2157.5000    148.9198    -74.2770      7.3186      7.1179
  2157.0000    149.6191    -60.2503      7.3681      7.1647
  2156.5000    148.8021    -46.4314      7.3922      7.2353
  2156.0000    149.9840    -36.5646      7.4015      7.2902
  2155.5000    154.0794    -39.9605      7.4285      7.2983
  2155.0000    157.1121    -61.4807      7.4852      7.2747
  2154.5000    157.4380    -82.6968      7.5498      7.2497
  2154.0000    153.8590    -83.1814      7.5927      7.2252
  2153.5000    147.8360    -70.9851      7.6032      7.1995
  2153.0000    144.5766    -62.2700      7.5816      7.1851
  2152.5000    146.4669    -53.0901      7.5151      7.1818
  2152.0000    148.6770    -37.0044      7.4056      7.1745
  2151.5000    151.2380    -30.8873      7.3001      7.1544
  2151.0000    153.6965    -44.3998      7.2570      7.1277
  2150.5000    153.3123    -55.6591      7.2791      7.0948
  2150.0000    152.2723    -53.5473      7.3033      7.0359
  2149.5000    155.4665    -55.2163      7.2803      6.9467
  2149.0000    158.2641    -63.9048      7.2325      6.8685
  2148.5000    153.7253    -64.4072      7.1974      6.8362
  2148.0000    145.8144    -54.1070      7.1493      6.8500
  2147.5000    142.4955    -39.5783      7.0436      6.8892
  2147.0000    144.7622    -29.6027      6.9180      6.9198
  2146.5000    148.9534    -29.4938      6.8763      6.9307
  2146.0000    152.2361    -35.0174      6.9751      6.9661
  2145.5000    153.9306    -42.2373      7.1925      7.0591
