~Version Information
 VERS.                1.20:   CWLS log ASCII Standard -VERSION 1.20
 WRAP.                  NO:   One line per frame
~Well Information Block
#MNEM.UNIT       Data Type    Information
#---------    -------------   -------------------------------
 STRT.F          2547.0000:   Starting Depth
 STOP.F           -12.5000:   Ending Depth
 STEP.F            -0.5000:   Level Spacing
 NULL.           -999.2500:   Absent Value
 COMP.             COMPANY:   FLUOR DANIEL (NPOSR), INC.
 WELL.                WELL:   46-1 X 11
 FLD .               FIELD:   
 LOC .            LOCATION:   
 CNTY.              COUNTY:   
 STAT.               STATE:   
 SRVC.     SERVICE COMPANY:   
 LIC .      LICENSE NUMBER:   
 DATE.            LOG DATE:   
 API .          API NUMBER:   
~Curve Information Block
#MNEM.UNIT       API Codes    Curve Description
#---------    -------------   -------------------------------
 DEPT.F        0   1  0  1:   Depth
 GR  .API      0 310  1  1:   Gamma ray counts
 TEN .LBF      0 635 99  1:   Differential Tension
 RILM.OHMM     0 120 44  1:   Resistivity from CILM
 RILD.OHMM     0 120 46  1:   Resistivity from CILD
#  Curve Data
~A   DEPT        GR          TEN         RILM        RILD
# ...
   872.0000    122.6159    -65.4997      9.3430      9.2108
   871.5000    123.5863    -64.2998      9.2652      9.1347
   871.0000    120.4073    -63.5080      9.1769      9.0499
   870.5000    116.8921    -63.2594      9.0828      8.9709
   870.0000    113.8984    -61.6869      9.0069      8.9168
   869.5000    110.6372    -57.1030      8.9754      8.8957
   869.0000    110.0535    -50.6361      8.9793      8.8962
   868.5000    112.3967    -46.2566      8.9814      8.8916
   868.0000    113.4202    -46.9737      8.9568      8.8691
   867.5000    112.6973    -48.3815      8.9223      8.8350
   867.0000    112.7982    -46.6632      8.9114      8.8053
   866.5000    114.1095    -45.4465      8.9242      8.7893
   866.0000    115.5452    -47.1378      8.9249      8.7772
   865.5000    116.8864    -49.7821      8.8855      8.7518
   865.0000    118.2847    -52.7092      8.8103      8.7106
   864.5000    119.7132    -55.9282      8.7236      8.6546
   864.0000    119.2524    -57.1232      8.6552      8.5896
   863.5000    117.5123    -51.6246      8.6199      8.5434
   863.0000    117.3778    -43.5894      8.6106      8.5376
   862.5000    119.2289    -44.1921      8.6139      8.5555
   862.0000    121.1710    -51.0341      8.6140      8.5637
   861.5000    122.0996    -53.0541      8.5926      8.5445
   861.0000    122.6422    -52.3380      8.5543      8.5055
   860.5000    123.4382    -49.9486      8.5347      8.4713
   860.0000    122.5292    -45.1141      8.5544      8.4552
   859.5000    119.4931    -42.3123      8.5837      8.4521
   859.0000    118.2994    -45.5582      8.5778      8.4518
   858.5000    120.1520    -52.2459      8.5216      8.4402
   858.0000    122.2771    -57.2339      8.4445      8.4133
   857.5000    122.8950    -56.6373      8.3945      8.3863
   857.0000    123.5378    -51.3785      8.3914      8.3778
   856.5000    125.2305    -45.1976      8.4181      8.3831
   856.0000    125.9773    -42.8129      8.4465      8.3853
   855.5000    124.8641    -45.1861      8.4592      8.3693
   855.0000    123.3136    -50.6026      8.4564      8.3356
   854.5000    123.2880    -53.7630      8.4469      8.2980
   854.0000    123.2456    -54.0393      8.4303      8.2662
   853.5000    123.4052    -49.5872      8.3961      8.2233
   853.0000    124.4036    -44.3793      8.3322      8.1519
   852.5000    123.9025    -45.9074      8.2327      8.0689
   852.0000    119.9149    -51.0509      8.1296      8.0021
   851.5000    116.7834    -50.8618      8.0787      7.9591
   851.0000    118.1458    -46.1315      8.0900      7.9320
   850.5000    120.4393    -44.5083      8.1084      7.9138
   850.0000    119.7053    -47.0777      8.0946      7.9033
   849.5000    118.3487    -54.0191      8.0708      7.9033
   849.0000    119.9937    -61.9153      8.0673      7.9115
   848.5000    123.7986    -67.0201      8.0784      7.9128
   848.0000    125.6751    -64.8387      8.0792      7.9016
   847.5000    124.4335    -51.8073      8.0590      7.8905
   847.0000    122.7839    -38.8210      8.0301      7.8775
   846.5000    123.1534    -37.7901      8.0036      7.8511
   846.0000    125.0114    -48.1680      7.9724      7.8180
   845.5000    126.7212    -61.7586      7.9284      7.7906
   845.0000    126.1900    -69.4534      7.8717      7.7605
   844.5000    122.0775    -61.4023      7.8100      7.7221
   844.0000    117.3948    -43.1111      7.7685      7.6839
   843.5000    117.9856    -30.0132      7.7670      7.6562
   843.0000    122.9898    -33.1437      7.7826      7.6395
   842.5000    125.5894    -48.3370      7.7778      7.6346
   842.0000    122.5815    -56.8975      7.7517      7.6497
   841.5000    117.4918    -47.6572      7.7378      7.6873
   841.0000    114.8085    -29.7207      7.7649      7.7444
   840.5000    115.8783    -21.9554      7.8354      7.8223
   840.0000    118.3561    -31.4220      7.9305      7.9099
   839.5000    118.9911    -43.4726      8.0374      7.9996
   839.0000    117.2381    -45.0049      8.1592      8.0991
   838.5000    117.9546    -41.5922      8.2940      8.2123
   838.0000    121.6265    -40.7879      8.4187      8.3284
   837.5000    123.0576    -44.2711      8.5060      8.4236
   837.0000    122.8338    -51.2540      8.5620      8.4739
   836.5000    124.2101    -58.2681      8.6174      8.4937
   836.0000    125.1566    -60.0905      8.6725      8.5151
   835.5000    123.6456    -55.3340      8.6915      8.5355
   835.0000    121.7867    -49.3835      8.6649      8.5428
   834.5000    120.0636    -47.1689      8.6236      8.5442
   834.0000    118.4596    -46.7574      8.5988      8.5462
   833.5000    118.3852    -46.5735      8.5961      8.5439
   833.0000    121.1116    -47.1905      8.6046      8.5311
   832.5000    125.9306    -47.8225      8.6039      8.4981
   832.0000    128.5159    -46.7946      8.5756      8.4399
   831.5000    125.7956    -47.1853      8.5183      8.3539
   831.0000    120.7236    -52.5765      8.4412      8.2326
   830.5000    120.3868    -54.1116      8.3450      8.0817
   830.0000    125.1316    -48.6539      8.2133      7.9201
   829.5000    128.5094    -50.6291      8.0197      7.7307
   829.0000    127.5841    -65.9337      7.7545      7.4661
   828.5000    125.4147    -77.0427      7.4364      7.1119
   828.0000    125.3494    -73.5700      7.0862      6.7035
   827.5000    127.8665    -64.3157      6.7281      6.3080
   827.0000    130.8404    -57.6673      6.4111      5.9921
   826.5000    132.1054    -50.0468      6.1682      5.8115
   826.0000    132.0735    -40.6175      5.9661      5.7415
   825.5000    131.6227    -35.3852      5.7537      5.7282
   825.0000    131.6384    -32.6747      5.5710      5.7409
   824.5000    131.5942    -32.8378      5.5398      5.7889
   824.0000    131.4753    -41.0957      5.7367      5.9124
   823.5000    131.4209    -49.2590      6.1120      6.1382
   823.0000    130.5239    -44.1314      6.5198      6.4228
   822.5000    127.0478    -35.9375      6.8379      6.6991
   822.0000    122.9698    -37.6672      7.0357      6.9263
   821.5000    121.0535    -43.3256      7.1395      7.0861
   821.0000    120.9512    -43.1395      7.1945      7.1819
   820.5000    121.4066    -42.7622      7.2324      7.2369
   820.0000    122.0399    -48.9949      7.2612      7.2629
   819.5000    122.7247    -52.9648      7.2881      7.2603
   819.0000    123.1612    -50.8835      7.3203      7.2363
   818.5000    123.9821    -56.2667      7.3393      7.2014
   818.0000    126.5518    -69.6510      7.3210      7.1632
   817.5000    129.9386    -70.1116      7.2733      7.1271
   817.0000    130.6295    -56.9652      7.2219      7.0923
   816.5000    127.2905    -47.1490      7.1704      7.0574
   816.0000    122.6748    -46.7452      7.1091      7.0266
   815.5000    119.8017    -51.2205      7.0606      7.0111
   815.0000    117.8145    -56.2502      7.0792      7.0273
   814.5000    116.9353    -55.9318      7.1825      7.0792
   814.0000    119.8889    -50.4250      7.3201      7.1508
   813.5000    124.8033    -45.9604      7.4253      7.2205
   813.0000    126.1878    -42.5515      7.4665      7.2653
   812.5000    123.2020    -35.5688      7.4407      7.2628
   812.0000    118.9994    -30.7831      7.3644      7.2441
   811.5000    116.5586    -39.6262      7.2886      7.2702
   811.0000    118.9239    -56.3353      7.2820      7.3564
   810.5000    123.3743    -65.4899      7.3659      7.4732
   810.0000    124.1039    -66.7270      7.4586      7.5872
   809.5000    120.3943    -65.0675      7.4782      7.6542
   809.0000    118.2945    -56.6513      7.4430      7.6496
   808.5000    119.1778    -41.4342      7.3854      7.5724
   808.0000    119.3441    -33.8026      7.2941      7.4194
   807.5000    117.0305    -38.4721      7.1690      7.2204
   807.0000    115.1726    -43.9624      7.0335      7.0226
   806.5000    116.9711    -43.2545      6.8915      6.8095
   806.0000    121.5283    -42.7534      6.7026      6.5159
   805.5000    124.1124    -46.9468      6.3771      6.0131
