~Version Information
 VERS.                2.00:   CWLS log ASCII Standard -VERSION 2.00
 WRAP.                  NO:   One line per frame
~Well Information Block
#MNEM.UNIT              Data                Description
#--------- -------------------------------  -------------------------------
 STRT.F                          653.0000:   Starting Depth
 STOP.F                           -2.7500:   Ending Depth
 STEP.F                           -0.5000:   Level Spacing
 NULL.                          -999.2500:   Absent Value
 COMP.     FLUOR DANIEL (NPOSR), INC.    :   Company
 WELL.     14-1 X 11                     :   Well
 FLD .     N.P.R. #3                     :   Field
 LOC .     11-38N-78W                    :   Location
 PROV.                                   :   Province
 SRVC.     Western Atlas International   :   Service Company
 LIC .                                   :   License Number
 DATE.     4-August-1995                 :   Log Date
 UWI .     92800                         :   Unique Well ID
~Curve Information Block
#MNEM.UNIT       API Codes    Curve Description
#---------    -------------   -------------------------------
 DEPT.F        0   1  0  1:   Depth
 CILD.MMHO     0 110 46  1:   Conductivity of Deep Induction
 GR  .API      0 310  1  1:   Gamma ray counts
 TEN .LBF      0 635 99  1:   Differential Tension
 RILM.OHMM     0 120 44  1:   Resistivity from CILM
 RILD.OHMM     0 120 46  1:   Resistivity from CILD
#  Curve Data
~A   DEPT        CILD        GR          TEN         RILM        RILD
# ...
    37.0000     15.3951     78.6182    -21.6541  10000.0000     64.9559
    36.5000     31.5433     75.9834    -25.0258  10000.0000     31.7024
    36.0000     45.5891     74.1594    -31.8432  10000.0000     21.9351
    35.5000     52.1319     71.2920    -36.5064  10000.0000     19.1821
    35.0000     53.8467     68.0419    -37.2118   2161.8452     18.5712
    34.5000     54.6306     65.9092    -35.5642   1986.1433     18.3047
    34.0000     48.8203     65.7576    -30.4863   1936.3298     20.4833
    33.5000     31.7436     66.8648    -24.3131   1918.2576     31.5024
    33.0000     12.6877     65.5587    -22.7097   1871.9319     78.8167
    32.5000      3.1710     61.9604    -25.3656   1751.1125    315.3577
    32.0000      1.8693     60.7408    -27.7144   1652.7332    534.9561
    31.5000      2.1074     62.4347    -28.0588   1665.9683    474.5220
    31.0000      2.1631     64.6027    -27.8721   1711.6367    462.2979
    30.5000      1.9752     66.3479    -28.0728   1655.3562    506.2773
    30.0000      1.7385     66.0534    -25.7987   1600.5996    575.2170
    29.5000      1.6134     63.1480    -20.2868   1635.3091    619.7993
    29.0000      1.5736     60.3576    -15.0240   1661.2178    635.4902
    28.5000      1.5593     57.9396    -15.1012   1658.6433    641.2932
    28.0000      1.5605     54.6686    -19.6887   1688.8093    640.8088
    27.5000      1.5897     49.7108    -23.9697   1649.4692    629.0530
    27.0000      1.6984     43.8166    -26.0626   1522.1003    588.7932
    26.5000      1.8737     40.0068    -28.1494   1465.3027    533.7153
    26.0000      2.0203     39.9935    -29.3974   1475.7644    494.9709
    25.5000      2.0786     42.1363   -250.0000   1438.9836    481.0815
    25.0000      2.0812     45.5323   -250.0000   1364.9126    480.5015
    24.5000      2.0724     49.6547   -250.0000   1311.2642    482.5244
    24.0000      2.0662     52.9448   -250.0000   1261.0959    483.9761
    23.5000      2.0635     54.1149   -250.0000   1247.0391    484.6191
    23.0000      0.0000     54.0025   -250.0000   1278.0234      0.2000
    22.5000      0.0000     54.7249   -250.0000   1264.0474      0.2000
    22.0000      0.0000     57.1836   -250.0000   1245.9639      0.2000
    21.5000      0.0000     58.7905   -250.0000   1292.3118      0.2000
    21.0000      0.0000     58.8512   -250.0000   1248.3696      0.2000
    20.5000      0.0000     58.5210   -250.0000   1098.4968      0.2000
    20.0000      0.0000     54.6256   -250.0000   1065.4121      0.2000
    19.5000      0.0000     46.9477   -250.0000      0.2000      0.2000
    19.0000      0.0000     43.7174   -250.0000      0.2000      0.2000
    18.5000      0.0000     46.5361   -250.0000      0.2000      0.2000
    18.0000      0.0000     49.0084   -250.0000      0.2000      0.2000
    17.5000      0.0000     49.0832   -250.0000      0.2000      0.2000
    17.0000      0.0000     50.1436   -250.0000      0.2000      0.2000
    16.5000      0.0000     53.0654   -250.0000      0.2000      0.2000
    16.0000      0.0000     56.1812   -250.0000      0.2000      0.2000
    15.5000      0.0000     54.1081   -250.0000      0.2000      0.2000
    15.0000      0.0000     46.5310   -250.0000      0.2000      0.2000
    14.5000      0.0000     39.7746   -250.0000      0.2000      0.2000
    14.0000      0.0000     37.0488   -250.0000      0.2000      0.2000
    13.5000      0.0000     36.3552   -250.0000      0.2000      0.2000
    13.0000      0.0000     35.7670   -250.0000      0.2000      0.2000
    12.5000      0.0000     34.8010   -250.0000      0.2000      0.2000
    12.0000      0.0000     34.0025   -250.0000      0.2000      0.2000
    11.5000      0.0000     33.7977   -250.0000      0.2000      0.2000
    11.0000      0.0000     32.9973   -250.0000      0.2000      0.2000
    10.5000      0.0000     29.6216   -250.0000      0.2000      0.2000
    10.0000      0.0000     23.3834   -250.0000      0.2000      0.2000
     9.5000      0.0000     16.0166   -250.0000      0.2000      0.2000
     9.0000      0.0000     10.5963   -250.0000      0.2000      0.2000
     8.5000      0.0000      8.4524   -250.0000      0.2000      0.2000
     8.0000      0.0000      8.6489   -250.0000      0.2000      0.2000
     7.5000      0.0000      9.2136   -250.0000      0.2000      0.2000
     7.0000      0.0000      9.1735   -250.0000      0.2000      0.2000
     6.5000      0.0000      9.2223   -250.0000      0.2000      0.2000
     6.0000      0.0000     10.1147   -250.0000      0.2000      0.2000
     5.5000      0.0000     10.7531   -250.0000      0.2000      0.2000
     5.0000      0.0000      9.9626   -250.0000      0.2000      0.2000
     4.5000      0.0000      8.7937   -250.0000      0.2000      0.2000
     4.0000      0.0000      8.0147   -250.0000      0.2000      0.2000
     3.5000      0.0000      7.9886   -250.0000      0.2000      0.2000
     3.0000      0.0000     10.0413   -250.0000      0.2000      0.2000
     2.5000      0.0000     14.5288   -250.0000      0.2000      0.2000
     2.0000      0.0000     14.5288   -250.0000      0.2000      0.2000
     1.5000      0.0000     14.5288   -250.0000      0.2000      0.2000
     1.0000      0.0000     14.5288   -250.0000      0.2000      0.2000
     0.5000      0.0000     14.5288   -250.0000      0.2000      0.2000
     0.0000      0.0000     14.5288   -250.0000      0.2000      0.2000
    -0.5000      0.0000     14.5288   -250.0000      0.2000      0.2000
    -1.0000      0.0000     14.5288   -250.0000      0.2000      0.2000
    -1.5000      0.0000     14.5288   -250.0000      0.2000      0.2000
    -2.0000      0.0000     14.5288   -250.0000      0.2000      0.2000
    -2.5000      0.0000     14.5288   -250.0000      0.2000      0.2000
