~Version Information
 VERS.                1.20:   CWLS log ASCII Standard -VERSION 1.20
 WRAP.                  NO:   One line per frame
~Well Information Block
#MNEM.UNIT       Data Type    Information
#---------    -------------   -------------------------------
 STRT.F          2547.0000:   Starting Depth
 STOP.F           -12.5000:   Ending Depth
 STEP.F            -0.5000:   Level Spacing
 NULL.           -999.2500:   Absent Value
 COMP.             COMPANY:   FLUOR DANIEL (NPOSR), INC.
 WELL.                WELL:   46-1 X 11
 FLD .               FIELD:   
 LOC .            LOCATION:   
 CNTY.              COUNTY:   
 STAT.               STATE:   
 SRVC.     SERVICE COMPANY:   
 LIC .      LICENSE NUMBER:   
 DATE.            LOG DATE:   
 API .          API NUMBER:   
~Curve Information Block
#MNEM.UNIT       API Codes    Curve Description
#---------    -------------   -------------------------------
 DEPT.F        0   1  0  1:   Depth
 GR  .API      0 310  1  1:   Gamma ray counts
 TEN .LBF      0 635 99  1:   Differential Tension
 RILM.OHMM     0 120 44  1:   Resistivity from CILM
 RILD.OHMM     0 120 46  1:   Resistivity from CILD
#  Curve Data
~A   DEPT        GR          TEN         RILM        RILD
# ...
  1877.0000    121.5946    -44.1933      6.6626      6.5112
  1876.5000    120.9727    -47.0398      6.7150      6.5239
  1876.0000    121.9685    -51.3233      6.7172      6.5272
  1875.5000    123.6742    -54.1140      6.6856      6.5151
  1875.0000    126.3222    -51.5209      6.6674      6.4994
  1874.5000    127.7831    -48.4526      6.6807      6.5021
  1874.0000    126.5556    -50.8667      6.6982      6.5312
  1873.5000    124.9214    -52.4164      6.6965      6.5649
  1873.0000    124.1040    -48.2141      6.6841      6.5776
  1872.5000    122.2209    -45.3642      6.6773      6.5724
  1872.0000    118.2336    -47.7898      6.6877      6.5628
  1871.5000    115.0851    -50.2057      6.7242      6.5624
  1871.0000    115.3288    -49.0315      6.7726      6.5802
  1870.5000    117.3865    -47.5797      6.7925      6.6122
  1870.0000    119.2001    -48.6164      6.7703      6.6487
  1869.5000    120.2175    -50.6477      6.7361      6.6812
  1869.0000    120.0794    -51.7253      6.7235      6.6992
  1868.5000    117.8836    -51.1747      6.7478      6.7104
  1868.0000    116.2778    -49.3139      6.8092      6.7354
  1867.5000    116.7746    -49.2621      6.8948      6.7719
  1867.0000    118.5535    -52.2322      6.9747      6.8011
  1866.5000    119.2698    -53.0975      7.0091      6.8137
  1866.0000    117.9121    -51.6072      6.9845      6.8025
  1865.5000    113.9167    -51.1561      6.9362      6.7678
  1865.0000    109.5651    -51.1147      6.8988      6.7154
  1864.5000    109.0668    -48.6637      6.8675      6.6466
  1864.0000    111.8256    -43.8883      6.8310      6.5708
  1863.5000    115.3049    -42.0318      6.7901      6.5081
  1863.0000    118.1763    -44.6197      6.7423      6.4576
  1862.5000    120.0200    -47.0706      6.6752      6.3946
  1862.0000    119.5146    -48.9312      6.5727      6.2958
  1861.5000    117.1775    -54.1494      6.4361      6.1553
  1861.0000    115.6515    -58.1626      6.3052      6.0129
  1860.5000    115.0261    -59.5677      6.2236      5.9298
  1860.0000    115.8529    -59.7526      6.1895      5.9285
  1859.5000    118.3385    -56.4445      6.1561      5.9766
  1859.0000    119.1077    -49.7361      6.0850      6.0137
  1858.5000    115.4542    -45.6143      6.0152      6.0032
  1858.0000    112.6797    -45.6390      6.0454      5.9764
  1857.5000    115.8218    -48.2745      6.2221      5.9993
  1857.0000    120.3233    -51.8079      6.4575      6.0937
  1856.5000    121.5062    -51.1699      6.5806      6.2163
  1856.0000    121.5246    -46.9978      6.5254      6.2982
  1855.5000    122.8018    -44.9716      6.3920      6.3097
  1855.0000    124.2571    -49.5448      6.2933      6.2815
  1854.5000    126.0898    -58.9684      6.2647      6.2617
  1854.0000    127.8299    -64.2638      6.2976      6.2691
  1853.5000    126.4214    -59.9658      6.3668      6.3031
  1853.0000    121.4019    -50.5693      6.4414      6.3600
  1852.5000    117.7968    -43.0694      6.5034      6.4291
  1852.0000    118.9611    -40.2225      6.5559      6.4983
  1851.5000    120.7156    -42.2111      6.6064      6.5620
  1851.0000    120.7820    -45.0936      6.6480      6.6105
  1850.5000    120.2617    -45.2428      6.6687      6.6325
  1850.0000    118.7021    -46.7385      6.6824      6.6253
  1849.5000    116.8414    -49.7745      6.7153      6.6027
  1849.0000    117.9622    -49.2853      6.7606      6.5858
  1848.5000    120.5614    -43.7221      6.7808      6.5894
  1848.0000    122.0411    -37.1280      6.7578      6.6104
  1847.5000    123.4644    -33.1322      6.7180      6.6372
  1847.0000    124.7738    -33.5756      6.6960      6.6635
  1846.5000    123.2710    -39.1934      6.7074      6.6909
  1846.0000    121.1188    -41.4111      6.7606      6.7258
  1845.5000    121.6767    -39.2132      6.8645      6.7837
  1845.0000    122.5806    -40.2536      7.0018      6.8729
  1844.5000    120.7976    -44.8286      7.1257      6.9756
  1844.0000    119.0343    -46.4097      7.2062      7.0597
  1843.5000    117.9702    -46.1078      7.2531      7.1114
  1843.0000    116.9446    -46.6607      7.2796      7.1379
  1842.5000    116.5155    -47.0639      7.2892      7.1546
  1842.0000    116.4583    -45.6692      7.2912      7.1749
  1841.5000    116.8598    -44.5465      7.2965      7.1976
  1841.0000    117.3432    -46.2035      7.2978      7.2020
  1840.5000    117.7361    -47.6285      7.2777      7.1676
  1840.0000    117.9949    -45.8116      7.2377      7.0967
  1839.5000    116.9281    -46.1663      7.1952      7.0118
  1839.0000    114.5378    -52.4682      7.1594      6.9395
  1838.5000    114.8526    -58.1336      7.1187      6.8937
  1838.0000    119.0499    -56.6537      7.0505      6.8674
  1837.5000    122.9935    -50.1615      6.9499      6.8439
  1837.0000    122.9431    -47.3595      6.8536      6.8252
  1836.5000    119.3827    -49.9599      6.8185      6.8318
  1836.0000    116.9221    -55.2727      6.8738      6.8686
  1835.5000    119.2421    -58.1183      6.9880      6.9200
  1835.0000    122.5060    -57.1155      7.0992      6.9707
  1834.5000    121.5800    -54.2757      7.1788      7.0174
  1834.0000    117.6384    -52.9163      7.2326      7.0594
  1833.5000    114.7166    -55.4606      7.2631      7.0942
  1833.0000    113.8302    -62.3438      7.2675      7.1161
  1832.5000    113.2642    -67.6960      7.2508      7.1260
  1832.0000    113.7635    -65.1913      7.2185      7.1224
  1831.5000    116.0233    -58.9050      7.1863      7.0993
  1831.0000    117.2846    -53.1264      7.1771      7.0669
  1830.5000    116.6778    -47.3601      7.1997      7.0555
  1830.0000    116.4353    -46.2401      7.2314      7.0713
  1829.5000    116.0726    -51.5752      7.2409      7.0967
  1829.0000    114.3273    -55.1385      7.2176      7.1141
  1828.5000    112.3803    -54.0146      7.1756      7.1080
  1828.0000    111.6423    -52.6067      7.1385      7.0688
  1827.5000    113.4923    -53.3646      7.1251      7.0143
  1827.0000    118.4981    -56.0261      7.1368      6.9732
  1826.5000    124.9174    -57.1387      7.1509      6.9500
  1826.0000    127.7903    -54.2833      7.1315      6.9345
  1825.5000    124.9418    -52.1843      7.0680      6.9251
  1825.0000    121.3344    -53.1548      6.9947      6.9253
  1824.5000    121.5066    -52.3130      6.9571      6.9359
  1824.0000    121.4332    -48.2132      6.9711      6.9645
  1823.5000    118.4085    -43.4372      7.0304      7.0117
  1823.0000    117.2568    -41.4254      7.1263      7.0673
  1822.5000    119.2680    -45.0821      7.2392      7.1243
  1822.0000    120.3611    -50.8173      7.3379      7.1824
  1821.5000    119.5203    -49.6403      7.4024      7.2314
  1821.0000    118.6746    -43.3597      7.4245      7.2563
  1820.5000    117.7368    -40.7669      7.4027      7.2540
  1820.0000    117.3098    -43.5372      7.3624      7.2359
  1819.5000    118.0126    -49.2871      7.3348      7.2166
  1819.0000    118.8451    -54.8366      7.3231      7.2139
  1818.5000    118.9583    -54.8064      7.3209      7.2428
  1818.0000    118.3519    -48.0329      7.3431      7.3009
  1817.5000    115.5281    -37.4955      7.4032      7.3729
  1817.0000    112.2859    -29.1251      7.4991      7.4489
  1816.5000    113.1924    -28.5663      7.6153      7.5227
  1816.0000    116.3300    -37.9447      7.7291      7.5859
  1815.5000    116.6742    -49.1358      7.8039      7.6221
  1815.0000    114.0591    -53.6434      7.8102      7.6054
  1814.5000    111.6694    -48.9702      7.7489      7.5208
  1814.0000    108.9774    -42.5011      7.6458      7.4044
  1813.5000    107.0165    -41.1143      7.5332      7.3091
  1813.0000    108.4249    -44.2732      7.4201      7.2368
  1812.5000    110.8677    -47.0524      7.2934      7.1598
  1812.0000    110.8088    -47.6370      7.1531      7.0748
  1811.5000    110.9190    -48.4776      7.0446      6.9962
  1811.0000    113.6715    -49.2236      7.0079      6.9327
  1810.5000    116.5323    -50.9878      7.0312      6.8982
