~Version Information
 VERS.                2.00:   CWLS log ASCII Standard -VERSION 2.00
 WRAP.                  NO:   One line per frame
~Well Information Block
#MNEM.UNIT              Data                Description
#--------- -------------------------------  -------------------------------
 STRT.F                          653.0000:   Starting Depth
 STOP.F                           -2.7500:   Ending Depth
 STEP.F                           -0.5000:   Level Spacing
 NULL.                          -999.2500:   Absent Value
 COMP.     FLUOR DANIEL (NPOSR), INC.    :   Company
 WELL.     14-1 X 11                     :   Well
 FLD .     N.P.R. #3                     :   Field
 LOC .     11-38N-78W                    :   Location
 PROV.                                   :   Province
 SRVC.     Western Atlas International   :   Service Company
 LIC .                                   :   License Number
 DATE.     4-August-1995                 :   Log Date
 UWI .     92800                         :   Unique Well ID
~Curve Information Block
#MNEM.UNIT       API Codes    Curve Description
#---------    -------------   -------------------------------
 DEPT.F        0   1  0  1:   Depth
 CILD.MMHO     0 110 46  1:   Conductivity of Deep Induction
 GR  .API      0 310  1  1:   Gamma ray counts
 TEN .LBF      0 635 99  1:   Differential Tension
 RILM.OHMM     0 120 44  1:   Resistivity from CILM
 RILD.OHMM     0 120 46  1:   Resistivity from CILD
#  Curve Data
~A   DEPT        CILD        GR          TEN         RILM        RILD
# ...
   541.0000     81.0954     98.6565     99.4657     12.5841     12.3312
   540.5000     81.2021     96.6636     92.4427     12.5564     12.3150
   540.0000     81.3347     95.9456     95.1167     12.5465     12.2949
   539.5000     81.3573     96.1676    103.1504     12.5438     12.2915
   539.0000     81.1301     96.8114    106.1824     12.5400     12.3259
   538.5000     80.7721     99.0593     97.3090     12.5562     12.3805
   538.0000     80.3829    100.1459     81.8772     12.5993     12.4405
   537.5000     79.8395     96.9298     71.5688     12.6593     12.5251
   537.0000     79.0979     94.1742     69.5257     12.7507     12.6426
   536.5000     78.3433     94.8421     71.8851     12.8848     12.7643
   536.0000     77.6237     94.9965     79.7133     13.0270     12.8827
   535.5000     76.8060     92.8741     92.7737     13.1569     13.0198
   535.0000     75.7954     91.6432    104.1956     13.3050     13.1934
   534.5000     74.6778     92.9907    103.6646     13.4793     13.3909
   534.0000     73.6020     96.3282     90.6219     13.6544     13.5866
   533.5000     72.5910     98.8688     80.4550     13.8229     13.7758
   533.0000     71.5980     98.1401     85.1950     13.9890     13.9669
   532.5000     70.6911     96.6423     92.8582     14.1554     14.1460
   532.0000     69.8817     95.8780     90.7070     14.3294     14.3099
   531.5000     69.0727     94.7600     82.9045     14.5238     14.4775
   531.0000     68.2054     93.3732     75.5040     14.7311     14.6616
   530.5000     67.3345     92.4948     71.5563     14.9184     14.8512
   530.0000     66.5862     91.0872     74.6298     15.0618     15.0181
   529.5000     66.0517     90.0487     82.5513     15.1658     15.1396
   529.0000     65.7025     89.6275     88.0148     15.2687     15.2201
   528.5000     65.4215     89.3831     86.9604     15.4130     15.2855
   528.0000     65.0995     91.3660     80.9894     15.5911     15.3611
   527.5000     64.7118     94.4252     78.1571     15.7294     15.4531
   527.0000     64.4172     94.6436     82.4985     15.7741     15.5238
   526.5000     64.3942     92.1598     90.8125     15.7474     15.5293
   526.0000     64.5379     91.5582     98.8496     15.7047     15.4948
   525.5000     64.5339     95.3676     98.8194     15.6820     15.4957
   525.0000     64.2587     99.5416     84.0992     15.7067     15.5621
   524.5000     63.7267     98.0172     68.2321     15.7840     15.6920
   524.0000     63.0490     93.1016     69.2768     15.8765     15.8607
   523.5000     62.3775     91.4511     78.9846     15.9516     16.0314
   523.0000     61.8000     94.4317     81.4307     16.0513     16.1812
   522.5000     61.2245     97.8491     77.5862     16.2544     16.3333
   522.0000     60.5150     99.2052     73.1009     16.5770     16.5248
   521.5000     59.5611    100.0085     66.4467     16.9211     16.7895
   521.0000     58.4434    101.7039     59.6876     17.1628     17.1106
   520.5000     57.2997    103.4721     56.7175     17.3096     17.4521
   520.0000     56.1614    103.8858     54.5017     17.4906     17.8058
   519.5000     54.9951    102.5736     53.9899     17.7996     18.1834
   519.0000     53.7989    100.1284     60.1423     18.2123     18.5878
   518.5000     52.6409     96.7354     70.0249     18.6421     18.9966
   518.0000     51.6857     93.5233     74.5877     19.0515     19.3477
   517.5000     50.8818     91.4321     69.0892     19.4650     19.6534
   517.0000     50.0578     91.6238     57.7890     19.8884     19.9769
   516.5000     49.1929     93.9670     49.8956     20.2576     20.3281
   516.0000     48.3397     97.0038     50.4055     20.5166     20.6869
   515.5000     47.5092     97.1251     56.8114     20.6719     21.0486
   515.0000     46.7852     93.5889     65.4905     20.7901     21.3743
   514.5000     46.2698     91.0715     73.4004     20.9574     21.6124
   514.0000     45.8952     90.8583     74.3398     21.2308     21.7888
   513.5000     45.5685     91.7880     68.2227     21.6065     21.9450
   513.0000     45.2631     93.7615     65.6494     22.0448     22.0930
   512.5000     44.9940     96.3844     67.6350     22.4122     22.2252
   512.0000     44.8196     96.8814     67.5773     22.4950     22.3117
   511.5000     44.8512     94.8374     67.3940     22.2721     22.2959
   511.0000     44.9948     94.6194     67.5050     22.0145     22.2248
   510.5000     45.0160     95.3872     61.0695     21.9337     22.2143
   510.0000     44.9005     94.2484     51.2745     22.0072     22.2714
   509.5000     44.6841     91.8271     45.3026     22.1757     22.3793
   509.0000     44.3246     89.8981     46.5290     22.4420     22.5608
   508.5000     43.8621     87.9192     54.0564     22.7566     22.7987
   508.0000     43.5113     86.8252     61.5410     22.9817     22.9825
   507.5000     43.4261     87.5915     65.5756     23.0933     23.0276
   507.0000     43.5092     89.3777     64.2128     23.2138     22.9837
   506.5000     43.3176     89.4559     53.5342     23.4103     23.0853
   506.0000     42.5155     87.5284     39.1525     23.6244     23.5208
   505.5000     41.2314     86.3825     31.9118     23.8761     24.2534
   505.0000     39.7813     85.8388     31.5904     24.2311     25.1374
   504.5000     38.3412     83.4029     34.9932     24.7809     26.0816
   504.0000     36.9044     80.9150     44.0176     25.6673     27.0970
   503.5000     35.6157     79.3539     54.7094     26.9575     28.0775
   503.0000     34.5674     78.5270     55.4258     28.4838     28.9290
   502.5000     33.6183     77.6236     46.3762     29.9364     29.7457
   502.0000     32.5670     76.9837     40.8932     31.0244     30.7059
   501.5000     31.4128     79.0359     43.2212     31.6567     31.8342
   501.0000     30.2947     84.4800     47.4833     32.0114     33.0090
   500.5000     29.4979     88.9972     51.4270     32.1799     33.9007
   500.0000     29.5538     86.6442     56.5104     31.9853     33.8366
   499.5000     31.0307     78.1740     58.0988     31.4001     32.2261
   499.0000     34.0938     71.7323     52.6500     30.5345     29.3309
   498.5000     38.4127     73.6723     44.6401     29.2553     26.0331
   498.0000     43.6431     81.7244     42.2901     27.1454     22.9131
   497.5000     49.4386     91.3642     45.7738     24.0137     20.2271
   497.0000     55.8498     99.2607     51.3135     20.3688     17.9052
   496.5000     62.9931    103.8101     53.5272     17.0589     15.8748
   496.0000     70.5116    107.2882     46.1486     14.5864     14.1821
   495.5000     77.6157    110.4707     33.9407     12.9841     12.8840
   495.0000     83.4174    110.3914     28.6200     12.0582     11.9879
   494.5000     87.4294    106.8522     28.8606     11.5758     11.4378
   494.0000     89.7522    104.6001     28.2229     11.3404     11.1418
   493.5000     90.7822    106.0195     31.3820     11.2265     11.0154
   493.0000     90.8826    109.1832     40.9334     11.1809     11.0032
   492.5000     90.3282    111.7797     47.7304     11.1980     11.0707
   492.0000     89.2421    111.5966     44.7847     11.2835     11.2055
   491.5000     87.6584    108.0780     39.2718     11.4464     11.4079
   491.0000     85.6660    105.2686     39.3904     11.6838     11.6732
   490.5000     83.5836    104.1264     40.2002     11.9544     11.9641
   490.0000     81.7535    100.1344     32.2019     12.2210     12.2319
   489.5000     80.2054     93.8269     18.0514     12.5164     12.4680
   489.0000     78.7417     91.8517     11.3658     12.9013     12.6997
   488.5000     77.2989     95.1653     20.0132     13.3347     12.9368
   488.0000     76.0780     97.7464     36.4551     13.6227     13.1444
   487.5000     75.5769     97.7683     49.3716     13.5951     13.2316
   487.0000     76.1440     98.2712     54.8503     13.3402     13.1330
   486.5000     77.4183    101.1587     52.1898     13.0853     12.9168
   486.0000     78.7117    104.1575     39.8385     12.9218     12.7046
   485.5000     79.7488    104.1684     27.5140     12.7920     12.5394
