~Version Information
 VERS.                1.20:   CWLS log ASCII Standard -VERSION 1.20
 WRAP.                  NO:   One line per frame
~Well Information Block
#MNEM.UNIT       Data Type    Information
#---------    -------------   -------------------------------
 STRT.F          2547.0000:   Starting Depth
 STOP.F           -12.5000:   Ending Depth
 STEP.F            -0.5000:   Level Spacing
 NULL.           -999.2500:   Absent Value
 COMP.             COMPANY:   FLUOR DANIEL (NPOSR), INC.
 WELL.                WELL:   46-1 X 11
 FLD .               FIELD:   
 LOC .            LOCATION:   
 CNTY.              COUNTY:   
 STAT.               STATE:   
 SRVC.     SERVICE COMPANY:   
 LIC .      LICENSE NUMBER:   
 DATE.            LOG DATE:   
 API .          API NUMBER:   
~Curve Information Block
#MNEM.UNIT       API Codes    Curve Description
#---------    -------------   -------------------------------
 DEPT.F        0   1  0  1:   Depth
 GR  .API      0 310  1  1:   Gamma ray counts
 TEN .LBF      0 635 99  1:   Differential Tension
 RILM.OHMM     0 120 44  1:   Resistivity from CILM
 RILD.OHMM     0 120 46  1:   Resistivity from CILD
#  Curve Data
~A   DEPT        GR          TEN         RILM        RILD
# ...
  1408.0000    109.8519    -51.2946     10.3821     10.2595
  1407.5000    111.9689    -53.1865     10.5037     10.4645
  1407.0000    114.2836    -53.7422     10.6287     10.6528
  1406.5000    113.1267    -52.2968     10.8125     10.8241
  1406.0000    107.4799    -51.2080     11.0801     11.0112
  1405.5000    103.5083    -56.8093     11.4047     11.2353
  1405.0000    106.2136    -62.0297     11.7229     11.4824
  1404.5000    111.1621    -59.6382     11.9706     11.7189
  1404.0000    110.7577    -52.3642     12.1107     11.9117
  1403.5000    106.0832    -48.3794     12.1723     12.0413
  1403.0000    104.5671    -53.0563     12.2350     12.1259
  1402.5000    107.6246    -60.2805     12.3549     12.2116
  1402.0000    108.3446    -65.5643     12.5106     12.3244
  1401.5000    104.3621    -70.5996     12.6337     12.4521
  1401.0000    101.1121    -74.2495     12.6759     12.5551
  1400.5000    101.4489    -70.2747     12.6562     12.6047
  1400.0000    101.3515    -57.5197     12.6495     12.6036
  1399.5000     99.9053    -47.0026     12.6884     12.5864
  1399.0000    100.6522    -43.9304     12.7321     12.5785
  1398.5000    103.1796    -45.7174     12.7324     12.5791
  1398.0000    104.2205    -45.5527     12.6989     12.5680
  1397.5000    104.0181    -46.7306     12.6721     12.5414
  1397.0000    103.7311    -52.3426     12.6558     12.5185
  1396.5000    102.5344    -57.6892     12.6353     12.5050
  1396.0000    100.5857    -61.6978     12.6063     12.4858
  1395.5000     98.1963    -63.4751     12.5743     12.4487
  1395.0000     96.6786    -59.7696     12.5436     12.3843
  1394.5000     97.6895    -50.4784     12.5140     12.2931
  1394.0000    102.6152    -39.9236     12.4551     12.1768
  1393.5000    108.0958    -28.3989     12.3498     12.0224
  1393.0000    109.3120    -27.4921     12.2155     11.8398
  1392.5000    108.0697    -44.2336     12.0451     11.6631
  1392.0000    108.2077    -59.3911     11.8282     11.4912
  1391.5000    109.6301    -59.0572     11.5846     11.3066
  1391.0000    110.5902    -56.2274     11.3348     11.1115
  1390.5000    110.6452    -64.3678     11.0889     10.8897
  1390.0000    108.8279    -76.2723     10.8621     10.6331
  1389.5000    106.2953    -75.0239     10.6659     10.3672
  1389.0000    106.4350    -62.6516     10.4913     10.1202
  1388.5000    110.4612    -54.7661     10.3070      9.9010
  1388.0000    114.9027    -52.4100     10.0745      9.6893
  1387.5000    117.4510    -51.7280      9.7816      9.4543
  1387.0000    119.4451    -55.2712      9.4836      9.2041
  1386.5000    120.3616    -57.8844      9.2424      8.9833
  1386.0000    120.0445    -54.1158      9.0666      8.8039
  1385.5000    120.6012    -53.2866      8.9271      8.6647
  1385.0000    121.8877    -55.5683      8.8066      8.5773
  1384.5000    121.3776    -49.9456      8.7066      8.5266
  1384.0000    118.5624    -45.2275      8.6332      8.4849
  1383.5000    115.2421    -58.5103      8.5855      8.4539
  1383.0000    114.2124    -82.2466      8.5631      8.4372
  1382.5000    115.6254    -89.5401      8.5673      8.4206
  1382.0000    115.2279    -72.7553      8.5837      8.4067
  1381.5000    112.4460    -49.2246      8.5932      8.4087
  1381.0000    111.4263    -44.2030      8.6067      8.4299
  1380.5000    114.9703    -54.3598      8.6387      8.4693
  1380.0000    119.8085    -55.4093      8.6620      8.5002
  1379.5000    122.2195    -45.5582      8.6437      8.4896
  1379.0000    121.7365    -44.9357      8.6074      8.4352
  1378.5000    119.6573    -54.6554      8.5901      8.3652
  1378.0000    118.1527    -62.5207      8.5747      8.2956
  1377.5000    118.2967    -65.3401      8.5049      8.2210
  1377.0000    120.5390    -63.5703      8.3612      8.1215
  1376.5000    123.4101    -61.6820      8.1878      7.9913
  1376.0000    125.5406    -61.4352      8.0337      7.8479
  1375.5000    124.7629    -61.1052      7.9041      7.7072
  1375.0000    123.0190    -58.7122      7.7832      7.5703
  1374.5000    123.1550    -59.5141      7.6664      7.4354
  1374.0000    124.1260    -60.5873      7.5565      7.3096
  1373.5000    123.2236    -59.0581      7.4489      7.2035
  1373.0000    122.8506    -57.3412      7.3412      7.1243
  1372.5000    125.9846    -61.1156      7.2374      7.0651
  1372.0000    128.3289    -69.8319      7.1458      7.0135
  1371.5000    125.9400    -71.6851      7.0673      6.9635
  1371.0000    124.6425    -60.5550      7.0013      6.9168
  1370.5000    128.0955    -45.2687      6.9549      6.8771
  1370.0000    130.3450    -40.9240      6.9323      6.8455
  1369.5000    128.4033    -42.7384      6.9184      6.8192
  1369.0000    125.6519    -43.4689      6.8944      6.7950
  1368.5000    122.8033    -47.4196      6.8627      6.7635
  1368.0000    120.3504    -55.6058      6.8292      6.7179
  1367.5000    122.6738    -60.4156      6.7808      6.6655
  1367.0000    129.2926    -63.3293      6.7068      6.6109
  1366.5000    133.5792    -63.9786      6.6248      6.5526
  1366.0000    133.6825    -57.3183      6.5575      6.4999
  1365.5000    132.4414    -53.5287      6.5089      6.4560
  1365.0000    131.7594    -56.8941      6.4737      6.4100
  1364.5000    131.9790    -58.0232      6.4464      6.3602
  1364.0000    133.0411    -53.0294      6.4143      6.3121
  1363.5000    134.2036    -46.9481      6.3684      6.2639
  1363.0000    136.1596    -44.7609      6.3161      6.2156
  1362.5000    138.3062    -50.9710      6.2707      6.1724
  1362.0000    138.0116    -63.4949      6.2378      6.1373
  1361.5000    136.1326    -70.9622      6.2132      6.1159
  1361.0000    136.5443    -67.0783      6.1929      6.1110
  1360.5000    138.3660    -56.1520      6.1833      6.1161
  1360.0000    138.6606    -45.8793      6.1934      6.1333
  1359.5000    138.4157    -42.4975      6.2264      6.1727
  1359.0000    138.6096    -43.7623      6.2787      6.2295
  1358.5000    137.4684    -43.2374      6.3384      6.2868
  1358.0000    134.7825    -43.5766      6.3927      6.3385
  1357.5000    132.1298    -51.8805      6.4391      6.3868
  1357.0000    132.0024    -58.8318      6.4821      6.4290
  1356.5000    132.8465    -53.4192      6.5221      6.4634
  1356.0000    131.4959    -42.7436      6.5591      6.4907
  1355.5000    129.0942    -37.2927      6.5981      6.5101
  1355.0000    127.8264    -39.5378      6.6389      6.5237
  1354.5000    127.4461    -44.6606      6.6696      6.5381
  1354.0000    130.5422    -51.4099      6.6814      6.5539
  1353.5000    137.2424    -56.0474      6.6816      6.5669
  1353.0000    141.6852    -57.6685      6.6875      6.5806
  1352.5000    140.6151    -59.9044      6.7104      6.6028
  1352.0000    136.1459    -62.9477      6.7473      6.6356
  1351.5000    133.4343    -61.1806      6.7927      6.6725
  1351.0000    133.9517    -59.6327      6.8415      6.7031
  1350.5000    135.1653    -62.0559      6.8865      6.7240
  1350.0000    136.4736    -64.4471      6.9254      6.7452
  1349.5000    138.8647    -68.6534      6.9614      6.7728
  1349.0000    139.3139    -77.8113      6.9873      6.7950
  1348.5000    135.9529    -81.2240      6.9898      6.8002
  1348.0000    133.0432    -68.7467      6.9731      6.7935
  1347.5000    134.0462    -53.6309      6.9494      6.7795
  1347.0000    136.1387    -53.5894      6.9259      6.7586
  1346.5000    136.4838    -59.7825      6.9070      6.7421
  1346.0000    136.2498    -57.6670      6.8954      6.7364
  1345.5000    136.7346    -50.1893      6.8896      6.7406
  1345.0000    137.2039    -43.7474      6.8867      6.7612
  1344.5000    136.8297    -41.4986      6.8883      6.8059
  1344.0000    134.6458    -44.7097      6.8983      6.8637
  1343.5000    131.7232    -51.8201      6.9296      6.9201
  1343.0000    130.0336    -57.1378      6.9943      6.9771
  1342.5000    129.2292    -56.7001      7.0871      7.0418
  1342.0000    129.2828    -54.5840      7.1815      7.1044
  1341.5000    130.1302    -51.3760      7.2516      7.1440
