~Version Information
 VERS.                2.00:   CWLS log ASCII Standard -VERSION 2.00
 WRAP.                  NO:   One line per frame
~Well Information Block
#MNEM.UNIT              Data                Description
#--------- -------------------------------  -------------------------------
 STRT.F                          653.0000:   Starting Depth
 STOP.F                           -2.7500:   Ending Depth
 STEP.F                           -0.5000:   Level Spacing
 NULL.                          -999.2500:   Absent Value
 COMP.     FLUOR DANIEL (NPOSR), INC.    :   Company
 WELL.     14-1 X 11                     :   Well
 FLD .     N.P.R. #3                     :   Field
 LOC .     11-38N-78W                    :   Location
 PROV.                                   :   Province
 SRVC.     Western Atlas International   :   Service Company
 LIC .                                   :   License Number
 DATE.     4-August-1995                 :   Log Date
 UWI .     92800                         :   Unique Well ID
~Curve Information Block
#MNEM.UNIT       API Codes    Curve Description
#---------    -------------   -------------------------------
 DEPT.F        0   1  0  1:   Depth
 CILD.MMHO     0 110 46  1:   Conductivity of Deep Induction
 GR  .API      0 310  1  1:   Gamma ray counts
 TEN .LBF      0 635 99  1:   Differential Tension
 RILM.OHMM     0 120 44  1:   Resistivity from CILM
 RILD.OHMM     0 120 46  1:   Resistivity from CILD
#  Curve Data
~A   DEPT        CILD        GR          TEN         RILM        RILD
# ...
   485.0000     80.5405    101.1920     27.5589     12.6416     12.4161
   484.5000     81.1586     99.5286     35.8082     12.4721     12.3216
   484.0000     81.6875    100.9025     40.3805     12.3252     12.2418
   483.5000     82.0696    101.3688     40.7453     12.2419     12.1848
   483.0000     82.0990     99.9336     38.6566     12.2379     12.1804
   482.5000     81.8377     99.7076     32.5429     12.2855     12.2193
   482.0000     81.4824    101.0630     26.6753     12.3492     12.2726
   481.5000     81.1570    102.2388     26.6616     12.4196     12.3218
   481.0000     80.8228    102.0864     29.0445     12.5146     12.3727
   480.5000     80.3274     99.2662     29.4474     12.6398     12.4491
   480.0000     79.5530     96.7679     30.4231     12.7605     12.5702
   479.5000     78.6382     97.0542     34.9014     12.8317     12.7165
   479.0000     77.7906     96.8193     39.5683     12.8545     12.8550
   478.5000     77.0130     93.6927     40.3003     12.8813     12.9848
   478.0000     76.2144     91.7814     33.8739     12.9678     13.1209
   477.5000     75.2954     92.1485     22.7426     13.1369     13.2810
   477.0000     74.2517     92.3108     15.1847     13.3646     13.4677
   476.5000     73.1827     92.5186     12.2332     13.6080     13.6644
   476.0000     72.2662     95.3860     12.9256     13.8358     13.8377
   475.5000     71.5825     99.5605     21.9872     14.0222     13.9699
   475.0000     71.1105    101.7174     34.8499     14.1355     14.0626
   474.5000     70.8312    101.0409     37.5720     14.1648     14.1181
   474.0000     70.8198     98.6674     32.0796     14.1369     14.1203
   473.5000     71.0156     94.9300     27.7931     14.1007     14.0814
   473.0000     71.1097     92.5739     24.3722     14.0785     14.0628
   472.5000     70.8593     94.2617     18.8877     14.0710     14.1125
   472.0000     70.3186     98.0847     12.8972     14.0764     14.2210
   471.5000     69.6824    100.3242     10.7638     14.0945     14.3508
   471.0000     69.0260    100.1781     16.6426     14.1481     14.4873
   470.5000     68.3140     98.5910     22.1790     14.2597     14.6383
   470.0000     67.5278     97.5145     22.1695     14.4533     14.8087
   469.5000     66.6359     96.6700     23.0607     14.7329     15.0069
   469.0000     65.6730     96.0340     22.0439     15.0511     15.2270
   468.5000     64.7384     96.1404     12.2400     15.3065     15.4468
   468.0000     63.8909     98.1551      1.3829     15.4600     15.6517
   467.5000     63.1617    100.0217      0.7482     15.5597     15.8324
   467.0000     62.5407     98.5887      9.6898     15.6793     15.9896
   466.5000     61.8630     94.4923     22.6728     15.8330     16.1648
   466.0000     61.0043     92.2450     34.2994     16.0021     16.3923
   465.5000     60.0652     92.3362     39.1117     16.2004     16.6486
   465.0000     59.1306     92.8101     33.0300     16.4509     16.9117
   464.5000     58.2247     93.9748     19.3263     16.7315     17.1749
   464.0000     57.4663     94.3400      8.1911     16.9856     17.4015
   463.5000     57.0378     93.1474      4.8992     17.1704     17.5322
   463.0000     57.0030     93.5465      7.3593     17.2865     17.5430
   462.5000     57.2428     96.9914     10.1104     17.3707     17.4694
   462.0000     57.5237     99.7888      9.3052     17.4284     17.3842
   461.5000     57.6961     99.9509      9.2107     17.4184     17.3322
   461.0000     57.8973     98.3154     14.8819     17.2883     17.2720
   460.5000     58.2772     97.4302     19.7176     17.0685     17.1594
   460.0000     58.7240     96.7784     16.5658     16.9016     17.0288
   459.5000     59.0126     95.4549     14.8596     16.9186     16.9455
   459.0000     58.9367     94.8501     18.9185     17.1071     16.9673
   458.5000     58.4886     97.7588     19.2748     17.3332     17.0974
   458.0000     57.9586    101.8640     13.7692     17.4960     17.2537
   457.5000     57.5488    102.9077      8.1661     17.6197     17.3766
   457.0000     56.9612    101.8732      5.2051     17.8076     17.5558
   456.5000     55.6334    101.2761     10.6887     18.1548     17.9748
   456.0000     53.2882     99.7183     22.3559     18.7290     18.7659
   455.5000     50.1492     95.1035     25.0085     19.5551     19.9405
   455.0000     46.6085     88.1788     16.2403     20.6990     21.4553
   454.5000     42.8447     80.0343     10.4380     22.4647     23.3401
   454.0000     38.9137     72.0569     13.8809     25.4304     25.6979
   453.5000     35.0709     67.0551     17.9331     30.1103     28.5137
   453.0000     31.6555     67.1144     20.8272     36.2532     31.5901
   452.5000     29.3580     70.3940     25.2650     42.1297     34.0622
   452.0000     28.6451     74.0866     28.6502     45.2825     34.9100
   451.5000     29.5560     79.0359     26.4450     44.5823     33.8340
   451.0000     31.6994     85.5634     18.0883     40.9855     31.5464
   450.5000     34.5670     90.6457      8.4174     36.2965     28.9294
   450.0000     37.8121     92.1816      8.0117     31.6870     26.4466
   449.5000     41.2634     90.1735     18.4345     27.6259     24.2345
   449.0000     44.7127     87.3461     24.5653     24.3856     22.3650
   448.5000     47.8417     87.2728     20.3060     22.1024     20.9023
   448.0000     50.4583     88.8416     18.0536     20.6721     19.8184
   447.5000     52.3127     89.4186     23.4115     19.8334     19.1158
   447.0000     53.3799     90.0305     29.0461     19.3415     18.7336
   446.5000     53.9605     91.6569     30.8998     19.0673     18.5321
   446.0000     54.3536     92.8669     30.7080     18.9562     18.3981
   445.5000     54.4646     93.8094     23.9730     18.9547     18.3606
   445.0000     53.9344     94.8079     10.1135     19.0499     18.5411
   444.5000     52.5564     94.0770      1.0404     19.3134     19.0272
   444.0000     50.4806     90.9549      3.4377     19.7970     19.8096
   443.5000     48.0505     87.6260      9.2433     20.4619     20.8114
   443.0000     45.5918     85.8380     10.4423     21.3139     21.9338
   442.5000     43.3036     84.7752     10.3663     22.5005     23.0928
   442.0000     41.1918     82.4156     13.2742     24.1743     24.2767
   441.5000     39.2424     79.7020     15.9606     26.3156     25.4826
   441.0000     37.4455     79.8607     12.2461     28.6126     26.7055
   440.5000     35.8674     82.8849      3.8848     30.3369     27.8805
   440.0000     34.8887     86.4456     -0.2910     30.6810     28.6626
   439.5000     34.7760     89.5105      4.1492     29.7016     28.7555
   439.0000     35.3686     90.4818      9.9235     28.3497     28.2736
   438.5000     36.2095     88.4429     11.3567     27.4721     27.6171
   438.0000     36.7016     86.1403     10.9111     27.2832     27.2468
   437.5000     36.5026     85.6588      9.1116     27.4378     27.3953
   437.0000     36.0134     85.1213      3.6228     27.3956     27.7674
   436.5000     35.9695     83.1545     -1.8895     26.9364     27.8013
   436.0000     36.5961     80.3161     -4.7492     26.3443     27.3253
   435.5000     37.6446     79.2703     -7.1794     25.9977     26.5642
   435.0000     38.8067     81.8210     -5.7242     25.9775     25.7687
   434.5000     39.8770     84.9134     -0.9476     25.8853     25.0771
   434.0000     40.8674     84.5202      0.5951     25.2128     24.4694
   433.5000     41.8437     83.4101      0.9382     24.0145     23.8985
   433.0000     42.7531     84.9461      6.2089     22.8554     23.3901
   432.5000     43.3425     87.0944     10.2099     22.1443     23.0721
   432.0000     43.5127     86.0632      7.4688     21.8839     22.9818
   431.5000     43.3598     81.7386      3.5761     21.9290     23.0628
   431.0000     42.9817     77.9660      1.6653     22.2335     23.2657
   430.5000     42.4626     77.0743     -0.0244     22.8539     23.5501
   430.0000     41.9830     76.6531     -3.5734     23.6479     23.8192
   429.5000     41.7389     75.4723     -6.3477     24.2281     23.9585
