~Version Information
 VERS.                1.20:   CWLS log ASCII Standard -VERSION 1.20
 WRAP.                  NO:   One line per frame
~Well Information Block
#MNEM.UNIT       Data Type    Information
#---------    -------------   -------------------------------
 STRT.F          2547.0000:   Starting Depth
 STOP.F           -12.5000:   Ending Depth
 STEP.F            -0.5000:   Level Spacing
 NULL.           -999.2500:   Absent Value
 COMP.             COMPANY:   FLUOR DANIEL (NPOSR), INC.
 WELL.                WELL:   46-1 X 11
 FLD .               FIELD:   
 LOC .            LOCATION:   
 CNTY.              COUNTY:   
 STAT.               STATE:   
 SRVC.     SERVICE COMPANY:   
 LIC .      LICENSE NUMBER:   
 DATE.            LOG DATE:   
 API .          API NUMBER:   
~Curve Information Block
#MNEM.UNIT       API Codes    Curve Description
#---------    -------------   -------------------------------
 DEPT.F        0   1  0  1:   Depth
 GR  .API      0 310  1  1:   Gamma ray counts
 TEN .LBF      0 635 99  1:   Differential Tension
 RILM.OHMM     0 120 44  1:   Resistivity from CILM
 RILD.OHMM     0 120 46  1:   Resistivity from CILD
#  Curve Data
~A   DEPT        GR          TEN         RILM        RILD
# ...
  1207.0000    116.4687    -44.9192      8.5792      8.4088
  1206.5000    115.7883    -43.7117      8.6315      8.4354
  1206.0000    116.8713    -32.8067      8.6857      8.4700
  1205.5000    118.6949    -24.4448      8.7328      8.5054
  1205.0000    120.6273    -21.5885      8.7422      8.5277
  1204.5000    120.7083    -27.0184      8.7060      8.5253
  1204.0000    117.6350    -41.4099      8.6503      8.5052
  1203.5000    114.8873    -54.2540      8.6129      8.4929
  1203.0000    115.5401    -58.4078      8.6188      8.4994
  1202.5000    115.6548    -56.9029      8.6602      8.5292
  1202.0000    113.4162    -55.2993      8.6992      8.5817
  1201.5000    114.6812    -59.3920      8.7162      8.6336
  1201.0000    119.0745    -66.8877      8.7375      8.6677
  1200.5000    120.8425    -65.4524      8.7840      8.6919
  1200.0000    120.3085    -55.0543      8.8361      8.7296
  1199.5000    120.6512    -45.3300      8.8702      8.8011
  1199.0000    120.9284    -39.2053      8.9020      8.8972
  1198.5000    121.7100    -42.6155      8.9598      8.9865
  1198.0000    124.0991    -51.7067      9.0406      9.0566
  1197.5000    125.1736    -51.4593      9.1254      9.1242
  1197.0000    122.7189    -50.8139      9.1969      9.1948
  1196.5000    116.4101    -67.3367      9.2378      9.2552
  1196.0000    111.3790    -86.1881      9.2470      9.2841
  1195.5000    112.1962    -91.9755      9.2433      9.2661
  1195.0000    116.0667    -87.7772      9.2273      9.2069
  1194.5000    117.7267    -80.3422      9.1858      9.1318
  1194.0000    118.1238    -74.5393      9.1225      9.0670
  1193.5000    117.5301    -72.9493      9.0544      9.0204
  1193.0000    114.7737    -71.1251      8.9985      8.9919
  1192.5000    113.2708    -63.7703      8.9644      8.9823
  1192.0000    114.1526    -52.9532      8.9434      8.9807
  1191.5000    115.5243    -40.7383      8.9337      8.9700
  1191.0000    117.3264    -29.0195      8.9534      8.9570
  1190.5000    119.1063    -24.1255      9.0030      8.9679
  1190.0000    118.9736    -28.7935      9.0489      8.9972
  1189.5000    118.0250    -34.1871      9.0634      9.0055
  1189.0000    117.5134    -40.7026      9.0495      8.9763
  1188.5000    117.5029    -54.6090      9.0194      8.9315
  1188.0000    117.5432    -64.1644      8.9775      8.8890
  1187.5000    118.9184    -59.6071      8.9214      8.8316
  1187.0000    120.3541    -54.2189      8.8519      8.7441
  1186.5000    119.1268    -59.2780      8.7796      8.6404
  1186.0000    117.0210    -62.4738      8.7157      8.5483
  1185.5000    118.3078    -50.8414      8.6532      8.4769
  1185.0000    120.7133    -30.7916      8.5723      8.4103
  1184.5000    121.0383    -18.4376      8.4705      8.3444
  1184.0000    120.3187    -22.7652      8.3644      8.2759
  1183.5000    121.6229    -37.0816      8.2704      8.1854
  1183.0000    124.6499    -45.8586      8.1844      8.0647
  1182.5000    126.0280    -46.6491      8.1074      7.9565
  1182.0000    125.7490    -53.3662      8.0572      7.8979
  1181.5000    127.1101    -66.4556      8.0286      7.8846
  1181.0000    128.6842    -69.1652      7.9764      7.8890
  1180.5000    125.3575    -57.3263      7.8839      7.9012
  1180.0000    119.3697    -45.8577      7.8085      7.9167
  1179.5000    117.6279    -42.9437      7.8309      7.9346
  1179.0000    120.4961    -45.2727      7.9734      7.9893
  1178.5000    121.6950    -49.1264      8.1801      8.1199
  1178.0000    119.3542    -48.9601      8.3711      8.2995
  1177.5000    116.6396    -48.5276      8.5063      8.4523
  1177.0000    114.5337    -53.9884      8.5881      8.5441
  1176.5000    113.1033    -55.4612      8.6394      8.5920
  1176.0000    113.5728    -49.1709      8.6820      8.6144
  1175.5000    116.1259    -48.3623      8.7172      8.6099
  1175.0000    118.2395    -57.6078      8.7310      8.5864
  1174.5000    117.9184    -69.5546      8.7096      8.5583
  1174.0000    116.5392    -81.6015      8.6496      8.5141
  1173.5000    118.0833    -86.2134      8.5642      8.4357
  1173.0000    122.5619    -77.1940      8.4843      8.3388
  1172.5000    124.6397    -64.0488      8.4323      8.2595
  1172.0000    121.0129    -57.5044      8.3994      8.2022
  1171.5000    116.7712    -55.7635      8.3575      8.1562
  1171.0000    116.8401    -50.4470      8.3011      8.1201
  1170.5000    117.7680    -43.0974      8.2611      8.1068
  1170.0000    116.3857    -46.9892      8.2593      8.1245
  1169.5000    115.3182    -65.0431      8.2811      8.1666
  1169.0000    116.2100    -77.4142      8.3092      8.2143
  1168.5000    117.9366    -72.4784      8.3584      8.2671
  1168.0000    119.1802    -63.6078      8.4542      8.3386
  1167.5000    117.4326    -62.5955      8.5880      8.4304
  1167.0000    113.3543    -62.2517      8.7155      8.5390
  1166.5000    112.7358    -59.0004      8.8095      8.6660
  1166.0000    116.4351    -60.6483      8.8942      8.8088
  1165.5000    119.2627    -64.1830      8.9918      8.9542
  1165.0000    118.7285    -56.9591      9.0995      9.0911
  1164.5000    116.0617    -46.7730      9.2190      9.2245
  1164.0000    113.3167    -50.0883      9.3659      9.3562
  1163.5000    112.0509    -65.1084      9.5339      9.4776
  1163.0000    111.4444    -74.1952      9.6894      9.5949
  1162.5000    109.3644    -71.5167      9.7967      9.7162
  1162.0000    108.8025    -64.9153      9.8576      9.8243
  1161.5000    111.5632    -61.5405      9.9063      9.9122
  1161.0000    113.1545    -55.6082      9.9557      9.9748
  1160.5000    112.7484    -43.0727      9.9914      9.9872
  1160.0000    114.0716    -36.2935     10.0114      9.9682
  1159.5000    115.6859    -45.4459     10.0293      9.9732
  1159.0000    114.2170    -60.0069     10.0562     10.0084
  1158.5000    113.6394    -63.7075     10.0811     10.0391
  1158.0000    116.0310    -64.0851     10.0756     10.0421
  1157.5000    118.7845    -76.1677     10.0233     10.0085
  1157.0000    118.6602    -93.3870      9.9526      9.9488
  1156.5000    115.3316    -92.8225      9.9146      9.9053
  1156.0000    112.4530    -70.8564      9.9287      9.9071
  1155.5000    113.5421    -51.4956      9.9677      9.9428
  1155.0000    117.5259    -51.4196      9.9827      9.9692
  1154.5000    119.1180    -58.9779      9.9389      9.9310
  1154.0000    116.1049    -63.2503      9.8474      9.7927
  1153.5000    110.9059    -66.8908      9.7344      9.5623
  1153.0000    108.6270    -65.1193      9.5757      9.2506
  1152.5000    110.7691    -53.8526      9.3205      8.8650
  1152.0000    115.7124    -44.1189      8.9843      8.4775
  1151.5000    120.5311    -41.5117      8.6322      8.1790
  1151.0000    123.1640    -40.8514      8.2774      7.9754
  1150.5000    121.7977    -44.2927      7.8995      7.8147
  1150.0000    117.8485    -59.2499      7.5585      7.6674
  1149.5000    115.1739    -75.4463      7.3831      7.5496
  1149.0000    115.6944    -73.4892      7.4280      7.5067
  1148.5000    118.0019    -56.5351      7.6139      7.5592
  1148.0000    118.5576    -41.3546      7.8099      7.6658
  1147.5000    116.8760    -31.2698      7.9415      7.7606
  1147.0000    115.8194    -26.4270      8.0000      7.8052
  1146.5000    116.4946    -33.7705      7.9978      7.7952
  1146.0000    116.8302    -54.1503      7.9486      7.7560
  1145.5000    118.2376    -70.4724      7.8676      7.7204
  1145.0000    121.0924    -67.0698      7.7779      7.6990
  1144.5000    121.7299    -57.1656      7.7067      7.6885
  1144.0000    120.2707    -58.5017      7.6749      7.6955
  1143.5000    120.4702    -60.8042      7.6877      7.7264
  1143.0000    122.8965    -53.9011      7.7305      7.7689
  1142.5000    125.0226    -50.6873      7.7878      7.8073
  1142.0000    124.9569    -57.8207      7.8540      7.8459
  1141.5000    122.9052    -61.2718      7.9194      7.8882
  1141.0000    122.3382    -58.5365      7.9713      7.9061
  1140.5000    124.1137    -63.2134      7.9956      7.8753
