~Version Information
 VERS.                2.00:   CWLS log ASCII Standard -VERSION 2.00
 WRAP.                  NO:   One line per frame
~Well Information Block
#MNEM.UNIT              Data                Description
#--------- -------------------------------  -------------------------------
 STRT.F                          653.0000:   Starting Depth
 STOP.F                           -2.7500:   Ending Depth
 STEP.F                           -0.5000:   Level Spacing
 NULL.                          -999.2500:   Absent Value
 COMP.     FLUOR DANIEL (NPOSR), INC.    :   Company
 WELL.     14-1 X 11                     :   Well
 FLD .     N.P.R. #3                     :   Field
 LOC .     11-38N-78W                    :   Location
 PROV.                                   :   Province
 SRVC.     Western Atlas International   :   Service Company
 LIC .                                   :   License Number
 DATE.     4-August-1995                 :   Log Date
 UWI .     92800                         :   Unique Well ID
~Curve Information Block
#MNEM.UNIT       API Codes    Curve Description
#---------    -------------   -------------------------------
 DEPT.F        0   1  0  1:   Depth
 CILD.MMHO     0 110 46  1:   Conductivity of Deep Induction
 GR  .API      0 310  1  1:   Gamma ray counts
 TEN .LBF      0 635 99  1:   Differential Tension
 RILM.OHMM     0 120 44  1:   Resistivity from CILM
 RILD.OHMM     0 120 46  1:   Resistivity from CILD
#  Curve Data
~A   DEPT        CILD        GR          TEN         RILM        RILD
# ...
   429.0000     41.7264     75.6171     -3.3782     24.3691     23.9656
   428.5000     41.7216     79.1606      0.2489     24.2431     23.9684
   428.0000     41.5170     84.5559      1.0410     24.0611     24.0865
   427.5000     41.0862     86.0449      2.1737     23.8086     24.3391
   427.0000     40.6160     81.2973      2.2695     23.4715     24.6209
   426.5000     40.2626     75.8442     -0.0098     23.2624     24.8369
   426.0000     39.8231     74.2747      1.4655     23.4822     25.1111
   425.5000     38.9533     75.0314      7.9029     24.2627     25.6718
   425.0000     37.7587     75.3110     12.4568     25.4261     26.4840
   424.5000     36.7439     75.1355     11.4701     26.4463     27.2154
   424.0000     36.0965     74.7078      4.8507     26.9126     27.7035
   423.5000     35.7768     74.2704     -2.7545     26.9587     27.9511
   423.0000     35.8111     73.4342     -6.2186     26.8298     27.9243
   422.5000     36.1409     71.6037     -4.7235     26.5354     27.6695
   422.0000     36.8027     70.0650     -0.1958     26.1658     27.1720
   421.5000     38.2102     70.5754      4.3652     25.8253     26.1710
   421.0000     40.7523     72.1146      7.5079     25.2255     24.5385
   420.5000     44.6431     73.1831      8.3832     23.9160     22.3999
   420.0000     49.9210     76.2451      7.0171     21.9414     20.0316
   419.5000     56.2561     83.9232      6.7149     19.6895     17.7758
   419.0000     62.8332     96.5319      8.5604     17.4193     15.9152
   418.5000     69.3801    110.4794      7.1950     15.2908     14.4134
   418.0000     76.2407    120.3553      1.7931     13.4513     13.1164
   417.5000     83.3641    124.1566      1.2917     11.9775     11.9956
   417.0000     90.0482    125.8941      4.6766     10.9026     11.1052
   416.5000     95.4690    128.2824      1.6827     10.2183     10.4746
   416.0000     99.1432    129.7062     -3.4685      9.8558     10.0864
   415.5000    101.1526    130.1915     -0.7534      9.7430      9.8861
   415.0000    101.6854    131.0359      6.3406      9.8162      9.8343
   414.5000    101.1894    132.4016     10.2312      9.9718      9.8825
   414.0000    101.1843    132.1249      7.3825     10.0540      9.8830
   413.5000    103.9754    130.7929     -1.6144      9.9368      9.6177
   413.0000    111.5178    128.9905    -13.2544      9.5678      8.9672
   412.5000    124.8800    126.3851    -18.7575      8.9397      8.0077
   412.0000    142.7033    125.9602    -12.1298      8.1121      7.0075
   411.5000    159.6538    131.4818      0.9919      7.2786      6.2636
   411.0000    170.3743    140.5087      6.0201      6.6072      5.8694
   410.5000    174.2393    149.7260      1.8651      6.0611      5.7392
   410.0000    175.1222    155.0295     -2.9600      5.5288      5.7103
   409.5000    176.0311    151.2520     -6.9473      5.0903      5.6808
   409.0000    176.0974    141.5262    -13.8866      4.9736      5.6787
   408.5000    171.2336    134.6610    -21.6202      5.3470      5.8400
   408.0000    159.0844    131.9634    -21.5842      6.2257      6.2860
   407.5000    143.2897    129.4478    -15.4486      7.3907      6.9789
   407.0000    129.5287    127.9406    -12.5453      8.3930      7.7203
   406.5000    121.0340    130.7375    -11.0349      8.9093      8.2621
   406.0000    117.8542    135.7695     -4.8098      8.9709      8.4851
   405.5000    118.3760    138.7787     -2.8774      8.7917      8.4477
   405.0000    120.3532    139.8903    -10.5756      8.5449      8.3089
   404.5000    122.2554    140.0530    -21.4107      8.3094      8.1796
   404.0000    123.7587    138.7355    -28.7136      8.1234      8.0802
   403.5000    124.8140    137.8300    -26.4996      8.0183      8.0119
   403.0000    125.1425    137.8394    -14.8864      8.0038      7.9909
   402.5000    124.6496    136.2460     -3.4172      8.0580      8.0225
   402.0000    123.7561    132.7221      2.6733      8.1422      8.0804
   401.5000    123.1170    131.9819      7.0769      8.2173      8.1224
   401.0000    123.0659    134.8936      6.9833      8.2531      8.1257
   400.5000    123.4403    137.5550     -0.1348      8.2472      8.1011
   400.0000    123.9342    137.3061    -10.1361      8.2230      8.0688
   399.5000    124.3873    135.9474    -18.0359      8.1999      8.0394
   399.0000    124.8829    133.7297    -21.9606      8.1870      8.0075
   398.5000    125.5330    130.2256    -17.9050      8.1805      7.9660
   398.0000    126.3700    127.5265     -5.3305      8.1505      7.9133
   397.5000    127.4891    129.6758      3.7000      8.0719      7.8438
   397.0000    129.3317    135.4684      3.2672      7.9616      7.7321
   396.5000    132.1765    138.5002      0.7049      7.8417      7.5656
   396.0000    135.9856    136.7220     -2.2170      7.6962      7.3537
   395.5000    140.9931    134.9938     -6.1711      7.4873      7.0925
   395.0000    147.6696    136.5311     -3.4608      7.2049      6.7719
   394.5000    156.1532    140.7354      6.1869      6.8765      6.4040
   394.0000    166.6086    146.0244     13.8296      6.5113      6.0021
   393.5000    178.5157    147.7732     13.6796      6.1032      5.6017
   393.0000    189.1082    144.6187      3.9903      5.7104      5.2880
   392.5000    194.9657    142.5404    -11.4284      5.4323      5.1291
   392.0000    195.5683    145.1007    -22.3858      5.2719      5.1133
   391.5000    193.5068    146.4706    -24.0837      5.1304      5.1678
   391.0000    191.5559    140.9284    -18.5461      4.9898      5.2204
   390.5000    190.0044    133.5357     -9.6447      4.9984      5.2630
   390.0000    186.0525    131.7008     -1.1172      5.2892      5.3748
   389.5000    177.4245    134.8220      4.3127      5.8252      5.6362
   389.0000    166.1587    137.7377      6.8506      6.3922      6.0183
   388.5000    156.4930    140.2932      7.2703      6.7733      6.3901
   388.0000    150.5521    144.4364      4.1206      6.9239      6.6422
   387.5000    148.6636    147.2851     -2.4003      6.9105      6.7266
   387.0000    150.8473    146.8813     -9.5023      6.8058      6.6292
   386.5000    156.5815    144.8723    -13.5267      6.6460      6.3864
   386.0000    165.3134    143.0294    -13.3035      6.4241      6.0491
   385.5000    175.9174    142.0790    -12.8353      6.1394      5.6845
   385.0000    185.1694    144.7694    -12.4809      5.8499      5.4005
   384.5000    190.1679    149.5581     -7.2239      5.6147      5.2585
   384.0000    191.4178    152.9399     -0.0500      5.3997      5.2242
   383.5000    191.5392    154.3729     -1.6604      5.1416      5.2209
   383.0000    192.6901    154.4858    -11.5647      4.9020      5.1897
   382.5000    194.8246    152.7155    -20.8788      4.8500      5.1328
   382.0000    195.0103    150.3435    -22.3925      5.0726      5.1279
   381.5000    191.2809    150.7884    -15.7462      5.4659      5.2279
   381.0000    185.5997    154.8495     -6.3193      5.8183      5.3879
   380.5000    180.2284    160.6039     -1.8809      5.9911      5.5485
   380.0000    175.3928    165.9971     -5.5705      6.0227      5.7015
   379.5000    171.4805    165.7997    -12.1006      5.9766      5.8316
   379.0000    169.0563    158.4291    -12.9604      5.8728      5.9152
   378.5000    167.5448    150.5668     -4.3917      5.7817      5.9686
   378.0000    165.7131    148.2270      5.0081      5.8408      6.0345
   377.5000    161.9289    149.4886      4.5954      6.1232      6.1755
   377.0000    155.6263    151.5178     -5.0313      6.5382      6.4256
   376.5000    148.6074    150.8250    -13.1714      6.9079      6.7291
   376.0000    143.1992    146.8246    -11.6077      7.1380      6.9833
   375.5000    140.1681    144.8519     -5.8194      7.2441      7.1343
   375.0000    139.2283    146.2299     -8.2258      7.2744      7.1824
   374.5000    139.5433    148.0317    -14.6644      7.2822      7.1662
   374.0000    140.0435    149.5677    -12.9659      7.2934      7.1406
   373.5000    140.2845    150.4474     -5.3168      7.2990      7.1284
