~Version Information
 VERS.                1.20:   CWLS log ASCII Standard -VERSION 1.20
 WRAP.                  NO:   One line per frame
~Well Information Block
#MNEM.UNIT       Data Type    Information
#---------    -------------   -------------------------------
 STRT.F          2547.0000:   Starting Depth
 STOP.F           -12.5000:   Ending Depth
 STEP.F            -0.5000:   Level Spacing
 NULL.           -999.2500:   Absent Value
 COMP.             COMPANY:   FLUOR DANIEL (NPOSR), INC.
 WELL.                WELL:   46-1 X 11
 FLD .               FIELD:   
 LOC .            LOCATION:   
 CNTY.              COUNTY:   
 STAT.               STATE:   
 SRVC.     SERVICE COMPANY:   
 LIC .      LICENSE NUMBER:   
 DATE.            LOG DATE:   
 API .          API NUMBER:   
~Curve Information Block
#MNEM.UNIT       API Codes    Curve Description
#---------    -------------   -------------------------------
 DEPT.F        0   1  0  1:   Depth
 GR  .API      0 310  1  1:   Gamma ray counts
 TEN .LBF      0 635 99  1:   Differential Tension
 RILM.OHMM     0 120 44  1:   Resistivity from CILM
 RILD.OHMM     0 120 46  1:   Resistivity from CILD
#  Curve Data
~A   DEPT        GR          TEN         RILM        RILD
# ...
  2078.0000    168.0550    -48.7991      5.3898      5.2192
  2077.5000    160.6102    -44.4141      5.3618      5.2388
  2077.0000    156.1125    -43.5400      5.3354      5.2350
  2076.5000    153.9792    -46.8754      5.2964      5.1875
  2076.0000    152.5573    -53.0087      5.2456      5.0853
  2075.5000    152.8575    -56.4906      5.2081      4.9650
  2075.0000    152.9673    -52.3520      5.2059      4.8970
  2074.5000    151.7422    -46.3432      5.2189      4.8931
  2074.0000    149.3338    -44.4486      5.1665      4.8968
  2073.5000    146.5391    -44.2552      5.0019      4.8572
  2073.0000    145.1072    -43.8358      4.8104      4.7649
  2072.5000    144.3763    -46.9865      4.7426      4.6702
  2072.0000    141.6000    -50.9301      4.8356      4.6623
  2071.5000    139.6679    -53.4796      5.0039      4.7698
  2071.0000    143.4177    -52.3731      5.1256      4.9306
  2070.5000    149.4201    -50.2622      5.1688      5.0817
  2070.0000    152.7567    -50.4809      5.2023      5.2118
  2069.5000    153.2878    -53.6385      5.3322      5.3404
  2069.0000    152.7881    -55.8434      5.5892      5.5053
  2068.5000    153.4958    -56.2499      5.8919      5.7213
  2068.0000    154.6180    -56.6885      6.1398      5.9438
  2067.5000    153.4556    -55.1480      6.3083      6.1165
  2067.0000    149.9927    -50.6309      6.4221      6.2241
  2066.5000    148.1096    -48.7085      6.5051      6.2784
  2066.0000    148.8544    -51.8814      6.5643      6.3061
  2065.5000    150.2054    -53.8487      6.5914      6.3186
  2065.0000    149.6190    -52.2413      6.5840      6.3118
  2064.5000    148.8393    -54.7832      6.5513      6.2877
  2064.0000    149.6531    -62.4783      6.5041      6.2586
  2063.5000    151.3661    -68.6183      6.4547      6.2301
  2063.0000    151.5711    -71.0153      6.4195      6.2085
  2062.5000    152.6607    -69.8984      6.4131      6.1907
  2062.0000    155.8237    -63.1353      6.4302      6.1711
  2061.5000    156.1226    -55.3044      6.4385      6.1524
  2061.0000    151.2933    -52.0059      6.4088      6.1392
  2060.5000    147.3828    -48.8378      6.3587      6.1282
  2060.0000    146.1786    -44.0185      6.3315      6.1278
  2059.5000    143.3535    -44.4171      6.3492      6.1649
  2059.0000    139.9261    -46.8376      6.4051      6.2466
  2058.5000    139.2429    -45.2632      6.4858      6.3556
  2058.0000    138.6930    -44.5898      6.5813      6.4780
  2057.5000    135.1309    -48.6676      6.6747      6.5706
  2057.0000    127.9034    -51.2415      6.7491      6.5924
  2056.5000    121.6586    -49.9691      6.8207      6.5826
  2056.0000    124.4568    -49.8824      6.9336      6.6081
  2055.5000    135.9943    -55.5307      7.0643      6.6827
  2055.0000    145.3617    -61.5673      7.0794      6.7815
  2054.5000    146.8647    -58.8900      6.9305      6.8497
  2054.0000    143.1772    -49.1581      6.7890      6.8477
  2053.5000    139.6080    -41.1619      6.8134      6.8176
  2053.0000    139.6511    -42.3035      6.9670      6.8171
  2052.5000    138.5535    -53.6352      7.1242      6.8364
  2052.0000    132.7021    -64.3635      7.2285      6.8441
  2051.5000    128.5443    -66.0282      7.2753      6.8311
  2051.0000    130.3908    -62.3899      7.2265      6.7887
  2050.5000    135.7366    -58.9397      7.0575      6.7025
  2050.0000    140.4355    -54.6222      6.8319      6.5780
  2049.5000    141.9733    -46.7690      6.6469      6.4496
  2049.0000    140.7653    -39.5576      6.5415      6.3570
  2048.5000    139.2761    -42.0891      6.5058      6.3235
  2048.0000    138.4060    -52.8669      6.5259      6.3606
  2047.5000    139.7266    -62.7657      6.5891      6.4608
  2047.0000    143.3904    -64.5926      6.6737      6.5894
  2046.5000    146.6648    -59.8517      6.7539      6.6973
  2046.0000    148.7769    -53.7556      6.8142      6.7471
  2045.5000    149.8292    -50.4382      6.8495      6.7239
  2045.0000    148.6089    -48.6259      6.8468      6.6301
  2044.5000    146.1283    -50.1432      6.7893      6.4840
  2044.0000    145.8123    -53.6898      6.6971      6.3452
  2043.5000    148.7068    -53.2609      6.6069      6.2697
  2043.0000    151.6661    -46.4829      6.4969      6.2322
  2042.5000    152.2847    -41.4056      6.3094      6.1676
  2042.0000    152.0267    -43.7260      6.0848      6.0609
  2041.5000    151.7914    -47.2091      5.9603      5.9430
  2041.0000    149.9301    -46.7544      6.0074      5.8677
  2040.5000    146.0226    -46.1538      6.1541      5.8751
  2040.0000    144.6584    -48.1144      6.2716      5.9404
  2039.5000    147.0665    -49.8590      6.2969      6.0015
  2039.0000    147.1725    -50.3799      6.2480      6.0297
  2038.5000    143.0794    -52.1443      6.1816      6.0282
  2038.0000    141.4893    -57.5117      6.1602      6.0172
  2037.5000    142.9279    -64.0549      6.2102      6.0459
  2037.0000    142.2108    -66.0133      6.3173      6.1534
  2036.5000    140.9759    -58.9120      6.4640      6.3270
  2036.0000    143.5091    -48.5774      6.6379      6.5322
  2035.5000    146.7071    -44.7478      6.8178      6.7460
  2035.0000    146.2544    -45.3672      7.0033      6.9319
  2034.5000    145.1484    -46.6409      7.2237      7.0661
  2034.0000    145.7195    -53.2924      7.4654      7.1612
  2033.5000    145.4508    -63.7142      7.6520      7.2241
  2033.0000    144.9074    -68.5326      7.7184      7.2331
  2032.5000    146.4924    -66.2448      7.6538      7.1727
  2032.0000    147.0036    -61.1409      7.4822      7.0614
  2031.5000    144.7911    -57.7094      7.2651      6.9305
  2031.0000    141.6252    -59.1111      7.0694      6.8042
  2030.5000    138.1161    -58.9986      6.9283      6.7008
  2030.0000    136.5732    -53.7273      6.8459      6.6362
  2029.5000    136.9037    -49.0001      6.8214      6.6152
  2029.0000    135.2655    -50.7182      6.8569      6.6353
  2028.5000    132.7549    -56.4034      6.9389      6.6932
  2028.0000    134.0179    -59.1593      7.0373      6.7824
  2027.5000    136.8052    -57.6844      7.1270      6.8803
  2027.0000    138.0458    -55.5960      7.2096      6.9614
  2026.5000    138.6111    -54.2290      7.3061      7.0178
  2026.0000    139.1229    -51.8460      7.4212      7.0645
  2025.5000    139.3038    -47.1750      7.5191      7.1015
  2025.0000    141.2482    -42.2395      7.5521      7.1130
  2024.5000    145.7109    -43.0108      7.5136      7.0916
  2024.0000    149.0710    -48.8790      7.4351      7.0470
  2023.5000    148.1230    -55.5070      7.3455      6.9867
  2023.0000    146.0951    -56.2606      7.2488      6.9139
  2022.5000    145.5556    -47.4733      7.1432      6.8371
  2022.0000    144.9715    -40.4171      7.0435      6.7744
  2021.5000    143.4272    -47.5852      6.9696      6.7316
  2021.0000    141.9480    -59.8520      6.9258      6.6982
  2020.5000    140.4863    -63.8286      6.9103      6.6702
  2020.0000    139.8340    -58.3517      6.9165      6.6582
  2019.5000    140.5629    -51.2702      6.9286      6.6641
  2019.0000    141.3736    -48.9922      6.9328      6.6847
  2018.5000    140.9827    -52.2630      6.9231      6.7083
  2018.0000    138.7774    -56.7800      6.8979      6.7124
  2017.5000    135.1713    -55.6521      6.8633      6.6816
  2017.0000    133.8143    -48.0964      6.8215      6.6209
  2016.5000    136.8727    -37.8389      6.7583      6.5450
  2016.0000    139.1813    -29.2980      6.6708      6.4698
  2015.5000    137.7694    -25.2613      6.5839      6.4015
  2015.0000    136.6348    -27.1679      6.5249      6.3406
  2014.5000    137.9807    -30.3201      6.4871      6.2916
  2014.0000    139.2193    -33.8050      6.4252      6.2198
  2013.5000    138.9985    -37.7508      6.2951      6.0349
  2013.0000    138.2285    -38.6917      6.0842      5.6764
  2012.5000    137.3152    -36.9462      5.7735      5.1679
  2012.0000    136.7171    -38.2040      5.3561      4.6150
  2011.5000    135.2310    -39.4627      4.9199      4.1777
