~Version Information
 VERS.                2.00:   CWLS log ASCII Standard -VERSION 2.00
 WRAP.                  NO:   One line per frame
~Well Information Block
#MNEM.UNIT              Data                Description
#--------- -------------------------------  -------------------------------
 STRT.F                          653.0000:   Starting Depth
 STOP.F                           -2.7500:   Ending Depth
 STEP.F                           -0.5000:   Level Spacing
 NULL.                          -999.2500:   Absent Value
 COMP.     FLUOR DANIEL (NPOSR), INC.    :   Company
 WELL.     14-1 X 11                     :   Well
 FLD .     N.P.R. #3                     :   Field
 LOC .     11-38N-78W                    :   Location
 PROV.                                   :   Province
 SRVC.     Western Atlas International   :   Service Company
 LIC .                                   :   License Number
 DATE.     4-August-1995                 :   Log Date
 UWI .     92800                         :   Unique Well ID
~Curve Information Block
#MNEM.UNIT       API Codes    Curve Description
#---------    -------------   -------------------------------
 DEPT.F        0   1  0  1:   Depth
 CILD.MMHO     0 110 46  1:   Conductivity of Deep Induction
 GR  .API      0 310  1  1:   Gamma ray counts
 TEN .LBF      0 635 99  1:   Differential Tension
 RILM.OHMM     0 120 44  1:   Resistivity from CILM
 RILD.OHMM     0 120 46  1:   Resistivity from CILD
#  Curve Data
~A   DEPT        CILD        GR          TEN         RILM        RILD
   653.0000      0.0000      0.0000   -250.0000      0.2000      0.2000
   652.5000      0.0000      0.0000   -250.0000      0.2000      0.2000
   652.0000      0.0000      0.0000   -250.0000      0.2000      0.2000
   651.5000      0.0000      0.0000   -250.0000      0.2000      0.2000
   651.0000      0.0000      0.0000   -250.0000      0.2000      0.2000
   650.5000      0.0000      0.0000   -250.0000      0.2000      0.2000
   650.0000      0.0000      0.0000   -250.0000      0.2000      0.2000
   649.5000      0.0000      0.0000   -250.0000      0.2000      0.2000
   649.0000      0.0000      0.0000   -250.0000      0.2000      0.2000
   648.5000      0.0000      0.0000   -250.0000      0.2000      0.2000
   648.0000      0.0000      0.0000   -250.0000      0.2000      0.2000
   647.5000      0.0000      0.0000   -250.0000      0.2000      0.2000
   647.0000      0.0000      0.0000   -250.0000      0.2000      0.2000
   646.5000      0.0000      0.0000   -250.0000      0.2000      0.2000
   646.0000      0.0000      0.0000   -250.0000      0.2000      0.2000
   645.5000      0.0000      0.0000   -250.0000      0.2000      0.2000
   645.0000      0.0000      0.0000   -250.0000      0.2000      0.2000
   644.5000      0.0000      0.0000   -250.0000      0.2000      0.2000
   644.0000      0.0000      0.0000   -250.0000      0.2000      0.2000
   643.5000      0.0000      0.0000   -250.0000      0.2000      0.2000
   643.0000      0.0000      0.0000    -77.6612      0.2000      0.2000
   642.5000      0.0000      0.0000    -77.1256      0.2000      0.2000
   642.0000      0.0000      0.0000    -78.1764      0.2000      0.2000
   641.5000      0.0000      0.0000    -81.0394      0.2000      0.2000
   641.0000      0.0000      0.0000    -79.4964      0.2000      0.2000
   640.5000      0.0000      0.0000    -71.3749      0.2000      0.2000
   640.0000      0.0000      0.0000    -64.9683      0.2000      0.2000
   639.5000      0.0000      0.0000    -63.3470      0.2000      0.2000
   639.0000      0.0000      0.0000    -61.9738      0.2000      0.2000
   638.5000      0.0000      0.0000    -59.6833      0.2000      0.2000
   638.0000      0.0000      0.0000    -55.3200      0.2000      0.2000
   637.5000      0.0000      0.0000    -50.0755      0.2000      0.2000
   637.0000      0.0000      0.0000    -48.5715      8.8370      0.2000
   636.5000      0.0000      0.0000    -48.9101      8.8379      0.2000
   636.0000      0.0000      0.0000    -48.8036      8.8392      0.2000
   635.5000      0.0000      0.0000    -49.4597      8.8427      0.2000
   635.0000      0.0000      0.0000    -49.2514      8.8462      0.2000
   634.5000      0.0000      0.0000    -40.3314      8.8457      0.2000
   634.0000      0.0000      0.0000     -7.3136      8.8426      0.2000
   633.5000      0.0000      0.0000     80.6737      8.8410      0.2000
   633.0000      0.0000      0.0000    213.3734      8.8425      0.2000
   632.5000      0.0000      0.0000    326.4214      8.8456      0.2000
   632.0000      0.0000      0.0000    378.7656      8.8473      0.2000
   631.5000      0.0000      0.0000    393.6045      8.8504      0.2000
   631.0000      0.0000      0.0000    398.0696      8.8502      0.2000
   630.5000      0.0000      0.0000    396.0095      8.8396      0.2000
   630.0000      0.0000      0.0000    388.0852      8.8278      0.2000
   629.5000      0.0000      0.0000    381.0488      8.8277      0.2000
   629.0000      0.0000      0.0000    380.7566      8.8348      0.2000
   628.5000      0.0000      0.0000    383.6660      8.8384      0.2000
   628.0000      0.0000      0.0000    381.9036      8.8383      0.2000
   627.5000      0.0000      0.0000    374.7092      8.8495      0.2000
   627.0000    117.5502      0.0000    366.9417      8.8908      8.5070
   626.5000    117.3612      0.0000    361.9109      8.9641      8.5207
   626.0000    117.1708      0.0000    360.0627      9.0465      8.5345
   625.5000    117.0566      0.0000    361.2866      9.1084      8.5429
   625.0000    116.9297      0.0000    364.6501      9.1311      8.5521
   624.5000    116.7182      0.0000    363.9185      9.1189      8.5676
   624.0000    116.2196      0.0000    357.6880      9.0957      8.6044
   623.5000    115.2207      0.0000    353.6470      9.0763      8.6790
   623.0000    113.8654      0.0000    353.3955      9.0781      8.7823
   622.5000    112.5518      0.0000    350.5383      9.1246      8.8848
   622.0000    111.4700      0.0000    346.2310      9.2045      8.9710
   621.5000    110.5183      0.0000    341.8076      9.2702      9.0483
   621.0000    109.6931      0.0000    335.3057      9.3123      9.1163
   620.5000    109.2998      0.0000    329.3525      9.3318      9.1491
   620.0000    109.5205      0.0000    326.7390      9.3212      9.1307
   619.5000    110.2193    127.0535    325.7534      9.2986      9.0728
   619.0000    111.2203    128.9208    329.5337      9.2727      8.9912
   618.5000    112.8142    129.5633    334.9705      9.1967      8.8641
   618.0000    115.5657    129.7241    337.0110      9.0334      8.6531
   617.5000    119.9834    130.7738    334.1553      8.7853      8.3345
   617.0000    126.4909    131.2038    330.5356      8.4551      7.9057
   616.5000    135.2122    131.8514    325.5007      8.0341      7.3958
   616.0000    145.0065    133.6984    319.6921      7.5479      6.8962
   615.5000    153.3630    135.1045    315.4397      7.0842      6.5205
   615.0000    158.6687    133.6534    311.7783      6.7121      6.3024
   614.5000    161.5031    131.2628    308.9644      6.3998      6.1918
   614.0000    163.3008    131.1378    310.2336      6.0888      6.1237
   613.5000    164.7198    132.3910    310.2932      5.8425      6.0709
   613.0000    165.0256    133.1413    301.9260      5.8122      6.0597
   612.5000    162.4371    133.6659    292.3325      6.0631      6.1562
   612.0000    156.5051    132.9829    288.6694      6.4989      6.3896
   611.5000    149.2900    130.8185    289.2202      6.9342      6.6984
   611.0000    143.0829    130.6858    293.7483      7.2469      6.9890
   610.5000    138.6939    132.6745    299.4160      7.4284      7.2101
   610.0000    136.0578    132.7766    296.0500      7.5173      7.3498
   609.5000    134.6440    131.1786    287.1523      7.5576      7.4270
   609.0000    133.5799    131.3216    282.6523      7.5857      7.4862
   608.5000    132.3113    134.0840    281.1729      7.6345      7.5579
   608.0000    130.7670    137.3994    278.3411      7.7177      7.6472
   607.5000    128.8252    138.3892    274.5627      7.8327      7.7625
   607.0000    126.5228    134.8718    272.6074      7.9683      7.9037
   606.5000    124.1261    130.1680    271.6570      8.1112      8.0563
   606.0000    121.8967    127.7761    268.5837      8.2501      8.2037
   605.5000    120.0316    127.1230    261.7908      8.3961      8.3311
   605.0000    118.5274    125.9756    259.2776      8.5517      8.4369
   604.5000    117.1943    125.2815    261.9377      8.6977      8.5328
   604.0000    116.0345    126.1373    260.7949      8.8171      8.6181
   603.5000    115.2127    128.1081    255.9547      8.9145      8.6796
   603.0000    114.7394    129.8150    258.3440      8.9886      8.7154
   602.5000    114.4953    128.2813    264.9236      9.0246      8.7340
   602.0000    114.3008    124.2482    262.6812      9.0243      8.7488
   601.5000    114.0365    123.6237    255.6598      9.0086      8.7691
   601.0000    113.6071    126.7117    255.0038      8.9995      8.8023
   600.5000    112.9372    126.5534    259.5305      9.0151      8.8545
   600.0000    112.0034    123.4651    258.6162      9.0703      8.9283
   599.5000    110.7866    123.5557    251.5066      9.1609      9.0264
   599.0000    109.2833    126.2668    245.1230      9.2769      9.1505
   598.5000    107.6901    127.8558    241.6036      9.4203      9.2859
   598.0000    106.1815    128.2242    237.7301      9.5834      9.4178
   597.5000    104.7658    126.6734    232.4246      9.7345      9.5451
