~Version Information
 VERS.                1.20:   CWLS log ASCII Standard -VERSION 1.20
 WRAP.                  NO:   One line per frame
~Well Information Block
#MNEM.UNIT       Data Type    Information
#---------    -------------   -------------------------------
 STRT.F          2547.0000:   Starting Depth
 STOP.F           -12.5000:   Ending Depth
 STEP.F            -0.5000:   Level Spacing
 NULL.           -999.2500:   Absent Value
 COMP.             COMPANY:   FLUOR DANIEL (NPOSR), INC.
 WELL.                WELL:   46-1 X 11
 FLD .               FIELD:   
 LOC .            LOCATION:   
 CNTY.              COUNTY:   
 STAT.               STATE:   
 SRVC.     SERVICE COMPANY:   
 LIC .      LICENSE NUMBER:   
 DATE.            LOG DATE:   
 API .          API NUMBER:   
~Curve Information Block
#MNEM.UNIT       API Codes    Curve Description
#---------    -------------   -------------------------------
 DEPT.F        0   1  0  1:   Depth
 GR  .API      0 310  1  1:   Gamma ray counts
 TEN .LBF      0 635 99  1:   Differential Tension
 RILM.OHMM     0 120 44  1:   Resistivity from CILM
 RILD.OHMM     0 120 46  1:   Resistivity from CILD
#  Curve Data
~A   DEPT        GR          TEN         RILM        RILD
# ...
  2413.0000    158.5640    -45.7149      4.7717      4.6387
  2412.5000    172.9692    -34.5352      4.8366      4.7371
  2412.0000    181.0931    -33.6299      4.9047      4.8008
  2411.5000    172.8765    -35.7396      4.9836      4.8363
  2411.0000    150.9497    -34.4040      5.1068      4.8865
  2410.5000    129.2482    -33.8495      5.2856      5.0089
  2410.0000    119.5489    -36.3182      5.4632      5.2175
  2409.5000    120.0681    -37.0813      5.5679      5.4578
  2409.0000    122.1911    -40.0468      5.5909      5.6411
  2408.5000    120.3262    -48.1702      5.5996      5.7166
  2408.0000    114.2676    -49.6507      5.6861      5.7158
  2407.5000    109.1452    -40.9212      5.8895      5.7055
  2407.0000    110.2000    -36.1028      6.1380      5.7159
  2406.5000    117.3780    -42.6417      6.2538      5.7237
  2406.0000    125.8113    -53.0545      6.1178      5.6872
  2405.5000    132.8258    -65.2654      5.8290      5.5904
  2405.0000    135.6192    -71.7595      5.5805      5.4745
  2404.5000    134.0234    -64.1421      5.4626      5.3992
  2404.0000    130.5251    -52.8617      5.4408      5.3705
  2403.5000    125.3858    -45.7033      5.4316      5.3296
  2403.0000    119.7627    -41.4925      5.4074      5.2476
  2402.5000    118.3653    -38.5026      5.4174      5.1680
  2402.0000    123.3006    -33.4982      5.4935      5.1424
  2401.5000    130.7937    -25.3239      5.5652      5.1830
  2401.0000    134.4553    -25.9866      5.5275      5.2735
  2400.5000    130.4889    -30.8739      5.4031      5.3817
  2400.0000    121.6136    -29.4200      5.3372      5.4940
  2399.5000    114.3131    -27.6178      5.4328      5.6423
  2399.0000    109.8350    -34.8707      5.6902      5.8537
  2398.5000    106.3687    -42.3700      6.0615      6.1157
  2398.0000    103.7555    -39.9019      6.4945      6.3944
  2397.5000    102.9012    -37.5614      6.9297      6.6646
  2397.0000    103.1454    -48.3172      7.2797      6.8944
  2396.5000    102.7061    -57.2387      7.4354      7.0448
  2396.0000    100.1305    -49.0690      7.3686      7.0994
  2395.5000     95.9566    -31.2332      7.2010      7.0621
  2395.0000     92.3928    -20.8815      7.0705      6.9553
  2394.5000     91.6913    -26.6146      6.9955      6.8222
  2394.0000     93.7593    -38.8786      6.9309      6.6979
  2393.5000     95.5133    -39.2886      6.8741      6.5931
  2393.0000     97.4461    -37.3509      6.8368      6.5115
  2392.5000    101.7228    -45.4221      6.7785      6.4583
  2392.0000    105.0451    -47.4476      6.6633      6.4269
  2391.5000    104.6937    -31.4513      6.5404      6.4247
  2391.0000    103.1979    -11.4552      6.4921      6.4827
  2390.5000    102.1776    -10.5783      6.5452      6.6069
  2390.0000    104.4837    -23.9989      6.6582      6.7390
  2389.5000    111.3302    -32.2199      6.7768      6.7896
  2389.0000    116.7434    -34.8316      6.8961      6.7288
  2388.5000    118.1801    -43.7434      7.0211      6.5986
  2388.0000    119.4125    -50.3768      7.0662      6.4355
  2387.5000    122.3226    -49.9645      6.8845      6.2320
  2387.0000    126.2517    -49.1715      6.4622      5.9635
  2386.5000    130.4226    -53.1972      5.9605      5.6466
  2386.0000    128.5447    -58.8708      5.5401      5.3446
  2385.5000    118.6242    -55.7391      5.2783      5.1527
  2385.0000    109.2835    -41.3830      5.1821      5.0992
  2384.5000    107.5424    -34.5470      5.1808      5.1107
  2384.0000    110.6875    -43.0730      5.1622      5.0895
  2383.5000    113.8591    -55.0674      5.1033      4.9941
  2383.0000    114.6278    -59.2533      5.0934      4.8571
  2382.5000    111.7314    -57.3616      5.1663      4.7607
  2382.0000    108.5193    -56.8804      5.2232      4.7605
  2381.5000    109.2869    -56.2835      5.1618      4.8311
  2381.0000    111.4973    -50.2161      5.0096      4.9164
  2380.5000    109.9728    -40.4747      4.8746      5.0084
  2380.0000    105.1092    -34.6913      4.8838      5.1410
  2379.5000    101.3804    -36.4289      5.1218      5.3494
  2379.0000     99.9363    -39.5625      5.5805      5.6407
  2378.5000     99.3759    -40.3128      6.1467      5.9676
  2378.0000     99.6969    -40.6227      6.6514      6.2482
  2377.5000    101.0200    -44.5889      6.9893      6.4276
  2377.0000    102.7118    -47.7084      7.1154      6.5192
  2376.5000    104.7320    -50.6922      7.0007      6.5280
  2376.0000    107.1570    -51.8171      6.6971      6.4659
  2375.5000    107.9869    -49.8312      6.3799      6.3743
  2375.0000    107.7480    -48.6237      6.2219      6.3273
  2374.5000    107.4307    -53.2048      6.2815      6.3863
  2374.0000    105.4818    -55.5304      6.5133      6.5585
  2373.5000    101.4389    -43.9508      6.8241      6.8073
  2373.0000     99.7641    -25.2214      7.1307      7.0689
  2372.5000    104.2242    -15.6965      7.4062      7.2773
  2372.0000    110.9271    -18.0279      7.6465      7.4102
  2371.5000    116.0706    -27.9337      7.8142      7.4858
  2371.0000    118.8580    -37.7758      7.8612      7.5071
  2370.5000    118.6398    -37.3561      7.7948      7.4843
  2370.0000    115.3104    -30.3945      7.6762      7.4509
  2369.5000    114.1288    -32.0195      7.5745      7.4283
  2369.0000    117.7058    -39.8556      7.5393      7.4296
  2368.5000    123.7914    -41.2906      7.5840      7.4830
  2368.0000    131.9975    -41.5499      7.6811      7.5814
  2367.5000    138.7769    -47.6639      7.7750      7.6633
  2367.0000    137.6302    -54.0256      7.8198      7.6841
  2366.5000    131.6843    -53.7743      7.8131      7.6498
  2366.0000    129.1781    -47.1991      7.8016      7.5910
  2365.5000    129.8468    -34.7365      7.8105      7.5430
  2365.0000    127.7743    -23.5902      7.7908      7.5254
  2364.5000    122.6690    -25.0719      7.6949      7.5238
  2364.0000    118.5517    -39.2251      7.5749      7.5189
  2363.5000    117.6731    -51.8674      7.5189      7.5106
  2363.0000    118.1060    -50.2128      7.5470      7.5114
  2362.5000    118.6404    -39.0666      7.6185      7.5269
  2362.0000    119.0219    -32.1128      7.6951      7.5449
  2361.5000    118.4160    -34.6971      7.7583      7.5593
  2361.0000    118.1358    -36.4951      7.7915      7.5823
  2360.5000    120.5099    -36.6137      7.7877      7.6318
  2360.0000    122.0958    -34.9033      7.7637      7.7105
  2359.5000    119.4854    -31.9969      7.7525      7.8174
  2359.0000    116.7557    -31.6218      7.7973      7.9527
  2358.5000    118.9710    -37.8999      7.9316      8.1070
  2358.0000    122.6794    -42.8467      8.1536      8.2755
  2357.5000    122.8903    -44.1311      8.4321      8.4601
  2357.0000    119.1344    -44.1253      8.7149      8.6430
  2356.5000    114.5510    -43.2234      8.9322      8.7902
  2356.0000    112.6580    -45.1373      9.0344      8.8997
  2355.5000    113.7176    -52.0080      9.0218      8.9754
  2355.0000    114.9256    -56.2386      8.9391      8.9960
  2354.5000    115.3028    -53.7431      8.8613      8.9705
  2354.0000    115.9012    -46.6327      8.8410      8.9478
  2353.5000    116.6028    -33.6427      8.8806      8.9468
  2353.0000    116.9380    -17.2785      8.9601      8.9378
  2352.5000    115.0546    -14.7855      9.0398      8.8729
  2352.0000    112.6174    -31.8298      9.0339      8.7148
  2351.5000    113.0617    -53.4064      8.8544      8.4446
  2351.0000    115.1751    -59.1444      8.5320      8.1050
  2350.5000    115.5347    -49.4012      8.2078      7.7981
  2350.0000    115.1889    -41.1960      7.9668      7.5945
  2349.5000    116.5005    -40.5092      7.7517      7.4695
  2349.0000    117.9465    -33.1877      7.4940      7.3748
  2348.5000    117.6957    -20.8556      7.2683      7.3061
  2348.0000    115.2143    -23.2163      7.2146      7.2756
  2347.5000    112.6137    -39.7894      7.3618      7.2993
  2347.0000    112.1003    -50.8219      7.5886      7.3669
  2346.5000    111.5759    -47.3055      7.7503      7.4276
