~Version Information
 VERS.                2.00:   CWLS log ASCII Standard -VERSION 2.00
 WRAP.                  NO:   One line per frame
~Well Information Block
#MNEM.UNIT              Data                Description
#--------- -------------------------------  -------------------------------
 STRT.F                          653.0000:   Starting Depth
 STOP.F                           -2.7500:   Ending Depth
 STEP.F                           -0.5000:   Level Spacing
 NULL.                          -999.2500:   Absent Value
 COMP.     FLUOR DANIEL (NPOSR), INC.    :   Company
 WELL.     14-1 X 11                     :   Well
 FLD .     N.P.R. #3                     :   Field
 LOC .     11-38N-78W                    :   Location
 PROV.                                   :   Province
 SRVC.     Western Atlas International   :   Service Company
 LIC .                                   :   License Number
 DATE.     4-August-1995                 :   Log Date
 UWI .     92800                         :   Unique Well ID
~Curve Information Block
#MNEM.UNIT       API Codes    Curve Description
#---------    -------------   -------------------------------
 DEPT.F        0   1  0  1:   Depth
 CILD.MMHO     0 110 46  1:   Conductivity of Deep Induction
 GR  .API      0 310  1  1:   Gamma ray counts
 TEN .LBF      0 635 99  1:   Differential Tension
 RILM.OHMM     0 120 44  1:   Resistivity from CILM
 RILD.OHMM     0 120 46  1:   Resistivity from CILD
#  Curve Data
~A   DEPT        CILD        GR          TEN         RILM        RILD
# ...
   597.0000    103.4073    124.2738    228.0128      9.8592      9.6705
   596.5000    102.0246    123.3527    225.2370      9.9777      9.8016
   596.0000    100.5541    123.1906    225.1031     10.1007      9.9449
   595.5000     99.0521    121.2339    228.9580     10.2310     10.0957
   595.0000     97.4520    118.5491    237.7200     10.3768     10.2615
   594.5000     95.7923    117.8711    241.7509     10.5460     10.4393
   594.0000     94.2358    118.8405    231.4983     10.7325     10.6117
   593.5000     92.7885    118.8670    219.0812     10.9263     10.7772
   593.0000     91.3819    116.4386    219.5719     11.1123     10.9431
   592.5000     90.1305    114.3323    228.0521     11.2878     11.0950
   592.0000     89.0938    115.2326    228.7744     11.4568     11.2241
   591.5000     88.2796    117.9965    220.0678     11.6118     11.3276
   591.0000     87.7002    117.9056    216.8909     11.7271     11.4025
   590.5000     87.2897    113.8284    226.3896     11.7844     11.4561
   590.0000     86.9742    110.4427    233.9576     11.8148     11.4977
   589.5000     86.6724    111.4371    227.0972     11.8510     11.5377
   589.0000     86.2677    115.2778    216.7101     11.8718     11.5918
   588.5000     85.8087    117.5664    216.6061     11.8686     11.6538
   588.0000     85.4492    117.1993    222.9952     11.9031     11.7029
   587.5000     85.1703    116.8794    222.9345     11.9939     11.7412
   587.0000     84.8563    115.8904    214.4250     12.0901     11.7846
   586.5000     84.5349    112.9439    206.3916     12.1689     11.8294
   586.0000     84.2612    112.2994    204.4000     12.2429     11.8679
   585.5000     84.1384    114.7826    202.9622     12.2912     11.8852
   585.0000     84.1798    115.3156    198.9460     12.2829     11.8793
   584.5000     84.2380    113.6471    196.9489     12.2222     11.8711
   584.0000     84.3643    113.5937    198.3225     12.1307     11.8534
   583.5000     84.7796    115.5394    196.7405     12.0394     11.7953
   583.0000     85.3457    116.3592    193.4883     11.9847     11.7171
   582.5000     85.8077    114.3355    194.1642     11.9736     11.6540
   582.0000     86.2551    113.3088    196.7969     11.9700     11.5935
   581.5000     86.7984    114.8474    194.5179     11.9297     11.5210
   581.0000     87.4872    116.7042    187.1900     11.8263     11.4302
   580.5000     88.4226    119.0355    182.7899     11.6628     11.3093
   580.0000     89.6180    123.1662    185.4165     11.4699     11.1585
   579.5000     90.9620    125.8869    190.5895     11.2996     10.9936
   579.0000     92.3417    125.8546    192.9987     11.1502     10.8293
   578.5000     93.5581    125.5277    189.2458     10.9840     10.6885
   578.0000     94.6837    124.3691    180.6799     10.7894     10.5615
   577.5000     96.1203    121.2365    175.5903     10.5901     10.4036
   577.0000     98.0520    119.4706    177.1159     10.3891     10.1987
   576.5000    100.1635    120.3164    176.0039     10.1779      9.9837
   576.0000    102.2587    120.8112    171.9810      9.9532      9.7791
   575.5000    104.3170    120.5273    169.0865      9.7281      9.5862
   575.0000    106.3445    121.3421    165.9602      9.5375      9.4034
   574.5000    108.0169    122.0336    164.5664      9.4048      9.2578
   574.0000    109.1161    121.0691    168.4222      9.3315      9.1645
   573.5000    110.2818    118.6782    172.2341      9.2752      9.0677
   573.0000    112.8874    116.1237    168.1489      9.1558      8.8584
   572.5000    118.5882    114.7051    156.7489      8.9014      8.4325
   572.0000    128.6806    114.9238    150.4128      8.4777      7.7712
   571.5000    143.1145    114.7396    159.9697      7.8877      6.9874
   571.0000    159.3553    114.8141    171.1599      7.2070      6.2753
   570.5000    173.4201    119.7780    165.2825      6.5705      5.7663
   570.0000    182.3509    130.8884    154.2132      6.0387      5.4839
   569.5000    186.8616    140.3329    155.0129      5.5789      5.3516
   569.0000    189.1154    140.2942    164.2370      5.1953      5.2878
   568.5000    189.7249    133.3961    170.5200      4.9872      5.2708
   568.0000    187.1672    125.9343    167.2546      5.0667      5.3428
   567.5000    179.4023    120.6754    155.2212      5.4737      5.5741
   567.0000    166.4601    119.8147    144.9433      6.1466      6.0074
   566.5000    151.4937    121.8817    143.9743      6.9216      6.6009
   566.0000    138.1321    122.4768    145.3862      7.6156      7.2394
   565.5000    128.0424    120.8983    143.2295      8.1258      7.8099
   565.0000    121.1973    119.4826    143.4546      8.4624      8.2510
   564.5000    116.6878    116.2929    147.1045      8.7073      8.5699
   564.0000    113.3304    111.0748    145.5094      8.9304      8.8238
   563.5000    110.4162    107.7126    136.2975      9.1512      9.0566
   563.0000    107.6877    108.1919    128.6554      9.3710      9.2861
   562.5000    104.9901    111.4820    129.5356      9.5869      9.5247
   562.0000    102.3500    114.1584    139.6995      9.7863      9.7704
   561.5000    100.1175    112.9269    152.0477      9.9628      9.9883
   561.0000     98.5851    110.0467    153.9695     10.1309     10.1435
   560.5000     97.6174    109.8208    143.5065     10.2941     10.2441
   560.0000     97.0019    111.5835    130.9066     10.4408     10.3091
   559.5000     96.4774    113.6691    125.1918     10.5706     10.3651
   559.0000     95.8331    115.4704    128.2503     10.6867     10.4348
   558.5000     95.0484    115.5816    135.9985     10.7898     10.5210
   558.0000     94.1333    111.8154    140.3079     10.8921     10.6232
   557.5000     93.1409    106.7998    137.2787     10.9990     10.7364
   557.0000     92.1940    105.6562    131.4818     11.1000     10.8467
   556.5000     91.2695    109.0510    129.8190     11.1811     10.9566
   556.0000     90.3580    112.2486    129.3706     11.2584     11.0671
   555.5000     89.6303    112.1821    125.7838     11.3556     11.1569
   555.0000     89.1545    109.9546    124.4272     11.4566     11.2165
   554.5000     88.8066    107.0148    124.5647     11.5356     11.2604
   554.0000     88.5724    103.1718    124.4470     11.6004     11.2902
   553.5000     88.5173    100.6123    129.9824     11.6533     11.2972
   553.0000     88.6391    102.8184    138.7585     11.6666     11.2817
   552.5000     88.9007    107.5844    140.2631     11.6364     11.2485
   552.0000     89.3323    110.0889    132.1589     11.5842     11.1942
   551.5000     89.7607    110.8731    118.8469     11.5301     11.1407
   551.0000     89.8812    110.9851    108.5345     11.4776     11.1258
   550.5000     89.6787    109.0071    106.3218     11.4374     11.1509
   550.0000     89.3773    106.4690    108.9646     11.4301     11.1885
   549.5000     88.9566    106.6239    114.7086     11.4674     11.2414
   549.0000     88.3245    108.3785    118.8493     11.5401     11.3219
   548.5000     87.6488    107.6443    115.6938     11.6289     11.4092
   548.0000     87.0574    104.6838    109.0817     11.7257     11.4867
   547.5000     86.4012    103.4336    105.4351     11.8368     11.5739
   547.0000     85.5743    104.4302    103.7912     11.9530     11.6857
   546.5000     84.7484    104.8745    102.6334     12.0520     11.7996
   546.0000     84.0737    104.4854    104.1840     12.1276     11.8943
   545.5000     83.5073    104.8691    107.3341     12.1958     11.9750
   545.0000     82.9874    106.4966    107.9724     12.2685     12.0500
   544.5000     82.5400    108.4114    108.5983     12.3469     12.1153
   544.0000     82.1077    109.3352    110.5268     12.4247     12.1791
   543.5000     81.7137    107.3170    105.9890     12.4956     12.2378
   543.0000     81.4642    102.9591     98.8737     12.5539     12.2753
   542.5000     81.3282     99.8136    101.8017     12.5931     12.2959
   542.0000     81.1761     99.4491    110.3905     12.6124     12.3189
   541.5000     81.0776     99.8473    109.4569     12.6101     12.3339
