~Version Information
 VERS.                1.20:   CWLS log ASCII Standard -VERSION 1.20
 WRAP.                  NO:   One line per frame
~Well Information Block
#MNEM.UNIT       Data Type    Information
#---------    -------------   -------------------------------
 STRT.F          2547.0000:   Starting Depth
 STOP.F           -12.5000:   Ending Depth
 STEP.F            -0.5000:   Level Spacing
 NULL.           -999.2500:   Absent Value
 COMP.             COMPANY:   FLUOR DANIEL (NPOSR), INC.
 WELL.                WELL:   46-1 X 11
 FLD .               FIELD:   
 LOC .            LOCATION:   
 CNTY.              COUNTY:   
 STAT.               STATE:   
 SRVC.     SERVICE COMPANY:   
 LIC .      LICENSE NUMBER:   
 DATE.            LOG DATE:   
 API .          API NUMBER:   
~Curve Information Block
#MNEM.UNIT       API Codes    Curve Description
#---------    -------------   -------------------------------
 DEPT.F        0   1  0  1:   Depth
 GR  .API      0 310  1  1:   Gamma ray counts
 TEN .LBF      0 635 99  1:   Differential Tension
 RILM.OHMM     0 120 44  1:   Resistivity from CILM
 RILD.OHMM     0 120 46  1:   Resistivity from CILD
#  Curve Data
~A   DEPT        GR          TEN         RILM        RILD
# ...
  1542.0000    116.7078    -58.9754      7.2560      7.0248
  1541.5000    114.9371    -58.3548      7.2269      7.0332
  1541.0000    117.7267    -53.0789      7.2107      7.0359
  1540.5000    120.5898    -46.2356      7.2004      7.0356
  1540.0000    117.7616    -43.5507      7.1555      7.0203
  1539.5000    113.8563    -45.1174      7.0898      6.9805
  1539.0000    114.4206    -44.4208      7.0608      6.9341
  1538.5000    116.5282    -43.5967      7.0944      6.9190
  1538.0000    115.3140    -46.2734      7.1533      6.9471
  1537.5000    114.4674    -46.8806      7.1720      6.9855
  1537.0000    116.1039    -46.9459      7.1270      6.9951
  1536.5000    116.9361    -51.4367      7.0679      6.9705
  1536.0000    117.0232    -54.8713      7.0473      6.9212
  1535.5000    119.3033    -54.9116      7.0581      6.8586
  1535.0000    122.3275    -53.5074      7.0563      6.7985
  1534.5000    123.6614    -48.5786      7.0156      6.7399
  1534.0000    123.3799    -44.0667      6.9469      6.6776
  1533.5000    123.7144    -50.3659      6.8763      6.6221
  1533.0000    124.4537    -62.0736      6.8212      6.5864
  1532.5000    123.3365    -64.3977      6.7867      6.5778
  1532.0000    121.9382    -57.7170      6.7654      6.6031
  1531.5000    121.7579    -54.9482      6.7455      6.6391
  1531.0000    120.6231    -56.5293      6.7323      6.6435
  1530.5000    119.6586    -53.4717      6.7514      6.6206
  1530.0000    120.6980    -44.6651      6.8160      6.6185
  1529.5000    122.2089    -40.5269      6.8994      6.6558
  1529.0000    123.0335    -45.7039      6.9507      6.7056
  1528.5000    122.4943    -48.5664      6.9467      6.7410
  1528.0000    119.3253    -45.0101      6.9142      6.7609
  1527.5000    115.5670    -47.4095      6.8913      6.7628
  1527.0000    113.7924    -60.9668      6.8918      6.7408
  1526.5000    115.2348    -69.4610      6.9113      6.7125
  1526.0000    119.0423    -59.3588      6.9436      6.7036
  1525.5000    123.0335    -46.3624      6.9790      6.7160
  1525.0000    124.7328    -51.8256      6.9953      6.7372
  1524.5000    125.1743    -61.5505      6.9742      6.7533
  1524.0000    124.9859    -58.6305      6.9331      6.7600
  1523.5000    123.3395    -55.4283      6.9145      6.7745
  1523.0000    119.9904    -56.6278      6.9403      6.8146
  1522.5000    117.0678    -47.7099      6.9944      6.8749
  1522.0000    116.0041    -33.7235      7.0546      6.9441
  1521.5000    115.3595    -35.0055      7.1293      7.0255
  1521.0000    114.7951    -47.5160      7.2462      7.1323
  1520.5000    114.7167    -56.5665      7.3983      7.2711
  1520.0000    116.5234    -57.6734      7.5355      7.4246
  1519.5000    118.8480    -54.8631      7.6320      7.5546
  1519.0000    118.7722    -47.1310      7.7181      7.6360
  1518.5000    115.3545    -38.9809      7.8236      7.6877
  1518.0000    111.3924    -40.4040      7.9430      7.7429
  1517.5000    109.2780    -47.7773      8.0670      7.8002
  1517.0000    109.3299    -48.2333      8.1708      7.8376
  1516.5000    111.6747    -45.9644      8.1970      7.8386
  1516.0000    115.4807    -50.1774      8.1205      7.7903
  1515.5000    118.6870    -52.5854      8.0105      7.7111
  1515.0000    119.3533    -47.0475      7.9463      7.6579
  1514.5000    118.9862    -46.6217      7.9329      7.6539
  1514.0000    117.8035    -50.7276      7.9182      7.6717
  1513.5000    115.0450    -48.4605      7.8802      7.6930
  1513.0000    112.2196    -47.3089      7.8660      7.7303
  1512.5000    109.5892    -52.3115      7.9322      7.7947
  1512.0000    106.6007    -52.0434      8.0681      7.8830
  1511.5000    106.9992    -40.2746      8.2180      7.9783
  1511.0000    111.3799    -28.7746      8.3593      8.0606
  1510.5000    115.3419    -30.7086      8.4917      8.1266
  1510.0000    117.1053    -42.9214      8.5825      8.1825
  1509.5000    117.0297    -55.2782      8.5913      8.2167
  1509.0000    116.3238    -60.8939      8.5213      8.2140
  1508.5000    114.8987    -62.2590      8.4146      8.1730
  1508.0000    113.2127    -60.0719      8.3200      8.1116
  1507.5000    113.3091    -54.4093      8.2685      8.0682
  1507.0000    113.4888    -51.1208      8.2582      8.0720
  1506.5000    111.2764    -52.2831      8.2611      8.1002
  1506.0000    110.1568    -56.4778      8.2479      8.1117
  1505.5000    111.9693    -60.3232      8.2181      8.1003
  1505.0000    113.7268    -58.9876      8.2002      8.0830
  1504.5000    115.4209    -47.6230      8.2150      8.0867
  1504.0000    116.8801    -42.0574      8.2493      8.1256
  1503.5000    117.1136    -50.0780      8.2843      8.1786
  1503.0000    117.8851    -57.3229      8.3150      8.2116
  1502.5000    118.4454    -58.5457      8.3243      8.2127
  1502.0000    116.0680    -57.2458      8.2952      8.1802
  1501.5000    113.1035    -51.0860      8.2514      8.1099
  1501.0000    113.2204    -45.8543      8.2183      8.0020
  1500.5000    115.1346    -47.9985      8.1650      7.8665
  1500.0000    115.1001    -47.5971      8.0586      7.7250
  1499.5000    113.3651    -42.9962      7.9317      7.5985
  1499.0000    112.6215    -45.6036      7.8349      7.5132
  1498.5000    114.3254    -49.3813      7.7657      7.4896
  1498.0000    116.6745    -44.8811      7.6939      7.5153
  1497.5000    117.2721    -39.6006      7.6229      7.5615
  1497.0000    116.2857    -45.4828      7.6097      7.6308
  1496.5000    116.4472    -55.0132      7.7206      7.7427
  1496.0000    117.0749    -59.4518      7.9600      7.9093
  1495.5000    116.4434    -56.3314      8.2318      8.1258
  1495.0000    115.4495    -48.2315      8.4254      8.3402
  1494.5000    115.9596    -43.8715      8.5324      8.4750
  1494.0000    116.9176    -51.6450      8.6110      8.5193
  1493.5000    116.9619    -63.8664      8.6788      8.5252
  1493.0000    116.6649    -66.5730      8.7208      8.5205
  1492.5000    115.9149    -57.3040      8.7281      8.4980
  1492.0000    113.5878    -44.0258      8.6888      8.4471
  1491.5000    111.7807    -39.3526      8.5931      8.3629
  1491.0000    113.8700    -39.8364      8.4612      8.2526
  1490.5000    116.5532    -40.9655      8.3216      8.1339
  1490.0000    115.7438    -47.7911      8.1846      8.0159
  1489.5000    114.8159    -54.5910      8.0534      7.8969
  1489.0000    117.0654    -47.9503      7.9414      7.7788
  1488.5000    120.5091    -39.0614      7.8544      7.6670
  1488.0000    122.2143    -44.5800      7.7780      7.5639
  1487.5000    122.2867    -56.1273      7.6971      7.4651
  1487.0000    120.1631    -57.0054      7.6182      7.3740
  1486.5000    118.9738    -50.5739      7.5547      7.3101
  1486.0000    121.3146    -49.6077      7.5139      7.2879
  1485.5000    123.4925    -53.4833      7.4975      7.3054
  1485.0000    120.6058    -53.8417      7.4981      7.3526
  1484.5000    116.8398    -55.5146      7.5021      7.4100
  1484.0000    115.9569    -65.7168      7.5067      7.4519
  1483.5000    115.6541    -70.0341      7.5249      7.4743
  1483.0000    115.1627    -57.0420      7.5740      7.4958
  1482.5000    116.8822    -41.9735      7.6536      7.5269
  1482.0000    120.7987    -42.8934      7.7245      7.5679
  1481.5000    124.1087    -52.7101      7.7336      7.6118
  1481.0000    123.5559    -59.4396      7.6863      7.6414
  1480.5000    118.5548    -58.3413      7.6543      7.6520
  1480.0000    114.3593    -57.2412      7.6900      7.6756
  1479.5000    114.4350    -60.7267      7.7782      7.7383
  1479.0000    114.8273    -60.7200      7.8675      7.8194
  1478.5000    112.8862    -51.6905      7.9320      7.8882
  1478.0000    111.1938    -41.8307      7.9893      7.9417
  1477.5000    112.0588    -40.9398      8.0599      7.9872
  1477.0000    115.5127    -47.9085      8.1182      8.0136
  1476.5000    119.6423    -53.7807      8.1209      8.0072
  1476.0000    120.7454    -50.9561      8.0711      7.9706
  1475.5000    118.1887    -41.4083      8.0109      7.9233
