~Version Information
 VERS.                1.20:   CWLS log ASCII Standard -VERSION 1.20
 WRAP.                  NO:   One line per frame
~Well Information Block
#MNEM.UNIT       Data Type    Information
#---------    -------------   -------------------------------
 STRT.F          2547.0000:   Starting Depth
 STOP.F           -12.5000:   Ending Depth
 STEP.F            -0.5000:   Level Spacing
 NULL.           -999.2500:   Absent Value
 COMP.             COMPANY:   FLUOR DANIEL (NPOSR), INC.
 WELL.                WELL:   46-1 X 11
 FLD .               FIELD:   
 LOC .            LOCATION:   
 CNTY.              COUNTY:   
 STAT.               STATE:   
 SRVC.     SERVICE COMPANY:   
 LIC .      LICENSE NUMBER:   
 DATE.            LOG DATE:   
 API .          API NUMBER:   
~Curve Information Block
#MNEM.UNIT       API Codes    Curve Description
#---------    -------------   -------------------------------
 DEPT.F        0   1  0  1:   Depth
 GR  .API      0 310  1  1:   Gamma ray counts
 TEN .LBF      0 635 99  1:   Differential Tension
 RILM.OHMM     0 120 44  1:   Resistivity from CILM
 RILD.OHMM     0 120 46  1:   Resistivity from CILD
#  Curve Data
~A   DEPT        GR          TEN         RILM        RILD
# ...
   738.0000     73.7589    -53.2289      1.9073      1.8877
   737.5000     74.2326    -31.4974      1.9063      1.8902
   737.0000     75.0461    -27.7422      1.9048      1.8931
   736.5000     79.6697    -36.7339      1.9050      1.8932
   736.0000     89.4238    -45.6015      1.9055      1.8908
   735.5000     98.3855    -55.3447      1.9063      1.8919
   735.0000     99.1315    -69.2984      1.9085      1.8965
   734.5000     92.3431    -79.7081      1.9105      1.8975
   734.0000     85.4876    -79.0075      1.9108      1.8947
   733.5000     81.4212    -70.4483      1.9102      1.8934
   733.0000     78.6286    -61.5078      1.9102      1.8938
   732.5000     77.4960    -49.8806      1.9101      1.8947
   732.0000     77.9724    -36.9733      1.9099      1.8974
   731.5000     78.0703    -37.1850      1.9102      1.9012
   731.0000     77.4269    -47.2570      1.9112      1.9026
   730.5000     76.7363    -45.8089      1.9129      1.9011
   730.0000     76.7920    -38.4157      1.9138      1.9005
   729.5000     76.7923    -46.3576      1.9129      1.9010
   729.0000     74.5069    -61.6347      1.9114      1.9007
   728.5000     71.6096    -63.3348      1.9098      1.8998
   728.0000     71.2311    -54.1085      1.9078      1.9003
   727.5000     72.3233    -47.0700      1.9059      1.9029
   727.0000     73.0593    -45.5835      1.9040      1.9060
   726.5000     73.6870    -45.9083      1.9015      1.9066
   726.0000     73.6185    -49.8483      1.8998      1.9046
   725.5000     73.4024    -57.0515      1.8990      1.9017
   725.0000     73.9557    -55.5914      1.8980      1.8982
   724.5000     74.5291    -41.1835      1.8967      1.8947
   724.0000     73.8188    -32.3343      1.8960      1.8930
   723.5000     73.3077    -40.2997      1.8949      1.8910
   723.0000     73.4850    -49.9230      1.8936      1.8885
   722.5000     74.1481    -49.5479      1.8939      1.8873
   722.0000     75.2646    -47.1371      1.8967      1.8865
   721.5000     77.2275    -53.6181      1.8999      1.8851
   721.0000     77.8831    -64.4709      1.8997      1.8838
   720.5000     74.8192    -72.1249      1.8965      1.8823
   720.0000     70.3693    -75.4100      1.8941      1.8802
   719.5000     69.3857    -70.7878      1.8932      1.8795
   719.0000     70.9634    -54.8906      1.8921      1.8819
   718.5000     70.9504    -39.5881      1.8912      1.8863
   718.0000     69.5693    -39.9837      1.8914      1.8879
   717.5000     69.0815    -54.1592      1.8923      1.8846
   717.0000     69.5947    -67.8247      1.8933      1.8807
   716.5000     71.3122    -67.3885      1.8941      1.8792
   716.0000     73.8644    -60.0838      1.8952      1.8777
   715.5000     75.1636    -52.3606      1.8968      1.8759
   715.0000     74.8883    -43.7925      1.8976      1.8754
   714.5000     74.4132    -37.8087      1.8978      1.8763
   714.0000     73.3071    -40.8624      1.8985      1.8775
   713.5000     72.0731    -51.1052      1.8994      1.8789
   713.0000     71.8644    -62.8382      1.9000      1.8805
   712.5000     71.7708    -66.1597      1.9014      1.8830
   712.0000     71.4007    -57.2735      1.9031      1.8848
   711.5000     71.3704    -48.7250      1.9047      1.8844
   711.0000     71.6161    -52.1312      1.9068      1.8842
   710.5000     72.7343    -60.4946      1.9091      1.8853
   710.0000     74.2632    -56.4244      1.9106      1.8867
   709.5000     73.2922    -39.4277      1.9116      1.8885
   709.0000     70.7639    -33.5759      1.9126      1.8910
   708.5000     69.7526    -47.4193      1.9132      1.8933
   708.0000     69.1684    -66.6507      1.9123      1.8957
   707.5000     66.9263    -78.9972      1.9092      1.8988
   707.0000     63.1862    -77.5801      1.9052      1.9014
   706.5000     59.0023    -59.9480      1.9022      1.9028
   706.0000     56.9032    -42.0647      1.9006      1.9037
   705.5000     58.8672    -38.8768      1.8991      1.9037
   705.0000     61.9406    -46.1120      1.8982      1.9036
   704.5000     63.5460    -58.0290      1.8973      1.9019
   704.0000     64.9527    -69.1020      1.8961      1.8980
   703.5000     66.2804    -70.9497      1.8949      1.8938
   703.0000     65.7257    -55.7018      1.8944      1.8912
   702.5000     63.7106    -37.1042      1.8937      1.8890
   702.0000     62.6685    -28.7749      1.8922      1.8871
   701.5000     63.0850    -28.5032      1.8917      1.8856
   701.0000     64.0781    -35.1336      1.8938      1.8839
   700.5000     64.1008    -48.3318      1.8954      1.8825
   700.0000     63.7699    -55.9678      1.8934      1.8820
   699.5000     64.8674    -52.2142      1.8900      1.8815
   699.0000     67.0498    -50.0453      1.8885      1.8800
   698.5000     67.9604    -54.9271      1.8882      1.8782
   698.0000     67.3103    -57.8112      1.8880      1.8791
   697.5000     66.6918    -50.6492      1.8880      1.8817
   697.0000     66.0745    -39.1730      1.8886      1.8810
   696.5000     65.0900    -36.5823      1.8897      1.8764
   696.0000     64.2768    -45.1281      1.8905      1.8730
   695.5000     64.3661    -56.2816      1.8908      1.8729
   695.0000     65.7625    -63.1810      1.8908      1.8730
   694.5000     67.2030    -67.5057      1.8912      1.8722
   694.0000     66.8827    -67.9272      1.8926      1.8717
   693.5000     65.4182    -62.1438      1.8946      1.8725
   693.0000     64.5504    -57.3266      1.8960      1.8740
   692.5000     64.4334    -61.5237      1.8962      1.8751
   692.0000     65.0660    -68.0565      1.8952      1.8752
   691.5000     66.0280    -64.6719      1.8957      1.8753
   691.0000     66.2921    -50.1987      1.8982      1.8769
   690.5000     66.8108    -39.2376      1.8996      1.8798
   690.0000     68.0870    -39.5719      1.8989      1.8827
   689.5000     67.3969    -44.6423      1.8990      1.8837
   689.0000     65.2217    -49.2041      1.9006      1.8821
   688.5000     64.6659    -57.0695      1.9023      1.8806
   688.0000     66.8562    -60.4245      1.9030      1.8833
   687.5000     70.4361    -51.0091      1.9029      1.8878
   687.0000     73.5647    -39.3285      1.9034      1.8889
   686.5000     72.4387    -42.5871      1.9051      1.8882
   686.0000     68.4803    -59.4430      1.9061      1.8890
   685.5000     65.9243    -70.8006      1.9051      1.8903
   685.0000     64.9408    -65.3328      1.9038      1.8907
   684.5000     64.1998    -50.1865      1.9037      1.8904
   684.0000     65.0104    -41.3650      1.9043      1.8909
   683.5000     67.0019    -44.1573      1.9044      1.8934
   683.0000     68.6019    -47.0649      1.9044      1.8958
   682.5000     68.5233    -40.1648      1.9056      1.8956
   682.0000     66.3765    -33.8032      1.9074      1.8936
   681.5000     64.2805    -40.8682      1.9085      1.8925
   681.0000     63.7824    -54.3620      1.9084      1.8928
   680.5000     63.1769    -59.1892      1.9077      1.8930
   680.0000     61.7313    -54.4657      1.9069      1.8925
   679.5000     61.5119    -49.1919      1.9068      1.8925
   679.0000     62.2778    -51.4331      1.9072      1.8935
   678.5000     62.3888    -63.1292      1.9073      1.8955
   678.0000     61.9035    -76.7990      1.9065      1.8973
   677.5000     62.5256    -76.3574      1.9054      1.8976
   677.0000     63.6021    -61.1970      1.9045      1.8957
   676.5000     63.9789    -51.5606      1.9043      1.8941
   676.0000     63.3118    -56.2707      1.9038      1.8951
   675.5000     61.4306    -66.7685      1.9032      1.8969
   675.0000     59.1168    -78.5546      1.9036      1.8969
   674.5000     59.4151    -86.5258      1.9046      1.8954
   674.0000     62.6061    -80.4837      1.9055      1.8940
   673.5000     65.0852    -64.2400      1.9061      1.8938
   673.0000     64.7639    -50.7294      1.9063      1.8940
   672.5000     63.5219    -41.0185      1.9059      1.8930
   672.0000     62.5300    -36.7293      1.9050      1.8923
   671.5000     61.8176    -36.7735      1.9031      1.8929
