~Version Information
 VERS.                1.20:   CWLS log ASCII Standard -VERSION 1.20
 WRAP.                  NO:   One line per frame
~Well Information Block
#MNEM.UNIT       Data Type    Information
#---------    -------------   -------------------------------
 STRT.F          2547.0000:   Starting Depth
 STOP.F           -12.5000:   Ending Depth
 STEP.F            -0.5000:   Level Spacing
 NULL.           -999.2500:   Absent Value
 COMP.             COMPANY:   FLUOR DANIEL (NPOSR), INC.
 WELL.                WELL:   46-1 X 11
 FLD .               FIELD:   
 LOC .            LOCATION:   
 CNTY.              COUNTY:   
 STAT.               STATE:   
 SRVC.     SERVICE COMPANY:   
 LIC .      LICENSE NUMBER:   
 DATE.            LOG DATE:   
 API .          API NUMBER:   
~Curve Information Block
#MNEM.UNIT       API Codes    Curve Description
#---------    -------------   -------------------------------
 DEPT.F        0   1  0  1:   Depth
 GR  .API      0 310  1  1:   Gamma ray counts
 TEN .LBF      0 635 99  1:   Differential Tension
 RILM.OHMM     0 120 44  1:   Resistivity from CILM
 RILD.OHMM     0 120 46  1:   Resistivity from CILD
#  Curve Data
~A   DEPT        GR          TEN         RILM        RILD
# ...
   537.0000     93.4535    -52.4533      1.8743      1.8510
   536.5000     93.1973    -63.5339      1.8764      1.8521
   536.0000     91.4976    -73.2009      1.8781      1.8522
   535.5000     89.0243    -65.1809      1.8797      1.8503
   535.0000     87.2885    -45.4169      1.8810      1.8497
   534.5000     88.1344    -41.1369      1.8817      1.8523
   534.0000     90.7489    -56.0627      1.8818      1.8558
   533.5000     92.2565    -68.1538      1.8811      1.8581
   533.0000     91.9385    -67.8137      1.8804      1.8601
   532.5000     89.5152    -61.0693      1.8805      1.8631
   532.0000     86.1405    -53.6053      1.8816      1.8667
   531.5000     85.0706    -52.1196      1.8818      1.8683
   531.0000     87.9622    -55.3932      1.8809      1.8678
   530.5000     91.6819    -55.6866      1.8800      1.8667
   530.0000     94.5757    -54.4248      1.8793      1.8657
   529.5000     96.5993    -55.6085      1.8780      1.8651
   529.0000     95.7528    -59.5686      1.8773      1.8660
   528.5000     92.1829    -66.9390      1.8789      1.8669
   528.0000     89.5110    -75.0666      1.8820      1.8657
   527.5000     88.2825    -75.8172      1.8846      1.8639
   527.0000     86.2908    -71.6390      1.8857      1.8621
   526.5000     85.8522    -71.3965      1.8863      1.8602
   526.0000     89.2713    -72.0273      1.8872      1.8584
   525.5000     94.5883    -62.2499      1.8883      1.8593
   525.0000     98.1071    -42.9089      1.8891      1.8635
   524.5000     97.9436    -32.8268      1.8903      1.8684
   524.0000     94.5282    -46.0321      1.8919      1.8710
   523.5000     91.1367    -66.2408      1.8933      1.8714
   523.0000     89.7512    -65.6879      1.8935      1.8717
   522.5000     89.3065    -48.6512      1.8929      1.8735
   522.0000     88.7189    -36.3563      1.8918      1.8755
   521.5000     88.8025    -33.0504      1.8921      1.8769
   521.0000     88.7314    -36.3969      1.8947      1.8781
   520.5000     86.9024    -46.7840      1.8973      1.8795
   520.0000     84.4680    -56.4918      1.8966      1.8800
   519.5000     83.2270    -58.4075      1.8933      1.8796
   519.0000     83.5518    -57.9500      1.8915      1.8785
   518.5000     84.3099    -61.5182      1.8927      1.8786
   518.0000     84.5383    -68.7058      1.8944      1.8817
   517.5000     85.0063    -80.0348      1.8949      1.8864
   517.0000     87.1603    -92.7121      1.8945      1.8879
   516.5000     88.7903    -94.6485      1.8941      1.8842
   516.0000     87.8872    -82.5845      1.8934      1.8801
   515.5000     87.1620    -69.0419      1.8925      1.8798
   515.0000     87.2185    -60.5669      1.8914      1.8818
   514.5000     85.8704    -51.0518      1.8898      1.8821
   514.0000     83.8223    -46.3960      1.8883      1.8811
   513.5000     83.8745    -51.3455      1.8875      1.8803
   513.0000     86.7966    -52.5323      1.8868      1.8802
   512.5000     88.8041    -49.9428      1.8857      1.8802
   512.0000     87.7282    -59.3741      1.8851      1.8798
   511.5000     85.6894    -70.3114      1.8851      1.8781
   511.0000     84.9504    -62.5668      1.8844      1.8757
   510.5000     85.6337    -48.3501      1.8836      1.8745
   510.0000     88.1462    -42.0851      1.8842      1.8737
   509.5000     90.3642    -39.4084      1.8852      1.8718
   509.0000     91.4026    -41.8494      1.8846      1.8700
   508.5000     94.4393    -47.4757      1.8832      1.8699
   508.0000     98.1229    -44.1405      1.8826      1.8698
   507.5000     97.5048    -29.7430      1.8821      1.8683
   507.0000     93.2725    -18.7020      1.8811      1.8674
   506.5000     91.0798    -14.0797      1.8812      1.8689
   506.0000     92.0420    -12.8204      1.8826      1.8700
   505.5000     92.6811    -17.8175      1.8834      1.8682
   505.0000     89.3455    -30.6098      1.8831      1.8663
   504.5000     84.1755    -40.2002      1.8830      1.8657
   504.0000     81.4972    -36.4624      1.8836      1.8648
   503.5000     82.2334    -33.9852      1.8841      1.8644
   503.0000     84.6198    -47.3519      1.8848      1.8662
   502.5000     87.8869    -62.7135      1.8865      1.8681
   502.0000     90.9339    -64.0165      1.8893      1.8679
   501.5000     91.0910    -63.0496      1.8910      1.8665
   501.0000     86.7197    -63.6825      1.8900      1.8664
   500.5000     79.6979    -59.1810      1.8889      1.8667
   500.0000     74.0099    -52.5692      1.8901      1.8671
   499.5000     72.6874    -54.3266      1.8926      1.8690
   499.0000     75.4952    -61.2135      1.8941      1.8734
   498.5000     80.0685    -62.4820      1.8945      1.8776
   498.0000     83.3847    -58.2696      1.8945      1.8783
   497.5000     83.1685    -60.0350      1.8941      1.8765
   497.0000     80.0933    -61.6390      1.8932      1.8760
   496.5000     78.9733    -52.6286      1.8925      1.8778
   496.0000     81.4864    -43.6083      1.8924      1.8803
   495.5000     83.3733    -41.7088      1.8920      1.8823
   495.0000     81.7160    -40.4961      1.8905      1.8835
   494.5000     79.9092    -43.9645      1.8885      1.8841
   494.0000     79.8442    -53.5296      1.8868      1.8836
   493.5000     80.3771    -55.5170      1.8861      1.8825
   493.0000     81.3802    -45.5219      1.8860      1.8817
   492.5000     83.4194    -36.8391      1.8845      1.8811
   492.0000     84.2870    -35.5569      1.8810      1.8792
   491.5000     84.0029    -42.8083      1.8768      1.8762
   491.0000     83.9681    -54.2403      1.8741      1.8733
   490.5000     83.5246    -56.1127      1.8721      1.8716
   490.0000     82.5277    -47.5766      1.8711      1.8712
   489.5000     81.7076    -47.4037      1.8729      1.8697
   489.0000     80.0186    -56.7001      1.8764      1.8654
   488.5000     77.4703    -53.9740      1.8776      1.8600
   488.0000     77.7973    -36.3947      1.8775      1.8561
   487.5000     81.6064    -24.2646      1.8795      1.8545
   487.0000     84.6298    -30.6196      1.8821      1.8537
   486.5000     85.3142    -44.2024      1.8838      1.8545
   486.0000     86.6922    -54.8640      1.8850      1.8580
   485.5000     88.6662    -62.9215      1.8854      1.8608
   485.0000     87.8867    -66.3052      1.8847      1.8608
   484.5000     84.7963    -59.1206      1.8833      1.8621
   484.0000     81.9798    -44.0932      1.8821      1.8655
   483.5000     80.8367    -30.6180      1.8811      1.8685
   483.0000     81.3352    -27.1002      1.8808      1.8705
   482.5000     83.5840    -29.1479      1.8810      1.8720
   482.0000     84.9413    -31.6801      1.8803      1.8726
   481.5000     83.1978    -37.3643      1.8798      1.8719
   481.0000     79.7662    -48.1680      1.8815      1.8701
   480.5000     78.8917    -59.9325      1.8830      1.8677
   480.0000     81.4579    -60.1820      1.8824      1.8655
   479.5000     83.2178    -43.3743      1.8816      1.8642
   479.0000     81.4794    -32.8098      1.8821      1.8632
   478.5000     78.8109    -42.9425      1.8822      1.8626
   478.0000     77.8647    -52.2206      1.8816      1.8645
   477.5000     78.1390    -46.1172      1.8829      1.8676
   477.0000     80.0724    -39.3258      1.8858      1.8681
   476.5000     82.0750    -41.1671      1.8880      1.8662
   476.0000     81.6784    -47.2686      1.8895      1.8658
   475.5000     80.6502    -49.4786      1.8911      1.8663
   475.0000     81.8161    -47.3049      1.8923      1.8654
   474.5000     84.4252    -52.2852      1.8928      1.8651
   474.0000     85.6193    -62.0910      1.8932      1.8674
   473.5000     83.5222    -60.0429      1.8945      1.8708
   473.0000     79.2763    -46.5015      1.8956      1.8738
   472.5000     75.6845    -39.1827      1.8951      1.8768
   472.0000     74.5534    -35.3010      1.8944      1.8795
   471.5000     75.7287    -27.7044      1.8945      1.8806
   471.0000     78.5420    -26.5713      1.8939      1.8804
   470.5000     81.3607    -38.3208      1.8921      1.8815
