~Version Information
 VERS.                2.00:   CWLS log ASCII Standard -VERSION 2.00
 WRAP.                  NO:   One line per frame
~Well Information Block
#MNEM.UNIT              Data                Description
#--------- -------------------------------  -------------------------------
 STRT.F                          653.0000:   Starting Depth
 STOP.F                           -2.7500:   Ending Depth
 STEP.F                           -0.5000:   Level Spacing
 NULL.                          -999.2500:   Absent Value
 COMP.     FLUOR DANIEL (NPOSR), INC.    :   Company
 WELL.     14-1 X 11                     :   Well
 FLD .     N.P.R. #3                     :   Field
 LOC .     11-38N-78W                    :   Location
 PROV.                                   :   Province
 SRVC.     Western Atlas International   :   Service Company
 LIC .                                   :   License Number
 DATE.     4-August-1995                 :   Log Date
 UWI .     92800                         :   Unique Well ID
~Curve Information Block
#MNEM.UNIT       API Codes    Curve Description
#---------    -------------   -------------------------------
 DEPT.F        0   1  0  1:   Depth
 CILD.MMHO     0 110 46  1:   Conductivity of Deep Induction
 GR  .API      0 310  1  1:   Gamma ray counts
 TEN .LBF      0 635 99  1:   Differential Tension
 RILM.OHMM     0 120 44  1:   Resistivity from CILM
 RILD.OHMM     0 120 46  1:   Resistivity from CILD
#  Curve Data
~A   DEPT        CILD        GR          TEN         RILM        RILD
# ...
   317.0000    131.6570    127.9831     -9.8738      7.7288      7.5955
   316.5000    131.8022    130.9303    -19.9083      7.6935      7.5871
   316.0000    132.2430    133.3929    -28.4159      7.6638      7.5618
   315.5000    133.2292    133.4373    -31.2637      7.6337      7.5059
   315.0000    134.5970    130.6060    -30.6626      7.5950      7.4296
   314.5000    135.9790    126.8307    -30.6748      7.5370      7.3541
   314.0000    137.3392    124.9752    -33.1239      7.4553      7.2812
   313.5000    138.9382    125.9142    -35.3004      7.3624      7.1974
   313.0000    140.7885    125.7042    -31.9216      7.2681      7.1028
   312.5000    142.9118    122.9205    -27.1721      7.1657      6.9973
   312.0000    145.8627    122.1470    -26.6299      7.0423      6.8558
   311.5000    150.3726    124.3599    -25.6691      6.8909      6.6501
   311.0000    157.0788    126.8132    -23.3865      6.6997      6.3662
   310.5000    166.6056    127.4434    -24.6486      6.4439      6.0022
   310.0000    177.8537    125.5057    -24.4195      6.1266      5.6226
   309.5000    187.7308    121.6370    -16.4352      5.8090      5.3268
   309.0000    193.9221    119.9066     -7.1175      5.5365      5.1567
   308.5000    196.9876    123.6468     -5.6489      5.2753      5.0765
   308.0000    198.7149    127.9132    -11.8752      5.0033      5.0323
   307.5000    199.8966    129.1444    -15.6374      4.8003      5.0026
   307.0000    199.3541    129.0165    -14.9419      4.7985      5.0162
   306.5000    194.9528    128.7893    -18.1109      5.0338      5.1294
   306.0000    186.2068    127.9570    -26.7680      5.4229      5.3704
   305.5000    175.4832    128.0218    -33.3014      5.8432      5.6986
   305.0000    165.7241    126.2675    -35.2772      6.1972      6.0341
   304.5000    158.2908    123.1351    -33.9727      6.4593      6.3175
   304.0000    153.0918    124.4630    -32.8323      6.6480      6.5320
   303.5000    149.4033    127.8069    -34.0502      6.7860      6.6933
   303.0000    146.5609    126.2106    -34.2567      6.8926      6.8231
   302.5000    144.1602    122.7748    -28.4422      6.9838      6.9367
   302.0000    142.0938    123.7776    -22.5542      7.0737      7.0376
   301.5000    140.3997    126.7166    -23.4792      7.1658      7.1225
   301.0000    138.9808    126.9421    -21.9682      7.2465      7.1952
   300.5000    137.8425    126.7228    -13.5856      7.3014      7.2547
   300.0000    137.3528    128.2191    -12.7521      7.3321      7.2805
   299.5000    137.7607    129.9130    -21.9454      7.3469      7.2590
   299.0000    138.8578    131.1188    -27.4604      7.3440      7.2016
   298.5000    140.2816    130.7278    -26.8748      7.3175      7.1285
   298.0000    141.8741    125.8188    -27.5067      7.2666      7.0485
   297.5000    143.9507    120.1745    -25.2464      7.1897      6.9468
   297.0000    147.1713    120.2933    -15.7102      7.0717      6.7948
   296.5000    151.7906    125.9510     -7.5771      6.8973      6.5880
   296.0000    157.2053    130.3870    -11.0651      6.6882      6.3611
   295.5000    162.2107    129.8692    -21.7551      6.4939      6.1648
   295.0000    165.5503    126.3252    -27.9636      6.3370      6.0405
   294.5000    166.8637    126.0112    -32.0094      6.1913      5.9929
   294.0000    166.9720    131.0631    -37.2374      6.0398      5.9890
   293.5000    166.5930    135.4027    -38.7817      5.9307      6.0027
   293.0000    165.3855    133.4258    -36.9852      5.9435      6.0465
   292.5000    162.3684    127.3784    -37.0429      6.1110      6.1588
   292.0000    157.3961    123.9491    -35.1616      6.3997      6.3534
   291.5000    151.3643    125.6592    -27.6650      6.7438      6.6066
   291.0000    145.3390    128.5013    -22.8771      7.0753      6.8805
   290.5000    140.2348    127.1532    -23.9611      7.3386      7.1309
   290.0000    136.5878    124.1217    -22.5974      7.5141      7.3213
   289.5000    134.2143    124.1605    -16.4090      7.6253      7.4508
   289.0000    132.6036    124.1102    -14.4869      7.7038      7.5413
   288.5000    131.3230    121.5475    -16.0284      7.7682      7.6148
   288.0000    130.0341    119.5289    -11.1749      7.8281      7.6903
   287.5000    128.6565    121.7774     -3.4392      7.8882      7.7726
   287.0000    127.3561    126.2043     -5.8023      7.9468      7.8520
   286.5000    126.2274    126.5139    -16.7329      7.9995      7.9222
   286.0000    125.3263    122.8951    -25.6002      8.0522      7.9792
   285.5000    124.7099    121.8248    -29.7220      8.1197      8.0186
   285.0000    124.1894    125.3261    -29.1510      8.2055      8.0522
   284.5000    123.5933    127.5538    -23.2318      8.2876      8.0911
   284.0000    123.0139    126.9738    -15.5495      8.3370      8.1292
   283.5000    122.7401    125.0805    -12.4016      8.3476      8.1473
   283.0000    122.9666    123.7264    -13.9123      8.3354      8.1323
   282.5000    123.6534    122.7300    -15.8051      8.3181      8.0871
   282.0000    124.5506    122.0226    -12.7017      8.3016      8.0289
   281.5000    125.3748    124.4993     -7.4216      8.2742      7.9761
   281.0000    125.9201    128.4701     -6.7469      8.2264      7.9415
   280.5000    126.2573    128.2603     -9.5428      8.1607      7.9203
   280.0000    126.5431    126.0506    -13.5987      8.0857      7.9024
   279.5000    126.6641    126.9176    -19.6063      8.0143      7.8949
   279.0000    126.3450    129.0596    -24.7846      7.9795      7.9148
   278.5000    125.6197    130.0653    -23.9547      8.0055      7.9605
   278.0000    124.6815    130.0392    -17.8693      8.0898      8.0204
   277.5000    123.5533    129.4858    -12.5056      8.2120      8.0937
   277.0000    122.2227    129.2397    -10.6863      8.3457      8.1818
   276.5000    120.9405    128.3311    -10.0382      8.4588      8.2685
   276.0000    120.0791    126.4097     -7.6674      8.5268      8.3278
   275.5000    119.8167    126.4804     -5.5263      8.5458      8.3461
   275.0000    120.2405    126.1512     -8.1548      8.5241      8.3167
   274.5000    121.3385    122.1169    -20.1462      8.4697      8.2414
   274.0000    122.8662    117.2745    -35.6591      8.3860      8.1389
   273.5000    124.3922    114.6838    -42.8147      8.2806      8.0391
   273.0000    125.8003    114.8490    -39.9843      8.1614      7.9491
   272.5000    127.2015    118.1443    -35.8726      8.0348      7.8615
   272.0000    128.7193    122.4250    -33.9572      7.9085      7.7688
   271.5000    130.4115    125.1509    -31.0341      7.7984      7.6680
   271.0000    132.0211    126.5716    -27.6757      7.7277      7.5745
   270.5000    133.0748    126.0630    -29.2614      7.7038      7.5146
   270.0000    133.6122    123.0784    -31.9344      7.6973      7.4843
   269.5000    134.3422    120.5578    -26.8998      7.6613      7.4437
   269.0000    135.8148    119.9823    -22.2940      7.5758      7.3630
   268.5000    138.1255    120.1681    -26.8937      7.4567      7.2398
   268.0000    140.6743    120.3226    -30.7495      7.3443      7.1086
   267.5000    142.3878    120.0688    -24.8282      7.2746      7.0231
   267.0000    142.6941    119.8730    -16.7329      7.2401      7.0080
   266.5000    141.9070    120.8890     -9.6575      7.1987      7.0469
   266.0000    140.6147    122.1365     -4.4124      7.1410      7.1116
   265.5000    139.1775    121.6938     -7.2502      7.1208      7.1851
   265.0000    137.3621    120.8287    -15.9164      7.2049      7.2800
   264.5000    134.5280    120.6817    -23.1815      7.4080      7.4334
   264.0000    130.7410    119.9458    -28.7487      7.6902      7.6487
   263.5000    126.7707    118.7239    -35.2089      7.9940      7.8883
   263.0000    123.1318    118.2220    -39.8635      8.2692      8.1214
   262.5000    120.0342    117.4013    -42.7659      8.4853      8.3310
   262.0000    117.6385    116.3899    -44.6675      8.6435      8.5006
   261.5000    115.8703    115.2365    -43.1294      8.7536      8.6303
