~Version Information
 VERS.                1.20:   CWLS log ASCII Standard -VERSION 1.20
 WRAP.                  NO:   One line per frame
~Well Information Block
#MNEM.UNIT       Data Type    Information
#---------    -------------   -------------------------------
 STRT.F          2547.0000:   Starting Depth
 STOP.F           -12.5000:   Ending Depth
 STEP.F            -0.5000:   Level Spacing
 NULL.           -999.2500:   Absent Value
 COMP.             COMPANY:   FLUOR DANIEL (NPOSR), INC.
 WELL.                WELL:   46-1 X 11
 FLD .               FIELD:   
 LOC .            LOCATION:   
 CNTY.              COUNTY:   
 STAT.               STATE:   
 SRVC.     SERVICE COMPANY:   
 LIC .      LICENSE NUMBER:   
 DATE.            LOG DATE:   
 API .          API NUMBER:   
~Curve Information Block
#MNEM.UNIT       API Codes    Curve Description
#---------    -------------   -------------------------------
 DEPT.F        0   1  0  1:   Depth
 GR  .API      0 310  1  1:   Gamma ray counts
 TEN .LBF      0 635 99  1:   Differential Tension
 RILM.OHMM     0 120 44  1:   Resistivity from CILM
 RILD.OHMM     0 120 46  1:   Resistivity from CILD
#  Curve Data
~A   DEPT        GR          TEN         RILM        RILD
# ...
   202.0000     85.5583    -52.8840      1.8733      1.8564
   201.5000     83.6294    -55.6021      1.8732      1.8548
   201.0000     80.7331    -62.4966      1.8735      1.8552
   200.5000     82.8193    -60.0649      1.8733      1.8573
   200.0000     88.2116    -48.7305      1.8729      1.8598
   199.5000     90.6418    -43.6879      1.8727      1.8602
   199.0000     88.8204    -43.4939      1.8722      1.8589
   198.5000     85.7296    -44.8563      1.8700      1.8586
   198.0000     83.1400    -49.3475      1.8663      1.8597
   197.5000     80.4681    -53.2707      1.8635      1.8603
   197.0000     77.0342    -58.8305      1.8624      1.8597
   196.5000     73.5811    -65.0858      1.8624      1.8584
   196.0000     71.2632    -68.0342      1.8628      1.8574
   195.5000     69.0995    -63.7310      1.8626      1.8554
   195.0000     66.5397    -56.1905      1.8620      1.8516
   194.5000     65.7315    -50.9316      1.8624      1.8479
   194.0000     67.3139    -48.1443      1.8631      1.8458
   193.5000     68.5494    -44.6999      1.8628      1.8449
   193.0000     69.1059    -49.2532      1.8615      1.8452
   192.5000     70.0936    -57.7472      1.8609      1.8460
   192.0000     69.4783    -57.0792      1.8617      1.8459
   191.5000     67.2566    -53.3747      1.8633      1.8459
   191.0000     67.2048    -50.6931      1.8646      1.8468
   190.5000     69.1513    -43.8544      1.8631      1.8474
   190.0000     69.3365    -40.0072      1.8582      1.8462
   189.5000     67.9019    -43.7044      1.8536      1.8446
   189.0000     67.4735    -45.0830      1.8523      1.8446
   188.5000     67.2004    -43.0355      1.8521      1.8465
   188.0000     65.3465    -44.9762      1.8518      1.8491
   187.5000     63.1035    -52.6348      1.8516      1.8498
   187.0000     62.9911    -63.5943      1.8504      1.8450
   186.5000     64.6145    -67.2708      1.8479      1.8369
   186.0000     65.8148    -59.1410      1.8454      1.8321
   185.5000     65.0645    -52.7656      1.8456      1.8325
   185.0000     62.4151    -55.9477      1.8478      1.8334
   184.5000     59.8961    -58.0168      1.8491      1.8332
   184.0000     59.7199    -55.9574      1.8484      1.8319
   183.5000     62.1471    -60.0255      1.8482      1.8293
   183.0000     66.0460    -63.1191      1.8490      1.8258
   182.5000     69.9114    -59.0971      1.8487      1.8240
   182.0000     71.0971    -59.8837      1.8471      1.8253
   181.5000     69.7316    -67.2556      1.8473      1.8279
   181.0000     68.0245    -66.0419      1.8505      1.8282
   180.5000     66.3778    -51.5005      1.8542      1.8269
   180.0000     65.8898    -44.5910      1.8558      1.8277
   179.5000     67.5280    -52.8349      1.8560      1.8288
   179.0000     70.0639    -58.8281      1.8561      1.8276
   178.5000     71.6383    -55.3398      1.8566      1.8268
   178.0000     71.4146    -54.1521      1.8565      1.8300
   177.5000     70.4026    -57.6200      1.8550      1.8347
   177.0000     69.9846    -60.1594      1.8531      1.8379
   176.5000     68.8777    -63.9283      1.8510      1.8391
   176.0000     67.1354    -64.3761      1.8492      1.8399
   175.5000     67.2977    -59.0840      1.8489      1.8408
   175.0000     69.4866    -54.8219      1.8501      1.8413
   174.5000     71.6849    -54.9997      1.8529      1.8399
   174.0000     72.0097    -53.4985      1.8568      1.8373
   173.5000     70.2586    -51.0314      1.8581      1.8341
   173.0000     68.9774    -52.3115      1.8557      1.8311
   172.5000     69.8241    -55.2505      1.8541      1.8299
   172.0000     70.6888    -57.2790      1.8545      1.8313
   171.5000     70.5068    -58.3050      1.8557      1.8350
   171.0000     70.2644    -56.6653      1.8570      1.8411
   170.5000     69.8055    -55.3386      1.8569      1.8448
   170.0000     68.8271    -55.4700      1.8559      1.8406
   169.5000     67.4291    -52.4759      1.8572      1.8357
   169.0000     67.2187    -47.0011      1.8600      1.8358
   168.5000     68.4284    -43.7391      1.8631      1.8372
   168.0000     69.8515    -45.1790      1.8658      1.8377
   167.5000     69.2152    -51.6981      1.8659      1.8378
   167.0000     68.6264    -59.8538      1.8647      1.8357
   166.5000     70.3405    -62.1041      1.8654      1.8351
   166.0000     72.5438    -59.1834      1.8668      1.8384
   165.5000     73.1563    -54.9625      1.8666      1.8427
   165.0000     72.5061    -52.3828      1.8682      1.8469
   164.5000     70.9944    -52.7861      1.8736      1.8484
   164.0000     70.2427    -52.3392      1.8784      1.8463
   163.5000     72.4484    -49.4231      1.8784      1.8457
   163.0000     77.3584    -45.1443      1.8764      1.8480
   162.5000     84.8292    -39.2160      1.8762      1.8480
   162.0000     90.7527    -35.7759      1.8768      1.8476
   161.5000     89.0422    -42.1467      1.8768      1.8536
   161.0000     81.3006    -50.7529      1.8759      1.8634
   160.5000     74.1321    -50.0048      1.8750      1.8677
   160.0000     69.5131    -44.3869      1.8750      1.8652
   159.5000     67.9032    -45.7012      1.8757      1.8624
   159.0000     68.1152    -52.4442      1.8759      1.8621
   158.5000     66.7494    -54.9424      1.8753      1.8614
   158.0000     63.4331    -48.9443      1.8735      1.8599
   157.5000     60.8217    -43.1227      1.8714      1.8590
   157.0000     60.6318    -44.9494      1.8715      1.8595
   156.5000     63.5561    -49.9108      1.8741      1.8615
   156.0000     68.3354    -50.7892      1.8759      1.8633
   155.5000     69.4050    -49.9453      1.8769      1.8636
   155.0000     65.7916    -50.4086      1.8780      1.8622
   154.5000     63.7795    -48.2757      1.8778      1.8583
   154.0000     67.7390    -46.9392      1.8759      1.8551
   153.5000     75.0126    -51.6582      1.8735      1.8568
   153.0000     82.8593    -57.9162      1.8714      1.8602
   152.5000     88.8827    -56.9301      1.8700      1.8620
   152.0000     90.5722    -48.3163      1.8683      1.8640
   151.5000     90.4103    -39.4646      1.8651      1.8653
   151.0000     91.3937    -41.2430      1.8624      1.8640
   150.5000     91.5404    -52.5286      1.8599      1.8616
   150.0000     88.1484    -60.1201      1.8562      1.8590
   149.5000     82.7819    -61.9787      1.8532      1.8561
   149.0000     77.6576    -65.6430      1.8524      1.8537
   148.5000     73.0136    -68.4853      1.8526      1.8504
   148.0000     70.5761    -61.6655      1.8530      1.8469
   147.5000     71.6956    -50.3518      1.8535      1.8443
   147.0000     74.0476    -46.5430      1.8537      1.8396
   146.5000     73.6192    -53.4388      1.8540      1.8335
   146.0000     72.8529    -62.4356      1.8554      1.8305
   145.5000     75.5247    -65.3359      1.8576      1.8306
   145.0000     79.6249    -60.7292      1.8592      1.8311
   144.5000     80.9326    -55.6238      1.8598      1.8325
   144.0000     78.6279    -52.8413      1.8609      1.8329
   143.5000     75.9725    -51.9244      1.8634      1.8322
   143.0000     76.4047    -53.2103      1.8665      1.8331
   142.5000     78.8583    -58.0101      1.8684      1.8360
   142.0000     78.3666    -62.5711      1.8697      1.8389
   141.5000     74.8027    -63.8707      1.8716      1.8404
   141.0000     73.4917    -62.7532      1.8738      1.8418
   140.5000     75.7820    -61.5792      1.8752      1.8445
   140.0000     79.1521    -60.2863      1.8761      1.8483
   139.5000     81.4114    -58.3313      1.8764      1.8517
   139.0000     82.3529    -58.3651      1.8766      1.8543
   138.5000     82.2204    -58.8043      1.8772      1.8570
   138.0000     81.7006    -57.7377      1.8772      1.8594
   137.5000     81.3993    -58.0458      1.8767      1.8609
   137.0000     81.1685    -62.8205      1.8760      1.8620
   136.5000     79.8956    -67.8476      1.8749      1.8632
   136.0000     77.9511    -65.0040      1.8727      1.8635
   135.5000     78.0056    -56.5589      1.8696      1.8645
