~Version Information
 VERS.                1.20:   CWLS log ASCII Standard -VERSION 1.20
 WRAP.                  NO:   One line per frame
~Well Information Block
#MNEM.UNIT       Data Type    Information
#---------    -------------   -------------------------------
 STRT.F          2547.0000:   Starting Depth
 STOP.F           -12.5000:   Ending Depth
 STEP.F            -0.5000:   Level Spacing
 NULL.           -999.2500:   Absent Value
 COMP.             COMPANY:   FLUOR DANIEL (NPOSR), INC.
 WELL.                WELL:   46-1 X 11
 FLD .               FIELD:   
 LOC .            LOCATION:   
 CNTY.              COUNTY:   
 STAT.               STATE:   
 SRVC.     SERVICE COMPANY:   
 LIC .      LICENSE NUMBER:   
 DATE.            LOG DATE:   
 API .          API NUMBER:   
~Curve Information Block
#MNEM.UNIT       API Codes    Curve Description
#---------    -------------   -------------------------------
 DEPT.F        0   1  0  1:   Depth
 GR  .API      0 310  1  1:   Gamma ray counts
 TEN .LBF      0 635 99  1:   Differential Tension
 RILM.OHMM     0 120 44  1:   Resistivity from CILM
 RILD.OHMM     0 120 46  1:   Resistivity from CILD
#  Curve Data
~A   DEPT        GR          TEN         RILM        RILD
# ...
   403.0000     79.3549    -54.8784      1.8788      1.8582
   402.5000     78.6584    -46.4323      1.8754      1.8604
   402.0000     74.1151    -47.6916      1.8750      1.8625
   401.5000     72.1503    -52.5112      1.8769      1.8641
   401.0000     76.0722    -50.5928      1.8784      1.8660
   400.5000     80.8189    -48.9220      1.8795      1.8678
   400.0000     82.2824    -53.7496      1.8810      1.8667
   399.5000     80.9548    -64.1080      1.8824      1.8632
   399.0000     78.7897    -72.7864      1.8835      1.8614
   398.5000     78.8577    -70.8439      1.8846      1.8624
   398.0000     80.8729    -61.4606      1.8857      1.8636
   397.5000     82.9293    -57.0417      1.8869      1.8647
   397.0000     84.5827    -55.1010      1.8880      1.8666
   396.5000     86.4970    -53.2484      1.8883      1.8683
   396.0000     87.2122    -50.1771      1.8867      1.8691
   395.5000     85.9783    -45.2611      1.8840      1.8700
   395.0000     84.5114    -42.4359      1.8834      1.8716
   394.5000     84.5661    -46.2182      1.8842      1.8732
   394.0000     86.4873    -50.3421      1.8841      1.8742
   393.5000     87.4512    -56.9978      1.8837      1.8745
   393.0000     84.8695    -66.1112      1.8832      1.8740
   392.5000     80.3721    -70.0478      1.8822      1.8720
   392.0000     79.1129    -67.4254      1.8819      1.8710
   391.5000     82.6927    -62.4735      1.8819      1.8715
   391.0000     86.9810    -52.2435      1.8822      1.8702
   390.5000     88.1330    -45.1507      1.8835      1.8673
   390.0000     87.4040    -47.4687      1.8846      1.8664
   389.5000     88.0856    -48.1610      1.8836      1.8669
   389.0000     89.9877    -45.0043      1.8822      1.8674
   388.5000     91.3899    -47.5172      1.8829      1.8672
   388.0000     90.9340    -48.4270      1.8859      1.8666
   387.5000     88.5533    -44.2058      1.8889      1.8676
   387.0000     85.5807    -48.4953      1.8888      1.8703
   386.5000     84.8702    -59.7885      1.8870      1.8710
   386.0000     85.4779    -65.7784      1.8856      1.8688
   385.5000     84.4987    -65.8998      1.8849      1.8679
   385.0000     82.3286    -62.9252      1.8834      1.8706
   384.5000     82.2207    -58.7948      1.8820      1.8753
   384.0000     84.3611    -59.6211      1.8815      1.8773
   383.5000     85.9347    -63.6099      1.8816      1.8759
   383.0000     86.0287    -57.9433      1.8814      1.8737
   382.5000     86.2721    -47.5986      1.8805      1.8720
   382.0000     86.0840    -46.1736      1.8789      1.8706
   381.5000     84.4781    -54.2238      1.8775      1.8689
   381.0000     83.4473    -64.8766      1.8774      1.8675
   380.5000     84.9058    -66.7197      1.8780      1.8666
   380.0000     87.0065    -56.4707      1.8781      1.8660
   379.5000     88.2505    -45.8080      1.8780      1.8650
   379.0000     87.1524    -45.0985      1.8789      1.8634
   378.5000     83.9687    -51.6914      1.8805      1.8616
   378.0000     81.2152    -58.6021      1.8811      1.8608
   377.5000     82.1896    -59.8944      1.8799      1.8615
   377.0000     85.3231    -51.6737      1.8793      1.8615
   376.5000     87.7672    -42.6616      1.8806      1.8604
   376.0000     88.9481    -45.9327      1.8821      1.8604
   375.5000     90.9277    -59.7852      1.8832      1.8632
   375.0000     93.7806    -67.1485      1.8850      1.8660
   374.5000     93.5206    -65.9065      1.8866      1.8655
   374.0000     88.2622    -64.0482      1.8864      1.8641
   373.5000     83.7579    -62.3786      1.8858      1.8655
   373.0000     85.2895    -56.9484      1.8861      1.8675
   372.5000     88.6859    -48.0933      1.8864      1.8676
   372.0000     89.0030    -41.7524      1.8860      1.8686
   371.5000     87.4660    -45.5917      1.8857      1.8716
   371.0000     86.7224    -58.1974      1.8874      1.8724
   370.5000     86.3502    -65.6025      1.8899      1.8706
   370.0000     87.1088    -61.0021      1.8900      1.8707
   369.5000     89.2128    -54.4529      1.8879      1.8727
   369.0000     89.4732    -54.0655      1.8879      1.8737
   368.5000     87.0346    -54.4779      1.8894      1.8728
   368.0000     86.2303    -52.6680      1.8886      1.8732
   367.5000     89.1459    -54.2134      1.8854      1.8762
   367.0000     92.5307    -57.7926      1.8820      1.8781
   366.5000     92.7223    -58.8766      1.8792      1.8758
   366.0000     88.5814    -58.8732      1.8787      1.8740
   365.5000     83.1318    -59.5634      1.8796      1.8762
   365.0000     80.5143    -63.5718      1.8780      1.8775
   364.5000     81.3700    -62.6696      1.8734      1.8753
   364.0000     83.1862    -54.7185      1.8695      1.8713
   363.5000     84.7851    -48.6722      1.8681      1.8670
   363.0000     87.0816    -52.0242      1.8683      1.8642
   362.5000     88.3621    -56.0788      1.8682      1.8649
   362.0000     86.0699    -54.2415      1.8662      1.8649
   361.5000     84.0532    -48.7619      1.8636      1.8606
   361.0000     86.9433    -44.7636      1.8611      1.8549
   360.5000     91.1420    -48.9742      1.8580      1.8514
   360.0000     90.7407    -58.3840      1.8538      1.8501
   359.5000     86.9920    -64.8845      1.8512      1.8500
   359.0000     85.1428    -61.8022      1.8525      1.8489
   358.5000     84.4624    -50.7377      1.8551      1.8461
   358.0000     81.6641    -44.6389      1.8564      1.8426
   357.5000     78.8243    -49.6025      1.8578      1.8380
   357.0000     80.6524    -56.0645      1.8620      1.8320
   356.5000     85.8720    -56.0355      1.8658      1.8271
   356.0000     90.2593    -54.0329      1.8662      1.8273
   355.5000     91.8997    -55.1236      1.8656      1.8312
   355.0000     91.2110    -59.0160      1.8660      1.8342
   354.5000     88.1468    -57.7057      1.8658      1.8356
   354.0000     84.2839    -52.1498      1.8687      1.8395
   353.5000     82.3495    -50.0877      1.8765      1.8452
   353.0000     83.1651    -47.6065      1.8825      1.8476
   352.5000     84.8505    -43.2057      1.8838      1.8464
   352.0000     85.7898    -43.6955      1.8851      1.8463
   351.5000     86.0884    -50.7050      1.8871      1.8464
   351.0000     86.9899    -61.8720      1.8875      1.8476
   350.5000     87.1119    -67.1836      1.8875      1.8563
   350.0000     85.2498    -57.2336      1.8880      1.8675
   349.5000     84.7212    -46.4979      1.8887      1.8715
   349.0000     86.8502    -53.7929      1.8891      1.8719
   348.5000     88.6726    -69.7828      1.8895      1.8750
   348.0000     88.1604    -74.8955      1.8900      1.8772
   347.5000     87.5635    -62.1017      1.8905      1.8766
   347.0000     86.0746    -46.1590      1.8911      1.8759
   346.5000     82.2666    -45.5636      1.8916      1.8767
   346.0000     79.6845    -56.5479      1.8916      1.8777
   345.5000     81.7861    -62.3856      1.8914      1.8780
   345.0000     84.9845    -61.2428      1.8911      1.8782
   344.5000     86.9796    -60.1591      1.8906      1.8789
   344.0000     88.5650    -62.2874      1.8903      1.8789
   343.5000     89.2968    -65.5222      1.8903      1.8783
   343.0000     89.1236    -62.3951      1.8904      1.8782
   342.5000     89.4530    -56.2222      1.8905      1.8787
   342.0000     90.8343    -55.2599      1.8904      1.8785
   341.5000     91.4096    -59.9237      1.8901      1.8775
   341.0000     90.0079    -65.1279      1.8896      1.8768
   340.5000     87.7875    -69.1420      1.8898      1.8770
   340.0000     87.4631    -67.6929      1.8902      1.8774
   339.5000     89.0955    -62.4289      1.8888      1.8771
   339.0000     90.6879    -54.7194      1.8860      1.8768
   338.5000     90.4373    -49.0150      1.8840      1.8775
   338.0000     88.8185    -53.4482      1.8829      1.8781
   337.5000     87.6012    -62.5631      1.8818      1.8784
   337.0000     87.0178    -59.3509      1.8808      1.8792
   336.5000     85.3995    -50.2036      1.8794      1.8786
