~Version Information
 VERS.                2.00:   CWLS log ASCII Standard -VERSION 2.00
 WRAP.                  NO:   One line per frame
~Well Information Block
#MNEM.UNIT              Data                Description
#--------- -------------------------------  -------------------------------
 STRT.F                          653.0000:   Starting Depth
 STOP.F                           -2.7500:   Ending Depth
 STEP.F                           -0.5000:   Level Spacing
 NULL.                          -999.2500:   Absent Value
 COMP.     FLUOR DANIEL (NPOSR), INC.    :   Company
 WELL.     14-1 X 11                     :   Well
 FLD .     N.P.R. #3                     :   Field
 LOC .     11-38N-78W                    :   Location
 PROV.                                   :   Province
 SRVC.     Western Atlas International   :   Service Company
 LIC .                                   :   License Number
 DATE.     4-August-1995                 :   Log Date
 UWI .     92800                         :   Unique Well ID
~Curve Information Block
#MNEM.UNIT       API Codes    Curve Description
#---------    -------------   -------------------------------
 DEPT.F        0   1  0  1:   Depth
 CILD.MMHO     0 110 46  1:   Conductivity of Deep Induction
 GR  .API      0 310  1  1:   Gamma ray counts
 TEN .LBF      0 635 99  1:   Differential Tension
 RILM.OHMM     0 120 44  1:   Resistivity from CILM
 RILD.OHMM     0 120 46  1:   Resistivity from CILD
#  Curve Data
~A   DEPT        CILD        GR          TEN         RILM        RILD
# ...
   373.0000    140.3313    148.9695     -1.0181      7.2908      7.1260
   372.5000    140.3051    148.0186     -1.3350      7.2715      7.1273
   372.0000    140.2022    148.9524     -6.2086      7.2561      7.1326
   371.5000    139.8987    148.3094    -16.5746      7.2602      7.1480
   371.0000    139.3618    145.0027    -27.4900      7.2873      7.1756
   370.5000    138.7755    140.9628    -31.2655      7.3270      7.2059
   370.0000    138.1325    138.9182    -24.9597      7.3655      7.2394
   369.5000    137.4217    140.7589    -16.5087      7.3939      7.2769
   369.0000    136.8797    142.5631    -14.0806      7.4126      7.3057
   368.5000    136.6958    141.3424    -16.6094      7.4234      7.3155
   368.0000    136.9219    140.1465    -19.1510      7.4216      7.3034
   367.5000    137.7130    140.9427    -21.4241      7.3981      7.2615
   367.0000    138.9618    141.4455    -24.8529      7.3491      7.1962
   366.5000    140.2578    141.0911    -28.0472      7.2833      7.1297
   366.0000    141.5580    142.0977    -25.6426      7.2164      7.0642
   365.5000    143.2034    144.5056    -17.8550      7.1483      6.9831
   365.0000    145.6236    145.4079    -12.9680      7.0541      6.8670
   364.5000    149.4893    143.9185    -10.7235      6.9139      6.6894
   364.0000    155.4811    142.2680     -6.4416      6.7323      6.4317
   363.5000    163.7576    140.7336     -8.2149      6.5106      6.1066
   363.0000    173.8992    139.1588    -21.8712      6.2348      5.7505
   362.5000    184.7444    137.3707    -37.0419      5.9133      5.4129
   362.0000    194.4783    134.7198    -44.2912      5.5860      5.1420
   361.5000    201.5429    134.8807    -42.2111      5.2862      4.9617
   361.0000    205.8548    140.6658    -31.0490      5.0248      4.8578
   360.5000    208.3901    146.2709    -14.7129      4.8150      4.7987
   360.0000    209.4595    146.7177     -0.1559      4.7189      4.7742
   359.5000    207.6130    143.8759      4.8089      4.7934      4.8167
   359.0000    201.3631    140.6770     -2.8505      5.0405      4.9662
   358.5000    191.5057    138.5309    -15.6087      5.3800      5.2218
   358.0000    180.6998    139.3827    -26.1550      5.7243      5.5340
   357.5000    171.0508    142.5623    -33.2651      6.0197      5.8462
   357.0000    163.3079    142.9847    -38.5023      6.2579      6.1234
   356.5000    157.4512    139.2224    -38.8558      6.4496      6.3512
   356.0000    152.8987    137.1249    -31.0822      6.6090      6.5403
   355.5000    148.9513    138.7212    -19.8753      6.7477      6.7136
   355.0000    145.3698    140.4674    -14.4161      6.8755      6.8790
   354.5000    142.1619    140.8579    -13.1543      7.0034      7.0342
   354.0000    139.3218    141.0354    -12.0426      7.1350      7.1776
   353.5000    137.0054    140.9776    -15.1978      7.2572      7.2990
   353.0000    135.6158    139.9084    -18.9314      7.3462      7.3738
   352.5000    135.5421    136.8304    -16.4996      7.3855      7.3778
   352.0000    137.0424    133.8279    -13.6347      7.3729      7.2970
   351.5000    140.1422    134.5283    -15.0133      7.3007      7.1356
   351.0000    144.6244    137.7169    -17.1816      7.1534      6.9145
   350.5000    150.2614    141.0648    -20.3575      6.9353      6.6551
   350.0000    156.8228    144.1545    -24.7459      6.6814      6.3766
   349.5000    164.2514    146.4160    -27.7919      6.4136      6.0882
   349.0000    172.8075    147.3387    -30.2282      6.1113      5.7868
   348.5000    182.6980    146.6071    -28.0255      5.7702      5.4735
   348.0000    193.2059    143.5165    -18.5599      5.4481      5.1758
   347.5000    203.0890    138.4303     -8.2972      5.1980      4.9239
   347.0000    211.5392    133.2124     -2.3134      4.9972      4.7273
   346.5000    217.7578    131.5880     -0.1552      4.7984      4.5923
   346.0000    220.7346    135.1399     -0.0714      4.6381      4.5303
   345.5000    219.9965    141.5553     -0.1376      4.5784      4.5455
   345.0000    215.9146    145.9266     -1.4652      4.6108      4.6315
   344.5000    209.7783    145.8911     -4.9941      4.6719      4.7669
   344.0000    203.2765    143.9762     -8.8853      4.7579      4.9194
   343.5000    196.6955    142.2656    -15.8438      4.9447      5.0840
   343.0000    188.8126    140.2606    -23.0464      5.2551      5.2963
   342.5000    179.9227    139.0056    -21.3475      5.6057      5.5579
   342.0000    172.0426    139.8804    -15.9372      5.8703      5.8125
   341.5000    166.6745    141.9275    -17.7586      5.9911      5.9997
   341.0000    164.6720    144.2812    -24.4680      5.9841      6.0727
   340.5000    167.1107    144.8131    -29.5139      5.8942      5.9841
   340.0000    174.7726    141.6127    -29.0689      5.7552      5.7217
   339.5000    188.0038    137.1571    -19.8433      5.5495      5.3190
   339.0000    206.0236    134.3562     -9.0045      5.2553      4.8538
   338.5000    226.7489    133.6735     -5.6727      4.8986      4.4102
   338.0000    249.7582    134.6736    -11.1081      4.4881      4.0039
   337.5000    279.0571    132.8241    -18.8493      4.0027      3.5835
   337.0000    313.8020    125.6257    -21.9493      3.4833      3.1867
   336.5000    351.2827    118.0107    -21.3375      3.0504      2.8467
   336.0000    384.5891    114.2203    -24.1526      2.7705      2.6002
   335.5000    404.9729    113.2391    -30.3011      2.6164      2.4693
   335.0000    409.7271    116.7916    -33.5457      2.5295      2.4406
   334.5000    403.6462    124.8242    -28.5132      2.4833      2.4774
   334.0000    390.7554    130.4111    -18.0959      2.4997      2.5591
   333.5000    370.8105    128.1512    -13.9647      2.6118      2.6968
   333.0000    343.0986    121.7952    -18.9679      2.8541      2.9146
   332.5000    308.8083    119.1888    -21.7380      3.2424      3.2383
   332.0000    271.4629    123.7399    -19.9668      3.7553      3.6837
   331.5000    237.0481    130.7528    -19.0128      4.3328      4.2186
   331.0000    209.4021    134.9638    -21.5492      4.9031      4.7755
   330.5000    187.9550    135.2206    -23.5188      5.4010      5.3204
   330.0000    171.8064    132.6946    -20.5271      5.8275      5.8205
   329.5000    159.4831    128.8053    -14.0700      6.1975      6.2703
   329.0000    150.2201    126.0142    -10.0372      6.5190      6.6569
   328.5000    143.3998    126.9103     -9.0121      6.7997      6.9735
   328.0000    138.3602    130.2078     -7.2730      7.0439      7.2275
   327.5000    134.4693    131.3548     -6.0847      7.2432      7.4366
   327.0000    131.4877    129.3957    -11.6409      7.3918      7.6053
   326.5000    129.4445    128.5674    -24.5116      7.4994      7.7253
   326.0000    128.4337    130.0679    -35.8381      7.5809      7.7861
   325.5000    128.3995    130.8463    -41.6947      7.6500      7.7882
   325.0000    128.7737    129.2561    -41.7002      7.7166      7.7656
   324.5000    128.9818    128.3424    -34.2658      7.7955      7.7530
   324.0000    128.7956    128.4240    -23.2279      7.8951      7.7642
   323.5000    128.1643    126.3282    -18.6245      7.9945      7.8025
   323.0000    127.2995    124.1086    -18.0313      8.0626      7.8555
   322.5000    126.6292    124.4782    -13.6253      8.1049      7.8971
   322.0000    126.3877    124.1575    -13.1571      8.1349      7.9122
   321.5000    126.5616    122.3906    -23.5780      8.1472      7.9013
   321.0000    126.9810    122.9257    -30.7894      8.1423      7.8752
   320.5000    127.4674    126.1568    -24.5708      8.1326      7.8451
   320.0000    128.0084    129.0828    -14.0730      8.1058      7.8120
   319.5000    128.6118    129.6519     -7.7125      8.0450      7.7753
   319.0000    129.2287    126.7767     -4.9190      7.9644      7.7382
   318.5000    129.9256    123.1014     -4.3453      7.8900      7.6967
   318.0000    130.7152    122.7238     -4.0202      7.8286      7.6502
   317.5000    131.3576    125.4456     -4.5899      7.7744      7.6128
