~Version Information
 VERS.                1.20:   CWLS log ASCII Standard -VERSION 1.20
 WRAP.                  NO:   One line per frame
~Well Information Block
#MNEM.UNIT       Data Type    Information
#---------    -------------   -------------------------------
 STRT.F          2547.0000:   Starting Depth
 STOP.F           -12.5000:   Ending Depth
 STEP.F            -0.5000:   Level Spacing
 NULL.           -999.2500:   Absent Value
 COMP.             COMPANY:   FLUOR DANIEL (NPOSR), INC.
 WELL.                WELL:   46-1 X 11
 FLD .               FIELD:   
 LOC .            LOCATION:   
 CNTY.              COUNTY:   
 STAT.               STATE:   
 SRVC.     SERVICE COMPANY:   
 LIC .      LICENSE NUMBER:   
 DATE.            LOG DATE:   
 API .          API NUMBER:   
~Curve Information Block
#MNEM.UNIT       API Codes    Curve Description
#---------    -------------   -------------------------------
 DEPT.F        0   1  0  1:   Depth
 GR  .API      0 310  1  1:   Gamma ray counts
 TEN .LBF      0 635 99  1:   Differential Tension
 RILM.OHMM     0 120 44  1:   Resistivity from CILM
 RILD.OHMM     0 120 46  1:   Resistivity from CILD
#  Curve Data
~A   DEPT        GR          TEN         RILM        RILD
# ...
    68.0000     51.6916    -69.8349      1.7607      1.7347
    67.5000     52.7425    -75.7876      1.7601      1.7359
    67.0000     53.8220    -76.8411      1.7602      1.7368
    66.5000     54.0961    -70.6249      1.7606      1.7375
    66.0000     53.8060    -64.0271      1.7611      1.7377
    65.5000     54.1182    -62.3173      1.7614      1.7369
    65.0000     55.5520    -62.6870      1.7615      1.7349
    64.5000     56.3428    -61.8217      1.7618      1.7329
    64.0000     54.8085    -60.2759      1.7624      1.7326
    63.5000     52.2489    -59.8221      1.7627      1.7340
    63.0000     50.3610    -60.6862      1.7628      1.7360
    62.5000     49.9974    -63.6358      1.7630      1.7373
    62.0000     50.1331    -64.8412      1.7631      1.7374
    61.5000     49.5061    -59.1258      1.7629      1.7371
    61.0000     49.1190    -52.1861      1.7629      1.7370
    60.5000     50.2797    -50.7392      1.7632      1.7368
    60.0000     51.5223    -51.2065      1.7634      1.7367
    59.5000     53.3885    -52.0153      1.7634      1.7368
    59.0000     57.1712    -54.9244      1.7635      1.7374
    58.5000     60.5005    -56.8065      1.7639      1.7381
    58.0000     59.9332    -58.6320      1.7645      1.7385
    57.5000     56.7705    -61.6838      1.7651      1.7386
    57.0000     54.3838    -63.5101      1.7654      1.7384
    56.5000     54.4277    -62.0346      1.7648      1.7381
    56.0000     55.4827    -57.1637      1.7640      1.7377
    55.5000     54.4105    -52.8288      1.7635      1.7377
    55.0000     51.2239    -53.7901      1.7634      1.7387
    54.5000     50.0344    -58.0385      1.7633      1.7401
    54.0000     51.1503    -60.4342      1.7633      1.7408
    53.5000     51.3697    -60.8451      1.7631      1.7405
    53.0000     50.0018    -60.3604      1.7627      1.7392
    52.5000     48.3545    -60.4641      1.7629      1.7379
    52.0000     47.2680    -61.4294      1.7640      1.7373
    51.5000     47.3604    -61.3145      1.7649      1.7369
    51.0000     47.9893    -57.7694      1.7651      1.7370
    50.5000     47.7705    -54.6231      1.7648      1.7371
    50.0000     47.8012    -59.6312      1.7657      1.7364
    49.5000     49.3303    -68.6043      1.7682      1.7362
    49.0000     51.8867    -70.2955      1.7687      1.7376
    48.5000     52.6718    -64.1522      1.7663      1.7390
    48.0000     51.3505    -57.5059      1.7644      1.7389
    47.5000     51.1696    -52.8083      1.7643      1.7380
    47.0000     52.8591    -48.5374      1.7643      1.7375
    46.5000     54.5231    -47.3564      1.7650      1.7399
    46.0000     55.7075    -48.4258      1.7668      1.7425
    45.5000     55.8569    -49.5826      1.7685      1.7415
    45.0000     53.6192    -52.0229      1.7699      1.7387
    44.5000     48.0519    -59.2953      1.7711      1.7380
    44.0000     41.3653    -66.0954      1.7711      1.7386
    43.5000     37.9066    -68.4585      1.7697      1.7389
    43.0000     39.9199    -68.5363      1.7682      1.7399
    42.5000     43.9115    -65.3411      1.7681      1.7419
    42.0000     45.8364    -60.4833      1.7691      1.7437
    41.5000     46.3591    -57.9165      1.7700      1.7463
    41.0000     46.1685    -59.0513      1.7700      1.7484
    40.5000     44.2991    -60.4693      1.7689      1.7477
    40.0000     41.3532    -63.5824      1.7676      1.7449
    39.5000     40.0326    -67.1098      1.7677      1.7434
    39.0000     39.7075    -66.2387      1.7692      1.7439
    38.5000     39.9583    -64.4075      1.7705      1.7453
    38.0000     41.5707    -66.5605      1.7706      1.7460
    37.5000     43.7754    -67.2391      1.7700      1.7455
    37.0000     45.1251    -60.4977      1.7694      1.7446
    36.5000     45.5501    -51.8708      1.7693      1.7440
    36.0000     44.6892    -48.1555      1.7700      1.7443
    35.5000     43.8087    -49.0336      1.7707      1.7452
    35.0000     43.6771    -49.6150      1.7715      1.7450
    34.5000     43.9620    -50.1185      1.7725      1.7431
    34.0000     44.0283    -53.8929      1.7737      1.7408
    33.5000     44.4323    -58.2675      1.7742      1.7407
    33.0000     44.9155    -59.5433      1.7739      1.7423
    32.5000     45.0763    -58.9370      1.7742      1.7437
    32.0000     44.7235    -58.2995      1.7752      1.7449
    31.5000     44.1314    -56.1651      1.7757      1.7469
    31.0000     43.7002    -55.6302      1.7748      1.7490
    30.5000     42.8885   -250.0000      1.7729      1.7500
    30.0000     42.0892   -250.0000      1.7710      1.7491
    29.5000     41.3220   -250.0000      1.7700      1.7484
    29.0000     40.6172   -250.0000      1.7703      1.7495
    28.5000     40.4842   -250.0000      1.7709      1.7510
    28.0000     42.1470   -250.0000      1.7710      0.2000
    27.5000     44.1147   -250.0000      1.7697      0.2000
    27.0000     44.9425   -250.0000      1.7684      0.2000
    26.5000     44.4344   -250.0000      1.7682      0.2000
    26.0000     43.3159   -250.0000      1.7690      0.2000
    25.5000     42.9144   -250.0000      1.7705      0.2000
    25.0000     44.2765   -250.0000      1.7723      0.2000
    24.5000     47.4518   -250.0000      0.2000      0.2000
    24.0000     50.3758   -250.0000      0.2000      0.2000
    23.5000     49.9907   -250.0000      0.2000      0.2000
    23.0000     46.6336   -250.0000      0.2000      0.2000
    22.5000     43.7019   -250.0000      0.2000      0.2000
    22.0000     42.7827   -250.0000      0.2000      0.2000
    21.5000     44.2463   -250.0000      0.2000      0.2000
    21.0000     48.2603   -250.0000      0.2000      0.2000
    20.5000     53.8457   -250.0000      0.2000      0.2000
    20.0000     56.9611   -250.0000      0.2000      0.2000
    19.5000     56.4134   -250.0000      0.2000      0.2000
    19.0000     54.5826   -250.0000      0.2000      0.2000
    18.5000     52.8543   -250.0000      0.2000      0.2000
    18.0000     50.9055   -250.0000      0.2000      0.2000
    17.5000     49.5181   -250.0000      0.2000      0.2000
    17.0000     48.1260   -250.0000      0.2000      0.2000
    16.5000     46.0250   -250.0000      0.2000      0.2000
    16.0000     45.0830   -250.0000      0.2000      0.2000
    15.5000     45.8820   -250.0000      0.2000      0.2000
    15.0000     46.2376   -250.0000      0.2000      0.2000
    14.5000     45.8114   -250.0000      0.2000      0.2000
    14.0000     46.5963   -250.0000      0.2000      0.2000
    13.5000     47.2516   -250.0000      0.2000      0.2000
    13.0000     44.8015   -250.0000      0.2000      0.2000
    12.5000     41.0900   -250.0000      0.2000      0.2000
    12.0000     36.0346   -250.0000      0.2000      0.2000
    11.5000     27.5757   -250.0000      0.2000      0.2000
    11.0000     19.2334   -250.0000      0.2000      0.2000
    10.5000     16.3027   -250.0000      0.2000      0.2000
    10.0000     17.2868   -250.0000      0.2000      0.2000
     9.5000     18.1927   -250.0000      0.2000      0.2000
     9.0000     16.7134   -250.0000      0.2000      0.2000
     8.5000     13.3569   -250.0000      0.2000      0.2000
     8.0000     10.3638   -250.0000      0.2000      0.2000
     7.5000      8.8045   -250.0000      0.2000      0.2000
     7.0000      0.0000   -250.0000      0.2000      0.2000
     6.5000      0.0000   -250.0000      0.2000      0.2000
     6.0000      0.0000   -250.0000      0.2000      0.2000
     5.5000      0.0000   -250.0000      0.2000      0.2000
     5.0000      0.0000   -250.0000      0.2000      0.2000
     4.5000      0.0000   -250.0000      0.2000      0.2000
     4.0000      0.0000   -250.0000      0.2000      0.2000
     3.5000      0.0000   -250.0000      0.2000      0.2000
     3.0000      0.0000   -250.0000      0.2000      0.2000
     2.5000      0.0000   -250.0000      0.2000      0.2000
     2.0000      0.0000   -250.0000      0.2000      0.2000
     1.5000      0.0000   -250.0000      0.2000      0.2000
