~Version Information
 VERS.                2.00:   CWLS log ASCII Standard -VERSION 2.00
 WRAP.                  NO:   One line per frame
~Well Information Block
#MNEM.UNIT              Data                Description
#--------- -------------------------------  -------------------------------
 STRT.F                          653.0000:   Starting Depth
 STOP.F                           -2.7500:   Ending Depth
 STEP.F                           -0.5000:   Level Spacing
 NULL.                          -999.2500:   Absent Value
 COMP.     FLUOR DANIEL (NPOSR), INC.    :   Company
 WELL.     14-1 X 11                     :   Well
 FLD .     N.P.R. #3                     :   Field
 LOC .     11-38N-78W                    :   Location
 PROV.                                   :   Province
 SRVC.     Western Atlas International   :   Service Company
 LIC .                                   :   License Number
 DATE.     4-August-1995                 :   Log Date
 UWI .     92800                         :   Unique Well ID
~Curve Information Block
#MNEM.UNIT       API Codes    Curve Description
#---------    -------------   -------------------------------
 DEPT.F        0   1  0  1:   Depth
 CILD.MMHO     0 110 46  1:   Conductivity of Deep Induction
 GR  .API      0 310  1  1:   Gamma ray counts
 TEN .LBF      0 635 99  1:   Differential Tension
 RILM.OHMM     0 120 44  1:   Resistivity from CILM
 RILD.OHMM     0 120 46  1:   Resistivity from CILD
#  Curve Data
~A   DEPT        CILD        GR          TEN         RILM        RILD
# ...
   261.0000    114.6183    113.8417    -36.4542      8.8228      8.7246
   260.5000    113.9448    113.1650    -28.6511      8.8673      8.7762
   260.0000    113.7500    113.3344    -24.8236      8.9090      8.7912
   259.5000    113.6251    111.8828    -24.0459      8.9604      8.8009
   259.0000    113.2900    110.8154    -22.1275      9.0094      8.8269
   258.5000    112.9532    113.5614    -20.3526      9.0158      8.8532
   258.0000    112.8957    117.6252    -25.4260      8.9712      8.8577
   257.5000    113.0269    119.8978    -32.5072      8.9210      8.8474
   257.0000    113.1043    121.2187    -32.3413      8.9077      8.8414
   256.5000    113.0221    120.6938    -27.7208      8.9353      8.8478
   256.0000    112.7216    117.7027    -27.7742      8.9891      8.8714
   255.5000    112.1172    116.2400    -29.8327      9.0559      8.9192
   255.0000    111.2563    116.6167    -27.5168      9.1279      8.9883
   254.5000    110.3400    115.3500    -22.4599      9.2070      9.0629
   254.0000    109.4509    113.4568    -18.1890      9.2834      9.1365
   253.5000    108.5314    113.8926    -16.3733      9.3493      9.2139
   253.0000    107.7336    114.8234    -21.0819      9.4118      9.2822
   252.5000    107.2213    114.3330    -31.7328      9.4815      9.3265
   252.0000    106.7661    114.0552    -38.8479      9.5518      9.3663
   251.5000    106.0825    115.3209    -39.0702      9.6117      9.4266
   251.0000    105.2021    117.8098    -36.6610      9.6519      9.5055
   250.5000    104.4272    120.8596    -35.2168      9.6708      9.5761
   250.0000    103.8051    122.4164    -30.9813      9.6839      9.6334
   249.5000    103.0056    119.8857    -22.4998      9.7186      9.7082
   249.0000    101.7714    116.7374    -20.7992      9.8065      9.8259
   248.5000    100.2224    115.5360    -27.6534      9.9645      9.9778
   248.0000     98.6698    113.5151    -27.3557     10.1554     10.1348
   247.5000     97.3768    111.1461    -18.9100     10.3260     10.2694
   247.0000     96.5133    111.5546    -20.9468     10.4727     10.3613
   246.5000     95.9083    113.8945    -32.3742     10.6155     10.4266
   246.0000     95.3839    117.2128    -39.2779     10.7300     10.4840
   245.5000     95.0495    122.1159    -39.5686     10.7690     10.5208
   245.0000     95.0064    124.6686    -39.8995     10.7331     10.5256
   244.5000     95.2124    122.2698    -40.4930     10.6614     10.5028
   244.0000     95.5567    117.8822    -39.4954     10.6025     10.4650
   243.5000     95.7559    115.9921    -34.9823     10.5745     10.4432
   243.0000     95.6240    117.1888    -27.7419     10.5660     10.4576
   242.5000     95.3141    117.7157    -21.0279     10.5749     10.4916
   242.0000     94.9998    115.6591    -19.2919     10.6115     10.5263
   241.5000     94.6398    114.7682    -21.6666     10.6782     10.5664
   241.0000     94.0860    118.8821    -25.8265     10.7650     10.6286
   240.5000     93.2987    123.7626    -29.9327     10.8569     10.7183
   240.0000     92.4866    123.9197    -32.5432     10.9365     10.8124
   239.5000     91.7629    120.7697    -32.2229     10.9941     10.8976
   239.0000     90.9776    119.5204    -27.1856     11.0422     10.9917
   238.5000     90.0235    119.0530    -22.8689     11.1156     11.1082
   238.0000     89.0696    116.4562    -22.4703     11.2399     11.2272
   237.5000     88.3015    114.9032    -22.2888     11.3847     11.3248
   237.0000     87.8132    115.3642    -23.3194     11.4896     11.3878
   236.5000     87.7039    116.0564    -26.1900     11.5351     11.4020
   236.0000     88.0927    116.3332    -25.5541     11.5550     11.3517
   235.5000     88.8940    117.8024    -22.0112     11.5538     11.2494
   235.0000     89.9441    119.7215    -23.4280     11.4562     11.1180
   234.5000     91.3863    121.2401    -24.6614     11.2210     10.9426
   234.0000     93.4855    120.6966    -19.5170     10.9139     10.6968
   233.5000     95.9743    119.5976    -11.8785     10.6212     10.4195
   233.0000     98.3322    121.4646     -7.3014     10.3684     10.1696
   232.5000    100.4778    124.1436     -7.5725     10.1397      9.9524
   232.0000    102.6066    123.2719    -15.3281      9.9133      9.7460
   231.5000    104.5878    121.5341    -28.8259      9.6957      9.5613
   231.0000    106.4194    123.0686    -36.9328      9.5219      9.3968
   230.5000    108.3606    126.9922    -37.1743      9.3929      9.2284
   230.0000    110.5124    130.6219    -35.7393      9.2672      9.0488
   229.5000    112.7884    133.2850    -34.2881      9.1033      8.8662
   229.0000    115.1075    134.6499    -31.4068      8.9072      8.6875
   228.5000    117.4488    133.2727    -27.9099      8.7150      8.5144
   228.0000    119.6910    130.2428    -24.9658      8.5496      8.3548
   227.5000    121.6701    127.5231    -23.9404      8.4007      8.2189
   227.0000    123.3661    126.6467    -27.6086      8.2495      8.1060
   226.5000    124.9587    127.5825    -29.1629      8.1039      8.0026
   226.0000    126.3960    130.5809    -24.9929      8.0015      7.9116
   225.5000    127.2717    134.7945    -23.4890      7.9658      7.8572
   225.0000    127.4396    137.4856    -30.1279      7.9700      7.8469
   224.5000    127.3173    135.4714    -37.6098      7.9673      7.8544
   224.0000    127.2249    132.0686    -40.3530      7.9509      7.8601
   223.5000    127.0291    132.1965    -39.1144      7.9490      7.8722
   223.0000    126.4335    133.9935    -35.2668      7.9837      7.9093
   222.5000    125.4441    134.1979    -29.6481      8.0479      7.9717
   222.0000    124.3522    132.8744    -22.9430      8.1068      8.0417
   221.5000    123.4452    132.1214    -18.6770      8.1388      8.1008
   221.0000    122.8405    131.6943    -20.8712      8.1679      8.1406
   220.5000    122.4723    131.5665    -26.5652      8.2179      8.1651
   220.0000    122.2240    130.7158    -27.7260      8.2688      8.1817
   219.5000    122.0790    129.9070    -24.5495      8.2916      8.1914
   219.0000    122.1916    129.6882    -23.4939      8.2790      8.1839
   218.5000    122.7128    131.3698    -22.7448      8.2338      8.1491
   218.0000    123.5419    133.8418    -18.8749      8.1702      8.0944
   217.5000    124.4240    135.6527    -17.0275      8.1051      8.0370
   217.0000    125.2932    137.0230    -21.3070      8.0480      7.9813
   216.5000    126.3207    136.6763    -25.0252      7.9974      7.9164
   216.0000    127.6753    133.9824    -25.3034      7.9410      7.8324
   215.5000    129.3827    132.0406    -28.1777      7.8679      7.7290
   215.0000    131.1425    132.9020    -34.1094      7.7883      7.6253
   214.5000    132.6957    134.6753    -34.9585      7.7066      7.5360
   214.0000    133.9940    136.6975    -29.5920      7.6110      7.4630
   213.5000    135.0695    139.3513    -25.3592      7.5063      7.4036
   213.0000    135.9254    143.3965    -23.0052      7.4201      7.3570
   212.5000    136.4143    146.0471    -21.8359      7.3751      7.3306
   212.0000    136.1505    143.8813    -21.7303      7.3757      7.3448
   211.5000    135.0317    138.3198    -19.0189      7.4186      7.4057
   211.0000    133.4145    134.5825    -14.9023      7.4969      7.4954
   210.5000    131.5248    135.2648    -17.8068      7.6020      7.6031
   210.0000    129.4154    140.1227    -24.4119      7.7258      7.7271
   209.5000    127.1603    143.5250    -24.3756      7.8598      7.8641
   209.0000    124.9150    140.0905    -19.5743      7.9967      8.0054
   208.5000    122.8695    134.1429    -14.4247      8.1400      8.1387
   208.0000    121.1115    131.0022     -9.2577      8.2994      8.2569
   207.5000    119.5827    128.5804     -6.0591      8.4603      8.3624
   207.0000    118.3731    126.5793     -8.8337      8.5756      8.4479
   206.5000    117.6658    129.3346    -16.8500      8.6138      8.4986
   206.0000    117.5389    134.0090    -25.5630      8.5904      8.5078
   205.5000    117.8499    133.8284    -28.3571      8.5497      8.4854
