~Version Information
 VERS.                2.00:   CWLS log ASCII Standard -VERSION 2.00
 WRAP.                  NO:   One line per frame
~Well Information Block
#MNEM.UNIT              Data                Description
#--------- -------------------------------  -------------------------------
 STRT.F                          653.0000:   Starting Depth
 STOP.F                           -2.7500:   Ending Depth
 STEP.F                           -0.5000:   Level Spacing
 NULL.                          -999.2500:   Absent Value
 COMP.     FLUOR DANIEL (NPOSR), INC.    :   Company
 WELL.     14-1 X 11                     :   Well
 FLD .     N.P.R. #3                     :   Field
 LOC .     11-38N-78W                    :   Location
 PROV.                                   :   Province
 SRVC.     Western Atlas International   :   Service Company
 LIC .                                   :   License Number
 DATE.     4-August-1995                 :   Log Date
 UWI .     92800                         :   Unique Well ID
~Curve Information Block
#MNEM.UNIT       API Codes    Curve Description
#---------    -------------   -------------------------------
 DEPT.F        0   1  0  1:   Depth
 CILD.MMHO     0 110 46  1:   Conductivity of Deep Induction
 GR  .API      0 310  1  1:   Gamma ray counts
 TEN .LBF      0 635 99  1:   Differential Tension
 RILM.OHMM     0 120 44  1:   Resistivity from CILM
 RILD.OHMM     0 120 46  1:   Resistivity from CILD
#  Curve Data
~A   DEPT        CILD        GR          TEN         RILM        RILD
# ...
   149.0000    103.7813    129.4087    -13.8998      9.7162      9.6356
   148.5000    102.5367    126.0990    -17.5656      9.7979      9.7526
   148.0000    100.8351    125.8892    -20.5988      9.9143      9.9172
   147.5000     99.1861    123.4713    -20.8193     10.0569     10.0821
   147.0000     98.1429    115.9181    -22.2314     10.1881     10.1892
   146.5000     97.6336    109.4416    -25.6142     10.3175     10.2424
   146.0000     97.3851    110.0097    -24.5046     10.4883     10.2685
   145.5000     97.3868    116.0638    -19.1958     10.6671     10.2683
   145.0000     97.7767    123.6138    -17.0840     10.7160     10.2274
   144.5000     98.6883    128.9427    -19.0049     10.5530     10.1329
   144.0000    100.2102    129.8292    -19.3141     10.2560      9.9790
   143.5000    102.1840    128.9120    -18.8996      9.9550      9.7863
   143.0000    104.1587    129.1185    -21.2890      9.7172      9.6007
   142.5000    105.9770    129.2579    -23.5820      9.5495      9.4360
   142.0000    107.6331    129.3340    -24.2368      9.4290      9.2908
   141.5000    109.1835    130.5378    -25.2494      9.3322      9.1589
   141.0000    110.7963    131.5415    -25.4742      9.2355      9.0256
   140.5000    112.5488    131.7299    -25.1274      9.1242      8.8850
   140.0000    114.3086    132.3831    -26.9431      9.0024      8.7482
   139.5000    116.0020    133.8427    -28.5462      8.8754      8.6205
   139.0000    117.5921    135.0719    -27.4387      8.7374      8.5040
   138.5000    119.0558    134.9152    -25.1094      8.5871      8.3994
   138.0000    120.4457    134.4928    -23.6180      8.4438      8.3025
   137.5000    121.5884    135.1144    -26.1138      8.3357      8.2245
   137.0000    122.1492    134.2616    -28.4095      8.2777      8.1867
   136.5000    122.2097    130.7261    -24.4226      8.2641      8.1827
   136.0000    122.2044    129.5752    -18.6614      8.2770      8.1830
   135.5000    122.4314    133.8655    -15.9219      8.2975      8.1678
   135.0000    122.9660    138.1905    -12.3958      8.3100      8.1323
   134.5000    123.7838    138.0470     -8.9240      8.2983      8.0786
   134.0000    124.7980    136.2312    -10.8260      8.2460      8.0129
   133.5000    125.9712    136.5784    -18.6956      8.1509      7.9383
   133.0000    127.2867    136.4986    -24.7681      8.0294      7.8563
   132.5000    128.7819    133.2221    -23.1031      7.9016      7.7651
   132.0000    130.4227    129.1268    -15.9024      7.7832      7.6674
   131.5000    131.9556    128.1764    -11.9102      7.6873      7.5783
   131.0000    133.1494    129.8907    -15.8011      7.6250      7.5104
   130.5000    133.9947    131.6407    -22.2568      7.5963      7.4630
   130.0000    134.6190    133.2150    -26.7567      7.5729      7.4284
   129.5000    135.2937    134.2859    -26.7866      7.5217      7.3913
   129.0000    136.2440    132.9663    -22.9470      7.4490      7.3398
   128.5000    137.3686    129.8753    -18.6629      7.3899      7.2797
   128.0000    138.4053    129.4684    -18.5086      7.3537      7.2252
   127.5000    139.1586    132.3227    -19.8909      7.3169      7.1860
   127.0000    139.6161    134.3603    -19.7985      7.2631      7.1625
   126.5000    140.0721    131.3492    -18.8609      7.2058      7.1392
   126.0000    140.7284    125.8818    -17.8901      7.1660      7.1059
   125.5000    141.4270    122.4826    -18.3735      7.1487      7.0708
   125.0000    141.9692    121.5477    -18.8594      7.1407      7.0438
   124.5000    142.3682    124.2812    -18.3210      7.1304      7.0240
   124.0000    142.5736    130.5438    -23.0055      7.1188      7.0139
   123.5000    142.6002    135.6960    -32.5252      7.1105      7.0126
   123.0000    142.5795    135.2995    -35.8994      7.1038      7.0136
   122.5000    142.6617    131.3589    -27.6022      7.0920      7.0096
   122.0000    142.9109    128.2507    -15.3064      7.0805      6.9974
   121.5000    143.1523    128.0924     -7.6155      7.0816      6.9856
   121.0000    143.0628    129.0240     -6.5352      7.0961      6.9899
   120.5000    142.5911    129.4566     -9.9747      7.1109      7.0131
   120.0000    141.9712    129.6385    -13.4188      7.1252      7.0437
   119.5000    141.2649    128.6009    -13.6164      7.1467      7.0789
   119.0000    140.2606    127.0861    -14.1920      7.1792      7.1296
   118.5000    138.8532    127.4257    -16.0274      7.2285      7.2018
   118.0000    137.2402    128.1364    -17.6040      7.3025      7.2865
   117.5000    135.6160    127.8521    -18.9002      7.3967      7.3738
   117.0000    134.0406    126.4789    -20.6656      7.5017      7.4604
   116.5000    132.5931    124.6529    -20.6619      7.6116      7.5419
   116.0000    131.4112    123.6743    -19.8805      7.7084      7.6097
   115.5000    130.7774    125.1959    -18.4385      7.7613      7.6466
   115.0000    131.0214    126.5654    -15.3586      7.7514      7.6323
   114.5000    132.1840    127.1263    -12.2085      7.6937      7.5652
   114.0000    133.7186    128.4413    -14.1245      7.6283      7.4784
   113.5000    134.8156    128.9352    -25.5306      7.5825      7.4175
   113.0000    134.7823    126.6570    -36.1141      7.5569      7.4194
   112.5000    133.3247    124.0614    -34.2780      7.5572      7.5005
   112.0000    131.1069    122.3269    -24.8554      7.5872      7.6274
   111.5000    129.9487    118.1529    -17.8959      7.6143      7.6953
   111.0000    130.9548    110.1197    -13.9641      7.6117      7.6362
   110.5000    133.1736    103.1334    -14.2456      7.6340      7.5090
   110.0000    135.2384    104.3298    -20.1221      7.7537      7.3943
   109.5000    136.8364    114.1327    -27.1667      7.9043      7.3080
   109.0000    138.4554    124.1812    -27.0422      7.8791      7.2225
   108.5000    141.0766    128.6608    -21.2469      7.5911      7.0883
   108.0000    145.0893    129.3582    -18.1261      7.2064      6.8923
   107.5000    149.3866    128.6312    -18.7145      6.8996      6.6940
   107.0000    152.4879    127.8457    -16.9187      6.7061      6.5579
   106.5000    153.9285    128.5979    -13.0641      6.6022      6.4965
   106.0000    153.8379    129.2867    -15.8432      6.5773      6.5003
   105.5000    152.3751    128.1964    -24.9838      6.6215      6.5628
   105.0000    149.8186    127.3680    -30.0059      6.7163      6.6747
   104.5000    146.5960    125.8381    -24.5220      6.8464      6.8215
   104.0000    143.1192    122.9488    -16.0296      7.0045      6.9872
   103.5000    139.7661    120.9687    -12.3266      7.1836      7.1548
   103.0000    136.9065    119.8983    -12.6715      7.3714      7.3043
   102.5000    134.6465    117.6146    -11.6394      7.5506      7.4269
   102.0000    132.6486    115.6634    -10.9843      7.7078      7.5387
   101.5000    130.5671    115.1374    -15.5361      7.8381      7.6589
   101.0000    128.6257    115.3959    -21.7416      7.9304      7.7745
   100.5000    127.7933    116.5042    -23.8894      7.9521      7.8251
   100.0000    129.1230    117.4476    -24.1450      7.8749      7.7446
    99.5000    132.4039    115.4100    -25.6926      7.7324      7.5526
    99.0000    136.1688    113.5203    -25.5199      7.6156      7.3438
    98.5000    139.1709    118.2217    -20.8769      7.5698      7.1854
    98.0000    141.2756    125.4298    -18.3964      7.5165      7.0784
    97.5000    143.2058    127.7485    -23.2913      7.3336      6.9830
    97.0000    145.8256    126.9871    -28.1481      7.0464      6.8575
    96.5000    149.0380    128.0074    -24.2179      6.7951      6.7097
    96.0000    151.6819    129.2292    -20.3551      6.6616      6.5927
    95.5000    152.8116    127.5607    -20.9379      6.6314      6.5440
    95.0000    152.3713    121.9523    -22.3540      6.6615      6.5629
    94.5000    150.7919    117.1709    -22.3788      6.7206      6.6317
    94.0000    148.5959    118.1453    -20.8227      6.7954      6.7297
    93.5000    146.3095    121.5672    -18.9192      6.8848      6.8348
