~Version Information
 VERS.                2.00:   CWLS log ASCII Standard -VERSION 2.00
 WRAP.                  NO:   One line per frame
~Well Information Block
#MNEM.UNIT              Data                Description
#--------- -------------------------------  -------------------------------
 STRT.F                          682.0000:   Starting Depth
 STOP.F                           -5.7500:   Ending Depth
 STEP.F                           -0.5000:   Level Spacing
 NULL.                          -999.2500:   Absent Value
 COMP.     FLUOR DANIEL (NPSOR), INC.    :   Company
 WELL.     11-1 X 2                      :   Well
 FLD .     NPR #3                        :   Field
 LOC .     131' FNL & 44' FWL            :   Location
 CNTY.     NATRONA                       :   County
 STAT.     WYOMING                       :   State
 SRVC.     WESTERN ATLAS                 :   Service Company
 LIC .                                   :   License Number
 DATE.     15-AUGUST-1994                :   Log Date
 API .     4902522643                    :   API Number
~Curve Information Block
#MNEM.UNIT       API Codes    Curve Description
#---------    -------------   -------------------------------
 DEPT.F        0   1  0  1:   Depth
 GR  .API      0 310  1  1:   Gamma ray counts
 RILM.OHMM     0 120 44  1:   Resistivity from CILM
 RILD.OHMM     0 120 46  1:   Resistivity from CILD
#  Curve Data
~A
# ...
   431.5000    147.1714      6.0498      6.1323
   431.0000    144.3916      5.9826      5.9631
   430.5000    139.4518      5.8605      5.6646
   430.0000    137.1102      5.6350      5.2335
   429.5000    139.7939      5.2931      4.7407
   429.0000    142.5678      4.8745      4.2646
   428.5000    140.3051      4.3955      3.7987
   428.0000    134.0357      3.8610      3.3343
   427.5000    127.2901      3.3344      2.9225
   427.0000    122.4661      2.9236      2.6051
   426.5000    119.2765      2.6685      2.4054
   426.0000    117.9986      2.5248      2.3195
   425.5000    120.6391      2.4270      2.3180
   425.0000    124.6635      2.3669      2.3683
   424.5000    127.1253      2.3858      2.4616
   424.0000    128.1638      2.5301      2.6165
   423.5000    128.3173      2.8139      2.8656
   423.0000    127.3772      3.2471      3.2414
   422.5000    128.2876      3.8051      3.7552
   422.0000    130.2133      4.4327      4.3517
   421.5000    131.7471      5.0533      4.9716
   421.0000    133.3067      5.5925      5.5756
   420.5000    132.7918      6.0517      6.1198
   420.0000    132.1426      6.4311      6.5814
   419.5000    134.0406      6.7400      6.9619
   419.0000    136.4548      6.9983      7.2612
   418.5000    138.0551      7.2187      7.4862
   418.0000    139.3964      7.3909      7.6519
   417.5000    138.3497      7.5063      7.7622
   417.0000    136.2437      7.5797      7.8160
   416.5000    137.6514      7.6275      7.8192
   416.0000    140.5800      7.6595      7.7907
   415.5000    140.2994      7.6962      7.7513
   415.0000    136.2657      7.7495      7.7132
   414.5000    131.7438      7.8142      7.6906
   414.0000    127.5495      7.8842      7.7010
   413.5000    125.3618      7.9488      7.7325
   413.0000    128.3651      7.9873      7.7550
   412.5000    135.7199      7.9955      7.7479
   412.0000    141.8843      7.9788      7.7189
   411.5000    142.1851      7.9286      7.6768
   411.0000    137.5694      7.8417      7.6166
   410.5000    132.7477      7.7388      7.5360
   410.0000    130.6553      7.6532      7.4488
   409.5000    131.3979      7.6011      7.3730
   409.0000    133.7525      7.5642      7.3232
   408.5000    135.0257      7.5121      7.2942
   408.0000    134.5112      7.4378      7.2582
   407.5000    132.8906      7.3546      7.1897
   407.0000    132.6100      7.2730      7.0838
   406.5000    133.4445      7.1861      6.9567
   406.0000    131.0319      7.0832      6.8373
   405.5000    125.9291      6.9724      6.7369
   405.0000    125.0391      6.8726      6.6429
   404.5000    129.9953      6.7785      6.5409
   404.0000    132.9074      6.6635      6.4133
   403.5000    129.8832      6.5146      6.2347
   403.0000    126.1782      6.3279      5.9789
   402.5000    126.7159      6.0812      5.6365
   402.0000    129.9374      5.7600      5.2371
   401.5000    131.6761      5.4120      4.8764
   401.0000    130.7535      5.1131      4.6432
   400.5000    127.9941      4.8690      4.5426
   400.0000    125.3315      4.6292      4.5177
   399.5000    122.6376      4.4004      4.5189
   399.0000    122.5423      4.2966      4.5416
   398.5000    126.7103      4.4364      4.6322
   398.0000    130.2078      4.8363      4.8506
   397.5000    131.2871      5.3693      5.2051
   397.0000    132.9311      5.8703      5.6280
   396.5000    133.7841      6.2509      6.0274
   396.0000    131.4524      6.5021      6.3386
   395.5000    130.1412      6.6509      6.5419
   395.0000    131.1512      6.7346      6.6734
   394.5000    131.9043      6.7926      6.7726
   394.0000    132.3859      6.8596      6.8491
   393.5000    132.9819      6.9382      6.9051
   393.0000    132.3336      6.9980      6.9509
   392.5000    130.5273      7.0226      6.9849
   392.0000    128.8003      7.0246      6.9860
   391.5000    127.2721      7.0208      6.9372
   391.0000    125.7815      7.0111      6.8538
   390.5000    127.2429      6.9809      6.7626
   390.0000    133.2785      6.9170      6.6621
   389.5000    139.4658      6.8154      6.5295
   389.0000    140.3598      6.6711      6.3458
   388.5000    137.4565      6.4828      6.1149
   388.0000    132.9875      6.2790      5.8883
   387.5000    128.3588      6.1069      5.7304
   387.0000    127.2485      5.9748      5.6562
   386.5000    130.3331      5.8395      5.6361
   386.0000    131.6471      5.6896      5.6364
   385.5000    128.5901      5.6018      5.6494
   385.0000    126.0982      5.6671      5.7023
   384.5000    127.0391      5.8954      5.8311
   384.0000    128.4053      6.2126      6.0348
   383.5000    129.5842      6.5212      6.2752
   383.0000    132.2547      6.7576      6.5061
   382.5000    134.0714      6.9042      6.6931
   382.0000    131.2576      6.9829      6.8113
   381.5000    125.8269      7.0281      6.8756
   381.0000    123.5631      7.0659      6.9252
   380.5000    126.4330      7.1107      6.9831
   380.0000    129.6780      7.1642      7.0450
   379.5000    128.7700      7.2181      7.1027
   379.0000    126.7316      7.2650      7.1536
   378.5000    127.0006      7.3037      7.1990
   378.0000    128.1374      7.3372      7.2327
   377.5000    130.0446      7.3763      7.2582
   377.0000    133.5077      7.4220      7.2854
   376.5000    136.3142      7.4578      7.3085
   376.0000    135.1445      7.4714      7.3181
   375.5000    131.7935      7.4694      7.3218
   375.0000    128.4568      7.4610      7.3233
   374.5000    126.4445      7.4550      7.3148
   374.0000    127.2377      7.4597      7.3030
   373.5000    128.9486      7.4706      7.3002
   373.0000    127.9008      7.4731      7.3074
   372.5000    128.0169      7.4619      7.3188
   372.0000    134.5898      7.4444      7.3262
   371.5000    141.8116      7.4300      7.3258
   371.0000    141.1323      7.4253      7.3227
   370.5000    134.6890      7.4336      7.3269
   370.0000    130.2207      7.4530      7.3409
   369.5000    130.0892      7.4811      7.3666
   369.0000    130.7440      7.5120      7.3980
   368.5000    130.9267      7.5329      7.4215
   368.0000    130.9310      7.5322      7.4188
   367.5000    128.4543      7.5173      7.3879
   367.0000    124.2496      7.4942      7.3423
   366.5000    122.7294      7.4518      7.2956
   366.0000    123.0604      7.3828      7.2448
   365.5000    123.7745      7.2944      7.1942
   365.0000    126.7303      7.2030      7.1522
   364.5000    131.4370      7.1323      7.1126
   364.0000    133.6011      7.0922      7.0686
   363.5000    131.8304      7.0772      7.0331
   363.0000    129.1702      7.0881      7.0306
   362.5000    129.9230      7.1209      7.0638
   362.0000    130.2147      7.1475      7.1000
   361.5000    125.1829      7.1311      7.0959
   361.0000    119.6194      7.0579      7.0321
   360.5000    117.7355      6.9534      6.9170
   360.0000    115.5768      6.8648      6.7930
   359.5000    113.2289      6.8168      6.7231
   359.0000    115.1898      6.7957      6.7370
   358.5000    119.5424      6.7653      6.8141
   358.0000    120.9361      6.7167      6.9184
   357.5000    120.7035      6.7114      7.0300
   357.0000    121.6801      6.8309      7.1578
   356.5000    123.1357      7.0852      7.3268
   356.0000    122.9750      7.3987      7.5397
   355.5000    120.4254      7.6766      7.7573
   355.0000    116.0080      7.8712      7.9377
   354.5000    112.1830      7.9908      8.0722
   354.0000    111.9703      8.0566      8.1721
   353.5000    114.3546      8.0611      8.2455
   353.0000    117.1091      8.0162      8.2923
   352.5000    118.5275      7.9947      8.3256
   352.0000    117.6441      8.0569      8.3749
   351.5000    116.0965      8.1755      8.4582
   351.0000    116.2856      8.2745      8.5429
   350.5000    118.3837      8.3188      8.5728
   350.0000    120.6835      8.3206      8.5192
   349.5000    122.7303      8.2847      8.3900
   349.0000    124.5052      8.1945      8.2164
   348.5000    126.1968      8.0428      8.0288
