~Version Information
 VERS.                2.00:   CWLS log ASCII Standard -VERSION 2.00
 WRAP.                  NO:   One line per frame
~Well Information Block
#MNEM.UNIT              Data                Description
#--------- -------------------------------  -------------------------------
 STRT.F                          682.0000:   Starting Depth
 STOP.F                           -5.7500:   Ending Depth
 STEP.F                           -0.5000:   Level Spacing
 NULL.                          -999.2500:   Absent Value
 COMP.     FLUOR DANIEL (NPSOR), INC.    :   Company
 WELL.     11-1 X 2                      :   Well
 FLD .     NPR #3                        :   Field
 LOC .     131' FNL & 44' FWL            :   Location
 CNTY.     NATRONA                       :   County
 STAT.     WYOMING                       :   State
 SRVC.     WESTERN ATLAS                 :   Service Company
 LIC .                                   :   License Number
 DATE.     15-AUGUST-1994                :   Log Date
 API .     4902522643                    :   API Number
~Curve Information Block
#MNEM.UNIT       API Codes    Curve Description
#---------    -------------   -------------------------------
 DEPT.F        0   1  0  1:   Depth
 GR  .API      0 310  1  1:   Gamma ray counts
 RILM.OHMM     0 120 44  1:   Resistivity from CILM
 RILD.OHMM     0 120 46  1:   Resistivity from CILD
#  Curve Data
~A
# ...
   264.5000    117.6732     12.1585     11.3922
   264.0000    118.9930     12.0366     11.3086
   263.5000    121.5702     11.5366     11.0718
   263.0000    126.4696     10.9800     10.7025
   262.5000    130.6636     10.5397     10.3161
   262.0000    133.4096     10.1915      9.9891
   261.5000    136.8640      9.9148      9.7152
   261.0000    140.9829      9.7118      9.4984
   260.5000    142.2802      9.5568      9.3219
   260.0000    142.1525      9.4111      9.1490
   259.5000    143.4167      9.2704      8.9778
   259.0000    144.6930      9.1399      8.8328
   258.5000    145.1761      9.0094      8.7149
   258.0000    144.9158      8.8650      8.6090
   257.5000    141.5834      8.7196      8.5254
   257.0000    138.2162      8.6084      8.4674
   256.5000    141.1161      8.5525      8.4291
   256.0000    147.4452      8.5407      8.4120
   255.5000    150.1590      8.5449      8.4134
   255.0000    147.8287      8.5442      8.4064
   254.5000    141.8075      8.5411      8.3766
   254.0000    135.7598      8.5299      8.3221
   253.5000    134.6407      8.4856      8.2474
   253.0000    139.5597      8.3884      8.1605
   252.5000    143.8641      8.2499      8.0673
   252.0000    142.8541      8.1040      7.9610
   251.5000    140.4596      7.9753      7.8418
   251.0000    138.9538      7.8777      7.7277
   250.5000    137.5316      7.8234      7.6435
   250.0000    137.1065      7.8033      7.6010
   249.5000    138.7548      7.7816      7.5850
   249.0000    137.7007      7.7333      7.5697
   248.5000    133.1111      7.6742      7.5531
   248.0000    130.4516      7.6379      7.5452
   247.5000    131.8733      7.6327      7.5378
   247.0000    132.1390      7.6347      7.5119
   246.5000    128.7485      7.6346      7.4680
   246.0000    126.9250      7.6491      7.4269
   245.5000    130.1263      7.6710      7.4058
   245.0000    134.8096      7.6554      7.3844
   244.5000    136.1519      7.5820      7.3347
   244.0000    133.6013      7.4901      7.2688
   243.5000    131.9499      7.4228      7.2151
   243.0000    134.7927      7.3847      7.1809
   242.5000    137.9651      7.3541      7.1614
   242.0000    135.9880      7.3216      7.1516
   241.5000    132.3312      7.3040      7.1497
   241.0000    131.8279      7.3189      7.1559
   240.5000    132.6250      7.3592      7.1719
   240.0000    132.0356      7.4019      7.2046
   239.5000    132.3658      7.4320      7.2569
   239.0000    133.7476      7.4516      7.3192
   238.5000    132.3802      7.4755      7.3921
   238.0000    131.0399      7.5232      7.4855
   237.5000    135.0650      7.6142      7.6023
   237.0000    140.0580      7.7538      7.7338
   236.5000    139.5634      7.9240      7.8663
   236.0000    135.6635      8.0929      7.9946
   235.5000    132.0137      8.2306      8.1080
   235.0000    127.6985      8.3205      8.1806
   234.5000    123.2512      8.3534      8.1882
   234.0000    122.4721      8.3188      8.1401
   233.5000    125.3662      8.2269      8.0497
   233.0000    129.8833      8.1183      7.9357
   232.5000    133.9728      8.0154      7.8204
   232.0000    135.1667      7.9061      7.7171
   231.5000    132.1360      7.7902      7.6366
   231.0000    127.2151      7.6980      7.5850
   230.5000    126.1074      7.6483      7.5371
   230.0000    126.8766      7.6246      7.4663
   229.5000    126.0769      7.6017      7.3782
   229.0000    124.6172      7.5770      7.2803
   228.5000    124.2699      7.5422      7.1765
   228.0000    124.6318      7.4605      7.0796
   227.5000    129.7704      7.3154      6.9877
   227.0000    140.5378      7.1445      6.8956
   226.5000    146.5124      6.9999      6.8209
   226.0000    142.7357      6.9148      6.7937
   225.5000    136.0630      6.9017      6.8317
   225.0000    134.1743      6.9589      6.9289
   224.5000    133.6912      7.0752      7.0688
   224.0000    129.1370      7.2330      7.2400
   223.5000    122.8384      7.4253      7.4296
   223.0000    122.3387      7.6492      7.6173
   222.5000    127.6661      7.8785      7.7843
   222.0000    133.2727      8.0731      7.9175
   221.5000    134.7600      8.2135      8.0176
   221.0000    134.3072      8.2929      8.0970
   220.5000    135.1602      8.3119      8.1601
   220.0000    134.1913      8.2741      8.1697
   219.5000    128.6402      8.1779      8.0679
   219.0000    122.0490      8.0414      7.8649
   218.5000    119.7398      7.9205      7.6503
   218.0000    124.4477      7.8458      7.4834
   217.5000    132.6032      7.7511      7.3578
   217.0000    136.5752      7.5477      7.2325
   216.5000    134.5632      7.2765      7.0812
   216.0000    132.5279      7.0582      6.9241
   215.5000    131.8375      6.9481      6.8148
   215.0000    130.7371      6.9278      6.7803
   214.5000    129.8880      6.9666      6.8163
   214.0000    132.0655      7.0392      6.9076
   213.5000    134.2432      7.1308      7.0295
   213.0000    131.1113      7.2364      7.1519
   212.5000    126.3744      7.3451      7.2559
   212.0000    127.2287      7.4454      7.3361
   211.5000    130.9853      7.5404      7.3985
   211.0000    130.8700      7.6354      7.4549
   210.5000    127.1673      7.7152      7.5091
   210.0000    124.6306      7.7475      7.5454
   209.5000    126.5869      7.7155      7.5399
   209.0000    129.9348      7.6313      7.4789
   208.5000    130.2736      7.5207      7.3750
   208.0000    129.1906      7.4022      7.2485
   207.5000    130.2101      7.2894      7.1093
   207.0000    131.9197      7.1858      6.9697
   206.5000    132.1367      7.0784      6.8466
   206.0000    131.6371      6.9500      6.7466
   205.5000    133.0832      6.8056      6.6636
   205.0000    135.4721      6.6793      6.5942
   204.5000    134.7210      6.6049      6.5414
   204.0000    131.6248      6.5870      6.5144
   203.5000    131.5966      6.6091      6.5166
   203.0000    134.5622      6.6559      6.5438
   202.5000    135.9065      6.7137      6.5934
   202.0000    131.6483      6.7568      6.6538
   201.5000    123.4757      6.7668      6.7008
   201.0000    117.8285      6.7604      6.7293
   200.5000    119.1287      6.7791      6.7467
   200.0000    124.3162      6.8407      6.7641
   199.5000    128.7328      6.9181      6.8037
   199.0000    131.2602      6.9789      6.8763
   198.5000    134.6794      7.0301      6.9697
   198.0000    138.4164      7.0993      7.0789
   197.5000    137.2188      7.2043      7.2073
   197.0000    131.3151      7.3460      7.3455
   196.5000    127.5429      7.5090      7.4729
   196.0000    128.6855      7.6697      7.5777
   195.5000    131.5384      7.8074      7.6583
   195.0000    134.1346      7.9014      7.7040
   194.5000    135.2108      7.9268      7.7017
   194.0000    133.5027      7.8818      7.6610
   193.5000    129.7516      7.7855      7.6051
   193.0000    128.3811      7.6784      7.5460
   192.5000    131.5588      7.6043      7.4934
   192.0000    135.7305      7.5793      7.4633
   191.5000    134.9885      7.5783      7.4589
   191.0000    129.4719      7.5797      7.4564
   190.5000    124.7452      7.5969      7.4357
   190.0000    122.7604      7.6314      7.4059
   189.5000    124.5980      7.6519      7.3789
   189.0000    129.9047      7.6341      7.3598
   188.5000    133.5195      7.5865      7.3592
   188.0000    131.7027      7.5318      7.3758
   187.5000    126.6801      7.4862      7.3785
   187.0000    121.9051      7.4545      7.3439
   186.5000    120.0562      7.4445      7.2967
   186.0000    122.2448      7.4715      7.2782
   185.5000    125.5355      7.5243      7.2993
   185.0000    128.3401      7.5444      7.3356
   184.5000    130.4191      7.4900      7.3568
   184.0000    129.0940      7.4053      7.3594
   183.5000    125.3076      7.3740      7.3690
   183.0000    125.2082      7.4336      7.4139
   182.5000    131.1990      7.5584      7.5015
   182.0000    134.3465      7.7010      7.6188
   181.5000    131.2485      7.8341      7.7430
