~Version Information
 VERS.                2.00:   CWLS log ASCII Standard -VERSION 2.00
 WRAP.                  NO:   One line per frame
~Well Information Block
#MNEM.UNIT              Data                Description
#--------- -------------------------------  -------------------------------
 STRT.F                          682.0000:   Starting Depth
 STOP.F                           -5.7500:   Ending Depth
 STEP.F                           -0.5000:   Level Spacing
 NULL.                          -999.2500:   Absent Value
 COMP.     FLUOR DANIEL (NPSOR), INC.    :   Company
 WELL.     11-1 X 2                      :   Well
 FLD .     NPR #3                        :   Field
 LOC .     131' FNL & 44' FWL            :   Location
 CNTY.     NATRONA                       :   County
 STAT.     WYOMING                       :   State
 SRVC.     WESTERN ATLAS                 :   Service Company
 LIC .                                   :   License Number
 DATE.     15-AUGUST-1994                :   Log Date
 API .     4902522643                    :   API Number
~Curve Information Block
#MNEM.UNIT       API Codes    Curve Description
#---------    -------------   -------------------------------
 DEPT.F        0   1  0  1:   Depth
 GR  .API      0 310  1  1:   Gamma ray counts
 RILM.OHMM     0 120 44  1:   Resistivity from CILM
 RILD.OHMM     0 120 46  1:   Resistivity from CILD
#  Curve Data
~A
# ...
   348.0000    127.7931      7.8505      7.8477
   347.5000    131.1648      7.6473      7.6829
   347.0000    135.5237      7.4464      7.5404
   346.5000    136.7462      7.2515      7.4156
   346.0000    135.2759      7.0869      7.3014
   345.5000    137.4279      6.9856      7.2037
   345.0000    142.1956      6.9530      7.1453
   344.5000    141.7049      6.9614      7.1323
   344.0000    136.7997      6.9818      7.1433
   343.5000    134.7155      7.0074      7.1646
   343.0000    135.8006      7.0484      7.2022
   342.5000    137.4662      7.1143      7.2605
   342.0000    140.6870      7.1983      7.3312
   341.5000    142.2072      7.2784      7.3978
   341.0000    139.6424      7.3491      7.4578
   340.5000    137.1503      7.4255      7.5212
   340.0000    136.3865      7.5132      7.5819
   339.5000    136.1839      7.5911      7.6192
   339.0000    136.7085      7.6369      7.6295
   338.5000    137.9775      7.6473      7.6231
   338.0000    138.8213      7.6234      7.5983
   337.5000    138.4523      7.5691      7.5456
   337.0000    137.1237      7.5031      7.4793
   336.5000    136.4530      7.4430      7.4128
   336.0000    136.4663      7.3874      7.3445
   335.5000    136.2188      7.3305      7.2771
   335.0000    137.2100      7.2808      7.2133
   334.5000    138.9083      7.2445      7.1426
   334.0000    138.4113      7.2119      7.0613
   333.5000    135.3809      7.1707      6.9837
   333.0000    133.1441      7.1265      6.9256
   332.5000    135.0635      7.0921      6.8911
   332.0000    139.3008      7.0612      6.8774
   331.5000    141.3635      7.0199      6.8811
   331.0000    141.1644      6.9838      6.8975
   330.5000    141.2986      6.9870      6.9263
   330.0000    142.3388      7.0433      6.9799
   329.5000    143.4344      7.1397      7.0650
   329.0000    142.9393      7.2571      7.1706
   328.5000    140.1213      7.3823      7.2860
   328.0000    136.7946      7.5118      7.4005
   327.5000    134.3974      7.6415      7.5031
   327.0000    133.0850      7.7535      7.5958
   326.5000    133.1223      7.8324      7.6871
   326.0000    134.5286      7.8857      7.7672
   325.5000    136.0621      7.9353      7.8276
   325.0000    136.8777      7.9882      7.8765
   324.5000    136.2623      8.0424      7.9240
   324.0000    137.1060      8.1007      7.9810
   323.5000    141.0931      8.1663      8.0543
   323.0000    145.4358      8.2269      8.1313
   322.5000    146.1806      8.2623      8.1781
   322.0000    142.1809      8.2745      8.1724
   321.5000    137.5105      8.2918      8.1323
   321.0000    136.3805      8.3239      8.0945
   320.5000    138.2046      8.3241      8.0607
   320.0000    140.2779      8.2360      7.9963
   319.5000    143.6273      8.0764      7.8924
   319.0000    146.7635      7.9144      7.7718
   318.5000    145.6914      7.7963      7.6627
   318.0000    144.2899      7.7298      7.5835
   317.5000    143.6793      7.7004      7.5431
   317.0000    139.8119      7.6857      7.5345
   316.5000    136.0369      7.6770      7.5500
   316.0000    137.7771      7.6841      7.5787
   315.5000    138.4009      7.7092      7.6103
   315.0000    136.2876      7.7465      7.6400
   314.5000    137.7833      7.7954      7.6669
   314.0000    141.5779      7.8548      7.6921
   313.5000    143.9695      7.9134      7.7202
   313.0000    146.4715      7.9526      7.7474
   312.5000    147.8037      7.9618      7.7677
   312.0000    146.4340      7.9511      7.7896
   311.5000    144.2468      7.9410      7.8175
   311.0000    140.9571      7.9406      7.8346
   310.5000    137.6063      7.9488      7.8378
   310.0000    137.6661      7.9712      7.8520
   309.5000    138.5287      8.0096      7.9005
   309.0000    138.2281      8.0570      7.9737
   308.5000    138.9112      8.1042      8.0415
   308.0000    138.9863      8.1460      8.0859
   307.5000    139.7531      8.1967      8.1197
   307.0000    144.2733      8.2813      8.1665
   306.5000    147.4187      8.3936      8.2290
   306.0000    144.4360      8.4811      8.2919
   305.5000    139.9370      8.4950      8.3388
   305.0000    138.4676      8.4470      8.3527
   304.5000    137.5540      8.3949      8.3338
   304.0000    136.1132      8.3773      8.3134
   303.5000    135.9010      8.3907      8.3242
   303.0000    136.6664      8.4135      8.3630
   302.5000    136.0866      8.4265      8.4077
   302.0000    132.6786      8.4282      8.4461
   301.5000    129.3971      8.4482      8.4781
   301.0000    130.7668      8.5243      8.5087
   300.5000    135.2239      8.6503      8.5482
   300.0000    137.0149      8.7655      8.5943
   299.5000    138.5045      8.8090      8.6103
   299.0000    142.9594      8.7775      8.5715
   298.5000    145.4502      8.7091      8.4992
   298.0000    144.6190      8.6260      8.4220
   297.5000    144.0451      8.5150      8.3367
   297.0000    142.3775      8.3705      8.2299
   296.5000    138.8924      8.2302      8.1193
   296.0000    137.9698      8.1469      8.0388
   295.5000    139.7659      8.1348      8.0110
   295.0000    138.1260      8.1573      8.0402
   294.5000    133.8148      8.1716      8.1046
   294.0000    130.8764      8.1790      8.1666
   293.5000    130.1690      8.2075      8.2135
   293.0000    130.2425      8.2683      8.2598
   292.5000    130.2157      8.3468      8.3124
   292.0000    127.7683      8.4233      8.3599
   291.5000    124.3477      8.4855      8.3798
   291.0000    125.3059      8.5170      8.3469
   290.5000    131.6043      8.4876      8.2431
   290.0000    138.2116      8.3860      8.0749
   289.5000    141.4894      8.2344      7.8795
   289.0000    142.9108      8.0581      7.6958
   288.5000    146.1543      7.8604      7.5358
   288.0000    149.1801      7.6463      7.3955
   287.5000    149.2431      7.4482      7.2892
   287.0000    148.0527      7.3179      7.2434
   286.5000    148.2273      7.2907      7.2741
   286.0000    149.5529      7.3677      7.3783
   285.5000    151.7409      7.5284      7.5475
   285.0000    150.9818      7.7517      7.7669
   284.5000    145.2845      8.0188      8.0155
   284.0000    141.6602      8.3051      8.2655
   283.5000    144.1681      8.5807      8.4931
   283.0000    147.3211      8.8138      8.6847
   282.5000    147.1273      8.9779      8.8359
   282.0000    145.7445      9.0745      8.9549
   281.5000    143.4510      9.1335      9.0608
   281.0000    140.6570      9.1782      9.1593
   280.5000    138.4295      9.2201      9.2305
   280.0000    137.9555      9.2782      9.2724
   279.5000    139.0256      9.3626      9.3071
   279.0000    140.2699      9.4491      9.3429
   278.5000    140.1781      9.5032      9.3744
   278.0000    139.2217      9.5240      9.3954
   277.5000    139.6982      9.5242      9.3997
   277.0000    139.1500      9.4992      9.3888
   276.5000    136.7814      9.4508      9.3722
   276.0000    133.9843      9.4089      9.3518
   275.5000    132.4694      9.4072      9.3394
   275.0000    132.6846      9.4545      9.3600
   274.5000    134.7119      9.5337      9.4100
   274.0000    137.2440      9.6115      9.4651
   273.5000    140.1644      9.6710      9.5201
   273.0000    143.8720      9.7191      9.5794
   272.5000    145.1585      9.7682      9.6257
   272.0000    143.9828      9.8122      9.6523
   271.5000    142.2115      9.8350      9.6756
   271.0000    141.2665      9.8345      9.7043
   270.5000    141.5893      9.8377      9.7357
   270.0000    139.7415      9.8665      9.7660
   269.5000    133.6956      9.9149      9.8006
   269.0000    128.7594      9.9685      9.8606
   268.5000    127.8027     10.0412      9.9789
   268.0000    129.6563     10.1660     10.1819
   267.5000    134.3120     10.3668     10.4877
   267.0000    137.0103     10.6390     10.8543
   266.5000    131.0676     10.9416     11.1762
   266.0000    121.3129     11.2261     11.3601
   265.5000    115.6578     11.5218     11.4081
   265.0000    115.7445     11.8847     11.4052
