~Version Information
 VERS.                2.00:   CWLS log ASCII Standard -VERSION 2.00
 WRAP.                  NO:   One line per frame
~Well Information Block
#MNEM.UNIT              Data                Description
#--------- -------------------------------  -------------------------------
 STRT.F                          682.0000:   Starting Depth
 STOP.F                           -5.7500:   Ending Depth
 STEP.F                           -0.5000:   Level Spacing
 NULL.                          -999.2500:   Absent Value
 COMP.     FLUOR DANIEL (NPSOR), INC.    :   Company
 WELL.     11-1 X 2                      :   Well
 FLD .     NPR #3                        :   Field
 LOC .     131' FNL & 44' FWL            :   Location
 CNTY.     NATRONA                       :   County
 STAT.     WYOMING                       :   State
 SRVC.     WESTERN ATLAS                 :   Service Company
 LIC .                                   :   License Number
 DATE.     15-AUGUST-1994                :   Log Date
 API .     4902522643                    :   API Number
~Curve Information Block
#MNEM.UNIT       API Codes    Curve Description
#---------    -------------   -------------------------------
 DEPT.F        0   1  0  1:   Depth
 GR  .API      0 310  1  1:   Gamma ray counts
 RILM.OHMM     0 120 44  1:   Resistivity from CILM
 RILD.OHMM     0 120 46  1:   Resistivity from CILD
#  Curve Data
~A
# ...
   598.5000     78.1678     25.0012     26.6307
   598.0000     76.4608     24.6643     25.8280
   597.5000     75.7987     23.7001     23.8162
   597.0000     77.4310     22.3568     21.3289
   596.5000     83.2199     20.8426     19.0917
   596.0000     92.6542     19.0888     17.2150
   595.5000    100.6196     16.9634     15.5882
   595.0000    103.5466     14.7669     14.1296
   594.5000    105.7703     13.0032     12.8771
   594.0000    109.4637     11.8603     11.9294
   593.5000    110.4067     11.2316     11.3068
   593.0000    107.4646     10.9316     10.9386
   592.5000    105.3578     10.8091     10.7452
   592.0000    106.1873     10.7666     10.6617
   591.5000    107.0012     10.7599     10.6303
   591.0000    106.4087     10.7645     10.6185
   590.5000    105.6359     10.7640     10.6201
   590.0000    104.6533     10.7598     10.6295
   589.5000    102.5999     10.7608     10.6382
   589.0000    101.5320     10.7664     10.6608
   588.5000    102.6500     10.7551     10.7215
   588.0000    103.9352     10.7300     10.8172
   587.5000    103.7498     10.7614     10.9196
   587.0000    102.8114     10.8961     11.0193
   586.5000    101.0719     11.0731     11.1342
   586.0000     97.8453     11.2209     11.2715
   585.5000     94.7144     11.3470     11.4103
   585.0000     94.2479     11.4785     11.5287
   584.5000     96.1485     11.6031     11.6036
   584.0000     98.1445     11.6884     11.6233
   583.5000     98.5801     11.7417     11.6068
   583.0000     98.8437     11.8142     11.5880
   582.5000    100.2802     11.8970     11.5836
   582.0000    102.9395     11.9000     11.5864
   581.5000    105.2158     11.7913     11.5575
   581.0000    106.2791     11.6512     11.4748
   580.5000    107.8623     11.5572     11.3765
   580.0000    110.9504     11.5148     11.3149
   579.5000    112.4868     11.4956     11.2990
   579.0000    109.3043     11.4886     11.3042
   578.5000    105.5421     11.4997     11.3110
   578.0000    106.0409     11.5259     11.3236
   577.5000    108.0475     11.5530     11.3484
   577.0000    106.7301     11.5768     11.3721
   576.5000    102.8227     11.5945     11.3814
   576.0000    100.3146     11.6069     11.3972
   575.5000     98.7319     11.6186     11.4354
   575.0000     97.6030     11.6380     11.4898
   574.5000     96.9979     11.6734     11.5618
   574.0000     97.3170     11.7342     11.6633
   573.5000     97.3157     11.8233     11.7818
   573.0000     96.4859     11.9277     11.8827
   572.5000     97.4753     12.0342     11.9587
   572.0000    100.3143     12.1396     12.0267
   571.5000     99.8946     12.2372     12.0914
   571.0000     95.8002     12.3071     12.1355
   570.5000     94.4269     12.3338     12.1587
   570.0000     97.7905     12.3252     12.1695
   569.5000    100.4312     12.2947     12.1636
   569.0000     98.8269     12.2661     12.1339
   568.5000     94.8846     12.2567     12.0889
   568.0000     93.8874     12.2590     12.0461
   567.5000     97.8141     12.2602     12.0164
   567.0000    103.2634     12.2587     12.0150
   566.5000    104.5809     12.2539     12.0453
   566.0000    101.7509     12.2511     12.0986
   565.5000     98.4490     12.2720     12.1657
   565.0000     97.2122     12.3186     12.2296
   564.5000     96.5519     12.3805     12.2827
   564.0000     96.3596     12.4636     12.3437
   563.5000     97.4809     12.5652     12.4244
   563.0000     99.5745     12.6621     12.5085
   562.5000    100.8541     12.7515     12.5836
   562.0000    100.6373     12.8496     12.6729
   561.5000     98.1431     12.9469     12.8012
   561.0000     94.7045     13.0258     12.9549
   560.5000     93.9663     13.1002     13.0954
   560.0000     96.1904     13.1812     13.2126
   559.5000     98.0477     13.2696     13.3102
   559.0000     97.2101     13.3771     13.4034
   558.5000     96.0600     13.5179     13.5258
   558.0000     95.5536     13.6778     13.6931
   557.5000     94.7320     13.8272     13.8813
   557.0000     92.7760     13.9606     14.0400
   556.5000     91.0738     14.0929     14.1341
   556.0000     90.6753     14.2121     14.1714
   555.5000     92.1221     14.2846     14.1482
   555.0000     96.2027     14.2974     14.0533
   554.5000     99.2809     14.2404     13.9381
   554.0000     98.8107     14.1038     13.8505
   553.5000     97.1371     13.9180     13.7768
   553.0000     96.7762     13.7313     13.7134
   552.5000     95.7008     13.5819     13.6814
   552.0000     93.2947     13.5053     13.6779
   551.5000     92.7884     13.5480     13.7052
   551.0000     94.0955     13.7109     13.7850
   550.5000     93.8389     13.9257     13.9377
   550.0000     92.6043     14.1282     14.1685
   549.5000     92.9236     14.3239     14.4454
   549.0000     93.8021     14.5341     14.7042
   548.5000     94.4058     14.7520     14.8863
   548.0000     94.9658     14.9826     15.0284
   547.5000     95.0152     15.2590     15.2211
   547.0000     95.6510     15.6025     15.5491
   546.5000     96.6724     15.9878     16.0475
   546.0000     95.2343     16.3827     16.6775
   545.5000     91.4448     16.8179     17.3509
   545.0000     89.3344     17.3554     18.0077
   544.5000     90.3029     18.0408     18.5933
   544.0000     92.4367     18.8561     19.0561
   543.5000     93.4721     19.6578     19.3830
   543.0000     93.7700     20.2038     19.5125
   542.5000     93.6614     20.2706     19.3643
   542.0000     92.9852     19.7938     18.9886
   541.5000     91.4652     18.9195     18.4729
   541.0000     90.2464     17.9299     17.8712
   540.5000     89.3968     17.0633     17.2512
   540.0000     89.3609     16.4491     16.6861
   539.5000     91.7455     16.0925     16.2326
   539.0000     94.8803     15.9226     15.9221
   538.5000     95.3136     15.8485     15.7519
   538.0000     94.2255     15.7906     15.6782
   537.5000     94.5894     15.7167     15.6553
   537.0000     94.8341     15.6445     15.6515
   536.5000     92.8859     15.5848     15.6742
   536.0000     89.8966     15.5472     15.7420
   535.5000     89.1140     15.5759     15.8736
   535.0000     91.7033     15.7050     16.0629
   534.5000     94.7144     15.8875     16.2785
   534.0000     93.1444     16.0470     16.4968
   533.5000     88.3980     16.1849     16.7417
   533.0000     86.5894     16.3916     17.0739
   532.5000     90.5297     16.7289     17.5636
   532.0000     93.9610     17.1761     18.2665
   531.5000     91.4974     17.7160     19.2172
   531.0000     85.2074     18.4364     20.4485
   530.5000     80.9260     19.5191     21.9204
   530.0000     79.8138     21.0396     23.4177
   529.5000     78.8259     22.7806     24.7042
   529.0000     76.8568     24.4269     25.6836
   528.5000     76.6370     25.9032     26.4081
   528.0000     80.4694     27.0099     26.8215
   527.5000     86.3629     27.1310     26.8774
   527.0000     89.1434     26.1084     26.6632
   526.5000     88.3434     24.7533     26.3707
   526.0000     87.8962     23.8292     26.1953
   525.5000     87.3584     23.5111     26.2068
   525.0000     83.1553     23.7050     26.4443
   524.5000     78.4269     24.4421     27.0257
   524.0000     76.1624     25.7346     28.0073
   523.5000     74.7063     27.2679     29.2654
   523.0000     73.3597     28.5807     30.5560
   522.5000     72.4971     29.5436     31.5606
   522.0000     71.0089     30.2121     32.0786
   521.5000     69.1328     30.5379     32.2202
   521.0000     68.4249     30.5749     32.2045
   520.5000     69.7254     30.6123     32.2058
   520.0000     73.0680     30.6962     32.2319
   519.5000     74.7222     30.3322     31.8699
   519.0000     70.9243     29.2463     30.7898
   518.5000     66.5151     28.0526     29.3663
   518.0000     67.9679     27.3483     28.0529
   517.5000     72.9185     26.7959     26.8756
   517.0000     76.4584     25.6379     25.7010
   516.5000     79.0425     23.9382     24.4650
   516.0000     82.1565     22.3940     23.1696
   515.5000     85.3223     21.2458     21.9698
