~Version Information
 VERS.                2.00:   CWLS log ASCII Standard -VERSION 2.00
 WRAP.                  NO:   One line per frame
~Well Information Block
#MNEM.UNIT              Data                Description
#--------- -------------------------------  -------------------------------
 STRT.F                          682.0000:   Starting Depth
 STOP.F                           -5.7500:   Ending Depth
 STEP.F                           -0.5000:   Level Spacing
 NULL.                          -999.2500:   Absent Value
 COMP.     FLUOR DANIEL (NPSOR), INC.    :   Company
 WELL.     11-1 X 2                      :   Well
 FLD .     NPR #3                        :   Field
 LOC .     131' FNL & 44' FWL            :   Location
 CNTY.     NATRONA                       :   County
 STAT.     WYOMING                       :   State
 SRVC.     WESTERN ATLAS                 :   Service Company
 LIC .                                   :   License Number
 DATE.     15-AUGUST-1994                :   Log Date
 API .     4902522643                    :   API Number
~Curve Information Block
#MNEM.UNIT       API Codes    Curve Description
#---------    -------------   -------------------------------
 DEPT.F        0   1  0  1:   Depth
 GR  .API      0 310  1  1:   Gamma ray counts
 RILM.OHMM     0 120 44  1:   Resistivity from CILM
 RILD.OHMM     0 120 46  1:   Resistivity from CILD
#  Curve Data
~A
# ...
    97.5000    123.6378      7.3555      7.4105
    97.0000    123.5558      7.2078      7.1459
    96.5000    127.4808      7.0532      6.8705
    96.0000    132.0666      6.9192      6.6333
    95.5000    132.5764      6.8054      6.4661
    95.0000    130.7734      6.6779      6.3652
    94.5000    129.8441      6.5165      6.2905
    94.0000    129.1355      6.3496      6.2050
    93.5000    126.9234      6.2253      6.1176
    93.0000    122.7329      6.1697      6.0387
    92.5000    119.9244      6.1784      5.9145
    92.0000    121.3574      6.2218      5.8441
    91.5000    124.1320      6.2633      5.9992
    91.0000    124.5836      6.2879      6.3251
    90.5000    124.7852      6.2980      6.6352
    90.0000    126.0303      6.3024      6.8500
    89.5000    125.4285      6.3813      6.4747
    89.0000    123.8721      6.8955      5.5821
    88.5000    124.2455      7.8005      5.0503
    88.0000    124.8569      8.1217      5.0894
    87.5000    123.2738      7.8594      5.3607
    87.0000    121.5495      8.1625      5.5219
    86.5000    121.9299      9.2635      5.5943
    86.0000    122.7734     10.1889      6.4272
    85.5000    121.4043      8.7878      9.2337
    85.0000    120.5348      6.2798      8.9589
    84.5000    121.2812      4.8631      4.9638
    84.0000    121.4241      4.1595      3.1556
    83.5000    121.2424      3.2018      2.3625
    83.0000    122.7757      2.6984      2.2281
    82.5000    121.2893      4.0350      4.2812
    82.0000    113.6319  10000.0000  10000.0000
    81.5000    101.9270  10000.0000  10000.0000
    81.0000     90.5423  10000.0000  10000.0000
    80.5000     82.1477  10000.0000  10000.0000
    80.0000     76.0824  10000.0000  10000.0000
    79.5000     72.2464  10000.0000  10000.0000
    79.0000     70.8508  10000.0000     58.4338
    78.5000     69.8847  10000.0000     10.1971
    78.0000     68.8640  10000.0000      6.7591
    77.5000     70.3643  10000.0000      6.7253
    77.0000     73.7119  10000.0000      7.0845
    76.5000     76.2555  10000.0000      7.2536
    76.0000     79.5812  10000.0000      6.7191
    75.5000     83.2533  10000.0000      5.7673
    75.0000     82.6127  10000.0000      5.3405
    74.5000     78.0775  10000.0000      5.6264
    74.0000     74.7802  10000.0000      6.2160
    73.5000     72.8916  10000.0000      6.6051
    73.0000     70.6481  10000.0000      6.8036
    72.5000     69.5033  10000.0000      7.0791
    72.0000     69.9178  10000.0000      7.4616
    71.5000     72.0444  10000.0000      7.5674
    71.0000     73.1799  10000.0000      7.2064
    70.5000     70.9641  10000.0000      6.7616
    70.0000     69.1558  10000.0000      6.4762
    69.5000     70.3501  10000.0000      6.3663
    69.0000     68.9950  10000.0000      6.4145
    68.5000     64.6329  10000.0000      6.5407
    68.0000     62.5007  10000.0000      6.5534
    67.5000     63.0815  10000.0000      6.4091
    67.0000     64.4220  10000.0000      6.3083
    66.5000     66.0557  10000.0000      6.3074
    66.0000     68.9589  10000.0000      6.2340
    65.5000     72.6901  10000.0000      6.0560
    65.0000     74.0732  10000.0000      5.9343
    64.5000     72.7600  10000.0000      5.9617
    64.0000     72.3188  10000.0000      6.0400
    63.5000     72.6998  10000.0000      6.0886
    63.0000     71.5166  10000.0000      6.0226
    62.5000     70.6072  10000.0000      5.6769
    62.0000     71.3795  10000.0000      5.2016
    61.5000     72.4122  10000.0000      4.9880
    61.0000     72.6075  10000.0000      5.0817
    60.5000     71.3692  10000.0000      5.3723
    60.0000     68.0446  10000.0000      5.9718
    59.5000     64.8973  10000.0000      7.9642
    59.0000     62.9586  10000.0000     14.7545
    58.5000     62.3515    311.4148     30.2933
    58.0000     64.8441    303.8867     17.7372
    57.5000     69.5935    304.5737      8.9605
    57.0000     72.5014    305.1914      8.2163
    56.5000     73.8235    303.1482     14.5169
    56.0000     74.9088    300.7686     63.2261
    55.5000     74.9769    299.7463  10000.0000
    55.0000     74.9466    298.9080  10000.0000
    54.5000     75.2720    297.7915  10000.0000
    54.0000     74.8839    298.6858  10000.0000
    53.5000     73.4179    300.2756  10000.0000
    53.0000     72.3156    298.1936  10000.0000
    52.5000     71.3100    293.3345  10000.0000
    52.0000     70.0335    289.2366  10000.0000
    51.5000     68.7662    288.9854  10000.0000
    51.0000     68.4840    292.0029  10000.0000
    50.5000     68.7319    294.5540  10000.0000
    50.0000     70.4328    294.6091  10000.0000
    49.5000     72.4702    293.5457  10000.0000
    49.0000     72.0913    292.6226  10000.0000
    48.5000     70.8816    291.4397  10000.0000
    48.0000     71.2624    290.2302  10000.0000
    47.5000     70.4462    290.3210  10000.0000
    47.0000     67.9322    291.4160  10000.0000
    46.5000     69.0515    292.3184  10000.0000
    46.0000     73.4705    291.8911  10000.0000
    45.5000     76.1396    290.4312  10000.0000
    45.0000     75.5517    288.4524  10000.0000
    44.5000     73.0582    287.6641  10000.0000
    44.0000     71.1717    289.3948  10000.0000
    43.5000     71.8056    292.9063  10000.0000
    43.0000     70.7559    294.8508  10000.0000
    42.5000     65.9748    293.3201  10000.0000
    42.0000     63.7141    289.9744  10000.0000
    41.5000     66.1853    287.6294  10000.0000
    41.0000     68.8051    287.1123  10000.0000
    40.5000     69.5067    287.9712  10000.0000
    40.0000     69.1822    289.8608  10000.0000
    39.5000     68.1393    291.1172  10000.0000
    39.0000     68.3800    289.5483  10000.0000
    38.5000     68.2996    285.9680  10000.0000
    38.0000     65.4811    283.1145  10000.0000
    37.5000     60.9772    282.0613  10000.0000
    37.0000     57.9509    281.8530  10000.0000
    36.5000     57.5521    281.1362  10000.0000
    36.0000     57.0234    280.6641  10000.0000
    35.5000     54.1172    280.9595  10000.0000
    35.0000     51.5783    281.7690  10000.0000
    34.5000     51.3203    283.2686  10000.0000
    34.0000     49.7123    284.3279  10000.0000
    33.5000     46.5704    283.0920  10000.0000
    33.0000     46.3152    279.3948  10000.0000
    32.5000     49.1433    273.4397  10000.0000
    32.0000     52.0136    267.2837  10000.0000
    31.5000     53.6813    267.3567  10000.0000
    31.0000     54.9695    278.3250  10000.0000
    30.5000     55.6884    293.8921  10000.0000
    30.0000     55.1174    300.5583  10000.0000
    29.5000     54.3179    296.5054  10000.0000
    29.0000     55.2923    293.5852  10000.0000
    28.5000     56.7370    296.7205  10000.0000
    28.0000     56.4184    298.3152  10000.0000
    27.5000     54.2932    291.9736  10000.0000
    27.0000     52.5069    283.2729  10000.0000
    26.5000     52.6871    278.9456  10000.0000
    26.0000     53.5222    279.0571  10000.0000
    25.5000     53.8011    282.6216  10000.0000
    25.0000     54.9331    287.6467  10000.0000
    24.5000     56.3774    289.5244  10000.0000
    24.0000     55.7996    287.1067  10000.0000
    23.5000     55.0928    285.2664  10000.0000
    23.0000     56.6750    286.2241  10000.0000
    22.5000     59.6898    286.9561      0.2000
    22.0000     61.4002    283.4104      0.2000
    21.5000     61.1911    277.4763      0.2000
    21.0000     60.1205    275.5693      0.2000
    20.5000     59.3211    276.3225      0.2000
    20.0000     58.1825    275.0251      0.2000
    19.5000     58.2506    272.3110      0.2000
    19.0000     59.7098      0.2000      0.2000
    18.5000     58.9349      0.2000      0.2000
    18.0000     55.4777      0.2000      0.2000
    17.5000     53.3970      0.2000      0.2000
    17.0000     52.6422      0.2000      0.2000
    16.5000     51.8333      0.2000      0.2000
    16.0000     51.6035      0.2000      0.2000
    15.5000     51.5093      0.2000      0.2000
    15.0000     51.1534      0.2000      0.2000
    14.5000     51.2816      0.2000      0.2000
