~Version Information
 VERS.                2.00:   CWLS log ASCII Standard -VERSION 2.00
 WRAP.                  NO:   One line per frame
~Well Information Block
#MNEM.UNIT              Data                Description
#--------- -------------------------------  -------------------------------
 STRT.F                          682.0000:   Starting Depth
 STOP.F                           -5.7500:   Ending Depth
 STEP.F                           -0.5000:   Level Spacing
 NULL.                          -999.2500:   Absent Value
 COMP.     FLUOR DANIEL (NPSOR), INC.    :   Company
 WELL.     11-1 X 2                      :   Well
 FLD .     NPR #3                        :   Field
 LOC .     131' FNL & 44' FWL            :   Location
 CNTY.     NATRONA                       :   County
 STAT.     WYOMING                       :   State
 SRVC.     WESTERN ATLAS                 :   Service Company
 LIC .                                   :   License Number
 DATE.     15-AUGUST-1994                :   Log Date
 API .     4902522643                    :   API Number
~Curve Information Block
#MNEM.UNIT       API Codes    Curve Description
#---------    -------------   -------------------------------
 DEPT.F        0   1  0  1:   Depth
 GR  .API      0 310  1  1:   Gamma ray counts
 RILM.OHMM     0 120 44  1:   Resistivity from CILM
 RILD.OHMM     0 120 46  1:   Resistivity from CILD
#  Curve Data
~A
# ...
   515.0000     87.8590     20.2497     21.0029
   514.5000     87.9260     19.3578     20.2737
   514.0000     85.8416     18.7543     19.6537
   513.5000     84.4718     18.3960     19.0793
   513.0000     85.8340     18.0226     18.5120
   512.5000     88.8728     17.5217     17.8500
   512.0000     91.2431     16.9142     16.9451
   511.5000     90.2659     16.1394     15.7406
   511.0000     89.4665     15.1317     14.3886
   510.5000     94.4845     13.9942     13.1670
   510.0000    105.2629     12.8966     12.1894
   509.5000    118.7772     11.8770     11.3912
   509.0000    130.8961     10.9085     10.7085
   508.5000    135.5955     10.0539     10.1126
   508.0000    132.7001      9.4122      9.5771
   507.5000    130.4831      9.0458      9.1664
   507.0000    132.2831      8.9047      8.9229
   506.5000    134.5797      8.9158      8.8126
   506.0000    135.3534      9.0079      8.7760
   505.5000    132.9906      9.0945      8.7558
   505.0000    127.6126      9.0893      8.6517
   504.5000    125.1774      8.9285      8.3332
   504.0000    129.0414      8.5687      7.7533
   503.5000    132.7313      8.0118      7.0227
   503.0000    131.1056      7.3535      6.3391
   502.5000    127.9653      6.7325      5.8357
   502.0000    127.7700      6.2131      5.5531
   501.5000    131.3473      5.7811      5.4458
   501.0000    136.4294      5.4455      5.4360
   500.5000    138.2840      5.2896      5.4767
   500.0000    135.5717      5.4172      5.6006
   499.5000    132.1746      5.8946      5.8815
   499.0000    130.4265      6.6956      6.3485
   498.5000    128.6681      7.6164      6.9302
   498.0000    127.5978      8.3180      7.4779
   497.5000    128.3544      8.6050      7.8346
   497.0000    128.2214      8.5634      7.9702
   496.5000    127.8063      8.3622      7.9583
   496.0000    130.4621      8.1231      7.8813
   495.5000    135.7881      7.9262      7.8005
   495.0000    139.5128      7.8173      7.7528
   494.5000    141.6735      7.8018      7.7464
   494.0000    144.1664      7.8629      7.7842
   493.5000    145.1406      7.9607      7.8586
   493.0000    141.2893      8.0413      7.9369
   492.5000    136.7289      8.0790      7.9856
   492.0000    136.2859      8.0856      7.9866
   491.5000    136.5503      8.0740      7.9384
   491.0000    134.3118      8.0509      7.8620
   490.5000    132.3429      8.0133      7.7899
   490.0000    136.1869      7.9564      7.7295
   489.5000    142.1268      7.8921      7.6650
   489.0000    142.4730      7.8397      7.5956
   488.5000    138.6752      7.7980      7.5210
   488.0000    139.4506      7.7307      7.4145
   487.5000    144.1297      7.5859      7.2180
   487.0000    146.0208      7.3331      6.8810
   486.5000    145.2296      6.9788      6.4149
   486.0000    145.4737      6.5569      5.8978
   485.5000    148.1043      6.1153      5.4377
   485.0000    151.8013      5.7093      5.1225
   484.5000    155.4157      5.3700      4.9778
   484.0000    157.5272      5.0840      4.9511
   483.5000    156.6608      4.8372      4.9623
   483.0000    154.6860      4.7016      4.9817
   482.5000    152.9109      4.7896      5.0410
   482.0000    150.2796      5.1548      5.2058
   481.5000    145.2489      5.7136      5.5159
   481.0000    141.9836      6.2727      5.9201
   480.5000    142.0947      6.6496      6.2949
   480.0000    141.9268      6.8058      6.5381
   479.5000    142.0521      6.7888      6.5980
   479.0000    145.1678      6.6630      6.4518
   478.5000    149.7570      6.4631      6.1339
   478.0000    151.8942      6.1860      5.7089
   477.5000    150.2531      5.8512      5.2824
   477.0000    146.2097      5.5256      4.9684
   476.5000    143.9574      5.2499      4.8086
   476.0000    145.8632      4.9878      4.7576
   475.5000    151.0620      4.7019      4.7424
   475.0000    155.5522      4.4898      4.7211
   474.5000    156.2686      4.4938      4.7206
   474.0000    154.7010      4.7743      4.8125
   473.5000    154.0530      5.2444      5.0211
   473.0000    155.2487      5.7024      5.2702
   472.5000    156.6862      5.9625      5.4431
   472.0000    156.1923      5.9770      5.4952
   471.5000    157.3217      5.8668      5.4884
   471.0000    163.7532      5.7678      5.5063
   470.5000    168.7592      5.6915      5.5747
   470.0000    164.9921      5.5973      5.6671
   469.5000    155.5800      5.5510      5.7590
   469.0000    148.8120      5.6966      5.8759
   468.5000    147.7969      6.0827      6.0881
   468.0000    149.9403      6.5831      6.4140
   467.5000    150.5883      6.9992      6.7567
   467.0000    148.7205      7.2409      7.0016
   466.5000    149.2149      7.3378      7.1271
   466.0000    152.9552      7.3538      7.1669
   465.5000    153.5833      7.3410      7.1624
   465.0000    150.7577      7.3201      7.1528
   464.5000    151.3396      7.3011      7.1512
   464.0000    155.7875      7.2996      7.1551
   463.5000    156.5082      7.3202      7.1756
   463.0000    153.5442      7.3560      7.2153
   462.5000    150.8456      7.3971      7.2643
   462.0000    148.8210      7.4290      7.3121
   461.5000    146.0505      7.4446      7.3452
   461.0000    145.0900      7.4502      7.3532
   460.5000    147.3539      7.4493      7.3338
   460.0000    150.2119      7.4330      7.2832
   459.5000    150.7308      7.3879      7.2106
   459.0000    149.3695      7.3170      7.1335
   458.5000    151.8008      7.2489      7.0659
   458.0000    157.1986      7.2057      7.0190
   457.5000    160.3783      7.1633      6.9861
   457.0000    158.7560      7.0743      6.9095
   456.5000    152.4758      6.9252      6.7177
   456.0000    144.8147      6.7306      6.3930
   455.5000    140.1861      6.4732      5.9619
   455.0000    137.3454      6.1336      5.5059
   454.5000    136.0915      5.7609      5.1385
   454.0000    138.9311      5.4211      4.9121
   453.5000    142.8195      5.1052      4.7915
   453.0000    144.1463      4.7812      4.7178
   452.5000    146.9633      4.5212      4.6637
   452.0000    153.1655      4.4508      4.6502
   451.5000    157.3149      4.6335      4.7376
   451.0000    155.2955      5.0253      4.9670
   450.5000    150.0752      5.4812      5.3098
   450.0000    147.8658      5.8924      5.6918
   449.5000    148.7762      6.2096      6.0481
   449.0000    148.7331      6.4380      6.3323
   448.5000    148.3445      6.6070      6.5374
   448.0000    148.2745      6.7458      6.7023
   447.5000    145.6112      6.8705      6.8518
   447.0000    142.6982      6.9933      6.9863
   446.5000    143.5527      7.1194      7.1108
   446.0000    145.5258      7.2302      7.2211
   445.5000    144.5209      7.2990      7.2858
   445.0000    142.3896      7.3205      7.2656
   444.5000    142.9114      7.2955      7.1458
   444.0000    147.2290      7.1991      6.9435
   443.5000    150.7988      7.0138      6.6825
   443.0000    149.5533      6.7693      6.3936
   442.5000    148.0635      6.5083      6.1105
   442.0000    149.9761      6.2394      5.8450
   441.5000    150.3423      5.9443      5.5813
   441.0000    147.3213      5.6362      5.3192
   440.5000    145.7391      5.3681      5.0744
   440.0000    146.2584      5.1639      4.8548
   439.5000    146.0114      4.9890      4.6644
   439.0000    146.2467      4.8193      4.5259
   438.5000    148.6238      4.7023      4.4676
   438.0000    152.4825      4.6693      4.4976
   437.5000    155.9358      4.6779      4.5946
   437.0000    158.1891      4.6898      4.7246
   436.5000    156.9847      4.7637      4.8656
   436.0000    150.5067      4.9971      5.0366
   435.5000    143.5360      5.3812      5.2775
   435.0000    141.9276      5.8008      5.5833
   434.5000    143.7069      6.0964      5.8871
   434.0000    144.0404      6.2085      6.1213
   433.5000    142.8384      6.1939      6.2516
   433.0000    143.0995      6.1443      6.2796
   432.5000    145.3211      6.1106      6.2547
   432.0000    147.3151      6.0877      6.2128
