~Version Information
 VERS.                2.00:   CWLS log ASCII Standard -VERSION 2.00
 WRAP.                  NO:   One line per frame
~Well Information Block
#MNEM.UNIT              Data                Description
#--------- -------------------------------  -------------------------------
 STRT.F                          682.0000:   Starting Depth
 STOP.F                           -5.7500:   Ending Depth
 STEP.F                           -0.5000:   Level Spacing
 NULL.                          -999.2500:   Absent Value
 COMP.     FLUOR DANIEL (NPSOR), INC.    :   Company
 WELL.     11-1 X 2                      :   Well
 FLD .     NPR #3                        :   Field
 LOC .     131' FNL & 44' FWL            :   Location
 CNTY.     NATRONA                       :   County
 STAT.     WYOMING                       :   State
 SRVC.     WESTERN ATLAS                 :   Service Company
 LIC .                                   :   License Number
 DATE.     15-AUGUST-1994                :   Log Date
 API .     4902522643                    :   API Number
~Curve Information Block
#MNEM.UNIT       API Codes    Curve Description
#---------    -------------   -------------------------------
 DEPT.F        0   1  0  1:   Depth
 GR  .API      0 310  1  1:   Gamma ray counts
 RILM.OHMM     0 120 44  1:   Resistivity from CILM
 RILD.OHMM     0 120 46  1:   Resistivity from CILD
#  Curve Data
~A
   682.0000      0.0000      0.2000      0.2000
   681.5000      0.0000      0.2000      0.2000
   681.0000      0.0000      0.2000      0.2000
   680.5000      0.0000      0.2000      0.2000
   680.0000      0.0000      0.2000      0.2000
   679.5000      0.0000      0.2000      0.2000
   679.0000      0.0000      0.2000      0.2000
   678.5000      0.0000      0.2000      0.2000
   678.0000      0.0000      0.2000      0.2000
   677.5000      0.0000      0.2000      0.2000
   677.0000      0.0000      0.2000      0.2000
   676.5000      0.0000      0.2000      0.2000
   676.0000      0.0000      0.2000      0.2000
   675.5000      0.0000      0.2000      0.2000
   675.0000      0.0000      0.2000      0.2000
   674.5000      0.0000      0.2000      0.2000
   674.0000      0.0000      0.2000      0.2000
   673.5000      0.0000      0.2000      0.2000
   673.0000      0.0000      0.2000      0.2000
   672.5000      0.0000      0.2000      0.2000
   672.0000      0.0000      0.2000      0.2000
   671.5000      0.0000      0.2000      0.2000
   671.0000      0.0000      0.2000      0.2000
   670.5000      0.0000      0.2000      0.2000
   670.0000      0.0000      0.2000      0.2000
   669.5000      0.0000      0.2000      0.2000
   669.0000      0.0000      0.2000      0.2000
   668.5000      0.0000      0.2000      0.2000
   668.0000      0.0000      0.2000      0.2000
   667.5000      0.0000      0.2000      0.2000
   667.0000      0.0000      0.2000      0.2000
   666.5000      0.0000      0.2000      0.2000
   666.0000      0.0000     10.7638      0.2000
   665.5000      0.0000     10.7598      0.2000
   665.0000      0.0000     10.7495      0.2000
   664.5000      0.0000     10.7442      0.2000
   664.0000      0.0000     10.7467      0.2000
   663.5000      0.0000     10.7498      0.2000
   663.0000      0.0000     10.7484      0.2000
   662.5000      0.0000     10.7474      0.2000
   662.0000      0.0000     10.7493      0.2000
   661.5000      0.0000     10.7509      0.2000
   661.0000      0.0000     10.7534      0.2000
   660.5000      0.0000     10.7601      0.2000
   660.0000      0.0000     10.7647      0.2000
   659.5000      0.0000     10.7625      0.2000
   659.0000      0.0000     10.7605      0.2000
   658.5000      0.0000     10.7626      0.2000
   658.0000      0.0000     10.7601      0.2000
   657.5000      0.0000     10.7502      0.2000
   657.0000      0.0000     10.7479      0.2000
   656.5000      0.0000     10.7652      0.2000
   656.0000      0.0000     10.8094     11.1993
   655.5000      0.0000     10.8821     11.1916
   655.0000      0.0000     10.9793     11.1860
   654.5000      0.0000     11.0945     11.1749
   654.0000      0.0000     11.2183     11.1753
   653.5000      0.0000     11.3341     11.1929
   653.0000      0.0000     11.4349     11.2229
   652.5000      0.0000     11.5308     11.2694
   652.0000      0.0000     11.6221     11.3344
   651.5000      0.0000     11.6987     11.4069
   651.0000      0.0000     11.7571     11.4733
   650.5000      0.0000     11.8021     11.5262
   650.0000      0.0000     11.8445     11.5945
   649.5000      0.0000     11.8980     11.6988
   649.0000      0.0000     11.9712     11.8232
   648.5000     96.2741     12.0635     11.9541
   648.0000     97.9000     12.1688     12.0744
   647.5000    100.5352     12.2628     12.1450
   647.0000     99.9026     12.3222     12.1532
   646.5000     96.4699     12.3692     12.1415
   646.0000     94.3537     12.4406     12.1382
   645.5000     96.1538     12.5073     12.1265
   645.0000     99.8772     12.4812     12.0849
   644.5000    102.2128     12.3256     12.0203
   644.0000    102.7868     12.1115     11.9461
   643.5000    101.6670     11.9510     11.8796
   643.0000    101.1351     11.8933     11.8389
   642.5000    103.2850     11.9146     11.8286
   642.0000    105.4919     11.9692     11.8385
   641.5000    104.1919     12.0268     11.8734
   641.0000    102.7156     12.0743     11.9286
   640.5000    104.2865     12.1079     11.9891
   640.0000    105.7940     12.1235     12.0396
   639.5000    104.5726     12.1236     12.0685
   639.0000    102.1585     12.1226     12.0821
   638.5000    100.0306     12.1337     12.0965
   638.0000     99.5353     12.1559     12.1094
   637.5000    101.5417     12.1812     12.1131
   637.0000    101.4619     12.2020     12.1158
   636.5000     99.0077     12.2043     12.1124
   636.0000     99.4299     12.1793     12.0848
   635.5000    102.9758     12.1322     12.0393
   635.0000    103.7034     12.0721     11.9949
   634.5000    101.6820     12.0108     11.9587
   634.0000     99.3993     11.9684     11.9325
   633.5000     98.4181     11.9504     11.9131
   633.0000     97.6331     11.9497     11.9074
   632.5000     95.1510     11.9658     11.9223
   632.0000     92.3928     11.9893     11.9341
   631.5000     92.3130     11.9990     11.9257
   631.0000     93.5548     11.9930     11.9193
   630.5000     94.0604     11.9950     11.9338
   630.0000     93.4366     12.0182     11.9531
   629.5000     93.8555     12.0489     11.9615
   629.0000     95.3892     12.0707     11.9762
   628.5000     96.2924     12.0886     12.0204
   628.0000     94.4864     12.1160     12.0954
   627.5000     92.1087     12.1731     12.2008
   627.0000     91.5251     12.2774     12.3568
   626.5000     93.7799     12.4303     12.5863
   626.0000     96.9831     12.6321     12.8982
   625.5000     99.7720     12.9149     13.2804
   625.0000    101.9904     13.3094     13.6806
   624.5000    102.8019     13.7720     14.0533
   624.0000    101.3195     14.2149     14.3834
   623.5000     97.7270     14.6215     14.6685
   623.0000     95.0219     15.0225     14.9387
   622.5000     95.7232     15.3539     15.2516
   622.0000     97.3989     15.5262     15.5622
   621.5000     95.6088     15.5794     15.7528
   621.0000     92.5695     15.6076     15.8362
   620.5000     93.4219     15.6728     15.9094
   620.0000     95.8020     15.8095     15.9795
   619.5000     96.3036     15.9861     16.0208
   619.0000     95.5370     16.1156     16.0552
   618.5000     93.4596     16.1744     16.1029
   618.0000     90.2955     16.2024     16.1958
   617.5000     90.3321     16.2204     16.3997
   617.0000     94.0610     16.2589     16.7279
   616.5000     96.0082     16.4045     17.1355
   616.0000     94.0405     16.7297     17.5709
   615.5000     92.5132     17.2342     17.9879
   615.0000     93.5204     17.9189     18.3901
   614.5000     93.4419     18.7634     18.8308
   614.0000     89.6795     19.5523     19.2549
   613.5000     85.8661     19.9010     19.4981
   613.0000     85.1191     19.6481     19.4496
   612.5000     87.3519     19.0343     19.1140
   612.0000     89.1180     18.4099     18.6526
   611.5000     89.4772     17.9981     18.2716
   611.0000     90.7520     17.8590     18.0681
   610.5000     91.4771     17.8862     18.0759
   610.0000     90.1246     17.9361     18.2973
   609.5000     89.2797     18.0069     18.6151
   609.0000     89.9144     18.1868     18.8800
   608.5000     87.9752     18.4819     19.0681
   608.0000     84.4637     18.8490     19.2451
   607.5000     84.5357     19.2922     19.5179
   607.0000     89.1850     19.7786     19.9292
   606.5000     91.7253     20.1352     20.3280
   606.0000     88.6538     20.2278     20.5727
   605.5000     84.3278     20.1925     20.7119
   605.0000     82.8679     20.2915     20.8528
   604.5000     82.4750     20.6151     21.1027
   604.0000     81.1553     21.0392     21.5290
   603.5000     78.3796     21.3720     22.0049
   603.0000     77.1408     21.5549     22.3883
   602.5000     79.0638     21.7137     22.7273
   602.0000     80.9391     22.0092     23.1242
   601.5000     81.7342     22.4183     23.5814
   601.0000     83.8792     22.7544     24.0361
   600.5000     85.5899     22.9826     24.4494
   600.0000     83.7757     23.3311     24.9680
   599.5000     81.1854     23.9613     25.6617
   599.0000     79.6427     24.6703     26.3710
