~Version Information
 VERS.                2.00:   CWLS log ASCII Standard -VERSION 2.00
 WRAP.                  NO:   One line per frame
~Well Information Block
#MNEM.UNIT              Data                Description
#--------- -------------------------------  -------------------------------
 STRT.F                          682.0000:   Starting Depth
 STOP.F                           -5.7500:   Ending Depth
 STEP.F                           -0.5000:   Level Spacing
 NULL.                          -999.2500:   Absent Value
 COMP.     FLUOR DANIEL (NPSOR), INC.    :   Company
 WELL.     11-1 X 2                      :   Well
 FLD .     NPR #3                        :   Field
 LOC .     131' FNL & 44' FWL            :   Location
 CNTY.     NATRONA                       :   County
 STAT.     WYOMING                       :   State
 SRVC.     WESTERN ATLAS                 :   Service Company
 LIC .                                   :   License Number
 DATE.     15-AUGUST-1994                :   Log Date
 API .     4902522643                    :   API Number
~Curve Information Block
#MNEM.UNIT       API Codes    Curve Description
#---------    -------------   -------------------------------
 DEPT.F        0   1  0  1:   Depth
 GR  .API      0 310  1  1:   Gamma ray counts
 RILM.OHMM     0 120 44  1:   Resistivity from CILM
 RILD.OHMM     0 120 46  1:   Resistivity from CILD
#  Curve Data
~A
# ...
   181.0000    128.5569      7.9548      7.8523
   180.5000    129.2133      8.0552      7.9383
   180.0000    129.0023      8.1267      8.0016
   179.5000    128.0267      8.1794      8.0387
   179.0000    127.4621      8.2139      8.0370
   178.5000    127.6720      8.1956      7.9876
   178.0000    128.9279      8.1039      7.8857
   177.5000    130.5394      7.9772      7.7400
   177.0000    130.6105      7.8644      7.5851
   176.5000    131.5858      7.7673      7.4637
   176.0000    135.3867      7.6640      7.3974
   175.5000    138.2108      7.5500      7.3744
   175.0000    136.5447      7.4406      7.3617
   174.5000    131.7924      7.3422      7.3187
   174.0000    123.7156      7.2555      7.2130
   173.5000    112.5886      7.2102      7.0673
   173.0000    105.7125      7.2631      6.9455
   172.5000    109.1089      7.4021      6.8846
   172.0000    118.9798      7.4764      6.8685
   171.5000    128.1440      7.3351      6.8424
   171.0000    133.0181      7.0460      6.7577
   170.5000    134.2379      6.8001      6.6365
   170.0000    134.8018      6.6853      6.5500
   169.5000    135.4870      6.6717      6.5327
   169.0000    135.9909      6.7063      6.5723
   168.5000    136.3790      6.7591      6.6468
   168.0000    136.6237      6.8288      6.7398
   167.5000    135.9786      6.9233      6.8370
   167.0000    136.0669      7.0314      6.9281
   166.5000    136.5191      7.1252      7.0008
   166.0000    134.9531      7.1914      7.0403
   165.5000    131.6162      7.2291      7.0397
   165.0000    128.2091      7.2286      7.0004
   164.5000    127.5280      7.1856      6.9368
   164.0000    130.8664      7.1120      6.8697
   163.5000    133.8828      7.0212      6.8083
   163.0000    132.2965      6.9201      6.7518
   162.5000    129.3309      6.8257      6.7073
   162.0000    130.2910      6.7672      6.6833
   161.5000    134.4832      6.7603      6.6798
   161.0000    139.2654      6.8020      6.6988
   160.5000    141.1850      6.8786      6.7347
   160.0000    136.7150      6.9681      6.7692
   159.5000    128.0489      7.0379      6.7820
   159.0000    124.2201      7.0588      6.7601
   158.5000    129.3212      7.0280      6.7106
   158.0000    137.8929      6.9629      6.6615
   157.5000    142.9713      6.8809      6.6415
   157.0000    143.1129      6.8065      6.6747
   156.5000    140.4740      6.7912      6.7990
   156.0000    136.8737      6.8963      7.0535
   155.5000    130.5488      7.1576      7.4575
   155.0000    122.8670      7.5795      8.0129
   154.5000    117.7862      8.1704      8.7095
   154.0000    114.8819      8.9857      9.5332
   153.5000    112.6288     10.0978     10.4616
   153.0000    112.0517     11.4374     11.4941
   152.5000    111.6972     12.7703     12.5747
   152.0000    110.1222     13.7354     13.4965
   151.5000    109.2440     14.2300     14.0967
   151.0000    109.5896     14.4277     14.4153
   150.5000    110.0916     14.5163     14.5785
   150.0000    110.6725     14.5810     14.6907
   149.5000    111.0283     14.6440     14.8356
   149.0000    110.9223     14.7186     15.0169
   148.5000    110.6431     14.8462     15.1683
   148.0000    109.0108     15.0603     15.2800
   147.5000    107.4374     15.3473     15.4174
   147.0000    107.4072     15.6597     15.6311
   146.5000    107.5040     16.0164     15.9871
   146.0000    105.3511     16.4985     16.6064
   145.5000    101.5625     17.1667     17.5934
   145.0000     98.2473     18.0311     18.9495
   144.5000     95.5765     19.1628     20.5604
   144.0000     90.2495     20.7427     22.2028
   143.5000     80.7849     22.9466     23.6039
   143.0000     71.7281     25.5973     24.5139
   142.5000     68.6638     27.7978     24.7603
   142.0000     73.9404     28.4138     24.3014
   141.5000     83.8644     27.1797     23.2207
   141.0000     91.8389     24.7665     21.7515
   140.5000     95.5807     22.0524     20.2060
   140.0000     98.9575     19.7054     18.8498
   139.5000    104.1908     17.9975     17.7372
   139.0000    108.9857     16.8917     16.8370
   138.5000    110.2269     16.2384     16.1727
   138.0000    108.3290     15.8991     15.7464
   137.5000    106.1820     15.7622     15.4612
   137.0000    105.4403     15.7037     15.2184
   136.5000    106.0671     15.5685     14.9867
   136.0000    106.7492     15.2762     14.7557
   135.5000    105.6548     14.8859     14.5172
   135.0000    104.2959     14.5134     14.2677
   134.5000    104.3455     14.2124     14.0365
   134.0000    104.6689     13.9774     13.8649
   133.5000    104.6590     13.7975     13.7486
   133.0000    104.9700     13.6782     13.6606
   132.5000    105.1972     13.6167     13.5863
   132.0000    104.6186     13.5772     13.5264
   131.5000    103.9189     13.5266     13.4713
   131.0000    104.0621     13.4624     13.3916
   130.5000    107.1133     13.3967     13.2687
   130.0000    112.2966     13.3109     13.1167
   129.5000    113.5026     13.1780     12.9528
   129.0000    108.7468     13.0049     12.7728
   128.5000    104.3266     12.8255     12.5881
   128.0000    102.5560     12.6529     12.4252
   127.5000    100.2523     12.4826     12.2971
   127.0000     97.3120     12.3300     12.1957
   126.5000     95.6866     12.2110     12.1311
   126.0000     96.3781     12.1211     12.1179
   125.5000     99.6306     12.0556     12.1327
   125.0000    103.8956     12.0153     12.1344
   124.5000    106.6834     11.9696     12.0662
   124.0000    107.6246     11.8643     11.8926
   123.5000    107.5323     11.6745     11.6321
   123.0000    106.9223     11.4303     11.3286
   122.5000    105.8920     11.1902     11.0043
   122.0000    105.5925     10.9828     10.7027
   121.5000    106.3609     10.7749     10.4471
   121.0000    105.7071     10.4977     10.1564
   120.5000    104.7087     10.1010      9.6723
   120.0000    105.8856      9.5562      8.9126
   119.5000    106.7039      8.8766      7.9446
   119.0000    106.0588      8.1092      6.9635
   118.5000    108.9638      7.3443      6.1766
   118.0000    117.1283      6.6720      5.6797
   117.5000    126.8927      6.0993      5.4642
   117.0000    132.8488      5.5862      5.4427
   116.5000    129.4422      5.1798      5.5168
   116.0000    118.5904      5.0348      5.6582
   115.5000    110.5886      5.3024      5.9543
   115.0000    107.9117      6.0624      6.5589
   114.5000    105.1643      7.2579      7.5760
   114.0000    102.3121      8.6202      8.9261
   113.5000    101.7508      9.8040     10.2437
   113.0000    102.5832     10.6157     11.1220
   112.5000    102.4804     11.0315     11.4937
   112.0000    100.8591     10.9905     11.3137
   111.5000     99.8145     10.4374     10.4256
   111.0000    102.0273      9.3997      8.7759
   110.5000    106.1991      7.9919      6.8229
   110.0000    112.1936      6.4818      5.1401
   109.5000    119.6665      5.1703      3.9685
   109.0000    129.0036      4.1325      3.1770
   108.5000    139.3320      3.3323      2.6703
   108.0000    146.2119      2.7074      2.3237
   107.5000    148.0918      2.2468      2.0765
   107.0000    151.0223      1.9745      1.9273
   106.5000    154.6608      1.8753      1.8852
   106.0000    151.5619      1.9097      1.9547
   105.5000    140.2867      2.0474      2.1335
   105.0000    127.1449      2.2898      2.4047
   104.5000    116.8186      2.6751      2.7788
   104.0000    110.0619      3.2688      3.3032
   103.5000    105.5221      4.1405      4.0364
   103.0000    105.2586      5.2033      4.9248
   102.5000    109.2044      6.1446      5.8928
   102.0000    114.5638      6.7569      6.7171
   101.5000    117.5623      7.0780      7.2802
   101.0000    117.3799      7.2583      7.6229
   100.5000    115.0195      7.3736      7.8287
   100.0000    112.6696      7.4380      7.9431
    99.5000    112.4629      7.4749      7.9702
    99.0000    114.9011      7.5055      7.9155
    98.5000    119.1632      7.5128      7.7992
    98.0000    122.9238      7.4646      7.6307
