~Version Information
 VERS.                1.20:   CWLS log ASCII Standard -VERSION 1.20
 WRAP.                  NO:   One line per frame
~Well Information Block
#MNEM.UNIT       Data Type    Information
#---------    -------------   -------------------------------
 STRT.F          5623.7500:   Starting Depth
 STOP.F           -24.0000:   Ending Depth
 STEP.F            -0.5000:   Level Spacing
 NULL.           -999.2500:   Absent Value
 COMP.             COMPANY:   FLUOR DANIEL (NPOSR), INC.
 WELL.                WELL:   73 X 10
 FLD .               FIELD:   
 LOC .            LOCATION:   
 CNTY.              COUNTY:   
 STAT.               STATE:   
 SRVC.     SERVICE COMPANY:   
 LIC .      LICENSE NUMBER:   
 DATE.            LOG DATE:   
 API .          API NUMBER:   
~Curve Information Block
#MNEM.UNIT       API Codes    Curve Description
#---------    -------------   -------------------------------
 DEPT.F        0   1  0  1:   Depth
 GR  .API      0 310  1  1:   Gamma ray counts
 CAL .IN       0 280 99  1:   Caliper (for 4CAL: from C13 and/or C24)
 SP  .MV       0  10  1  1:   Spontaneous Potential
 TEN .LBF      0 635 99  1:   Differential Tension
 RS  .OHMM     0 220  9  1:   Logarithmic Resistivity from ES, IS
 RD  .OHMM     0 220 10  1:   Logarithmic Resistivity from ED, ID
 ZDEN.G/C3     0 350  1  1:   ZDL Bulk Density
 ZCOR.G/C3     0 356 99  1:   ZDL Correction
 CNC .PU       0 995 99  1:   Corrected Neutron Porosity from CN
#  Curve Data
~A   DEPT        GR          CAL         SP          TEN         RS          RD          ZDEN        ZCOR        CNC 
# ...
   732.7500     87.3661      1.7383     35.5051    -32.5710      7.7622     11.0884      2.1100      0.2645     50.0678
   732.2500     88.3107      1.7383     35.4676    -37.3543      7.7925     11.1199      2.1100      0.2628     49.4950
   731.7500     90.0518      1.7383     35.4152    -46.5796      7.8796     11.2586      2.1131      0.2589     48.9156
   731.2500     90.8324      1.7383     35.2847    -47.3125      7.9894     11.4474      2.1196      0.2558     48.6777
   730.7500     88.9999      1.7383     35.1694    -37.8679      8.0889     11.6192      2.1281      0.2547     48.7039
   730.2500     86.4506      1.7383     35.1672    -31.8624      8.1724     11.7615      2.1347      0.2564     48.9002
   729.7500     85.7751      1.7383     35.2041    -35.7970      8.2483     11.8890      2.1382      0.2594     49.0289
   729.2500     85.1826      1.7383     35.2094    -43.1111      8.3266     12.0286      2.1408      0.2613     49.0660
   728.7500     83.3042      1.7383     35.2226    -45.1549      8.4171     12.1995      2.1429      0.2637     49.2094
   728.2500     82.5907      1.7383     35.2619    -38.1543      8.5214     12.3894      2.1433      0.2669     49.1976
   727.7500     84.7163      1.7383     35.2686    -23.3895      8.6129     12.5626      2.1431      0.2671     48.6752
   727.2500     87.2845      1.7383     35.2183     -9.3592      8.6631     12.6802      2.1438      0.2628     47.8198
   726.7500     88.5643      1.7383     35.1584     -7.1730      8.6764     12.7346      2.1455      0.2589     47.3125
   726.2500     89.7587      1.7383     35.1557    -13.0040      8.6609     12.7400      2.1471      0.2605     47.7160
   725.7500     90.9524      1.7383     35.2807    -13.0281      8.6186     12.7120      2.1476      0.2665     48.7085
   725.2500     89.8754      1.7383     35.5147     -6.7012      8.5657     12.6608      2.1469      0.2717     49.3025
   724.7500     88.1824      1.7383     35.6820     -5.0596      8.5101     12.5903      2.1448      0.2737     49.1849
   724.2500     88.9103      1.7383     35.5928    -12.0759      8.4396     12.4986      2.1426      0.2731     48.9674
   723.7500     89.8950      1.7383     35.2042    -25.3232      8.3547     12.3940      2.1414      0.2726     48.7584
   723.2500     88.8304      1.7383     34.8388    -35.9549      8.2643     12.2836      2.1404      0.2721     48.3971
   722.7500     88.0948      1.7383     34.8018    -37.7059      8.1759     12.1657      2.1388      0.2709     48.9958
   722.2500     89.2340      1.7383     35.0274    -38.9339      8.1027     12.0590      2.1367      0.2708     49.5935
   721.7500     90.0423      1.7383     35.2879    -43.3792      8.0543     11.9804      2.1348      0.2731     50.1529
   721.2500     89.2379      1.7383     35.4895    -43.8672      8.0421     11.9380      2.1343      0.2724     50.2967
   720.7500     87.3307      1.7383     35.5791    -39.0601      8.0710     11.9469      2.1347      0.2662     49.9763
   720.2500     86.3637      1.7383     35.5710    -35.8741      8.1295     12.0240      2.1348      0.2615     49.4681
   719.7500     87.1514      1.7383     35.5301    -35.9321      8.1934     12.1280      2.1338      0.2635     49.0614
   719.2500     88.2831      1.7383     35.3838    -40.3271      8.2407     12.2001      2.1315      0.2665     48.7578
   718.7500     89.4584      1.7383     35.2254    -45.2620      8.2532     12.2202      2.1285      0.2666     48.2705
   718.2500     90.8842      1.7383     35.2417    -43.5909      8.2255     12.2023      2.1258      0.2632     47.4987
   717.7500     90.5400      1.7383     35.4074    -35.2232      8.1666     12.1593      2.1215      0.2565     47.0925
   717.2500     88.5988      1.7383     35.5000    -28.1460      8.0852     12.0869      2.1152      0.2538     47.4796
   716.7500     86.8365      1.7383     35.5128    -25.9271      7.9851     11.9511      2.1092      0.2601     47.5467
   716.2500     85.7820      1.7383     35.6179    -27.4177      7.8824     11.7498      2.1054      0.2667     47.1937
   715.7500     86.0042      1.7383     35.8233    -30.9120      7.8101     11.5655      2.1032      0.2664     46.9025
   715.2500     87.9331      1.7383     35.8764    -32.1985      7.7916     11.4838      2.1023      0.2670     46.6197
   714.7500     90.9795      1.7383     35.7459    -29.5655      7.8182     11.5008      2.1029      0.2710     46.3218
   714.2500     93.7460      1.7383     35.6677    -24.9719      7.8340     11.5258      2.1046      0.2706     46.2596
   713.7500     94.9959      1.7383     35.5808    -22.0103      7.7166     11.3763      2.1061      0.2609     46.4943
   713.2500     94.0308      1.7383     35.3398    -21.3662      7.3757     10.8840      2.1049      0.2476     46.7844
   712.7500     92.6851      1.7383     35.2240    -22.6151      6.8723     10.1038      2.1006      0.2425     47.4538
   712.2500     92.9151      1.7383     35.3925    -23.7687      6.3593      9.2793      2.0960      0.2490     48.9136
   711.7500     94.6085      1.7383     35.5519    -20.6397      5.9591      8.6222      2.0929      0.2577     50.6067
   711.2500     96.5815      1.7383     35.4944    -12.9500      5.7253      8.2195      2.0894      0.2617     51.6085
   710.7500     97.6501      1.7383     35.3614     -9.0466      5.6422      8.0419      2.0816      0.2637     51.7104
   710.2500     96.0191      1.7383     35.3481    -13.7628      5.6471      7.9965      2.0678      0.2623     51.5852
   709.7500     92.5979      1.7383     35.4901    -20.3438      5.6800      8.0091      2.0535      0.2555     51.9849
   709.2500     90.8495      1.7383     35.6609    -23.4573      5.7141      8.0522      2.0479      0.2498     52.9810
   708.7500     90.4615      1.7383     35.7758    -24.7831      5.7414      8.1012      2.0532      0.2483     54.0890
   708.2500     90.2107      1.7383     35.8334    -26.3178      5.7622      8.1333      2.0624      0.2461     54.6892
   707.7500     92.5003      1.7383     35.8393    -27.5970      5.7816      8.1538      2.0688      0.2428     54.5589
   707.2500     97.5331      1.7383     35.8069    -27.7114      5.8007      8.1784      2.0729      0.2464     54.5027
   706.7500    100.8524      1.7383     35.7600    -25.9134      5.8119      8.1985      2.0752      0.2547     55.2568
   706.2500     99.9324      1.7383     35.7358    -23.9727      5.8175      8.2174      2.0740      0.2572     56.2968
   705.7500     98.9966      1.7383     35.7549    -23.6180      5.8320      8.2667      2.0719      0.2543     56.9195
   705.2500    101.4412      1.7383     35.7861    -24.8203      5.8568      8.3456      2.0722      0.2550     57.4459
   704.7500    104.0163      1.7383     35.7648    -26.0629      5.8753      8.4034      2.0730      0.2605     57.9189
   704.2500    102.1135      1.7383     35.6869    -27.0669      5.8786      8.4163      2.0710      0.2621     58.0023
   703.7500     97.4788      1.7383     35.6228    -29.3706      5.8676      8.4111      2.0662      0.2556     58.2174
   703.2500     96.0584      1.7377     35.6180    -32.9980      5.8445      8.4032      2.0627      0.2477     58.5509
   702.7500     99.2894      1.7286     35.6562    -37.0267      5.8238      8.3894      2.0643      0.2461     58.7211
   702.2500    102.8557      1.7103     35.6164    -38.3461      5.8199      8.3797      2.0695      0.2477     59.0142
   701.7500    103.9219      1.7046     35.4563    -35.0811      5.8291      8.3883      2.0736      0.2465     59.6544
   701.2500    104.6167      1.7194     35.2604    -30.0947      5.8385      8.4175      2.0727      0.2448     59.9787
   700.7500    105.2665      1.7349     35.0335    -27.8749      5.8377      8.4507      2.0638      0.2454     59.6470
   700.2500    104.3248      1.7383     34.7850    -26.9257      5.8212      8.4608      2.0537      0.2425     59.1722
   699.7500    101.7210      1.7383     34.6592    -27.0611      5.7953      8.4413      2.0577      0.2372     59.0259
