~Version Information
 VERS.                1.20:   CWLS log ASCII Standard -VERSION 1.20
 WRAP.                  NO:   One line per frame
~Well Information Block
#MNEM.UNIT       Data Type    Information
#---------    -------------   -------------------------------
 STRT.F          5623.7500:   Starting Depth
 STOP.F           -24.0000:   Ending Depth
 STEP.F            -0.5000:   Level Spacing
 NULL.           -999.2500:   Absent Value
 COMP.             COMPANY:   FLUOR DANIEL (NPOSR), INC.
 WELL.                WELL:   73 X 10
 FLD .               FIELD:   
 LOC .            LOCATION:   
 CNTY.              COUNTY:   
 STAT.               STATE:   
 SRVC.     SERVICE COMPANY:   
 LIC .      LICENSE NUMBER:   
 DATE.            LOG DATE:   
 API .          API NUMBER:   
~Curve Information Block
#MNEM.UNIT       API Codes    Curve Description
#---------    -------------   -------------------------------
 DEPT.F        0   1  0  1:   Depth
 GR  .API      0 310  1  1:   Gamma ray counts
 CAL .IN       0 280 99  1:   Caliper (for 4CAL: from C13 and/or C24)
 SP  .MV       0  10  1  1:   Spontaneous Potential
 TEN .LBF      0 635 99  1:   Differential Tension
 RS  .OHMM     0 220  9  1:   Logarithmic Resistivity from ES, IS
 RD  .OHMM     0 220 10  1:   Logarithmic Resistivity from ED, ID
 ZDEN.G/C3     0 350  1  1:   ZDL Bulk Density
 ZCOR.G/C3     0 356 99  1:   ZDL Correction
 CNC .PU       0 995 99  1:   Corrected Neutron Porosity from CN
#  Curve Data
~A   DEPT        GR          CAL         SP          TEN         RS          RD          ZDEN        ZCOR        CNC 
# ...
  2608.7500     69.6355      9.5615     33.8798    -43.0508     19.0732     22.6272      2.4873      0.0596     16.6119
  2608.2500     72.4608      9.5587     33.8964    -44.0783     17.8920     21.0438      2.4703      0.0558     17.4416
  2607.7500     73.6101      9.5587     33.9657    -30.2395     17.6393     20.5807      2.4637      0.0469     17.8626
  2607.2500     74.5887      9.5587     34.1226    -19.9522     17.7597     20.5894      2.4604      0.0400     17.9149
  2606.7500     73.9820      9.5587     34.3540    -25.6868     17.8802     20.6388      2.4599      0.0384     17.9804
  2606.2500     71.9048      9.5587     34.6237    -48.0354     17.9227     20.6663      2.4623      0.0402     18.4936
  2605.7500     68.7676      9.5587     34.8981    -70.4074     17.8071     20.5653      2.4619      0.0366     19.1259
  2605.2500     63.2653      9.5587     35.1332    -74.6664     17.6195     20.3759      2.4525      0.0292     19.1371
  2604.7500     56.5723      9.5587     35.3114    -67.2254     17.5908     20.3566      2.4339      0.0279     18.7596
  2604.2500     52.7442      9.5587     35.4085    -63.8633     17.8709     20.7240      2.4146      0.0325     18.7165
  2603.7500     54.0788      9.5587     35.3766    -66.1246     18.5044     21.5702      2.4079      0.0338     19.0684
  2603.2500     58.8702      9.5587     35.2470    -71.4212     19.1999     22.5781      2.4174      0.0356     19.2809
  2602.7500     61.0193      9.5587     35.1243    -72.9042     19.3896     23.0131      2.4336      0.0411     18.9769
  2602.2500     58.0717      9.5587     35.1135    -68.7080     19.3676     23.0821      2.4416      0.0410     18.3408
  2601.7500     54.0425      9.5587     35.3554    -63.2960     20.3720     24.2881      2.4390      0.0362     17.7148
  2601.2500     51.5869      9.5587     35.8300    -58.6070     23.3822     28.0025      2.4425      0.0333     16.8852
  2600.7500     49.4550      9.5587     36.1209    -61.5856     28.2884     34.4461      2.4707      0.0265     15.3583
  2600.2500     47.7030      9.5587     35.9272    -66.3006     31.9704     40.1579      2.5183      0.0142     13.7695
  2599.7500     47.7484      9.5587     35.4867    -63.7828     30.0635     38.6897      2.5515      0.0174     13.2136
  2599.2500     49.8063      9.5587     35.1178    -56.4967     24.7998     31.7989      2.5414      0.0445     14.0485
  2598.7500     54.0476      9.5587     34.8054    -50.5291     20.6864     26.0527      2.5013      0.0716     15.6170
  2598.2500     60.7177      9.5587     34.4629    -41.7478     18.6667     23.1193      2.4692      0.0767     17.1249
  2597.7500     67.0092      9.5587     34.0755    -30.1444     18.0077     22.0179      2.4604      0.0673     18.0432
  2597.2500     70.0026      9.5587     33.6387    -26.6713     17.7859     21.5192      2.4617      0.0646     18.2110
  2596.7500     70.8996      9.5587     33.1822    -33.7022     17.5636     21.0777      2.4557      0.0645     18.1168
  2596.2500     71.2601      9.5587     32.8220    -43.4711     17.4374     20.8226      2.4442      0.0547     18.4108
  2595.7500     70.2656      9.5587     32.6012    -44.1915     17.4965     20.8369      2.4393      0.0424     19.0760
  2595.2500     67.7334      9.5587     32.4214    -33.3484     17.6084     20.9355      2.4415      0.0419     19.3444
  2594.7500     65.9711      9.5587     32.2256    -16.2684     17.5661     20.8861      2.4412      0.0508     19.2634
  2594.2500     66.2859      9.5587     32.0180     -4.2621     17.3142     20.6185      2.4359      0.0547     19.1413
  2593.7500     66.7921      9.5587     31.7628     -4.2813     17.1169     20.3886      2.4330      0.0491     19.0158
  2593.2500     66.6884      9.5587     31.5098    -13.3468     17.4401     20.7452      2.4380      0.0406     18.9705
  2592.7500     67.1775      9.5587     31.3610    -18.1512     18.4267     21.9398      2.4499      0.0372     18.7004
  2592.2500     66.9103      9.5587     31.2814     -9.8933     19.6076     23.4449      2.4672      0.0346     17.9044
  2591.7500     64.7646      9.5587     31.1062      3.7921     20.2574     24.2626      2.4843      0.0308     17.2960
  2591.2500     62.9855      9.5587     30.7652      4.6354     19.9762     23.7875      2.4875      0.0339     17.4595
  2590.7500     62.6255      9.5587     30.3526     -5.6706     18.9971     22.4167      2.4736      0.0444     17.8918
  2590.2500     63.0795      9.5587     30.0551    -10.9824     18.0643     21.2075      2.4574      0.0511     18.2311
  2589.7500     64.8138      9.5587     29.9627     -4.1114     17.7397     20.8328      2.4510      0.0477     18.5987
  2589.2500     65.1295      9.5587     30.0111      6.7249     18.1654     21.3716      2.4533      0.0417     18.7226
  2588.7500     62.5817      9.5587     30.0789     10.0857     19.5979     23.1008      2.4595      0.0399     17.5424
  2588.2500     59.4842      9.5587     30.1198      5.7700     22.5376     26.7661      2.4719      0.0375     16.5338
  2587.7500     57.9143      9.5587     30.1280      1.4847     26.9029     32.5674      2.4957      0.0297     15.1903
  2587.2500     58.1604      9.5587     30.0933      2.4900     30.6994     38.1441      2.5216      0.0289     14.3078
  2586.7500     61.3663      9.5587     30.0071     10.2629     30.6550     38.7117      2.5314      0.0428     14.9305
  2586.2500     66.7751      9.5587     29.8831     17.4045     26.6919     33.6134      2.5239      0.0564     16.4191
  2585.7500     70.8536      9.5587     29.7568     12.7408     22.1908     27.5136      2.5096      0.0580     17.7484
  2585.2500     71.0277      9.5587     29.6534     -0.2809     19.0738     23.1922      2.4924      0.0525     18.7538
  2584.7500     69.4140      9.5587     29.5335     -7.4935     17.2616     20.6219      2.4738      0.0518     19.6690
  2584.2500     69.2758      9.5587     29.3260     -5.2417     16.2858     19.1903      2.4559      0.0556     20.3403
  2583.7500     70.6136      9.5587     29.0595      0.3019     15.9152     18.5542      2.4422      0.0581     20.5265
  2583.2500     73.2565      9.5587     28.8460     -0.8064     16.0450     18.5490      2.4390      0.0579     20.4639
  2582.7500     77.9174      9.5587     28.6614     -6.1162     16.5009     18.9582      2.4480      0.0538     20.2469
  2582.2500     83.1239      9.5587     28.3345     -3.9037     17.0753     19.5548      2.4633      0.0428     19.7245
  2581.7500     84.8320      9.5587     27.8485      5.6541     17.5731     20.1267      2.4781      0.0364     18.9563
  2581.2500     82.9672      9.5587     27.3761     12.2278     17.8104     20.4356      2.4867      0.0441     18.2942
  2580.7500     81.2893      9.5587     26.9887      7.6723     17.7423     20.3918      2.4847      0.0537     17.9587
  2580.2500     82.5775      9.5587     26.6626     -5.2890     17.5195     20.1613      2.4764      0.0544     17.7977
  2579.7500     85.7149      9.5587     26.4551    -12.5386     17.2535     19.8663      2.4712      0.0476     17.7713
  2579.2500     88.2873      9.5587     26.3582     -6.4096     17.0271     19.5818      2.4750      0.0380     17.9074
  2578.7500     88.7828      9.5587     26.2585      9.2095     17.0626     19.5744      2.4861      0.0302     17.9399
  2578.2500     86.8457      9.5587     26.1187     23.2145     17.4540     20.0097      2.4968      0.0274     17.5394
  2577.7500     84.8189      9.5587     26.0032     20.6909     17.9467     20.6054      2.4999      0.0266     16.8736
  2577.2500     85.5022      9.5587     25.9620      8.6760     18.1833     20.8406      2.4979      0.0277     16.5255
  2576.7500     88.1489      9.5587     25.9979      6.5959     18.0095     20.4501      2.4969      0.0301     16.8207
  2576.2500     88.9906      9.5587     26.1018     11.0404     17.5746     19.6813      2.4984      0.0322     17.3197
  2575.7500     86.6937      9.5587     26.2081     14.5400     17.3590     19.1842      2.5022      0.0359     17.3810
