~Version Information
 VERS.                1.20:   CWLS log ASCII Standard -VERSION 1.20
 WRAP.                  NO:   One line per frame
~Well Information Block
#MNEM.UNIT       Data Type    Information
#---------    -------------   -------------------------------
 STRT.F          5629.5000:   Starting Depth
 STOP.F          5293.7500:   Ending Depth
 STEP.F            -0.5000:   Level Spacing
 NULL.           -999.2500:   Absent Value
 COMP.             COMPANY:   FLUOR DANIEL (NPOSR), INC.
 WELL.                WELL:   73 X 10
 FLD .               FIELD:   
 LOC .            LOCATION:   
 CNTY.              COUNTY:   
 STAT.               STATE:   
 SRVC.     SERVICE COMPANY:   
 LIC .      LICENSE NUMBER:   
 DATE.            LOG DATE:   
 API .          API NUMBER:   
~Curve Information Block
#MNEM.UNIT       API Codes    Curve Description
#---------    -------------   -------------------------------
 DEPT.F        0   1  0  1:   Depth
 P2HS.DEG      0 134  9  1:   Phase Difference, 200 MHz
 P4HS.DEG      0 134  9  1:   Phase Difference, 47 MHz
 GR  .API      0 310  1  1:   Gamma ray counts
 TEN .LBF      0 635 99  1:   Differential Tension
 D2EC.DIM      0 132 99  1:   Dielectric Constant, 200 MHz
 D4EC.DIM      0 132 99  1:   Dielectric Constant, 47 MHz
 R2SL.OHMM     0 995 99  1:   Logarithnic Resistivity (200 MHz tool)
 R4SL.OHMM     0 995 99  1:   Logarithmic Resistivity (47 MHz tool)
#  Curve Data
~A   DEPT        P2HS        P4HS        GR          TEN         D2EC        D4EC        R2SL        R4SL
# ...
  5517.0000     48.5914     29.6135     15.2037     35.9632      6.5825      4.4442     24.5171     35.5497
  5516.5000     51.6964     36.6921     14.3883     37.9249      7.4421      9.5635     21.4923     34.3837
  5516.0000     52.5138     44.2383     13.5218     42.8226      7.6314     15.4821     19.9989     34.8275
  5515.5000     50.6593     48.4460     12.7756     49.4323      7.0208     17.4796     20.1101     25.5101
  5515.0000     49.3154     46.4936     12.4008     53.3030      6.6331     14.4746     20.8839     21.7813
  5514.5000     50.2243     40.8573     12.6128     52.5164      6.9607     11.2514     21.4886     26.9975
  5514.0000     51.8580     38.2491     13.0354     52.4170      7.4832     11.8328     21.2527     43.9617
  5513.5000     52.2686     40.2160     13.4490     56.3680      7.5664     14.2766     20.2884     73.0856
  5513.0000     51.2180     42.0262     13.5692     54.6761      7.1872     15.7247     19.8325     90.5319
  5512.5000     49.4243     40.6711     13.4280     39.3990      6.6579     14.8155     20.7189     92.4698
  5512.0000     48.2679     38.9333     13.6662     20.6827      6.3652     13.7298     21.9955    100.2794
  5511.5000     48.8396     39.8014     14.4316      6.0677      6.4963     14.4151     21.1346    122.4706
  5511.0000     51.3331     40.9605     15.0863     -2.3906      7.0900     15.3034     18.0505    172.9723
  5510.5000     54.0991     39.4266     15.3891      0.9589      7.7897     14.4008     15.5168    289.9160
  5510.0000     55.5032     36.4355     15.3635      9.7554      8.3022     12.6167     15.5543    501.1653
  5509.5000     55.9020     34.8839     15.2216     10.3904      8.6132     11.7337     17.2238    634.9504
  5509.0000     56.7166     35.1229     15.2059     12.2464      9.0130     11.8719     18.6535    668.5496
  5508.5000     58.4569     35.5123     15.3746     26.6180      9.6152     12.1134     18.1417   1198.5010
  5508.0000     60.0630     35.6682     15.7902     37.8670     10.1160     12.2238     16.7323 -13144.0977
  5507.5000     60.8422     37.1604     16.3273     36.5283     10.2992     13.0939     15.4242   5670.5078
  5507.0000     61.2412     40.3532     16.0613     35.4755     10.2903     15.0412     13.9833    509.3186
  5506.5000     61.9008     42.7458     14.7997     39.0738     10.3771     16.5891     12.7949    275.7151
  5506.0000     62.2439     42.4288     13.9036     36.7742     10.4362     16.3815     12.3408    300.3596
  5505.5000     61.8488     40.6584     14.0811     30.3622     10.2120     15.2374     12.0199    488.4856
  5505.0000     60.7784     38.6129     14.5363     26.7390      9.7164     13.9433     11.7472    582.1389
  5504.5000     60.4462     36.1073     14.7818     23.9212      9.6795     12.4153     12.2012    443.6213
  5504.0000     61.2654     32.4837     14.7791     22.8308     10.1815     10.3995     13.1641    491.8579
  5503.5000     61.8936     27.2993     13.9258     32.2354     10.5311      7.9065     13.8402   2133.9702
  5503.0000     61.6713     21.7900     12.9504     44.0365     10.4261      5.7074     13.7208   -604.8452
  5502.5000     60.9929     21.2884     13.4836     41.5712     10.1139      5.5406     13.4313   -413.5173
  5502.0000     59.8249     28.6932     15.1666     25.2906      9.6627      8.6134     13.4989   -478.7871
  5501.5000     58.4664     38.6126     15.9761     11.7800      9.1557     14.0017     13.6396   -568.0955
  5501.0000     57.9243     44.3528     15.9961      9.1457      8.9542     17.7993     13.6848   -622.3450
  5500.5000     58.2767     47.0276     16.1976     10.9809      9.1447     19.5007     14.0530    120.4912
  5500.0000     58.7589     50.5606     16.3707     10.1602      9.3944     20.1899     14.5329     29.8650
  5499.5000     58.7359     52.7156     16.3674      5.2902      9.3650     19.3109     14.3743     19.0286
  5499.0000     58.0220     49.6335     16.6690     -1.3130      8.9758     14.7431     13.5849     16.8530
  5498.5000     56.9600     43.1802     16.7828     -5.8157      8.4760      8.6133     13.0548     17.6787
  5498.0000     56.2086     38.1004     16.5005     -4.1794      8.2132      5.9812     13.1837     20.9433
  5497.5000     55.4496     36.5351     16.0499     -2.5666      8.0519      7.3651     13.8929     26.4142
  5497.0000     53.7146     38.2667     15.6544     -0.0512      7.6047     10.2653     15.1538     31.6552
  5496.5000     52.3207     41.5748     15.4933      4.6650      7.2736     13.1343     16.4766     33.1309
  5496.0000     53.2747     44.5977     15.7513      7.9141      7.7646     15.1902     18.1859     30.6652
  5495.5000     55.2583     47.2046     16.0051      9.8210      8.6331     16.6029     21.1306     26.4884
  5495.0000     55.4936     50.5075     15.8139     13.2263      8.7589     18.4361     22.1352     22.1985
  5494.5000     54.3147     56.3354     14.9669     15.6334      8.1809     22.4719     18.9432     17.8468
  5494.0000     53.8401     62.0968     13.6855     16.3748      7.7389     26.7220     15.8647     14.4882
  5493.5000     54.1991     61.1584     13.6285     15.0868      7.6984     23.8611     14.5789     12.7367
  5493.0000     53.9533     54.1453     16.6358      8.8380      7.6075     13.9173     14.5688     11.9218
  5492.5000     52.7318     48.0835     22.6888      4.0181      7.3156      5.8451     15.6191     11.8631
  5492.0000     51.9527     44.6153     30.7045      5.3579      7.2472      5.3428     17.4614     13.8159
  5491.5000     52.3229     41.9185     37.2204      8.3866      7.5830      8.5438     20.2613     19.1790
  5491.0000     52.8672     40.9460     37.6499     10.4231      7.9159     11.2829     23.4441     26.8465
  5490.5000     52.4118     40.5591     32.5862     11.3603      7.7892     12.5494     24.1056     34.5571
  5490.0000     51.2515     37.9639     27.7938     10.5923      7.3575     11.4378     22.7922     41.7224
  5489.5000     50.3551     34.2050     26.6042      6.5401      7.0732      9.5262     22.9226     50.2484
  5489.0000     50.1545     32.4812     27.8276     -0.8336      7.1011      9.1144     25.3155     63.9633
  5488.5000     51.0500     33.2623     28.9176     -6.8186      7.4546      9.9875     27.7471     79.4514
  5488.0000     52.8031     34.8417     28.9432     -4.7424      8.0246     10.9278     27.9046     79.1794
  5487.5000     53.7829     36.8163     28.5440      0.6390      8.3083     11.6674     26.2226     59.0864
  5487.0000     53.3532     39.7251     28.0257      5.5281      8.0732     12.6374     23.3074     40.8690
  5486.5000     53.0333     42.9155     26.3064      7.7995      7.8409     13.8775     20.5810     31.0838
  5486.0000     53.8107     45.7579     24.2001      7.3822      8.0221     15.2903     19.1824     26.3267
  5485.5000     54.8459     48.0992     23.8735      6.3492      8.3255     16.5700     18.3517     23.4008
  5485.0000     55.0583     48.7566     24.9999      6.2714      8.3085     16.2592     17.1982     20.9119
  5484.5000     54.3806     47.1502     25.1510      1.7565      8.0359     13.5072     16.8543     18.7150
  5484.0000     53.7549     44.2660     23.6413     -8.5113      7.9344      9.7060     18.2287     17.6139
  5483.5000     54.0845     40.8402     22.1752    -13.7201      8.2048      6.9524     20.6826     18.5925
  5483.0000     55.1289     37.9298     21.8292    -13.2333      8.6434      6.2298     22.4098     21.5625
  5482.5000     56.3179     37.0325     22.0518    -12.7975      9.0287      7.3808     21.6723     25.3647
  5482.0000     57.4954     37.9429     22.3342    -13.4779      9.3390      9.5032     19.3881     29.4661
  5481.5000     58.5950     39.2536     22.8223    -13.5597      9.6200     11.3902     17.4790     33.5853
  5481.0000     59.1780     40.4810     23.3861    -15.1048      9.7388     12.7056     16.2519     36.1846
  5480.5000     59.3164     41.6996     23.6156    -17.6418      9.6457     13.6778     14.8377     36.4910
  5480.0000     59.6654     42.7668     23.1356    -19.7118      9.5433     14.4102     13.1459     35.6445
