~Version Information
 VERS.                1.20:   CWLS log ASCII Standard -VERSION 1.20
 WRAP.                  NO:   One line per frame
~Well Information Block
#MNEM.UNIT       Data Type    Information
#---------    -------------   -------------------------------
 STRT.F          5629.5000:   Starting Depth
 STOP.F          5293.7500:   Ending Depth
 STEP.F            -0.5000:   Level Spacing
 NULL.           -999.2500:   Absent Value
 COMP.             COMPANY:   FLUOR DANIEL (NPOSR), INC.
 WELL.                WELL:   73 X 10
 FLD .               FIELD:   
 LOC .            LOCATION:   
 CNTY.              COUNTY:   
 STAT.               STATE:   
 SRVC.     SERVICE COMPANY:   
 LIC .      LICENSE NUMBER:   
 DATE.            LOG DATE:   
 API .          API NUMBER:   
~Curve Information Block
#MNEM.UNIT       API Codes    Curve Description
#---------    -------------   -------------------------------
 DEPT.F        0   1  0  1:   Depth
 P2HS.DEG      0 134  9  1:   Phase Difference, 200 MHz
 P4HS.DEG      0 134  9  1:   Phase Difference, 47 MHz
 GR  .API      0 310  1  1:   Gamma ray counts
 TEN .LBF      0 635 99  1:   Differential Tension
 D2EC.DIM      0 132 99  1:   Dielectric Constant, 200 MHz
 D4EC.DIM      0 132 99  1:   Dielectric Constant, 47 MHz
 R2SL.OHMM     0 995 99  1:   Logarithnic Resistivity (200 MHz tool)
 R4SL.OHMM     0 995 99  1:   Logarithmic Resistivity (47 MHz tool)
#  Curve Data
~A   DEPT        P2HS        P4HS        GR          TEN         D2EC        D4EC        R2SL        R4SL
  5629.5000      0.0000      0.0000      0.0000   -250.0000      0.0000      0.0000      2.0000      2.0000
  5629.0000      0.0000      0.0000      0.0000   -250.0000      0.0000      0.0000      2.0000      2.0000
  5628.5000      0.0000      0.0000      0.0000   -250.0000      0.0000      0.0000      2.0000      2.0000
  5628.0000      0.0000      0.0000      0.0000   -250.0000      0.0000      0.0000      2.0000      2.0000
  5627.5000      0.0000      0.0000      0.0000   -250.0000      0.0000      0.0000      2.0000      2.0000
  5627.0000      0.0000      0.0000      0.0000   -250.0000      0.0000      0.0000      2.0000      2.0000
  5626.5000      0.0000      0.0000      0.0000   -250.0000      0.0000      0.0000      2.0000      2.0000
  5626.0000      0.0000      0.0000      0.0000   -250.0000      0.0000      0.0000      2.0000      2.0000
  5625.5000      0.0000      0.0000      0.0000   -250.0000      0.0000      0.0000      2.0000      2.0000
  5625.0000      0.0000      0.0000      0.0000   -250.0000      0.0000      0.0000      2.0000      2.0000
  5624.5000      0.0000      0.0000      0.0000   -250.0000      0.0000      0.0000      2.0000      2.0000
  5624.0000      0.0000      0.0000      0.0000   -250.0000      0.0000      0.0000      2.0000      2.0000
  5623.5000      0.0000      0.0000      0.0000   -250.0000      0.0000      0.0000      2.0000      2.0000
  5623.0000      0.0000      0.0000      0.0000   -250.0000      0.0000      0.0000      2.0000      2.0000
  5622.5000      0.0000      0.0000      0.0000   -250.0000      0.0000      0.0000      2.0000      2.0000
  5622.0000      0.0000      0.0000      0.0000   -112.8964      0.0000      0.0000      2.0000      2.0000
  5621.5000      0.0000      0.0000      0.0000   -107.3170      0.0000      0.0000      2.0000      2.0000
  5621.0000      0.0000     44.7988      0.0000    -97.4572      0.0000     17.6686      2.0000     86.7330
  5620.5000      0.0000     44.7746      0.0000    -85.7648      0.0000     17.6511      2.0000     86.7687
  5620.0000      0.0000     44.7483      0.0000    -78.1642      0.0000     17.6387      2.0000     87.5969
  5619.5000      0.0000     44.7648      0.0000    -79.3326      0.0000     17.6529      2.0000     87.8583
  5619.0000      0.0000     44.7841      0.0000    -83.7926      0.0000     17.6655      2.0000     87.6626
  5618.5000      0.0000     44.7327      0.0000    -84.3941      0.0000     17.6303      2.0000     87.9652
  5618.0000      0.0000     44.6620      0.0000    -82.8185      0.0000     17.5845      2.0000     88.6961
  5617.5000      0.0000     44.6716      0.0000    -82.6495      0.0000     17.5934      2.0000     88.9381
  5617.0000      0.0000     44.7613      0.0000    -82.3838      0.0000     17.6565      2.0000     88.6244
  5616.5000      0.0000     44.7915      0.0000    -78.9139      0.0000     17.6793      2.0000     88.7065
  5616.0000      0.0000     44.7233      0.0000    -74.9455      0.0000     17.6369      2.0000     89.6687
  5615.5000      0.0000     44.6680      0.0000    -75.3774      0.0000     17.6012      2.0000     90.2855
  5615.0000      0.0000     44.6956      0.0000    -78.5896      0.0000     17.6166      2.0000     89.6689
  5614.5000      0.0000     44.7361      0.0000    -78.3490      0.0000     17.6401      2.0000     88.8812
  5614.0000      0.0000     44.7381      0.0000    -71.4389      0.0000     17.6447      2.0000     89.2778
  5613.5000      0.0000     44.7419      0.0000    -64.2007      0.0000     17.6520      2.0000     89.8659
  5613.0000      0.0000     44.7928      0.0000    -64.0790      0.0000     17.6850      2.0000     89.3183
  5612.5000      0.0000     44.8569      0.0000    -65.2194      0.0000     17.7271      2.0000     88.7045
  5612.0000     62.2939     44.8301      0.0000    -60.5309      7.4043     17.7126      6.4475     89.3537
  5611.5000     62.2845     44.7169      0.0000    -55.6832      7.3958     17.6355      6.4446     90.1017
  5611.0000     62.3024     44.6906      0.0000    -51.4633      7.3975     17.6136      6.4390     89.7547
  5610.5000     62.3416     44.8036      0.0000    -39.2846      7.4073     17.6927      6.4313     89.2967
  5610.0000     62.3647     44.9157      0.0000    -19.5572      7.4117     17.7782      6.4256     89.7272
  5609.5000     62.3699     44.9362      0.0000      8.2832      7.4100     17.8005      6.4224     90.7144
  5609.0000     62.3699     44.8907      0.0000     51.8012      7.4062     17.7739      6.4195     91.6458
  5608.5000     62.3699     44.8174      0.0000    111.1639      7.4023     17.7216      6.4165     91.8323
  5608.0000     62.3699     44.7711      0.0000    177.8766      7.3995     17.6800      6.4144     90.7611
  5607.5000     62.3699     44.8036      0.0000    240.9545      7.3981     17.6936      6.4133     89.4050
  5607.0000     62.3699     44.8638      0.0000    298.5110      7.3967     17.7343      6.4123     88.9736
  5606.5000     62.3699     44.8532      0.0000    359.8425      7.3941     17.7306      6.4103     89.5016
  5606.0000     62.3699     44.9467      0.0000    429.8752      7.3914     17.8000      6.4082     89.6152
  5605.5000     62.3751     46.4904      0.0000    502.0586      7.3919     18.9211      6.4066     85.8403
  5605.0000     62.3920     49.0534      0.0000    572.2229      7.3972     20.8414      6.4042     77.8098
  5604.5000     62.4026     48.4400      0.0000    623.9192      7.3994     20.1321      6.4017     61.4957
  5604.0000     62.3920     45.8664     17.3951    630.8369      7.3936     17.4593      6.4015     42.9440
  5603.5000     62.3751     49.5175     16.1170    606.5142      7.3867     19.2654      6.4027     29.8545
  5603.0000     62.3699     57.6603     15.3042    590.0752      7.3838     25.7922      6.4025     23.5086
  5602.5000     62.3709     58.6628     15.4763    592.5044      7.3818     25.9568      6.4006     20.3270
  5602.0000     62.3827     50.8161     15.8289    600.2859      7.3839     16.1374      6.3977     17.0373
  5601.5000     62.3944     43.7153     15.7226    604.7246      7.3876      6.9173      6.3960     15.5702
  5601.0000     62.3775     43.3437     15.6575    600.0339      7.3818      7.9260      6.3981     16.7944
  5600.5000     62.3500     47.0373     15.8105    589.3796      7.3728     15.1901      6.4018     22.2874
  5600.0000     62.3489     49.3605     15.9785    584.5703      7.3732     19.4605      6.4026     32.3661
  5599.5000     62.3647     47.7857     16.1373    582.1995      7.3778     18.6146      6.4000     37.2921
  5599.0000     62.3699     44.9034     16.2249    570.5769      7.3786     15.9322      6.3986     34.1012
  5598.5000     62.3699     45.6116     16.1069    555.4436      7.3796     16.1013      6.3994     31.0771
  5598.0000     62.3637     50.8993     15.9603    548.7217      7.3795     20.6129      6.4017     30.7641
  5597.5000     62.2049     56.2668     16.1456    547.4692      7.3225     25.5881      6.4196     31.1379
  5597.0000     61.8307     58.0344     16.6526    543.0200      7.1865     26.9581      6.4605     28.1827
  5596.5000     62.3159     57.4467     16.8298    536.5803      7.3920     25.6887      6.4296     24.0212
  5596.0000     64.1476     56.2068     16.4339    533.0371      8.3380     24.1441      6.4424     22.7084
  5595.5000     65.4688     54.6919     15.8560    525.6431      9.4722     23.0174      6.8748     24.2119
  5595.0000     64.5089     52.7721     15.3814    509.3586      9.7145     21.5285      7.7240     25.8227
  5594.5000     62.2526     50.1947     14.8895    499.0774      9.2645     19.3904      8.6739     27.0271
  5594.0000     60.2086     46.9293     14.7795    496.8875      8.8736     17.0520      9.7499     30.0468
  5593.5000     59.0148     43.7510     15.5074    480.3564      8.8192     15.3108     11.0450     36.8000
  5593.0000     59.2369     41.7065     16.5361    447.9917      9.1644     14.6118     12.0581     48.6761
  5592.5000     60.4103     40.8335     16.4440    425.7317      9.7623     14.5173     12.7073     63.9020
