~Version Information
 VERS.                1.20:   CWLS log ASCII Standard -VERSION 1.20
 WRAP.                  NO:   One line per frame
~Well Information Block
#MNEM.UNIT       Data Type    Information
#---------    -------------   -------------------------------
 STRT.F          5629.5000:   Starting Depth
 STOP.F          5293.7500:   Ending Depth
 STEP.F            -0.5000:   Level Spacing
 NULL.           -999.2500:   Absent Value
 COMP.             COMPANY:   FLUOR DANIEL (NPOSR), INC.
 WELL.                WELL:   73 X 10
 FLD .               FIELD:   
 LOC .            LOCATION:   
 CNTY.              COUNTY:   
 STAT.               STATE:   
 SRVC.     SERVICE COMPANY:   
 LIC .      LICENSE NUMBER:   
 DATE.            LOG DATE:   
 API .          API NUMBER:   
~Curve Information Block
#MNEM.UNIT       API Codes    Curve Description
#---------    -------------   -------------------------------
 DEPT.F        0   1  0  1:   Depth
 P2HS.DEG      0 134  9  1:   Phase Difference, 200 MHz
 P4HS.DEG      0 134  9  1:   Phase Difference, 47 MHz
 GR  .API      0 310  1  1:   Gamma ray counts
 TEN .LBF      0 635 99  1:   Differential Tension
 D2EC.DIM      0 132 99  1:   Dielectric Constant, 200 MHz
 D4EC.DIM      0 132 99  1:   Dielectric Constant, 47 MHz
 R2SL.OHMM     0 995 99  1:   Logarithnic Resistivity (200 MHz tool)
 R4SL.OHMM     0 995 99  1:   Logarithmic Resistivity (47 MHz tool)
#  Curve Data
~A   DEPT        P2HS        P4HS        GR          TEN         D2EC        D4EC        R2SL        R4SL
# ...
  5442.0000     54.2071     34.6527     13.1509     25.1744      8.7217      7.0786     59.9975     30.3549
  5441.5000     55.3560     26.2872     12.1298     17.5790      9.0975      2.3369     58.4835     37.5486
  5441.0000     55.6838     26.5954     12.4527     11.7446      9.1934      4.2013     53.0457     46.4486
  5440.5000     55.1625     31.0645     14.7395      6.1503      8.9814      8.4245     43.6566     68.3810
  5440.0000     55.1165     32.1812     18.7827     -4.5762      8.9249      9.6918     37.5446    103.5838
  5439.5000     55.6316     30.7820     22.1659    -12.4538      9.0755      8.7799     35.0530     92.0338
  5439.0000     56.3946     30.4263     22.8180    -11.2530      9.3274      8.1418     34.2297     71.1419
  5438.5000     56.7695     30.7106     22.4447     -5.6770      9.4711      8.0065     35.7018     62.7574
  5438.0000     55.9268     30.7850     22.9692     -0.0674      9.2032      7.8114     38.1364     57.7449
  5437.5000     53.9217     31.0019     22.9396      3.3004      8.5527      7.6896     40.6713     53.4620
  5437.0000     51.7926     31.9751     21.8318      4.6845      7.9110      8.1846     48.0199     51.7050
  5436.5000     51.0817     34.1635     21.2596      2.9823      7.7461      9.4856     68.2477     50.0468
  5436.0000     51.9924     37.0531     21.6467      3.4148      8.0627     11.0855    112.4288     45.1501
  5435.5000     53.1915     39.8166     22.5681     13.6207      8.4505     12.3791    161.9602     37.6648
  5435.0000     53.5429     43.1689     24.0988     22.0000      8.5600     13.9768    141.3175     30.4756
  5434.5000     53.0163     47.8237     25.6666     14.2042      8.3723     16.8914     87.0981     25.4018
  5434.0000     52.4473     50.9930     26.4653     -1.6842      8.1199     19.0932     48.5052     22.7964
  5433.5000     52.5095     49.3236     25.8907    -11.3030      7.9864     16.8526     30.8718     21.0190
  5433.0000     52.6962     44.9590     24.6786    -11.7333      7.9724     11.4220     27.1683     18.9029
  5432.5000     52.3362     41.8071     23.8681     -7.3438      7.9702      7.3703     33.5557     17.9180
  5432.0000     51.4212     39.6122     23.3853     -4.0660      7.8003      6.9170     49.2453     20.1322
  5431.5000     49.8041     37.9203     22.9419     -4.1895      7.3686      8.2696     75.4981     25.6317
  5431.0000     47.5585     38.1088     23.0865     -5.9310      6.7374     10.3710    108.6242     32.8303
  5430.5000     45.5126     39.6279     23.2792     -8.1932      6.1687     12.6870    115.0802     42.2643
  5430.0000     44.3226     40.3718     22.7577     -5.4580      5.8325     13.7881     91.3654     51.5436
  5429.5000     43.8768     39.4764     22.1726      1.2057      5.6844     13.2054     69.9801     52.5801
  5429.0000     43.5757     38.3746     22.4722      1.8794      5.5743     12.2982     58.8029     49.6928
  5428.5000     43.1965     38.5104     22.7183     -0.8717      5.4539     12.4526     53.8323     50.8331
  5428.0000     43.0815     38.9760     22.0083      2.2704      5.3983     13.0625     49.1312     57.7253
  5427.5000     43.3838     38.3270     21.4945      6.1567      5.4443     12.8393     44.3018     64.8564
  5427.0000     43.6364     37.1512     22.0055      3.9006      5.5066     12.0900     43.6488     65.7103
  5426.5000     43.5328     36.2106     22.5419     -1.3261      5.5128     11.5565     48.2485     68.4792
  5426.0000     43.4382     35.2008     22.3229     -1.4616      5.5172     11.1742     53.6777     80.8331
  5425.5000     43.7255     34.4669     21.9241      4.0641      5.6073     10.9533     56.9340     98.2713
  5425.0000     44.1425     34.9734     21.9513     10.5445      5.7346     11.3519     61.6237    110.4547
  5424.5000     44.4922     36.7742     21.6739     13.4700      5.8482     12.4750     69.6174    117.0374
  5424.0000     44.9682     38.8532     20.7893     13.6667      5.9936     13.7659     79.8372    114.6335
  5423.5000     45.4246     40.0278     20.2021      9.4834      6.1272     14.4187     88.0666     96.5567
  5423.0000     45.3179     39.7167     20.2041      2.8106      6.0951     13.9740     85.1682     75.1784
  5422.5000     44.7161     38.3985     20.1550      0.2501      5.9184     12.8895     75.0280     64.9662
  5422.0000     44.1038     37.0279     19.8265      4.2660      5.7449     12.0827     70.0207     68.6370
  5421.5000     43.6533     36.1391     19.7137      8.7986      5.6235     11.8318     69.1831     86.5426
  5421.0000     43.2508     35.6936     20.1252      9.7771      5.5115     11.7971     66.5961    112.9982
  5420.5000     42.8511     35.5440     20.8450      9.8106      5.3950     11.8104     62.2364    133.6320
  5420.0000     42.7556     35.5468     20.9767      7.9632      5.3551     11.8712     57.8469    151.2899
  5419.5000     43.0226     35.5262     20.9477      3.9494      5.4120     11.9222     54.7091    179.1252
  5419.0000     43.5794     35.3435     21.0130      3.4020      5.5487     11.8677     52.4142    215.5824
  5418.5000     44.9767     35.1649     20.9612     10.2090      5.9159     11.7840     50.2699    234.9841
  5418.0000     47.7463     35.3408     20.8999     17.1236      6.6881     11.8702     48.1489    219.3140
  5417.5000     51.0946     36.1976     21.1894     13.7009      7.6680     12.3298     43.3908    186.1198
  5417.0000     53.5607     38.0114     22.0937      3.2839      8.3694     13.3797     33.6835    157.6924
  5416.5000     53.6745     40.2321     23.7251     -3.4840      8.2257     14.7651     24.6074    143.5975
  5416.0000     51.0680     41.1097     25.5405     -6.0485      7.1376     15.3406     19.8351    141.3840
  5415.5000     47.3722     39.5810     26.6694     -9.8362      5.8360     14.3488     18.5835    146.5428
  5415.0000     44.8677     37.1267     27.0689    -17.2081      5.1992     12.8466     20.2561    163.1041
  5414.5000     44.1622     35.9809     27.7111    -24.7111      5.2553     12.2093     24.5520    191.2875
  5414.0000     44.3363     36.3801     29.2360    -30.0706      5.4911     12.4687     29.8624    208.6819
  5413.5000     44.6770     36.9936     30.3963    -37.5543      5.6467     12.8221     32.4904    196.7579
  5413.0000     45.4074     36.9610     29.5330    -47.2369      5.8472     12.7738     32.1584    177.7005
  5412.5000     46.7563     36.5787     26.8959    -49.5808      6.2273     12.5333     31.6522    172.1686
  5412.0000     48.2532     36.5236     24.0536    -39.1840      6.6671     12.5225     31.4183    185.0239
  5411.5000     48.9122     37.1345     21.9797    -26.8793      6.8522     12.9225     30.6643    209.4468
  5411.0000     48.2454     38.2839     20.8048    -22.3983      6.6272     13.6284     29.5912    209.6404
  5410.5000     46.6998     39.5817     20.4431    -22.9891      6.1632     14.4063     29.4721    175.4180
  5410.0000     45.0495     40.5559     20.8005    -19.1638      5.7319     14.9785     31.5117    143.7249
  5409.5000     43.3864     40.5780     21.2394    -11.5711      5.3578     14.9430     36.4703    126.9573
  5409.0000     41.9709     39.2282     21.3366     -4.5588      5.0591     14.0416     43.0044    122.1155
  5408.5000     41.9007     36.9375     21.2128      2.3946      5.0888     12.6379     49.0035    130.8267
  5408.0000     44.2400     34.9986     21.0765      6.7393      5.7296     11.5576     53.1911    153.7628
  5407.5000     48.4741     34.8987     21.5747      3.9711      6.9203     11.5220     52.3123    162.3676
  5407.0000     52.4984     37.4113     22.4144     -4.4759      8.0975     12.9194     41.4313    128.3340
  5406.5000     54.7333     41.2708     22.5229    -13.0192      8.6643     15.2195     27.7837     92.2006
  5406.0000     55.2174     43.9008     22.0600    -18.0655      8.5505     16.8819     19.8137     74.3413
  5405.5000     55.0368     44.0834     22.2523    -20.9578      8.2359     16.9395     16.5038     69.2526
  5405.0000     54.9683     42.3551     23.2099    -21.7715      8.0967     15.7299     15.4620     71.3412
