~Version Information
 VERS.                1.20:   CWLS log ASCII Standard -VERSION 1.20
 WRAP.                  NO:   One line per frame
~Well Information Block
#MNEM.UNIT       Data Type    Information
#---------    -------------   -------------------------------
 STRT.F          5623.7500:   Starting Depth
 STOP.F           -24.0000:   Ending Depth
 STEP.F            -0.5000:   Level Spacing
 NULL.           -999.2500:   Absent Value
 COMP.             COMPANY:   FLUOR DANIEL (NPOSR), INC.
 WELL.                WELL:   73 X 10
 FLD .               FIELD:   
 LOC .            LOCATION:   
 CNTY.              COUNTY:   
 STAT.               STATE:   
 SRVC.     SERVICE COMPANY:   
 LIC .      LICENSE NUMBER:   
 DATE.            LOG DATE:   
 API .          API NUMBER:   
~Curve Information Block
#MNEM.UNIT       API Codes    Curve Description
#---------    -------------   -------------------------------
 DEPT.F        0   1  0  1:   Depth
 GR  .API      0 310  1  1:   Gamma ray counts
 CAL .IN       0 280 99  1:   Caliper (for 4CAL: from C13 and/or C24)
 SP  .MV       0  10  1  1:   Spontaneous Potential
 TEN .LBF      0 635 99  1:   Differential Tension
 RS  .OHMM     0 220  9  1:   Logarithmic Resistivity from ES, IS
 RD  .OHMM     0 220 10  1:   Logarithmic Resistivity from ED, ID
 ZDEN.G/C3     0 350  1  1:   ZDL Bulk Density
 ZCOR.G/C3     0 356 99  1:   ZDL Correction
 CNC .PU       0 995 99  1:   Corrected Neutron Porosity from CN
#  Curve Data
~A   DEPT        GR          CAL         SP          TEN         RS          RD          ZDEN        ZCOR        CNC 
# ...
  3379.2500     99.8344      9.1395     19.0915    -67.4843      4.6648      5.3970      2.4829      0.0296     26.7586
  3378.7500    101.1304      9.1773     19.1597    -77.5609      4.4204      5.1007      2.4802      0.0341     27.6877
  3378.2500    101.1792      9.1818     19.2720    -74.0781      4.3194      4.9624      2.4763      0.0318     28.3184
  3377.7500     97.3560      9.1818     19.3924    -61.7201      4.3992      5.0323      2.4762      0.0263     28.1858
  3377.2500     91.3366      9.1818     19.5048    -48.6853      4.6821      5.3466      2.4803      0.0294     27.5064
  3376.7500     86.6574      9.1790     19.6269    -41.7627      5.1906      5.9466      2.4892      0.0387     26.5503
  3376.2500     83.9751      9.1698     19.8045    -41.7228      5.9104      6.8511      2.5055      0.0429     25.3572
  3375.7500     85.8704      9.1636     20.0281    -44.2082      6.2517      7.3951      2.5262      0.0403     24.1440
  3375.2500    102.1275      9.1601     20.1613    -46.0459      4.9223      5.9413      2.5370      0.0367     23.7735
  3374.7500    136.4851      9.1510     20.0675    -47.0447      3.1939      3.8306      2.5148      0.0420     25.5641
  3374.2500    171.1761      9.1480     19.8232    -48.6631      2.1818      2.5456      2.4496      0.0795     29.9527
  3373.7500    184.7985      9.1629     19.6447    -49.8995      1.6657      1.9042      2.3716      0.1168     35.3283
  3373.2500    178.3436      9.1784     19.6229    -47.4583      1.4219      1.6197      2.3276      0.1102     38.7164
  3372.7500    169.7032      9.1818     19.6935    -38.7908      1.3510      1.5365      2.3262      0.0740     39.7558
  3372.2500    169.2361      9.1818     19.7490    -29.9534      1.3954      1.5627      2.3418      0.0548     40.0664
  3371.7500    169.6296      9.1818     19.7122    -18.1820      1.5178      1.6690      2.3529      0.0582     39.6220
  3371.2500    158.8929      9.1818     19.5927     -4.6192      1.7547      1.9210      2.3625      0.0706     37.4744
  3370.7500    138.4606      9.1818     19.4831      3.0219      2.2047      2.4305      2.3814      0.0751     34.0089
  3370.2500    120.1900      9.1818     19.4380      0.3129      2.9398      3.2622      2.4101      0.0658     30.8200
  3369.7500    110.9840      9.1818     19.4550     -8.6391      3.7462      4.1865      2.4378      0.0625     29.2585
  3369.2500    109.8880      9.1818     19.5329    -18.1624      4.0962      4.6501      2.4581      0.0765     29.1837
  3368.7500    114.1109      9.1818     19.5952    -23.0379      3.7826      4.3827      2.4711      0.0908     29.7353
  3368.2500    121.1667      9.1790     19.5058    -22.0915      3.2113      3.7527      2.4709      0.0937     30.7086
  3367.7500    129.2994      9.1698     19.2882    -21.1365      2.8049      3.2606      2.4489      0.0941     32.6592
  3367.2500    133.4841      9.1641     19.0620    -19.8863      2.6399      3.0631      2.4201      0.0904     35.3188
  3366.7500    132.3419      9.1698     18.8802    -17.0205      2.7163      3.1861      2.4181      0.0753     36.7491
  3366.2500    130.3901      9.1790     18.7733    -10.7674      3.0750      3.6598      2.4526      0.0604     35.8840
  3365.7500    130.5064      9.1818     18.7829     -6.8842      3.6402      4.3465      2.4987      0.0595     34.1448
  3365.2500    130.8676      9.1818     18.8422     -6.3376      4.0090      4.7598      2.5271      0.0606     32.9447
  3364.7500    131.5751      9.1818     18.9101     -9.0780      4.0176      4.7431      2.5292      0.0537     32.5289
  3364.2500    133.6516      9.1818     19.0397    -15.8182      3.9138      4.6089      2.5156      0.0455     32.6852
  3363.7500    135.9332      9.1818     19.2285    -16.4727      3.8386      4.5218      2.5039      0.0445     32.9277
  3363.2500    138.0308      9.1818     19.3710     -9.5404      3.7979      4.4728      2.5016      0.0511     33.0026
  3362.7500    141.5113      9.1818     19.4026     -4.2615      3.7563      4.4006      2.5008      0.0558     33.2010
  3362.2500    146.2043      9.1818     19.3249     -2.7657      3.7363      4.3356      2.4942      0.0574     33.4340
  3361.7500    147.7810      9.1818     19.1776     -2.1872      3.8126      4.3851      2.4879      0.0645     32.9442
  3361.2500    144.0873      9.1818     19.0379     -4.5613      4.0295      4.6136      2.4895      0.0682     31.7606
  3360.7500    138.4488      9.1818     18.9847    -11.5476      4.3541      4.9811      2.4973      0.0600     30.8282
  3360.2500    135.2378      9.1818     18.9993    -14.1825      4.6347      5.3061      2.5058      0.0516     30.4915
  3359.7500    135.0714      9.1818     19.0782    -10.5481      4.5892      5.2718      2.5110      0.0540     30.5572
  3359.2500    137.2764      9.1823     19.2876     -6.6810      4.0181      4.6301      2.5046      0.0575     31.2508
  3358.7500    142.6404      9.1921     19.5629    -11.0233      3.2872      3.7539      2.4769      0.0601     33.1674
  3358.2500    149.5070      9.2200     19.7303    -17.8199      2.8169      3.1592      2.4338      0.0745     36.3005
  3357.7500    151.1713      9.2538     19.7671    -17.2722      2.6656      2.9587      2.4040      0.0791     38.7580
  3357.2500    143.3096      9.2726     19.7695    -14.2444      2.8004      3.1155      2.4141      0.0507     37.7211
  3356.7500    131.4918      9.2760     19.7450    -20.6384      3.2446      3.6264      2.4590      0.0139     34.5813
  3356.2500    124.9635      9.2760     19.7189    -28.4345      3.9374      4.3925      2.5038      0.0129     31.4270
  3355.7500    124.2989      9.2760     19.7683    -30.4048      4.5078      5.0227      2.5197      0.0329     29.9129
  3355.2500    124.4028      9.2760     19.9347    -34.1951      4.6935      5.2727      2.5163      0.0443     29.5813
  3354.7500    125.8914      9.2760     20.2119    -37.7154      4.4911      5.1351      2.5128      0.0436     29.6475
  3354.2500    137.3746      9.2760     20.5353    -32.1333      3.7488      4.3546      2.5026      0.0370     30.3509
  3353.7500    160.9076      9.2794     20.7175    -26.9757      2.8507      3.2980      2.4650      0.0443     32.5725
  3353.2500    184.1054      9.2982     20.6301    -33.3572      2.2313      2.5275      2.3997      0.0782     36.3207
  3352.7500    191.4011      9.3319     20.3332    -41.0277      1.9355      2.1504      2.3352      0.0921     39.8156
  3352.2500    180.9050      9.3599     19.9900    -39.7302      1.9143      2.1212      2.3062      0.0703     40.4424
  3351.7500    161.9075      9.3697     19.7357    -26.3538      2.1745      2.4341      2.3233      0.0577     37.8257
  3351.2500    146.3806      9.3702     19.6147    -15.0179      2.7322      3.0780      2.3694      0.0684     34.1315
  3350.7500    140.6423      9.3702     19.5694    -20.1742      3.4382      3.8806      2.4187      0.0683     31.5245
  3350.2500    140.6744      9.3702     19.5508    -30.0352      3.9560      4.4952      2.4572      0.0653     30.6347
  3349.7500    139.7733      9.3702     19.5669    -29.9885      4.0176      4.6169      2.4808      0.0721     30.7341
  3349.2500    140.0746      9.3702     19.6335    -24.3832      3.7134      4.3046      2.4887      0.0704     31.0917
  3348.7500    144.0002      9.3702     19.7081    -22.9628      3.3402      3.8763      2.4858      0.0615     31.6669
  3348.2500    145.3291      9.3702     19.7311    -24.9255      3.1075      3.5922      2.4771      0.0695     32.3259
  3347.7500    140.3746      9.3702     19.6956    -31.2802      3.0903      3.5705      2.4659      0.0841     32.3963
  3347.2500    133.2804      9.3702     19.6199    -36.8111      3.3052      3.8496      2.4618      0.0737     31.4616
  3346.7500    127.6815      9.3702     19.5784    -37.7075      3.7356      4.4085      2.4753      0.0440     29.9122
  3346.2500    124.6121      9.3702     19.6686    -36.5512      4.1918      5.0078      2.4995      0.0294     28.6396
