~Version Information
 VERS.                1.20:   CWLS log ASCII Standard -VERSION 1.20
 WRAP.                  NO:   One line per frame
~Well Information Block
#MNEM.UNIT       Data Type    Information
#---------    -------------   -------------------------------
 STRT.F          3691.5000:   Starting Depth
 STOP.F          3563.7500:   Ending Depth
 STEP.F            -0.5000:   Level Spacing
 NULL.           -999.2500:   Absent Value
 COMP.             COMPANY:   FLUOR DANIEL (NPOSR), INC.
 WELL.                WELL:   73 X 10
 FLD .               FIELD:   
 LOC .            LOCATION:   
 CNTY.              COUNTY:   
 STAT.               STATE:   
 SRVC.     SERVICE COMPANY:   
 LIC .      LICENSE NUMBER:   
 DATE.            LOG DATE:   
 API .          API NUMBER:   
~Curve Information Block
#MNEM.UNIT       API Codes    Curve Description
#---------    -------------   -------------------------------
 DEPT.F        0   1  0  1:   Depth
 P2HS.DEG      0 134  9  1:   Phase Difference, 200 MHz
 P4HS.DEG      0 134  9  1:   Phase Difference, 47 MHz
 GR  .API      0 310  1  1:   Gamma ray counts
 TEN .LBF      0 635 99  1:   Differential Tension
 D2EC.DIM      0 132 99  1:   Dielectric Constant, 200 MHz
 D4EC.DIM      0 132 99  1:   Dielectric Constant, 47 MHz
 R2SL.OHMM     0 995 99  1:   Logarithnic Resistivity (200 MHz tool)
 R4SL.OHMM     0 995 99  1:   Logarithmic Resistivity (47 MHz tool)
#  Curve Data
~A   DEPT        P2HS        P4HS        GR          TEN         D2EC        D4EC        R2SL        R4SL
# ...
  3616.5000     80.2931     66.2079     97.4527    -28.2210     13.0137     36.9058      4.0956   -842.4050
  3616.0000     82.2057     65.7929     94.5049    -27.8868     14.9220     36.4738      4.3552   -838.0295
  3615.5000     89.5303     66.0094     90.8983    -16.3331     19.2969     36.6913      4.2536   1505.8311
  3615.0000     98.1874     66.5238     77.7013    -12.2348     24.1017     37.1624      3.8563    158.0784
  3614.5000     98.1171     68.7066     54.9940    -22.9339     23.2821     39.1681      3.5757     55.4582
  3614.0000     89.2616     74.9338     33.2318    -37.4653     16.4595     45.2968      3.3976     26.3260
  3613.5000     81.9535     80.9728     20.1850    -38.8061     11.3347     51.2273      3.3953     16.3729
  3613.0000     80.1669     81.2124     15.6719    -29.9211     11.9130     47.8720      3.7987     10.6270
  3612.5000     81.4899     77.7646     16.4140    -23.7561     14.6515     37.2639      4.4271      7.8555
  3612.0000     84.0234     75.6159     19.7269    -23.9416     16.6094     30.2323      4.6174      6.9452
  3611.5000     81.5315     75.1460     24.3268    -25.6749     15.1731     28.0322      4.6547      6.6733
  3611.0000     71.9083     74.7588     28.8815    -28.1384     10.3007     27.1879      5.0383      6.6393
  3610.5000     63.0603     70.9386     36.8611    -35.6633      7.1595     23.1344      6.0003      7.0609
  3610.0000     61.4894     63.8289     55.6255    -43.1968      8.3890     17.0961      7.8377      8.1928
  3609.5000     64.4620     58.7119     84.1075    -51.7609     10.8777     15.0800     10.2653      9.7918
  3609.0000     67.1713     56.3071    111.1585    -57.9720     12.2179     15.5059     10.8597     11.3103
  3608.5000     68.4682     52.0552    126.3508    -53.9280     12.3782     12.7461      9.3900     12.7414
  3608.0000     68.6963     45.0778    127.6728    -45.0278     11.9794      7.4028      8.2067     14.7519
  3607.5000     69.1408     38.0551    121.8200    -45.5951     11.8752      3.5800      7.6541     18.2227
  3607.0000     77.5939     33.4196    118.6601    -44.0289     15.4814      2.9389      6.6803     23.3365
  3606.5000     97.4682     31.3611    121.6086    -34.4397     25.9727      3.5049      5.4140     28.0728
  3606.0000    116.1271     33.5665    126.1096    -22.5078     38.4181      5.2046      5.1370     27.4818
  3605.5000    128.9764     48.2350    127.2142     -8.2445     48.2126     14.5191      5.1663     18.5815
  3605.0000    141.0770     71.9022    126.3384     13.0558     56.7064     36.0483      3.4847     11.4993
  3604.5000    149.2410     84.5520    127.4961     23.4679     56.4138     48.6955      1.7282      8.1690
  3604.0000    145.9280     78.9615    129.9423     13.8296     37.3678     33.8572      1.0996      6.5630
  3603.5000    139.5563     69.5714    129.9440      0.5301     24.4402     13.3416      1.0144      5.9902
  3603.0000    139.4223     65.8618    125.9369     -0.1955     25.9598     16.7819      1.0408      7.4350
  3602.5000    145.1593     65.3184    120.1708     -5.3171     33.2012     32.1063      1.0385     17.2767
  3602.0000    151.3619     65.0819    116.1058    -23.4481     38.2620     35.7402      0.9887   -830.6401
  3601.5000    154.9702     65.0029    115.1874    -37.3216     36.9070     35.6590      0.8989   -829.8362
  3601.0000    154.9300     65.2345    119.1524    -38.4825     26.6080     35.8969      0.7904   -832.1438
  3600.5000    151.2728     65.4024    132.3473    -36.8946     14.6290     36.0699      0.7418   -834.0161
  3600.0000    144.5931     65.2917    156.8739    -34.5470     11.8456     35.9559      0.7996   -832.8225
  3599.5000    141.1292     65.0613    184.1340    -30.6876     13.5659     35.7189      0.8599   -830.3765
  3599.0000    148.6888     64.7731    201.7947    -40.2881     22.8760     35.4239      0.8418   -827.4363
  3598.5000    162.3538     64.4884    204.0995    -60.5333     40.2297     35.1337      0.8161   -824.4163
  3598.0000    167.2073     64.4657    193.3546    -69.2200     49.4103     35.1106      0.8418   -824.2900
  3597.5000    161.6103     64.6344    175.2486    -66.4787     43.0716     35.2824      0.8605   -825.9287
  3597.0000    154.9143     64.7207    156.6742    -64.0225     32.5499     35.3704      0.8484   -826.9324
  3596.5000    152.1862     64.7170    142.6940    -59.3948     30.2164     35.3666      0.8655   -826.8882
  3596.0000    156.7898     64.8277    133.9427    -49.8583     38.9794     35.4796      0.8933   -828.0242
  3595.5000    164.6784     65.3744    128.9275    -38.4471     48.9685     36.0411      0.8818   -833.7224
  3595.0000    167.9198     66.3585    126.1951    -16.0113     50.6493     37.0632      0.8447   -844.0039
  3594.5000    161.5114     66.7305    123.9343     33.1178     40.1895     37.4535      0.8287   -847.7732
  3594.0000    151.9257     66.1732    121.2276     66.4894     27.8987     36.8695      0.8448   -842.0769
  3593.5000    144.9554     65.5314    119.2518     32.5316     23.1397     36.2031      0.9012   -835.4290
  3593.0000    141.6963     65.1886    120.1604    -25.8411     26.9520     35.8498      1.0098   -831.7642
  3592.5000    138.5742     64.8938    123.8689    -36.6729     30.6304     35.5473      1.1475   -828.6780
  3592.0000    136.6185     64.8214    127.5332    -12.0975     31.9813     35.4732      1.2341   -827.9778
  3591.5000    142.3274     64.9074    129.1595      5.3064     36.3836     35.5613      1.1758   -828.9106
  3591.0000    157.4406     64.9229    129.7247     12.3049     47.2791     35.5772      1.0090   -829.0220
  3590.5000    171.7796     65.0503    130.4112      9.1409     55.1377     35.7077      0.8328   -830.3086
  3590.0000    177.5623     65.3048    131.0949      1.2063     51.4865     35.9693      0.7086   -832.9719
  3589.5000    180.0096     65.4258    130.7507     -5.4876     48.1888     36.0940      0.6551   -834.2544
  3589.0000    182.0912     65.2402    129.8553     -3.8220     50.5211     35.9028      0.6482   -832.2856
  3588.5000    181.0511     64.9527    129.3699      2.2619     50.6630     35.6076      0.6606   -829.2961
  3588.0000    177.5330     64.8262    129.0722      3.0055     47.6147     35.4782      0.6789   -828.0413
  3587.5000    174.9302     64.8718    127.3157     -2.5544     46.0937     35.5247      0.6982   -828.4070
  3587.0000    173.7491     65.0114    122.7138    -12.2875     47.0979     35.6678      0.7209   -829.8250
  3586.5000    170.0399     65.1863    116.1230    -18.9774     45.5798     35.8474      0.7570   -831.6877
  3586.0000    162.3419     65.2406    110.6899    -16.3337     39.5070     35.9032      0.8087   -832.3987
  3585.5000    156.5801     65.0662    109.4269     -8.0169     35.2217     35.7240      0.8517   -830.5388
  3585.0000    153.0135     64.8428    113.8283      1.7004     33.8332     35.4951      0.8943   -828.1387
  3584.5000    145.8262     64.8204    126.6968     12.7810     29.5853     35.4722      0.9679   -827.9897
  3584.0000    134.0392     64.9451    146.8066      6.5569     20.8947     35.5999      1.0716   -829.2961
  3583.5000    120.6627     64.9743    163.2166    -17.7699     12.0804     35.6298      1.2161   -829.5505
  3583.0000    115.8662     64.8565    165.1218    -34.2283     12.2210     35.5091      1.3442   -828.2893
  3582.5000    130.1589     64.7905    154.3519    -32.1979     28.1627     35.4417      1.3332   -827.6445
  3582.0000    151.9349     64.9510    142.1896    -28.0356     49.9487     35.6058      1.2403   -829.2266
  3581.5000    161.2699     65.2045    136.2107    -26.7146     56.7760     35.8661      1.1139   -831.9839
  3581.0000    159.6722     65.3136    133.1302    -28.0996     46.3065     35.9784      0.9422   -833.0818
  3580.5000    158.0237     65.2873    127.8983    -25.2574     35.4559     35.9512      0.8317   -832.7578
  3580.0000    158.4793     65.1906    123.4554    -10.4359     37.5762     35.8518      0.8478   -831.7405
  3579.5000    154.4366     65.0717    122.3105      1.8767     36.6036     35.7296      0.9045   -830.5505
