~Version Information
 VERS.                1.20:   CWLS log ASCII Standard -VERSION 1.20
 WRAP.                  NO:   One line per frame
~Well Information Block
#MNEM.UNIT       Data Type    Information
#---------    -------------   -------------------------------
 STRT.F          5623.7500:   Starting Depth
 STOP.F           -24.0000:   Ending Depth
 STEP.F            -0.5000:   Level Spacing
 NULL.           -999.2500:   Absent Value
 COMP.             COMPANY:   FLUOR DANIEL (NPOSR), INC.
 WELL.                WELL:   73 X 10
 FLD .               FIELD:   
 LOC .            LOCATION:   
 CNTY.              COUNTY:   
 STAT.               STATE:   
 SRVC.     SERVICE COMPANY:   
 LIC .      LICENSE NUMBER:   
 DATE.            LOG DATE:   
 API .          API NUMBER:   
~Curve Information Block
#MNEM.UNIT       API Codes    Curve Description
#---------    -------------   -------------------------------
 DEPT.F        0   1  0  1:   Depth
 GR  .API      0 310  1  1:   Gamma ray counts
 CAL .IN       0 280 99  1:   Caliper (for 4CAL: from C13 and/or C24)
 SP  .MV       0  10  1  1:   Spontaneous Potential
 TEN .LBF      0 635 99  1:   Differential Tension
 RS  .OHMM     0 220  9  1:   Logarithmic Resistivity from ES, IS
 RD  .OHMM     0 220 10  1:   Logarithmic Resistivity from ED, ID
 ZDEN.G/C3     0 350  1  1:   ZDL Bulk Density
 ZCOR.G/C3     0 356 99  1:   ZDL Correction
 CNC .PU       0 995 99  1:   Corrected Neutron Porosity from CN
#  Curve Data
~A   DEPT        GR          CAL         SP          TEN         RS          RD          ZDEN        ZCOR        CNC 
# ...
  1871.7500    102.1182      1.7383     25.7174    -36.7522      7.9136      9.0550      1.6171      0.0956     62.1604
  1871.2500    102.6869      1.7383     25.5928    -38.0414      8.0656      9.2412      1.6281      0.1037     59.8184
  1870.7500    104.3535      1.7383     25.3316    -41.8097      8.1504      9.3586      1.6387      0.1087     58.9740
  1870.2500    106.3590      1.7383     24.8696    -40.9862      8.1758      9.3957      1.6510      0.1116     60.2826
  1869.7500    107.2534      1.7383     24.3816    -38.0479      8.1718      9.3816      1.6653      0.1149     60.1627
  1869.2500    106.6530      1.7383     24.0911    -41.9659      8.1599      9.3405      1.6789      0.1213     59.1436
  1868.7500    105.5867      1.7383     24.0793    -47.8015      8.1626      9.2992      1.6907      0.1291     60.4119
  1868.2500    106.4455      1.7383     24.1894    -47.9744      8.2048      9.2868      1.7026      0.1344     60.2434
  1867.7500    106.8743      1.7383     24.2157    -49.1840      8.2915      9.3267      1.7140      0.1365     60.6712
  1867.2500    103.5101      1.7383     24.0912    -52.8836      8.4127      9.4341      1.7223      0.1388     61.1393
  1866.7500     97.0552      1.7383     23.8917    -49.8925      8.4826      9.5373      1.7308      0.1436     59.3833
  1866.2500     93.1477      1.7383     23.6323    -42.2547      8.3137      9.4249      1.7454      0.1484     60.9474
  1865.7500     93.3752      1.7377     23.4484    -40.6315      7.8386      8.9712      1.7632      0.1493     61.8905
  1865.2500     93.7490      1.7286     23.5430    -42.5027      7.2647      8.3586      1.7753      0.1459     64.3371
  1864.7500     91.8662      1.7103     23.7490    -38.4538      6.8522      7.8890      1.7807      0.1351     66.5573
  1864.2500     92.0168      1.7046     23.8201    -32.1787      6.7349      7.7515      1.7943      0.1186     66.5774
  1863.7500     97.9925      1.7194     23.8290    -30.8477      6.9203      7.9738      1.8401      0.1126     65.0455
  1863.2500    105.2764      1.7349     23.9107    -29.7308      7.2907      8.4195      1.9286      0.1333     63.2027
  1862.7500    108.1180      1.7383     24.0418    -24.8657      7.6208      8.8267      2.0364      0.1752     61.0878
  1862.2500    108.0930      1.7383     24.1919    -23.0754      7.7464      9.0080      2.1206      0.2099     60.0294
  1861.7500    109.0717      1.7383     24.3337    -26.4115      7.7033      8.9899      2.1745      0.2237     60.4577
  1861.2500    110.3175      1.7383     24.4647    -29.0500      7.6197      8.9099      2.2158      0.2236     59.7564
  1860.7500    110.6064      1.7383     24.5897    -30.5003      7.5696      8.8728      2.2455      0.2253     58.2594
  1860.2500    111.8707      1.7383     24.6842    -31.2357      7.5356      8.8804      2.2517      0.2343     58.0749
  1859.7500    113.2526      1.7383     24.7713    -32.4206      7.3787      8.7575      2.2342      0.2443     57.7797
  1859.2500    110.5228      1.7383     24.9515    -35.1601      7.0106      8.3706      2.2061      0.2541     57.5663
  1858.7500    105.2325      1.7383     25.2344    -34.8365      6.5283      7.8142      2.1776      0.2618     58.3937
  1858.2500    101.6063      1.7383     25.4374    -30.1849      6.0817      7.2559      2.1528      0.2611     59.2272
  1857.7500    101.2921      1.7383     25.3668    -26.9541      5.8223      6.8921      2.1378      0.2563     59.0356
  1857.2500    104.7284      1.7383     25.0214    -27.5266      5.8335      6.8559      2.1410      0.2500     57.6349
  1856.7500    110.1538      1.7383     24.6237    -28.5993      6.0745      7.1133      2.1649      0.2405     55.8886
  1856.2500    113.3066      1.7383     24.4370    -29.6960      6.4331      7.5263      2.2005      0.2357     54.5168
  1855.7500    113.9794      1.7383     24.5337    -30.5275      6.7765      7.9310      2.2290      0.2413     54.2271
  1855.2500    113.5945      1.7383     24.6598    -28.6273      6.9394      8.1243      2.2352      0.2463     55.0462
  1854.7500    111.9942      1.7383     24.6991    -27.3359      6.8854      8.0596      2.2209      0.2439     55.7352
  1854.2500    112.0547      1.7377     24.7410    -31.3012      6.7698      7.9261      2.1992      0.2351     55.7003
  1853.7500    115.6081      1.7286     24.7800    -35.5654      6.7133      7.8703      2.1749      0.2288     55.8860
  1853.2500    118.5904      1.7103     24.8255    -33.3771      6.7309      7.8971      2.1437      0.2305     56.4556
  1852.7500    117.1738      1.7046     24.9829    -30.4771      6.7820      7.9405      2.1088      0.2315     56.1469
  1852.2500    114.5336      1.7194     25.1686    -31.4608      6.8191      7.9561      2.0839      0.2304     54.7604
  1851.7500    113.7700      1.7349     25.2227    -27.9093      6.8498      7.9810      2.0762      0.2375     53.5459
  1851.2500    113.1260      1.7383     25.2035    -20.1645      6.9215      8.0616      2.0807      0.2474     53.0932
  1850.7500    110.4958      1.7383     25.1865    -16.2684      7.0470      8.1926      2.0885      0.2480     53.1078
  1850.2500    108.3326      1.7383     25.1839    -13.5344      7.1846      8.3335      2.0953      0.2426     53.2991
  1849.7500    107.6850      1.7383     25.2746     -9.4678      7.2799      8.4327      2.1017      0.2407     53.2381
  1849.2500    106.2254      1.7383     25.5263     -7.4344      7.3174      8.4612      2.1046      0.2428     52.1245
  1848.7500    104.8831      1.7383     25.8138     -4.2859      7.3358      8.4564      2.1013      0.2446     50.9518
  1848.2500    106.4915      1.7383     26.0064     -1.5311      7.3960      8.4928      2.0995      0.2461     50.4316
  1847.7500    110.9410      1.7383     26.0886     -5.3055      7.5403      8.6216      2.1089      0.2498     50.5362
  1847.2500    115.4369      1.7383     26.0933    -11.0541      7.7412      8.8260      2.1254      0.2532     51.8503
  1846.7500    118.6039      1.7383     26.1111    -13.4871      7.8942      9.0011      2.1384      0.2490     54.5082
  1846.2500    121.1474      1.7383     26.2316    -15.2845      7.9010      9.0161      2.1461      0.2400     56.8828
  1845.7500    122.0694      1.7383     26.3731    -19.5179      7.7491      8.8292      2.1533      0.2334     56.9073
  1845.2500    119.7361      1.7383     26.3853    -24.0267      7.5114      8.5279      2.1620      0.2333     56.7906
  1844.7500    116.3308      1.7383     26.2308    -26.2376      7.2992      8.2481      2.1702      0.2392     57.7868
  1844.2500    116.5960      1.7383     25.9792    -23.2730      7.1919      8.0822      2.1753      0.2438     58.7785
  1843.7500    120.4079      1.7383     25.7580    -20.7174      7.2219      8.0720      2.1776      0.2401     59.2608
  1843.2500    122.6629      1.7383     25.6506    -23.4197      7.3698      8.1920      2.1827      0.2342     59.0155
  1842.7500    120.2976      1.7383     25.6433    -25.3711      7.5658      8.3717      2.1949      0.2324     58.0449
  1842.2500    116.1270      1.7383     25.6611    -23.2526      7.7454      8.5638      2.2131      0.2309     57.3236
  1841.7500    113.7138      1.7383     25.6450    -24.4628      7.9076      8.7631      2.2316      0.2290     56.9507
  1841.2500    113.3497      1.7383     25.5769    -24.9710      8.0586      8.9419      2.2440      0.2265     56.3268
  1840.7500    114.0595      1.7383     25.5064    -17.9706      8.1731      9.0670      2.2507      0.2224     55.6067
  1840.2500    114.4825      1.7383     25.5100     -9.6926      8.2519      9.1565      2.2591      0.2193     54.7184
  1839.7500    113.9338      1.7383     25.6092     -5.1258      8.3681      9.2745      2.2723      0.2186     53.5417
  1839.2500    110.4022      1.7383     25.7151     -5.2115      8.6720      9.5672      2.2853      0.2182     52.6095
  1838.7500    101.6957      1.7383     25.7198    -11.1548      9.3025     10.2147      2.2958      0.2166     51.5060
