~Version Information
 VERS.                1.20:   CWLS log ASCII Standard -VERSION 1.20
 WRAP.                  NO:   One line per frame
~Well Information Block
#MNEM.UNIT       Data Type    Information
#---------    -------------   -------------------------------
 STRT.F          5623.7500:   Starting Depth
 STOP.F           -24.0000:   Ending Depth
 STEP.F            -0.5000:   Level Spacing
 NULL.           -999.2500:   Absent Value
 COMP.             COMPANY:   FLUOR DANIEL (NPOSR), INC.
 WELL.                WELL:   73 X 10
 FLD .               FIELD:   
 LOC .            LOCATION:   
 CNTY.              COUNTY:   
 STAT.               STATE:   
 SRVC.     SERVICE COMPANY:   
 LIC .      LICENSE NUMBER:   
 DATE.            LOG DATE:   
 API .          API NUMBER:   
~Curve Information Block
#MNEM.UNIT       API Codes    Curve Description
#---------    -------------   -------------------------------
 DEPT.F        0   1  0  1:   Depth
 GR  .API      0 310  1  1:   Gamma ray counts
 CAL .IN       0 280 99  1:   Caliper (for 4CAL: from C13 and/or C24)
 SP  .MV       0  10  1  1:   Spontaneous Potential
 TEN .LBF      0 635 99  1:   Differential Tension
 RS  .OHMM     0 220  9  1:   Logarithmic Resistivity from ES, IS
 RD  .OHMM     0 220 10  1:   Logarithmic Resistivity from ED, ID
 ZDEN.G/C3     0 350  1  1:   ZDL Bulk Density
 ZCOR.G/C3     0 356 99  1:   ZDL Correction
 CNC .PU       0 995 99  1:   Corrected Neutron Porosity from CN
#  Curve Data
~A   DEPT        GR          CAL         SP          TEN         RS          RD          ZDEN        ZCOR        CNC 
# ...
    -4.2500      0.0000      6.0000    -82.2139   -250.0000      0.2000      0.2000      2.0000     -1.5000    -10.0000
    -4.7500      0.0000      6.0000    -84.9785   -250.0000      0.2000      0.2000      2.0000     -1.5000    -10.0000
    -5.2500      0.0000      6.0000    -85.1561   -250.0000      0.2000      0.2000      2.0000     -1.5000    -10.0000
    -5.7500      0.0000      6.0000    -83.9841   -250.0000      0.2000      0.2000      2.0000     -1.5000    -10.0000
    -6.2500      0.0000      6.0000    -81.1563   -250.0000      0.2000      0.2000      2.0000     -1.5000    -10.0000
    -6.7500      0.0000      6.0000    -76.6546   -250.0000      0.2000      0.2000      2.0000     -1.5000    -10.0000
    -7.2500      0.0000      6.0000    -71.1370   -250.0000      0.2000      0.2000      2.0000     -1.5000    -10.0000
    -7.7500      0.0000      6.0000    -65.6320   -250.0000      0.2000      0.2000      2.0000     -1.5000    -10.0000
    -8.2500      0.0000      6.0000    -60.8987   -250.0000      0.2000      0.2000      2.0000     -1.5000    -10.0000
    -8.7500      0.0000      6.0000    -56.9995   -250.0000      0.2000      0.2000      2.0000     -1.5000    -10.0000
    -9.2500      0.0000      6.0000    -53.6118   -250.0000      0.2000      0.2000      2.0000     -1.5000    -10.0000
    -9.7500      0.0000      6.0000    -50.3999   -250.0000      0.2000      0.2000      2.0000     -1.5000    -10.0000
   -10.2500      0.0000      6.0000    -46.4236   -250.0000      0.2000      0.2000      2.0000     -1.5000    -10.0000
   -10.7500      0.0000      6.0000    -40.4626   -250.0000      0.2000      0.2000      2.0000     -1.5000    -10.0000
   -11.2500      0.0000      6.0000    -33.2455   -250.0000      0.2000      0.2000      2.0000     -1.5000    -10.0000
   -11.7500      0.0000      6.0000    -27.4279   -250.0000      0.2000      0.2000      2.0000     -1.5000    -10.0000
   -12.2500      0.0000      6.0000    -24.5910   -250.0000      0.2000      0.2000      2.0000     -1.5000    -10.0000
   -12.7500      0.0000      6.0000    -24.0350   -250.0000      0.2000      0.2000      2.0000     -1.5000    -10.0000
   -13.2500      0.0000      6.0000    -24.5268   -250.0000      0.2000      0.2000      2.0000     -1.5000    -10.0000
   -13.7500      0.0000      6.0000    -25.3862   -250.0000      0.2000      0.2000      2.0000     -1.5000    -10.0000
   -14.2500      0.0000      6.0000    -26.3041   -250.0000      0.2000      0.2000      2.0000     -1.5000    -10.0000
   -14.7500      0.0000      6.0000    -27.1162   -250.0000      0.2000      0.2000      2.0000     -1.5000    -10.0000
   -15.2500      0.0000      6.0000    -27.7286   -250.0000      0.2000      0.2000      2.0000     -1.5000    -10.0000
   -15.7500      0.0000      6.0000    -28.1186   -250.0000      0.2000      0.2000      2.0000     -1.5000    -10.0000
   -16.2500      0.0000      6.0000    -28.3020   -250.0000      0.2000      0.2000      2.0000     -1.5000    -10.0000
   -16.7500      0.0000      6.0000    -28.3048   -250.0000      0.2000      0.2000      2.0000     -1.5000    -10.0000
   -17.2500      0.0000      6.0000    -28.1037   -250.0000      0.2000      0.2000      2.0000     -1.5000    -10.0000
   -17.7500      0.0000      6.0000    -27.7112   -250.0000      0.2000      0.2000      2.0000     -1.5000    -10.0000
   -18.2500      0.0000      6.0000    -27.7112   -250.0000      0.2000      0.2000      2.0000     -1.5000    -10.0000
   -18.7500      0.0000      6.0000    -27.7112   -250.0000      0.2000      0.2000      2.0000     -1.5000    -10.0000
   -19.2500      0.0000      6.0000    -27.7112   -250.0000      0.2000      0.2000      2.0000     -1.5000    -10.0000
   -19.7500      0.0000      6.0000    -27.7112   -250.0000      0.2000      0.2000      2.0000     -1.5000    -10.0000
   -20.2500      0.0000      6.0000    -27.7112   -250.0000      0.2000      0.2000      2.0000     -1.5000    -10.0000
   -20.7500      0.0000      6.0000    -27.7112   -250.0000      0.2000      0.2000      2.0000     -1.5000    -10.0000
   -21.2500      0.0000      6.0000    -27.7112   -250.0000      0.2000      0.2000      2.0000     -1.5000    -10.0000
   -21.7500      0.0000      6.0000    -27.7112   -250.0000      0.2000      0.2000      2.0000     -1.5000    -10.0000
   -22.2500      0.0000      6.0000    -27.7112   -250.0000      0.2000      0.2000      2.0000     -1.5000    -10.0000
   -22.7500      0.0000      6.0000    -27.7112   -250.0000      0.2000      0.2000      2.0000     -1.5000    -10.0000
   -23.2500      0.0000      6.0000    -27.7112   -250.0000      0.2000      0.2000      2.0000     -1.5000    -10.0000
   -23.7500      0.0000      6.0000    -27.7112   -250.0000      0.2000      0.2000      2.0000     -1.5000    -10.0000
