~Version Information
 VERS.                1.20:   CWLS log ASCII Standard -VERSION 1.20
 WRAP.                  NO:   One line per frame
~Well Information Block
#MNEM.UNIT       Data Type    Information
#---------    -------------   -------------------------------
 STRT.F          5623.7500:   Starting Depth
 STOP.F           -24.0000:   Ending Depth
 STEP.F            -0.5000:   Level Spacing
 NULL.           -999.2500:   Absent Value
 COMP.             COMPANY:   FLUOR DANIEL (NPOSR), INC.
 WELL.                WELL:   73 X 10
 FLD .               FIELD:   
 LOC .            LOCATION:   
 CNTY.              COUNTY:   
 STAT.               STATE:   
 SRVC.     SERVICE COMPANY:   
 LIC .      LICENSE NUMBER:   
 DATE.            LOG DATE:   
 API .          API NUMBER:   
~Curve Information Block
#MNEM.UNIT       API Codes    Curve Description
#---------    -------------   -------------------------------
 DEPT.F        0   1  0  1:   Depth
 GR  .API      0 310  1  1:   Gamma ray counts
 CAL .IN       0 280 99  1:   Caliper (for 4CAL: from C13 and/or C24)
 SP  .MV       0  10  1  1:   Spontaneous Potential
 TEN .LBF      0 635 99  1:   Differential Tension
 RS  .OHMM     0 220  9  1:   Logarithmic Resistivity from ES, IS
 RD  .OHMM     0 220 10  1:   Logarithmic Resistivity from ED, ID
 ZDEN.G/C3     0 350  1  1:   ZDL Bulk Density
 ZCOR.G/C3     0 356 99  1:   ZDL Correction
 CNC .PU       0 995 99  1:   Corrected Neutron Porosity from CN
#  Curve Data
~A   DEPT        GR          CAL         SP          TEN         RS          RD          ZDEN        ZCOR        CNC 
  5623.7500      0.0000      6.0000      0.0000   -250.0000      0.2000      0.2000      2.0000     -1.5000    -10.0000
  5623.2500      0.0000      6.0000      0.0000   -250.0000      0.2000      0.2000      2.0000     -1.5000    -10.0000
  5622.7500      0.0000      6.0000      0.0000   -250.0000      0.2000      0.2000      2.0000     -1.5000    -10.0000
  5622.2500      0.0000      6.0000      0.0000   -250.0000      0.2000      0.2000      2.0000     -1.5000    -10.0000
  5621.7500      0.0000      6.0000      0.0000   -250.0000      0.2000      0.2000      2.0000     -1.5000    -10.0000
  5621.2500      0.0000      6.0000      0.0000   -250.0000      0.2000      0.2000      2.0000     -1.5000    -10.0000
  5620.7500      0.0000      6.0000      0.0000   -250.0000      0.2000      0.2000      2.0000     -1.5000    -10.0000
  5620.2500      0.0000      6.0000      0.0000   -250.0000      0.2000      0.2000      2.0000     -1.5000    -10.0000
  5619.7500      0.0000      6.0000      0.0000   -250.0000      0.2000      0.2000      2.0000     -1.5000    -10.0000
  5619.2500      0.0000      6.0000      0.0000   -250.0000      0.2000      0.2000      2.0000     -1.5000    -10.0000
  5618.7500      0.0000      6.0000      0.0000   -250.0000      0.2000      0.2000      2.0000     -1.5000    -10.0000
  5618.2500      0.0000      6.0000      0.0000   -250.0000      0.2000      0.2000      2.0000     -1.5000    -10.0000
  5617.7500      0.0000      6.0000      0.0000   -250.0000      0.2000      0.2000      2.0000     -1.5000    -10.0000
  5617.2500      0.0000      6.0000      0.0000   -250.0000      0.2000      0.2000      2.0000     -1.5000    -10.0000
  5616.7500      0.0000      6.0000      0.0000   -250.0000      0.2000      0.2000      2.0000     -1.5000    -10.0000
  5616.2500      0.0000      6.0000      0.0000   -274.0894    449.5437    843.6541      2.0000     -1.5000    -10.0000
  5615.7500      0.0000      6.0000      0.0000   -264.6775    449.6138    843.5320      2.0000     -1.5000    -10.0000
  5615.2500      0.0000      6.0000      0.0000   -255.9966    449.6208    843.6123      2.0000     -1.5000    -10.0000
  5614.7500      0.0000      6.0000      0.0000   -249.9588    449.5952    843.3623      2.0000     -1.5000    -10.0000
  5614.2500      0.0000      6.0000      0.0000   -248.6830    449.6353    843.1514      2.0000     -1.5000    -10.0000
  5613.7500      0.0000      6.0000      0.0000   -250.0759    449.7549    843.4409      2.0000     -1.5000    -10.0000
  5613.2500      0.0000      6.0000      0.0000   -243.1280    449.8345    843.8953      2.0000     -1.5000    -10.0000
  5612.7500      0.0000      6.0000      0.0000   -223.8020    449.8342    844.1262      2.0000     -1.5000    -10.0000
  5612.2500      0.0000      6.0000      0.0000   -193.1578    449.7705    844.3989      2.0000     -1.5000    -10.0000
  5611.7500      0.0000      6.0000      0.0000   -146.8883    449.6650    844.7302      2.0000     -1.5000    -10.0000
  5611.2500      0.0000      6.0000      0.0000    -85.5022    449.5288    845.0854      2.0000     -1.5000    -10.0000
  5610.7500      0.0000      6.0000      0.0000    -17.6906    449.3608    845.4172      2.0000     -1.5000    -10.0000
  5610.2500      0.0000      6.0000      0.0000     53.9762    449.2681    845.7498      2.0000     -1.5000    -10.0000
  5609.7500      0.0000      6.0000      0.0000    131.1604    449.3928    845.8523      2.0000     -1.5000    -10.0000
  5609.2500      0.0000      6.0000      0.0000    212.0217    449.5940    845.8523      2.0000     -1.5000    -10.0000
  5608.7500      0.0000      6.0000      0.0000    296.4243    449.5947    845.7498      2.0000     -1.5000    -10.0000
  5608.2500      0.0000      6.0000      0.0000    383.8059    449.4631    845.4172      2.0000     -1.5000    -10.0000
  5607.7500      0.0000      6.0000      0.0000    472.3708    449.3987    845.1057      2.0000     -1.5000    -10.0000
  5607.2500      0.0000      6.0000      0.0000    562.0679    449.4338    844.8599      2.0000     -1.5000    -10.0000
  5606.7500      0.0000      6.0000      0.0000    658.0156    449.4275    844.4194      2.0000     -1.5000    -10.0000
  5606.2500      0.0000      6.0000      0.0000    758.4272    449.3730    844.1694      2.0000     -1.5000    -10.0000
  5605.7500      0.0000      6.0000      0.0000    855.9260    449.4358    844.4578      2.0000     -1.5000    -10.0000
  5605.2500      0.0000      6.0000      0.0000    951.4578    449.5222    844.6343      2.0000     -1.5000    -10.0000
  5604.7500      0.0000      6.0000      0.0000   1037.0208    440.5391    832.4163      2.0000     -1.5000    -10.0000
  5604.2500      0.0000      6.0000      0.0000   1068.4915    343.9602    667.2644      2.0000     -1.5000    -10.0000
  5603.7500      0.0000      6.0000      0.0000   1023.4036    192.5342    369.5007      2.0000     -1.5000    -10.0000
  5603.2500      0.0000      6.0000      0.0000    964.9028    112.7030    206.6831      2.0000     -1.5000    -10.0000
  5602.7500      0.0000      6.0000      0.0000    949.3628     81.7289    143.0941      2.0000     -1.5000    -10.0000
  5602.2500      0.0000      6.0000      0.0000    944.3801     69.3071    116.4474      2.0000     -1.5000    -10.0000
  5601.7500      0.0000      6.0000      0.0000    918.9016     63.5067    103.0578      2.0000     -1.5000    -10.0000
  5601.2500      0.0000      6.0000      0.0000    901.5757     61.7650     97.5664      2.0000     -1.5000    -10.0000
  5600.7500      0.0000      6.0000      0.0000    903.7913     63.6692     99.0920      2.0000     -1.5000    -10.0000
  5600.2500      0.0000      6.0000      0.0000    904.5183     67.7513    105.4332      2.0000     -1.5000    -10.0000
  5599.7500      0.0000      6.0000      0.0000    896.8638     71.1681    112.6035      2.0000     -1.5000    -10.0000
  5599.2500      0.0000      6.0000      0.0000    886.1343     71.0394    115.7253      2.0000     -1.5000    -10.0000
  5598.7500      0.0000      6.0000      0.0000    875.3889     68.6578    115.0761      2.0000     -1.5000    -10.0000
  5598.2500      0.0000      6.0000      0.0000    863.5725     66.9574    114.8501      2.0000     -1.5000    -10.0000
  5597.7500      0.0000      6.0000      0.0000    850.4548     67.3274    117.9705      2.0000     -1.5000    -10.0000
  5597.2500      0.0000      6.0000      0.0000    840.6631     70.3674    126.2116      2.0000     -1.5000    -10.0000
  5596.7500      0.0000      6.0000      0.0000    834.5762     75.0217    138.5008      2.0000     -1.5000    -10.0000
  5596.2500      0.0000      6.0000      0.0000    829.2578     77.7762    148.3474      2.0000     -1.5000    -10.0000
  5595.7500      0.0000      8.6164      0.0000    828.3916     76.6999    150.3444      2.0000     -1.5000    -10.0000
  5595.2500      0.0000      8.6164      0.0000    822.1345     73.1891    145.9806      2.0000     -1.5000    -10.0000
  5594.7500      0.0000      8.6164      0.0000    794.9553     68.9946    139.0030      2.0000     -1.5000    -10.0000
  5594.2500      0.0000      8.6164      0.0000    759.9890     65.5933    132.7084      2.0000     -1.5000    -10.0000
  5593.7500      0.0000      8.6164      0.0000    732.9768     64.2318    129.6663      2.0000     -1.5000    -10.0000
  5593.2500      0.0000      8.6164      0.0000    715.0386     65.3308    131.1155      2.0000     -1.5000    -10.0000
  5592.7500      0.0000      8.6164      0.0000    709.2668     68.0278    136.1114      2.0000     -1.5000    -10.0000
  5592.2500      0.0000      8.6164      0.0000    709.5479     70.6054    141.6961      2.0000     -1.5000    -10.0000
  5591.7500      0.0000      8.6164      0.0000    704.4409     71.4054    144.0339      2.0000     -1.5000    -10.0000
  5591.2500      0.0000      8.6164      0.0000    698.7234     69.6789    140.7629      2.4273      0.0137    -10.0000
  5590.7500      0.0000      8.6164      0.0000    695.3887     65.7801    132.3818      2.4321      0.0180    -10.0000
