~Version Information
 VERS.                1.20:   CWLS log ASCII Standard -VERSION 1.20
 WRAP.                  NO:   One line per frame
~Well Information Block
#MNEM.UNIT       Data Type    Information
#---------    -------------   -------------------------------
 STRT.F          5623.7500:   Starting Depth
 STOP.F           -24.0000:   Ending Depth
 STEP.F            -0.5000:   Level Spacing
 NULL.           -999.2500:   Absent Value
 COMP.             COMPANY:   FLUOR DANIEL (NPOSR), INC.
 WELL.                WELL:   73 X 10
 FLD .               FIELD:   
 LOC .            LOCATION:   
 CNTY.              COUNTY:   
 STAT.               STATE:   
 SRVC.     SERVICE COMPANY:   
 LIC .      LICENSE NUMBER:   
 DATE.            LOG DATE:   
 API .          API NUMBER:   
~Curve Information Block
#MNEM.UNIT       API Codes    Curve Description
#---------    -------------   -------------------------------
 DEPT.F        0   1  0  1:   Depth
 GR  .API      0 310  1  1:   Gamma ray counts
 CAL .IN       0 280 99  1:   Caliper (for 4CAL: from C13 and/or C24)
 SP  .MV       0  10  1  1:   Spontaneous Potential
 TEN .LBF      0 635 99  1:   Differential Tension
 RS  .OHMM     0 220  9  1:   Logarithmic Resistivity from ES, IS
 RD  .OHMM     0 220 10  1:   Logarithmic Resistivity from ED, ID
 ZDEN.G/C3     0 350  1  1:   ZDL Bulk Density
 ZCOR.G/C3     0 356 99  1:   ZDL Correction
 CNC .PU       0 995 99  1:   Corrected Neutron Porosity from CN
#  Curve Data
~A   DEPT        GR          CAL         SP          TEN         RS          RD          ZDEN        ZCOR        CNC 
# ...
  3747.7500    114.1689     10.7065     23.6005    -32.0872      2.6368      3.3894      2.3792      0.1628     49.1239
  3747.2500    113.8130     10.6921     23.6250    -36.9779      2.6203      3.4000      2.3720      0.1547     50.1663
  3746.7500    112.5359     10.7196     23.6487    -53.3479      2.5933      3.3954      2.3776      0.1573     49.5439
  3746.2500    110.9725     10.7939     23.6384    -55.5271      2.5038      3.2902      2.3872      0.1491     48.3221
  3745.7500    111.0534     10.8637     23.6149    -47.8411      2.3422      3.0761      2.3918      0.1262     48.0198
  3745.2500    112.7499     10.8677     23.5772    -29.0394      2.1725      2.8509      2.3872      0.1012     48.5911
  3744.7500    114.0761     10.8252     23.4840     -5.2759      2.0408      2.6783      2.3678      0.0913     49.6542
  3744.2500    116.0740     10.7933     23.3379     -7.6220      1.9322      2.5308      2.3332      0.0975     50.9328
  3743.7500    122.1873     10.7738     23.1337    -26.7177      1.8471      2.4020      2.2996      0.1073     52.2209
  3743.2500    130.0356     10.7453     22.8489    -40.2219      1.8289      2.3579      2.2873      0.1028     53.1935
  3742.7500    133.0316     10.7115     22.5111    -51.9089      1.9015      2.4403      2.3003      0.0780     52.7658
  3742.2500    129.4814     10.6927     22.1514    -62.6479      2.0662      2.6485      2.3266      0.0605     50.6266
  3741.7500    125.1618     10.6888     21.7623    -63.6139      2.3191      2.9700      2.3514      0.0744     48.1504
  3741.2500    123.9480     10.6790     21.4149    -60.6764      2.6352      3.3738      2.3747      0.1021     46.1674
  3740.7500    122.8759     10.6510     21.1717    -53.3360      2.9651      3.8023      2.4074      0.1119     44.2390
  3740.2500    121.0387     10.6173     20.9412    -45.8101      3.2621      4.1907      2.4466      0.1090     42.1640
  3739.7500    120.2082     10.5985     20.6396    -51.6743      3.4741      4.4653      2.4714      0.1005     40.6758
  3739.2500    120.0161     10.5917     20.3225    -72.1264      3.5575      4.5801      2.4718      0.1140     39.9975
  3738.7500    119.2626     10.5729     20.0240    -94.9862      3.5331      4.5728      2.4626      0.1441     39.9075
  3738.2500    118.5156     10.5391     19.7446   -106.8732      3.4679      4.5131      2.4632      0.1517     39.9270
  3737.7500    117.5810     10.5112     19.5347   -105.3501      3.4188      4.4514      2.4743      0.1425     39.7215
  3737.2500    116.0812     10.5014     19.4245    -96.3062      3.4238      4.4428      2.4875      0.1368     39.1938
  3736.7500    113.1867     10.5009     19.3700    -83.5502      3.5197      4.5569      2.5071      0.1121     37.7540
  3736.2500    108.0649     10.5009     19.3560    -60.2573      3.6886      4.7685      2.5297      0.0612     35.4738
  3735.7500    103.3536     10.4975     19.3599    -49.9916      3.8533      4.9569      2.5675      0.0156     33.6865
  3735.2500    103.5681     10.4787     19.3254    -65.5018      3.9991      5.0999      2.6219      0.0008     33.5903
  3734.7500    107.8376     10.4483     19.2915    -77.6082      4.1489      5.2479      2.6533      0.0491     34.7249
  3734.2500    112.3601     10.4392     19.3567    -74.5426      4.2564      5.3644      2.6076      0.0973     35.2505
  3733.7500    115.0159     10.4632     19.5002    -74.1034      4.2427      5.3427      2.5381      0.0816     34.6061
  3733.2500    115.5836     10.4906     19.6158    -70.1436      4.0641      5.0967      2.4872      0.0738     34.6402
  3732.7500    114.2677     10.5009     19.6593    -48.1760      3.7813      4.6923      2.4436      0.1365     37.2342
  3732.2500    113.3621     10.5106     19.6576    -25.9223      3.5598      4.3598      2.3963      0.1775     41.2084
  3731.7500    114.3231     10.5289     19.6926    -27.2795      3.5734      4.3285      2.3775      0.1546     42.9387
  3731.2500    114.0500     10.5346     19.7874    -46.2832      3.9540      4.7476      2.4087      0.1232     41.1294
  3730.7500    109.7374     10.5197     19.8547    -59.2383      4.6629      5.5514      2.4740      0.1147     37.5303
  3730.2500    105.2557     10.5042     19.8450    -57.2967      5.2034      6.1644      2.5275      0.0801     34.8046
  3729.7500    106.4698     10.5025     19.8389    -47.8688      5.0857      6.0197      2.5602      0.0072     34.5521
  3729.2500    113.0981     10.5329     19.8629    -40.5562      4.5415      5.3582      2.5893     -0.0020     36.6753
  3728.7500    120.0954     10.6324     19.8752    -32.2946      3.9703      4.6472      2.5496      0.0780     39.1689
  3728.2500    123.9546     10.7609     19.9279    -24.1533      3.6080      4.1855      2.5094      0.1412     40.8519
  3727.7500    124.4082     10.8232     20.0173    -28.9405      3.5361      4.0806      2.4711      0.1567     41.2644
  3727.2500    123.5591     10.8093     20.0126    -43.2243      3.6980      4.2593      2.4484      0.1631     41.2646
  3726.7500    123.0403     10.7875     19.8647    -51.4523      3.9352      4.5289      2.4323      0.1530     41.7239
  3726.2500    122.0857     10.7835     19.7019    -52.4359      4.1172      4.7407      2.4273      0.1160     41.4852
  3725.7500    120.8027     10.7835     19.5956    -50.0630      4.2182      4.8661      2.4244      0.1118     40.1210
  3725.2500    120.5929     10.7835     19.5238    -49.6238      4.2578      4.9296      2.4074      0.1628     38.6646
  3724.7500    120.7193     10.7802     19.4800    -61.1110      4.2794      4.9776      2.3870      0.2128     37.5180
  3724.2500    120.1484     10.7613     19.4340    -67.0055      4.3360      5.0611      2.3907      0.2177     35.8049
  3723.7500    119.3553     10.7270     19.3813    -60.1613      4.4811      5.2284      2.4284      0.1751     32.9887
  3723.2500    115.1480     10.6921     19.3537    -57.9363      4.8361      5.6221      2.4731      0.1174     30.9961
  3722.7500    105.7223     10.6635     19.3644    -54.4291      5.5565      6.4429      2.5092      0.0807     30.0063
  3722.2500     95.4850     10.6350     19.3947    -47.7343      6.7842      7.8573      2.5453      0.0496     29.2958
  3721.7500     90.1219     10.6104     19.4423    -51.8979      8.5898      9.9403      2.6125      0.0065     28.5911
  3721.2500     91.0459     10.5979     19.4433    -60.2741     10.2195     11.9391      2.7026      0.0030     27.6743
  3720.7500     95.5059     10.5951     19.3540    -55.4274      9.5971     11.5059      2.7544      0.0483     27.3531
  3720.2500    101.5007     10.5979     19.2488    -43.2615      7.5065      9.1348      2.7070      0.0872     27.8419
  3719.7500    108.3462     10.6104     19.2244    -46.8456      5.8835      7.1459      2.6028      0.1315     28.0236
  3719.2500    114.6890     10.6350     19.2903    -59.0276      4.9349      5.9537      2.5070      0.1858     28.6795
  3718.7500    117.9255     10.6630     19.3856    -49.5158      4.4715      5.3601      2.4544      0.2022     31.2924
  3718.2500    119.7897     10.6818     19.4367    -29.8342      4.3861      5.2266      2.4597      0.1610     32.9272
  3717.7500    121.9871     10.6888     19.4313    -35.6908      4.5525      5.3939      2.4938      0.1061     32.2570
  3717.2500    122.8376     10.6893     19.4335    -39.3356      4.8105      5.6703      2.5226      0.0826     31.5807
  3716.7500    121.9906     10.6893     19.4857     -6.8991      5.0475      5.9321      2.5359      0.0701     31.3435
  3716.2500    121.4750     10.6893     19.5373     13.1040      5.2573      6.1658      2.5362      0.0524     31.2827
  3715.7500    122.3432     10.6893     19.5410     -6.5575      5.4716      6.4010      2.5308      0.0393     30.9491
  3715.2500    122.9705     10.6893     19.5202    -23.8967      5.6490      6.6043      2.5313      0.0420     30.9842
  3714.7500    122.5071     10.6893     19.4860    -14.8999      5.7478      6.7363      2.5392      0.0515     31.0325
