~Version Information
 VERS.                1.20:   CWLS log ASCII Standard -VERSION 1.20
 WRAP.                  NO:   One line per frame
~Well Information Block
#MNEM.UNIT       Data Type    Information
#---------    -------------   -------------------------------
 STRT.F          5629.5000:   Starting Depth
 STOP.F          5293.7500:   Ending Depth
 STEP.F            -0.5000:   Level Spacing
 NULL.           -999.2500:   Absent Value
 COMP.             COMPANY:   FLUOR DANIEL (NPOSR), INC.
 WELL.                WELL:   73 X 10
 FLD .               FIELD:   
 LOC .            LOCATION:   
 CNTY.              COUNTY:   
 STAT.               STATE:   
 SRVC.     SERVICE COMPANY:   
 LIC .      LICENSE NUMBER:   
 DATE.            LOG DATE:   
 API .          API NUMBER:   
~Curve Information Block
#MNEM.UNIT       API Codes    Curve Description
#---------    -------------   -------------------------------
 DEPT.F        0   1  0  1:   Depth
 P2HS.DEG      0 134  9  1:   Phase Difference, 200 MHz
 P4HS.DEG      0 134  9  1:   Phase Difference, 47 MHz
 GR  .API      0 310  1  1:   Gamma ray counts
 TEN .LBF      0 635 99  1:   Differential Tension
 D2EC.DIM      0 132 99  1:   Dielectric Constant, 200 MHz
 D4EC.DIM      0 132 99  1:   Dielectric Constant, 47 MHz
 R2SL.OHMM     0 995 99  1:   Logarithnic Resistivity (200 MHz tool)
 R4SL.OHMM     0 995 99  1:   Logarithmic Resistivity (47 MHz tool)
#  Curve Data
~A   DEPT        P2HS        P4HS        GR          TEN         D2EC        D4EC        R2SL        R4SL
# ...
  5592.0000     61.0900     39.6404     15.3753    428.4529     10.1162     13.9188     13.1945     74.9243
  5591.5000     60.5637     37.4950     14.7693    446.3074      9.9220     12.6045     13.2920     80.7460
  5591.0000     59.7474     35.5949     14.6390    450.8438      9.5695     11.5245     13.1091     88.6562
  5590.5000     59.7659     34.6219     14.5611    435.0615      9.5988     11.1102     13.2421    105.7586
  5590.0000     60.8643     34.1507     14.7699    419.4641     10.1104     11.0120     13.7581    136.8283
  5589.5000     62.2242     34.7659     15.5330    415.4417     10.7127     11.4559     14.2278    166.8214
  5589.0000     63.5323     37.8961     16.6603    414.0415     11.2747     13.3626     14.5376    188.4902
  5588.5000     64.8936     43.0662     17.7522    408.0159     11.8352     16.7920     14.5845    239.1773
  5588.0000     65.9645     48.3029     18.1886    403.6206     12.2272     20.5794     14.0977    180.1926
  5587.5000     66.1501     51.2608     17.6204    404.1555     12.1359     22.5236     12.7793     67.4592
  5587.0000     65.7988     51.1185     16.5028    406.8486     11.6968     21.0455     11.1946     32.8067
  5586.5000     65.7043     49.3234     15.5891    405.6599     11.3519     17.5709     10.0412     22.9688
  5586.0000     66.0217     48.4735     15.5221    402.7644     11.3080     15.6097      9.4910     20.1061
  5585.5000     66.1242     49.8949     15.8099    400.1570     11.2972     16.6809      9.3384     19.4464
  5585.0000     65.8668     51.8636     15.4937    398.3711     11.1974     18.7366      9.3796     19.6254
  5584.5000     65.8008     51.3452     14.4963    395.5115     11.1870     18.4680      9.4305     20.1742
  5584.0000     65.7693     48.4399     13.6378    391.5488     11.1901     15.9528      9.4768     20.9099
  5583.5000     65.0805     46.0675     13.1206    386.8140     10.8954     14.1060      9.5087     21.8572
  5583.0000     64.1614     44.6676     13.9560    378.7432     10.4675     13.5572      9.4525     23.7649
  5582.5000     63.9033     42.9324     19.5896    367.7976     10.3463     12.8246      9.4334     26.2907
  5582.0000     64.1384     41.7656     29.7471    358.1477     10.5309     12.2649      9.6468     27.9160
  5581.5000     64.2442     42.9837     37.3193    352.3198     10.7012     13.4151     10.0048     28.4573
  5581.0000     63.6547     46.3585     37.4340    351.3997     10.5659     16.2591     10.3870     28.3433
  5580.5000     61.9092     49.9572     33.3589    349.3784      9.9735     19.0102     10.9034     26.2159
  5580.0000     59.5321     51.2576     30.1980    342.3806      9.2091     19.1646     11.7356     22.2283
  5579.5000     57.6499     48.0673     29.9357    335.0791      8.7924     14.9996     13.3417     19.6965
  5579.0000     57.1143     40.6347     31.6872    331.3813      8.9662      8.1054     16.2397     20.3722
  5578.5000     58.7599     32.9619     33.8958    328.6106      9.8242      3.2719     19.8189     24.6099
  5578.0000     62.7990     30.3329     36.1023    318.4592     11.4601      3.5752     22.7615     30.5553
  5577.5000     66.8846     34.6250     36.2556    303.8162     13.1336      8.2417     25.0000     35.6998
  5577.0000     68.2644     42.7658     31.6024    292.4158     13.6986     14.7651     24.8817     39.1167
  5576.5000     67.4968     49.1605     24.7385    284.3899     13.2941     19.4614     21.3006     33.9344
  5576.0000     66.3240     50.6082     20.5971    276.8740     12.7193     19.2197     18.8519     24.5414
  5575.5000     64.6890     49.0530     19.4228    274.7329     12.0723     15.8742     19.1830     19.5061
  5575.0000     62.2440     48.4270     18.0385    275.7256     11.1962     14.3523     21.2290     18.0298
  5574.5000     60.1828     49.2823     15.7702    275.8479     10.4918     15.5318     23.5263     18.5009
  5574.0000     59.3461     49.5615     14.0228    280.0139     10.2485     16.6497     26.1094     20.0485
  5573.5000     59.3705     49.1654     13.4030    281.0205     10.3088     16.7828     28.8737     21.2180
  5573.0000     59.7998     48.8371     12.5700    270.5442     10.4997     16.6028     31.3680     21.5516
  5572.5000     61.0441     47.9315     10.7944    257.7905     10.9815     16.0631     33.6761     22.3813
  5572.0000     63.7389     46.0038      9.3143    250.3931     12.0120     15.1170     35.1092     24.8801
  5571.5000     67.0076     44.5299      9.1112    244.1839     13.2893     14.6256     33.3399     28.0213
  5571.0000     68.8817     44.8247      9.8912    241.5749     13.9956     15.1259     27.3442     29.2452
  5570.5000     68.0039     46.6420     11.3254    247.2155     13.5184     16.5062     21.7743     28.3563
  5570.0000     65.5403     48.2257     12.7018    250.5815     12.4438     17.7350     19.8620     27.5638
  5569.5000     64.1425     46.1365     13.5923    248.4908     11.9294     16.1024     21.0324     28.5191
  5569.0000     64.9101     38.7221     14.4286    245.1569     12.2895     10.6718     22.8367     31.8940
  5568.5000     66.0969     34.2991     15.2577    240.6822     12.7647      7.6278     22.8111     33.7694
  5568.0000     65.5830     41.4561     15.3171    238.2224     12.5538     12.6742     22.6646     30.9753
  5567.5000     63.3547     53.5401     14.9295    231.6716     11.7206     23.1386     24.5226     32.0265
  5567.0000     61.0063     59.3265     15.0239    217.0715     10.9003     28.3831     28.2700     29.4264
  5566.5000     59.8534     58.4574     15.1089    212.3330     10.5415     25.6266     33.3642     19.9877
  5566.0000     59.8965     54.9313     15.1627    226.4655     10.6171     19.0149     41.4783     15.0739
  5565.5000     60.0755     49.1584     17.1434    238.1348     10.7200     13.6212     51.4187     16.1411
  5565.0000     60.1305     42.4723     21.9919    237.3271     10.7492     11.2603     55.1277     22.9909
  5564.5000     61.1280     38.1465     27.7954    226.9361     11.0978     10.7369     49.2850     34.8083
  5564.0000     63.5157     39.9591     32.3239    208.3589     11.9616     13.2597     40.8347     47.0146
  5563.5000     65.4745     47.8083     33.7773    191.0672     12.6776     19.5344     33.5757     57.0388
  5563.0000     65.1998     56.0496     32.1905    183.3504     12.5006     26.5207     27.5547     56.5201
  5562.5000     62.5776     58.6732     29.2465    181.9480     11.4147     28.4387     24.2597     38.8544
  5562.0000     58.6558     55.7732     25.9332    179.8484      9.9815     24.7831     25.3841     28.3150
  5561.5000     55.7679     51.3617     22.7361    174.6621      9.0829     20.5892     31.7443     27.7960
  5561.0000     55.3165     47.6234     21.0759    168.4359      9.0210     18.2544     41.5731     34.8421
  5560.5000     56.2372     45.0635     20.9111    165.6143      9.3470     16.9200     44.3048     44.5012
  5560.0000     57.3500     43.8476     20.3159    169.4204      9.6611     16.1825     34.5058     48.3177
  5559.5000     58.9346     43.5319     18.8620    175.2798     10.1004     15.8956     26.1746     47.2952
  5559.0000     60.2778     43.9006     17.3387    171.6799     10.4933     16.1397     22.4305     46.6130
  5558.5000     59.6492     44.8938     16.9922    157.6109     10.1871     16.9281     20.5365     47.2211
  5558.0000     57.1251     44.4879     19.4112    149.2255      9.1766     16.7670     18.9070     50.6787
  5557.5000     54.3817     41.1375     23.9176    153.5528      8.1797     14.6705     18.5895     61.5325
  5557.0000     52.5006     36.2377     27.5882    161.4786      7.6536     11.8989     20.4465     87.0309
  5556.5000     51.5645     32.5583     28.7085    165.8154      7.5326     10.0736     24.7026    127.7713
  5556.0000     51.5780     32.1110     27.9692    166.1298      7.7087      9.9042     32.2044    144.6641
  5555.5000     52.2805     34.6433     26.6713    157.3925      8.0565     11.2276     46.2447    121.9103
  5555.0000     53.1589     37.8565     25.6215    142.4749      8.4009     12.9650     70.4012     91.6113
