~Version Information
 VERS.                1.20:   CWLS log ASCII Standard -VERSION 1.20
 WRAP.                  NO:   One line per frame
~Well Information Block
#MNEM.UNIT       Data Type    Information
#---------    -------------   -------------------------------
 STRT.F          5623.7500:   Starting Depth
 STOP.F           -24.0000:   Ending Depth
 STEP.F            -0.5000:   Level Spacing
 NULL.           -999.2500:   Absent Value
 COMP.             COMPANY:   FLUOR DANIEL (NPOSR), INC.
 WELL.                WELL:   73 X 10
 FLD .               FIELD:   
 LOC .            LOCATION:   
 CNTY.              COUNTY:   
 STAT.               STATE:   
 SRVC.     SERVICE COMPANY:   
 LIC .      LICENSE NUMBER:   
 DATE.            LOG DATE:   
 API .          API NUMBER:   
~Curve Information Block
#MNEM.UNIT       API Codes    Curve Description
#---------    -------------   -------------------------------
 DEPT.F        0   1  0  1:   Depth
 GR  .API      0 310  1  1:   Gamma ray counts
 CAL .IN       0 280 99  1:   Caliper (for 4CAL: from C13 and/or C24)
 SP  .MV       0  10  1  1:   Spontaneous Potential
 TEN .LBF      0 635 99  1:   Differential Tension
 RS  .OHMM     0 220  9  1:   Logarithmic Resistivity from ES, IS
 RD  .OHMM     0 220 10  1:   Logarithmic Resistivity from ED, ID
 ZDEN.G/C3     0 350  1  1:   ZDL Bulk Density
 ZCOR.G/C3     0 356 99  1:   ZDL Correction
 CNC .PU       0 995 99  1:   Corrected Neutron Porosity from CN
#  Curve Data
~A   DEPT        GR          CAL         SP          TEN         RS          RD          ZDEN        ZCOR        CNC 
# ...
  3010.7500     94.6347      9.5587     22.2764    -24.8020      6.4507      7.8482      2.5828      0.0686     18.9113
  3010.2500     95.9524      9.5587     22.4775    -17.9859      6.1745      7.5135      2.5819      0.0732     19.7242
  3009.7500     96.7875      9.5587     22.6579    -11.8718      5.8956      7.1608      2.5791      0.0862     20.7371
  3009.2500     98.2090      9.5587     22.8481    -11.5754      5.7078      6.9494      2.5706      0.0956     20.6631
  3008.7500    100.9712      9.5587     23.0382     -9.8878      5.5089      6.7690      2.5590      0.0887     21.2036
  3008.2500    108.1452      9.5587     23.0720     -5.4760      5.0961      6.3045      2.5468      0.0779     22.0519
  3007.7500    118.4877      9.5587     22.9284    -17.0422      4.5257      5.5641      2.5197      0.1041     21.9857
  3007.2500    124.5507      9.5587     22.7717    -33.8041      4.0720      4.9318      2.4739      0.1462     20.8663
  3006.7500    121.2380      9.5587     22.6653    -30.9050      3.9093      4.6875      2.4410      0.1448     19.9164
  3006.2500    112.5171      9.5587     22.5538    -20.2627      4.1290      4.9589      2.4533      0.1001     20.5512
  3005.7500    105.1427      9.5587     22.4659     -8.2100      4.7088      5.6924      2.4979      0.0644     21.9187
  3005.2500    101.8386      9.5587     22.4361      4.7467      5.1667      6.2740      2.5340      0.0708     22.3376
  3004.7500    102.5280      9.5587     22.4427      2.9408      4.8470      5.8957      2.5430      0.1088     22.0314
  3004.2500    105.3464      9.5587     22.4975     -5.5836      4.1449      5.0194      2.5192      0.1537     24.3335
  3003.7500    107.6049      9.5592     22.5592      1.5079      3.5857      4.3098      2.4720      0.1728     27.5015
  3003.2500    108.2381      9.5701     22.5706     16.6548      3.2429      3.8775      2.4347      0.1738     29.4192
  3002.7500    108.6277      9.6181     22.5787     23.9608      3.0471      3.6430      2.4182      0.1685     30.2128
  3002.2500    109.9792      9.7175     22.6846     24.7157      2.9459      3.5323      2.4078      0.1650     30.6328
  3001.7500    111.8542      9.8312     22.8232     16.5121      2.8759      3.4537      2.3956      0.1861     30.8675
  3001.2500    113.4437      9.8963     22.8800      4.4338      2.7799      3.3290      2.3816      0.2341     31.3748
  3000.7500    113.4962      9.8939     22.8979     -1.1538      2.6783      3.1878      2.3577      0.2682     32.3474
  3000.2500    112.2520      9.8635     22.9231      9.0009      2.6396      3.1254      2.3354      0.2607     32.9034
  2999.7500    110.0733      9.8447     22.8823     23.3941      2.6959      3.1888      2.3291      0.2379     32.2210
  2999.2500    108.0548      9.8413     22.7729     23.0187      2.8262      3.3525      2.3361      0.2395     30.6454
  2998.7500    106.3700      9.8441     22.6965     17.1325      2.9706      3.5396      2.3424      0.2617     29.2823
  2998.2500    105.6229      9.8566     22.7120      9.9467      3.0370      3.6325      2.3417      0.2754     28.8555
  2997.7500    105.8919      9.8812     22.7930     -2.6090      2.9833      3.5749      2.3335      0.2777     29.4984
  2997.2500    106.5939      9.9092     22.8556    -19.3465      2.8833      3.4566      2.3170      0.2811     30.6531
  2996.7500    106.6403      9.9286     22.8390    -26.0275      2.8321      3.3949      2.2959      0.2774     31.3102
  2996.2500    107.0738      9.9453     22.7902    -22.6112      2.8605      3.4280      2.2813      0.2681     30.8668
  2995.7500    108.8220      9.9738     22.7619    -17.0159      2.9373      3.5240      2.2916      0.2412     29.6293
  2995.2500    110.3738     10.0075     22.7414    -17.9636      3.0158      3.6299      2.3265      0.1984     28.5120
  2994.7500    110.3355     10.0326     22.7209    -21.8267      3.0673      3.7030      2.3478      0.1893     28.2515
  2994.2500    109.2678     10.0639     22.6873    -12.7011      3.0806      3.7191      2.3314      0.2190     28.5961
  2993.7500    108.6882     10.1034     22.6363     -1.6741      3.0770      3.7059      2.3159      0.2395     28.9886
  2993.2500    108.7973     10.1256     22.6214     -8.9832      3.1032      3.7321      2.3326      0.2419     29.3957
  2992.7500    108.1938     10.1262     22.7202    -20.3777      3.1763      3.8204      2.3590      0.2481     29.6685
  2992.2500    106.2415     10.1240     22.9037    -14.1236      3.2651      3.9275      2.3648      0.2541     29.4365
  2991.7500    105.4305     10.1240     23.0457     -2.6224      3.3284      4.0026      2.3524      0.2623     29.0395
  2991.2500    106.8593     10.1240     23.0700     -3.4791      3.3392      4.0150      2.3362      0.2728     29.1038
  2990.7500    108.5681     10.1240     22.9910    -10.8244      3.2903      3.9514      2.3187      0.2829     29.7372
  2990.2500    108.5350     10.1240     22.8832    -14.9481      3.2192      3.8511      2.3007      0.2832     30.5319
  2989.7500    106.8517     10.1251     22.8454    -14.5564      3.1898      3.7950      2.2898      0.2744     30.8663
  2989.2500    104.9977     10.1412     22.8833    -10.6500      3.2393      3.8369      2.2904      0.2682     30.3945
  2988.7500    104.8154     10.1783     22.9167     -8.6370      3.3690      3.9839      2.3024      0.2659     29.4621
  2988.2500    106.3147     10.2132     22.9227     -7.8440      3.5471      4.1967      2.3221      0.2557     28.5268
  2987.7500    107.1936     10.2457     22.9390    -12.8850      3.7021      4.3825      2.3397      0.2502     27.3402
  2987.2500    106.7384     10.3175     22.9545    -18.6212      3.7629      4.4485      2.3487      0.2639     25.6978
  2986.7500    105.1559     10.4182     22.9588    -15.9817      3.7565      4.4293      2.3555      0.2790     25.3452
  2986.2500    102.9485     10.4805     22.9713     -3.8881      3.7601      4.4268      2.3683      0.2747     26.1143
  2985.7500    101.8369     10.4747     23.0084      6.5874      3.7914      4.4626      2.3886      0.2567     25.1369
  2985.2500    103.3803     10.4227     23.0690      4.9800      3.8457      4.5237      2.4132      0.2474     24.5558
  2984.7500    105.8448     10.3610     23.1461    -10.4139      3.9282      4.6162      2.4329      0.2512     24.1297
  2984.2500    106.4476     10.3233     23.2015    -30.1069      4.0188      4.7172      2.4402      0.2548     23.4792
  2983.7500    105.1305     10.3096     23.2103    -40.5744      4.1114      4.8167      2.4426      0.2549     22.3254
  2983.2500    104.6061     10.2902     23.2034    -37.9347      4.2220      4.9396      2.4485      0.2648     21.4185
  2982.7500    105.3095     10.2565     23.2596    -26.1071      4.3156      5.0494      2.4533      0.2813     20.9701
  2982.2500    105.3857     10.2285     23.3522    -12.6477      4.3502      5.0880      2.4504      0.2846     20.9944
  2981.7500    104.2728     10.2188     23.3749     -7.7214      4.3590      5.0896      2.4425      0.2744     21.3492
  2981.2500    102.8604     10.2182     23.3083     -7.2285      4.3618      5.0863      2.4293      0.2616     21.8050
  2980.7500    102.3047     10.2182     23.2225     -2.3430      4.3492      5.0710      2.4073      0.2623     22.2381
  2980.2500    102.7711     10.2177     23.1916      6.0201      4.3478      5.0686      2.3787      0.2788     22.7152
  2979.7500    101.8652     10.2113     23.2265     10.5740      4.3781      5.0989      2.3521      0.2874     23.3073
  2979.2500     97.7088     10.2022     23.2586     14.2161      4.4219      5.1399      2.3358      0.2654     24.0255
  2978.7500     94.0805     10.2022     23.2289     22.7432      4.4845      5.1998      2.3278      0.2399     24.7097
  2978.2500     93.2471     10.2113     23.1896     19.8100      4.6070      5.3313      2.3203      0.2386     24.9682
  2977.7500     92.7770     10.2182     23.2000     13.5377      4.7656      5.5082      2.3161      0.2534     24.5854
