~Version Information
 VERS.                1.20:   CWLS log ASCII Standard -VERSION 1.20
 WRAP.                  NO:   One line per frame
~Well Information Block
#MNEM.UNIT       Data Type    Information
#---------    -------------   -------------------------------
 STRT.F          5629.5000:   Starting Depth
 STOP.F          5293.7500:   Ending Depth
 STEP.F            -0.5000:   Level Spacing
 NULL.           -999.2500:   Absent Value
 COMP.             COMPANY:   FLUOR DANIEL (NPOSR), INC.
 WELL.                WELL:   73 X 10
 FLD .               FIELD:   
 LOC .            LOCATION:   
 CNTY.              COUNTY:   
 STAT.               STATE:   
 SRVC.     SERVICE COMPANY:   
 LIC .      LICENSE NUMBER:   
 DATE.            LOG DATE:   
 API .          API NUMBER:   
~Curve Information Block
#MNEM.UNIT       API Codes    Curve Description
#---------    -------------   -------------------------------
 DEPT.F        0   1  0  1:   Depth
 P2HS.DEG      0 134  9  1:   Phase Difference, 200 MHz
 P4HS.DEG      0 134  9  1:   Phase Difference, 47 MHz
 GR  .API      0 310  1  1:   Gamma ray counts
 TEN .LBF      0 635 99  1:   Differential Tension
 D2EC.DIM      0 132 99  1:   Dielectric Constant, 200 MHz
 D4EC.DIM      0 132 99  1:   Dielectric Constant, 47 MHz
 R2SL.OHMM     0 995 99  1:   Logarithnic Resistivity (200 MHz tool)
 R4SL.OHMM     0 995 99  1:   Logarithmic Resistivity (47 MHz tool)
#  Curve Data
~A   DEPT        P2HS        P4HS        GR          TEN         D2EC        D4EC        R2SL        R4SL
# ...
  5367.0000     60.5522     64.5172     76.1535     -7.9132      9.4988     34.5587     11.2322     47.1101
  5366.5000     65.8848     61.2662     72.2315    -12.6535     11.9025     30.9024     12.0398     37.2067
  5366.0000     82.2877     52.9595     66.4361    -17.7687     19.9156     23.6706     17.4012     51.5968
  5365.5000     96.2208     52.2304     61.6681    -18.4153     27.4438     23.6316     17.5056    116.6116
  5365.0000     99.8550     61.5040     60.8602    -15.4208     28.6972     32.1260      7.8019    273.3804
  5364.5000     95.5960     70.1546     61.7403    -10.9986     23.4165     41.0219      4.3550    104.8691
  5364.0000     91.2340     70.9891     60.2023     -6.5276     18.5213     41.7031      3.5751     55.1460
  5363.5000     91.5204     67.4433     56.6662     -6.6731     18.8752     37.7292      3.6205     50.9517
  5363.0000     93.3630     65.4366     53.9719    -10.4420     20.9177     35.8443      3.8861     74.4280
  5362.5000     91.9056     65.8552     55.5437    -15.0377     20.4663     36.5126      4.0918    348.9331
  5362.0000     88.9034     66.6395     62.0216    -14.4051     18.6070     37.3577      4.1294   -846.8694
  5361.5000     87.0526     66.5197     68.3777    -11.1685     17.5966     37.2320      4.2019   -845.6599
  5361.0000     85.9326     65.8802     70.1251    -15.1856     17.4110     36.5645      4.4325   -839.0044
  5360.5000     84.2151     65.3974     69.3446    -24.4500     16.9508     36.0647      4.7376   -833.8743
  5360.0000     80.8823     65.3430     70.4477    -27.0257     15.6683     36.0087      5.1575   -833.3567
  5359.5000     79.5259     65.7209     74.0836    -16.6747     15.3224     36.3992      5.4637   -837.2808
  5359.0000     85.7947     66.1158     78.0091     -5.8972     18.4562     36.8097      5.0895   -841.3513
  5358.5000     94.1716     66.1611     81.3269     -8.8865     22.7779     36.8569      4.5199   -841.8821
  5358.0000     99.4852     65.9528     83.9905    -20.3459     25.2030     36.6399      3.9482   -839.6353
  5357.5000    104.5795     65.7691     87.6320    -29.0009     26.9970     36.4491      3.2949   -837.7603
  5357.0000    109.0463     65.5597     93.9720    -33.0751     28.6199     36.2323      2.8660   -835.5986
  5356.5000    108.3045     65.3396    100.5398    -29.5365     27.2347     36.0051      2.7142   -833.3018
  5356.0000    106.6443     65.4500    102.2681    -17.5650     25.0840     36.1190      2.5837   -834.5938
  5355.5000    109.4039     65.8204    102.5094     -8.8243     26.2434     36.5023      2.4349   -838.3391
  5355.0000    113.9778     66.1034    106.6964     -5.7913     29.6387     36.7967      2.3800   -841.2925
  5354.5000    114.9288     66.2308    111.1137      0.0674     30.2337     36.9297      2.3532   -842.5715
  5354.0000    110.0567     66.2992    111.3399      6.5249     26.0545     37.0012      2.3458   -843.2722
  5353.5000    103.3950     66.3439    111.5745      8.0520     20.9742     37.0479      2.4009   -843.8171
  5353.0000     97.7823     66.4224    114.5689      7.8028     18.1933     37.1300      2.6104   -844.6375
  5352.5000     93.5957     66.4657    117.0159     12.1805     17.6627     37.1754      3.0106   -845.1228
  5352.0000     91.0034     66.3661    115.9446     16.7909     17.7060     37.0711      3.4044   -843.9944
  5351.5000     89.7201     66.3272    112.6303     18.6715     17.8074     37.0304      3.6658   -843.6025
  5351.0000     88.4143     66.5745    110.5067     28.9207     17.6400     37.2895      3.8875   -846.2324
  5350.5000     86.4512     66.9591    111.5890     46.9364     17.0236     37.6944      4.1260   -850.1501
  5350.0000     84.3931     66.9975    114.4108     54.0991     16.3567     37.7350      4.3881   -850.5977
  5349.5000     82.8726     66.3580    116.6012     51.9537     16.0835     37.0626      4.7068   -843.8823
  5349.0000     80.8025     65.1809    117.6960     47.2503     15.6017     35.8418      5.1442   -831.7522
  5348.5000     77.6567     63.9902    117.8189     37.3860     14.4655     34.6289      5.6121   -819.2761
  5348.0000     75.6838     63.1851    117.2802     20.8803     13.7647     33.8212      5.9303   -811.0276
  5347.5000     77.8772     62.7568    117.6713     11.6739     15.0464     33.3957      6.0142   -806.5510
  5347.0000     82.7209     62.7834    119.2401     10.8177     17.6441     33.4221      5.9290   -806.7974
  5346.5000     85.9345     63.2679    120.2063      9.4388     19.2264     33.9038      5.6689   -811.8816
  5346.0000     85.3567     64.0403    119.8729      3.0473     18.4561     34.6795      5.2850   -819.8611
  5345.5000     82.4558     64.8307    119.6223      5.4000     16.4386     35.4827      5.0603   -828.0771
  5345.0000     79.3573     65.1233    119.8348     16.1138     14.8858     35.7826      5.2220   -831.0925
  5344.5000     77.4939     64.2595    118.9320     16.4480     14.5340     34.9012      5.7410   -822.1113
  5344.0000     77.0928     62.6150    115.3137     10.3459     14.9176     33.2554      6.3203   -805.1162
  5343.5000     76.6035     61.3703    109.0811      7.0806     15.0582     32.0378      6.8119   -792.2307
  5343.0000     75.0421     61.2124    102.2946      3.2376     14.4783     31.8850      7.1399   -790.5779
  5342.5000     73.4725     61.6556     96.1211     -1.6128     13.7448     32.2688      7.2366    251.5588
  5342.0000     73.1111     61.8169     92.5728     -1.0446     13.5246     32.2739      7.1805     94.1552
  5341.5000     73.5270     61.7103     95.8487     -1.5579     13.7720     32.0771      7.2362     75.1102
  5341.0000     73.7789     61.7736    106.6326     -2.2451     14.0738     32.1594      7.5176     78.3174
  5340.5000     72.9233     61.9461    120.3293      2.7359     13.8691     32.3766      7.9187     87.8020
  5340.0000     71.2452     62.1233    130.2244      6.8979     13.1952     32.5674      8.2058     91.8543
  5339.5000     68.9467     62.5150    132.6054     -0.7716     12.2466     32.9346      8.5114     86.6180
  5339.0000     65.5075     62.7782    128.8971    -14.4140     10.9548     33.1331      9.1725     74.6051
  5338.5000     61.6846     61.7701    123.4560    -19.3712      9.6798     32.0657     10.2415     66.2668
  5338.0000     59.8853     58.8834    117.9127    -14.0852      9.3373     29.2989     11.6750     68.3197
  5337.5000     61.5850     55.6670    112.4026     -6.2342     10.3351     26.4250     13.3293     77.7260
  5337.0000     65.8536     54.3536    109.2961     -6.6249     12.2050     25.2688     14.3200     78.2154
  5336.5000     69.7798     55.3104    110.3586    -17.4860     13.8036     25.9494     13.5706     62.4053
  5336.0000     70.8761     57.5430    113.1817    -19.0329     14.0462     27.6356     11.7670     45.6672
  5335.5000     69.6366     59.6006    114.4041     10.9416     13.2001     29.1881     10.3687     36.0505
  5335.0000     67.9373     60.3089    113.4243     49.6293     12.3007     29.6576      9.8924     32.6476
  5334.5000     66.2883     60.2186    112.2175     53.7447     11.6539     29.6402     10.1896     33.6231
  5334.0000     64.6216     60.4348    112.8714     31.6239     11.0972     30.0719     10.8066     37.1542
  5333.5000     63.3080     60.4136    116.6414     16.5362     10.6974     30.2281     11.4623     41.0166
  5333.0000     63.2255     59.2648    120.4613      8.5403     10.7866     29.2286     12.0559     44.3113
  5332.5000     64.3540     57.5443    120.5443     -4.8995     11.3362     27.7303     12.4999     48.8915
  5332.0000     64.4283     56.7885    117.8675    -19.6835     11.4045     27.1755     12.7294     55.4422
  5331.5000     62.3559     57.5349    115.9533    -25.3888     10.5325     27.9566     12.6221     61.2046
  5331.0000     61.3005     58.4440    114.8045    -13.2773     10.0401     28.8228     12.2783     62.6012
  5330.5000     63.1740     58.4821    113.2721      4.0233     10.8086     28.8310     12.2861     60.4987
  5330.0000     65.2613     58.1824    114.0065      6.7731     11.7381     28.5477     12.6337     60.3446
