~Version Information
 VERS.                1.20:   CWLS log ASCII Standard -VERSION 1.20
 WRAP.                  NO:   One line per frame
~Well Information Block
#MNEM.UNIT       Data Type    Information
#---------    -------------   -------------------------------
 STRT.F          5629.5000:   Starting Depth
 STOP.F          5293.7500:   Ending Depth
 STEP.F            -0.5000:   Level Spacing
 NULL.           -999.2500:   Absent Value
 COMP.             COMPANY:   FLUOR DANIEL (NPOSR), INC.
 WELL.                WELL:   73 X 10
 FLD .               FIELD:   
 LOC .            LOCATION:   
 CNTY.              COUNTY:   
 STAT.               STATE:   
 SRVC.     SERVICE COMPANY:   
 LIC .      LICENSE NUMBER:   
 DATE.            LOG DATE:   
 API .          API NUMBER:   
~Curve Information Block
#MNEM.UNIT       API Codes    Curve Description
#---------    -------------   -------------------------------
 DEPT.F        0   1  0  1:   Depth
 P2HS.DEG      0 134  9  1:   Phase Difference, 200 MHz
 P4HS.DEG      0 134  9  1:   Phase Difference, 47 MHz
 GR  .API      0 310  1  1:   Gamma ray counts
 TEN .LBF      0 635 99  1:   Differential Tension
 D2EC.DIM      0 132 99  1:   Dielectric Constant, 200 MHz
 D4EC.DIM      0 132 99  1:   Dielectric Constant, 47 MHz
 R2SL.OHMM     0 995 99  1:   Logarithnic Resistivity (200 MHz tool)
 R4SL.OHMM     0 995 99  1:   Logarithmic Resistivity (47 MHz tool)
#  Curve Data
~A   DEPT        P2HS        P4HS        GR          TEN         D2EC        D4EC        R2SL        R4SL
# ...
  5404.5000     55.0538     39.9774     24.2631    -20.2185      8.0951     14.1734     15.1990     76.7825
  5404.0000     54.9401     38.6797     24.7238    -14.5729      8.0611     13.3696     15.2573     80.7576
  5403.5000     54.5363     38.8998     24.7962     -7.2941      7.9524     13.5401     15.5611     82.7987
  5403.0000     54.2436     39.4194     24.9973     -4.9392      7.8929     13.9198     15.9508     86.0721
  5402.5000     54.3790     39.9273     24.6564    -10.3627      7.9426     14.2915     15.9611     89.5316
  5402.0000     54.5291     41.2793     22.4149    -16.3581      7.9652     15.2027     15.6903     89.5700
  5401.5000     53.7631     42.7170     18.5501    -17.2285      7.6939     16.1813     15.7169     87.5779
  5401.0000     52.0826     42.2470     14.9905    -17.6598      7.1552     15.8551     16.1658     87.8900
  5400.5000     50.2623     39.4193     12.7326    -21.4375      6.6584     13.9751     17.3058     91.5817
  5400.0000     48.4869     36.6297     11.5517    -20.7921      6.3281     12.2145     20.2679     93.5872
  5399.5000     46.7487     36.1718     12.0345    -12.8933      6.0479     11.8392     25.2372     85.5414
  5399.0000     45.7279     37.4773     14.6835     -9.6499      5.9360     12.4278     32.0080     71.1558
  5398.5000     45.7215     38.5653     17.7248    -14.6366      6.0776     12.9092     43.2994     61.6156
  5398.0000     45.9309     38.8816     19.1915    -16.4920      6.2361     13.0957     66.9084     60.7315
  5397.5000     45.8269     38.6999     19.2704    -10.7201      6.2569     13.1766    120.0666     68.6921
  5397.0000     45.6268     37.9855     20.4651     -3.9125      6.2208     12.9574    293.2686     83.6109
  5396.5000     45.5773     36.8767     25.0965     -2.0103      6.2110     12.4255   3009.4692    100.0073
  5396.0000     45.4358     35.9949     32.1390     -3.9452      6.1725     11.9589 1000000.000    109.9486
  5395.5000     44.9399     35.6408     38.4285     -6.3498      6.0385     11.7614 1000000.000    112.3567
  5395.0000     44.1742     35.4259     41.6947     -8.8734      5.8345     11.6545 1000000.000    115.8554
  5394.5000     43.5657     35.1345     40.6778    -12.6773      5.6749     11.5305 1000000.000    124.9191
  5394.0000     43.2741     34.8999     36.2073    -15.7240      5.5988     11.4597   1010.1318    140.8918
  5393.5000     43.4342     34.7952     31.4236    -16.9321      5.6382     11.4771    385.0100    168.7926
  5393.0000     44.5359     34.8839     28.2943    -19.1885      5.9270     11.5902    315.8860    205.3372
  5392.5000     46.6849     35.6815     27.4628    -26.3682      6.5130     12.0548    295.5708    207.1995
  5392.0000     49.0258     37.8814     29.3392    -31.7984      7.1790     13.2925    193.5218    154.9124
  5391.5000     50.4899     41.2665     31.9510    -25.8692      7.5943     15.2930     97.7623    102.9520
  5391.0000     50.6920     44.4996     32.0493    -14.5906      7.6053     17.2772     58.1268     71.3306
  5390.5000     49.7756     45.8589     29.4535     -9.0463      7.2775     17.9980     45.7693     56.3730
  5390.0000     48.3411     44.6294     26.3748     -9.8076      6.8483     16.9937     45.6772     54.0387
  5389.5000     47.4883     42.0179     23.9547    -13.0769      6.6343     15.3159     52.6074     62.4852
  5389.0000     47.8336     40.1411     22.3033    -17.9331      6.7762     14.3112     67.4438     78.7296
  5388.5000     48.7194     40.0013     23.0093    -22.1088      7.0638     14.3639     92.7833     92.0556
  5388.0000     49.2847     40.7316     28.3692    -24.0560      7.2401     14.8577    111.2706     92.6485
  5387.5000     49.3592     40.9895     37.5039    -24.5183      7.2587     15.0084    103.6598     89.9093
  5387.0000     49.1090     40.1699     44.6293    -25.5376      7.1763     14.4961     90.1464     94.4196
  5386.5000     48.4998     38.5953     44.0780    -28.0569      6.9916     13.5302     83.2854    102.8211
  5386.0000     47.3742     36.9028     37.6651    -27.7477      6.6638     12.4929     80.4519    106.8729
  5385.5000     45.8223     35.6061     31.6446    -26.6006      6.2318     11.7127     83.5459    108.1749
  5385.0000     44.8988     35.0826     28.9477    -25.0176      5.9929     11.3998     98.5740    108.0730
  5384.5000     45.9228     35.7314     29.0356    -22.7161      6.2873     11.7550    132.7552    103.7213
  5384.0000     48.8360     37.8790     31.2251    -19.6963      7.1206     12.9953    165.4166     93.2598
  5383.5000     51.3587     41.0576     35.0164    -18.3210      7.8693     14.9272    121.3248     78.2390
  5383.0000     51.4356     43.5136     37.3566    -18.2558      7.8538     16.4533     67.3243     65.3283
  5382.5000     49.9203     43.3136     34.4894    -21.0621      7.3301     16.2215     47.3875     61.3554
  5382.0000     48.6613     40.8485     27.7261    -24.6675      6.9529     14.6573     47.4257     70.1262
  5381.5000     48.1678     38.5580     22.6960    -26.4359      6.8661     13.4059     64.1007     90.7178
  5381.0000     48.2282     37.9117     22.2736    -27.7568      6.9192     13.1032     90.7906    104.0011
  5380.5000     48.9210     38.4791     24.8925    -28.3894      7.1267     13.3947     98.6912     94.9930
  5380.0000     50.0914     39.5950     27.8852    -29.3743      7.4672     13.9727     87.7157     80.7559
  5379.5000     51.1018     40.9522     27.7435    -30.1892      7.7619     14.7258     74.9882     69.9570
  5379.0000     50.8915     42.0048     23.2538    -30.1428      7.6811     15.2936     64.5719     61.9529
  5378.5000     49.6460     41.8457     19.8402    -30.0273      7.2901     15.0682     58.8510     57.8368
  5378.0000     49.5309     39.9051     25.6147    -28.6758      7.2634     13.7962     61.9342     60.8436
  5377.5000     52.4903     37.1816     40.3320    -23.4112      8.1929     12.2471     73.7601     71.6341
  5377.0000     57.1628     36.5438     54.0502    -18.8630      9.7474     11.9669     95.7212     78.4400
  5376.5000     59.9621     40.3067     58.5123    -21.0764     10.7169     14.2282     75.1086     67.2169
  5376.0000     58.8960     46.6784     56.3149    -24.1856     10.2528     18.4594     40.5721     50.7669
  5375.5000     55.0321     50.2750     55.2888    -23.1815      8.7827     21.0051     28.6435     41.9044
  5375.0000     53.2001     47.5791     58.5450    -18.2915      8.1480     18.8367     27.5894     43.0723
  5374.5000     59.7656     41.2376     62.3634    -12.4178     10.4872     14.5942     31.3649     56.5344
  5374.0000     72.5274     39.1585     62.1856    -12.9594     15.6383     13.5738     37.8971     73.5072
  5373.5000     81.0312     48.8494     57.9774    -21.5193     19.4966     20.3259     27.5669     55.3751
  5373.0000     82.5400     66.4233     51.9515    -22.9555     19.7227     35.5748     12.3897     27.3859
  5372.5000     81.6050     76.5645     46.8995    -13.5472     18.0031     45.0484      7.3004     15.4370
  5372.0000     81.4969     71.7773     45.4292      0.2498     17.0654     36.7668      6.0421     12.3128
  5371.5000     83.4046     62.4487     45.0731      8.0648     18.0340     26.1638      5.9336     13.4028
  5371.0000     86.5193     60.6082     40.1441      1.5000     19.7000     27.1251      5.8084     17.9541
  5370.5000     86.5824     65.2663     34.3120    -11.3335     19.4836     34.3730      5.5521     27.9014
  5370.0000     82.2460     68.6015     38.4832    -19.0061     16.6800     38.6716      5.3142     38.3105
  5369.5000     74.8972     66.8053     53.9825    -22.1988     12.8052     36.8231      5.5165     41.4873
  5369.0000     69.1502     61.0024     70.5115    -21.4427     10.8588     31.1588      6.4180     54.4179
  5368.5000     70.0313     54.6087     79.6685    -12.5328     12.4323     25.6407      7.8662    109.3560
  5368.0000     72.4192     53.0711     81.2225     -6.8192     14.4161     24.4663     10.1040    244.5700
  5367.5000     67.4222     58.7796     79.1017     -6.4843     12.4854     29.4164     11.6050    112.9746
