~Version Information
 VERS.                1.20:   CWLS log ASCII Standard -VERSION 1.20
 WRAP.                  NO:   One line per frame
~Well Information Block
#MNEM.UNIT       Data Type    Information
#---------    -------------   -------------------------------
 STRT.F          5629.5000:   Starting Depth
 STOP.F          5293.7500:   Ending Depth
 STEP.F            -0.5000:   Level Spacing
 NULL.           -999.2500:   Absent Value
 COMP.             COMPANY:   FLUOR DANIEL (NPOSR), INC.
 WELL.                WELL:   73 X 10
 FLD .               FIELD:   
 LOC .            LOCATION:   
 CNTY.              COUNTY:   
 STAT.               STATE:   
 SRVC.     SERVICE COMPANY:   
 LIC .      LICENSE NUMBER:   
 DATE.            LOG DATE:   
 API .          API NUMBER:   
~Curve Information Block
#MNEM.UNIT       API Codes    Curve Description
#---------    -------------   -------------------------------
 DEPT.F        0   1  0  1:   Depth
 P2HS.DEG      0 134  9  1:   Phase Difference, 200 MHz
 P4HS.DEG      0 134  9  1:   Phase Difference, 47 MHz
 GR  .API      0 310  1  1:   Gamma ray counts
 TEN .LBF      0 635 99  1:   Differential Tension
 D2EC.DIM      0 132 99  1:   Dielectric Constant, 200 MHz
 D4EC.DIM      0 132 99  1:   Dielectric Constant, 47 MHz
 R2SL.OHMM     0 995 99  1:   Logarithnic Resistivity (200 MHz tool)
 R4SL.OHMM     0 995 99  1:   Logarithmic Resistivity (47 MHz tool)
#  Curve Data
~A   DEPT        P2HS        P4HS        GR          TEN         D2EC        D4EC        R2SL        R4SL
# ...
  5329.5000     65.4396     57.8394    117.8472      0.9071     11.7633     28.2705     12.3267     63.6316
  5329.0000     65.1277     57.3127    120.9539     -4.9254     11.4861     27.8158     11.5533     66.4674
  5328.5000     65.7710     57.1390    120.2458    -12.2705     11.6827     27.6714     11.1853     67.9012
  5328.0000     66.9422     57.7612    115.4634    -16.7899     12.1973     28.2838     11.2153     72.0377
  5327.5000     67.7082     58.6895    108.7789    -14.6382     12.5284     29.2030     11.1946     79.4546
  5327.0000     67.8046     58.9833    106.3126    -13.1370     12.5228     29.5183     10.9728     86.5964
  5326.5000     67.6679     58.1317    111.6622    -17.6330     12.3978     28.7579     10.6947     94.5694
  5326.0000     67.5854     56.9206    120.8779    -23.7507     12.3345     27.6952     10.5860    109.0290
  5325.5000     67.3567     56.7081    127.6321    -23.1031     12.2486     27.5491     10.6479    130.4903
  5325.0000     66.9899     57.4804    125.4187    -21.7306     12.0715     28.2710     10.5872    145.4902
  5324.5000     66.3548     58.2702    107.7116    -27.0864     11.7448     28.9929     10.4083    142.3602
  5324.0000     64.9339     58.6164     77.2230    -37.1588     11.1232     29.2987     10.4044    131.3171
  5323.5000     63.2703     58.4993     47.7756    -49.5094     10.4841     29.1843     10.6733    127.8682
  5323.0000     62.7839     58.0339     31.4071    -62.6714     10.4287     28.7762     11.2516    143.5714
  5322.5000     64.3344     57.6195     27.8024    -64.9351     11.2268     28.4317     11.9364    183.7473
  5322.0000     67.4048     57.6235     27.9716    -53.6111     12.5532     28.4483     12.0213    207.8419
  5321.5000     70.4673     58.2850     26.6543    -36.9184     13.7470     29.0333     11.1342    169.6960
  5321.0000     71.7750     59.5386     27.5152    -24.0550     14.0555     30.1554      9.8762    126.1627
  5320.5000     70.1959     60.7575     33.4214    -21.0520     13.1020     31.2668      9.1800    101.9662
  5320.0000     67.0903     60.5076     38.4077    -27.1313     11.7662     30.9949      9.4303     92.6134
  5319.5000     65.4594     57.9916     36.8316    -41.4992     11.5112     28.6419     11.0236     98.2405
  5319.0000     66.6169     54.8917     32.2709    -59.8306     12.5161     25.9294     14.2375    126.7517
  5318.5000     68.0805     54.1116     31.2003    -70.9808     13.4089     25.3166     18.0302    177.7965
  5318.0000     66.9207     55.8202     35.0565    -71.6369     12.9662     26.7973     18.8846    164.3436
  5317.5000     63.9675     56.2852     40.6019    -73.8024     11.7150     27.0941     17.8497    100.1188
  5317.0000     63.6299     52.9353     44.5822    -75.8779     11.6297     23.9988     18.7461     73.0250
  5316.5000     67.5845     49.0800     46.8141    -70.9293     13.3704     20.7943     22.7364     71.4431
  5316.0000     71.9307     50.5754     48.0425    -58.4191     15.2535     22.0486     24.5770     75.5071
  5315.5000     73.8288     57.0626     46.7412    -41.6115     15.8711     27.5621     17.0719     64.3954
  5315.0000     74.4421     62.2776     40.0872    -31.0462     15.5868     32.1095     11.1529     41.6493
  5314.5000     74.7947     63.2362     29.5647    -30.8349     15.2030     32.3183      8.9139     28.8922
  5314.0000     73.7030     62.4451     21.0394    -30.3454     14.4889     31.0351      8.4335     25.2636
  5313.5000     70.4053     61.9821     17.7455    -23.5921     12.9817     30.7581      8.6187     26.7141
  5313.0000     65.7886     61.0271     17.4951    -19.6411     11.1577     30.2341      9.3671     30.9005
  5312.5000     61.7778     58.3354     18.0121    -19.7283     10.0018     27.9040     11.2208     35.2016
  5312.0000     61.3878     53.9110     18.4376    -18.9405     10.4087     24.0412     14.4654     39.4548
  5311.5000     66.5139     49.2820     20.1799    -13.4725     12.7928     20.3746     18.7571     46.0910
  5311.0000     73.6117     47.2277     28.6565     -1.9953     15.9168     19.0193     20.9449     54.8513
  5310.5000     77.1408     50.0748     45.9321      8.5000     17.3275     21.3165     15.6464     54.9930
  5310.0000     76.3207     57.1917     61.4785      5.8984     16.2593     27.1223     10.0252     40.8243
  5309.5000     74.0173     64.5095     63.9305     -6.8463     14.2971     33.5625      7.7026     27.9137
  5309.0000     72.1102     68.4340     58.7570    -17.5985     13.1643     36.8327      7.3926     20.9637
  5308.5000     71.6272     68.7044     59.7494    -21.2713     13.2565     36.2723      7.9599     17.8565
  5308.0000     73.5022     66.4859     69.1723    -19.3602     14.4681     33.4801      8.6242     17.3388
  5307.5000     75.0503     62.5766     79.5609     -9.6468     15.3612     29.5942      9.0138     18.7090
  5307.0000     71.9028     59.4708     85.1721      4.2666     13.8522     26.9449      9.0316     20.7771
  5306.5000     65.8083     60.5944     85.8852     15.0148     11.1362     28.4054      9.2886     21.7953
  5306.0000     62.5707     64.5651     85.2796     21.7553     10.5040     32.5123     11.9965     21.1173
  5305.5000     62.5865     64.9931     86.0065     32.0396     11.3307     32.6973     21.2958     20.0148
  5305.0000     62.2980     59.6177     86.9275     44.8326     11.4835     27.2213     38.0289     21.1972
  5304.5000     61.1819     53.2901     86.8382     57.2845     11.0706     22.3044     38.5842     27.4236
  5304.0000     60.1348     50.1009     85.5001     70.6227     10.6695     20.8519     36.2049     41.7887
  5303.5000     58.8187     49.6889     84.9278     94.5173     10.2087     21.2188     37.9961     66.4917
  5303.0000     57.2617     50.3923     86.3294    122.5300      9.6291     22.0424     34.3812     95.8696
  5302.5000     56.3581     50.7047     89.1463    107.4277      9.2422     22.3812     28.9389    118.8780
  5302.0000     56.6122     50.0919     93.6412     46.4637      9.2944     21.8860     27.0751    118.7391
  5301.5000     57.7601     49.6027    100.1929      5.2481      9.7138     21.4557     27.8632    106.8487
  5301.0000     59.2179     49.8781    106.5717      4.3682     10.2352     21.6426     27.7980     98.9478
  5300.5000     60.3505     50.1184    111.5802      5.3656     10.6071     21.8180     25.6378     95.2904
  5300.0000     60.8456     49.7100    115.9763      8.7245     10.7256     21.4760     23.0646     92.7725
  5299.5000     61.0162     48.9969    118.8543     20.8827     10.7287     20.9006     21.2483     91.4934
  5299.0000     61.7882     48.5121    119.0976     19.7021     10.9683     20.5255     19.9266     92.6254
  5298.5000     63.6203     48.5586    118.1427      2.1676     11.6194     20.5749     18.6190     94.8753
  5298.0000     65.3791     49.1891    117.6999    -11.5034     12.2434     21.0710     17.1773     94.6534
  5297.5000     66.0244     49.9896    116.8969    -15.9073     12.4038     21.6949     15.7016     91.7726
  5297.0000     66.3931     50.6286    113.0303    -15.9741     12.4423     22.2099     14.4318     91.2599
  5296.5000     66.3931     50.6286    113.0303    -15.9741     12.4423     22.2099     14.4318     91.2599
  5296.0000     66.3931     50.6286    113.0303    -15.9741     12.4423     22.2099     14.4318     91.2599
  5295.5000     66.3931     50.6286    113.0303    -15.9741     12.4423     22.2099     14.4318     91.2599
  5295.0000     66.3931     50.6286    113.0303    -15.9741     12.4423     22.2099     14.4318     91.2599
  5294.5000     66.3931     50.6286    113.0303    -15.9741     12.4423     22.2099     14.4318     91.2599
  5294.0000     66.3931     50.6286    113.0303    -15.9741     12.4423     22.2099     14.4318     91.2599
