~Version Information
 VERS.                1.20:   CWLS log ASCII Standard -VERSION 1.20
 WRAP.                  NO:   One line per frame
~Well Information Block
#MNEM.UNIT       Data Type    Information
#---------    -------------   -------------------------------
 STRT.F          5623.7500:   Starting Depth
 STOP.F           -24.0000:   Ending Depth
 STEP.F            -0.5000:   Level Spacing
 NULL.           -999.2500:   Absent Value
 COMP.             COMPANY:   FLUOR DANIEL (NPOSR), INC.
 WELL.                WELL:   73 X 10
 FLD .               FIELD:   
 LOC .            LOCATION:   
 CNTY.              COUNTY:   
 STAT.               STATE:   
 SRVC.     SERVICE COMPANY:   
 LIC .      LICENSE NUMBER:   
 DATE.            LOG DATE:   
 API .          API NUMBER:   
~Curve Information Block
#MNEM.UNIT       API Codes    Curve Description
#---------    -------------   -------------------------------
 DEPT.F        0   1  0  1:   Depth
 GR  .API      0 310  1  1:   Gamma ray counts
 CAL .IN       0 280 99  1:   Caliper (for 4CAL: from C13 and/or C24)
 SP  .MV       0  10  1  1:   Spontaneous Potential
 TEN .LBF      0 635 99  1:   Differential Tension
 RS  .OHMM     0 220  9  1:   Logarithmic Resistivity from ES, IS
 RD  .OHMM     0 220 10  1:   Logarithmic Resistivity from ED, ID
 ZDEN.G/C3     0 350  1  1:   ZDL Bulk Density
 ZCOR.G/C3     0 356 99  1:   ZDL Correction
 CNC .PU       0 995 99  1:   Corrected Neutron Porosity from CN
#  Curve Data
~A   DEPT        GR          CAL         SP          TEN         RS          RD          ZDEN        ZCOR        CNC 
# ...
  2240.2500     83.1786      1.7383     35.9447    -20.2965      4.3678      4.7758      1.6377      0.0910     67.5633
  2239.7500     84.7865      1.7383     36.2664    -27.0254      4.2828      4.6341      1.6555      0.1188     69.0050
  2239.2500     84.7215      1.7383     36.2195    -37.2027      3.9991      4.2938      1.6615      0.1263     70.9821
  2238.7500     85.0746      1.7383     35.7816    -49.0745      3.7075      3.9487      1.6444      0.0999     72.1652
  2238.2500     88.7890      1.7383     35.2280    -54.4013      3.5612      3.7733      1.6185      0.0631     71.5515
  2237.7500     94.1062      1.7383     34.6972    -45.5850      3.5460      3.7601      1.6192      0.0458     68.4524
  2237.2500    100.1846      1.7383     34.0903    -33.9700      3.5613      3.7770      1.6763      0.0592     63.8651
  2236.7500    110.2510      1.7383     33.3827    -30.5628      3.5698      3.7586      1.7772      0.1092     60.7978
  2236.2500    124.5373      1.7383     32.7029    -32.9510      3.6415      3.7963      1.8690      0.1600     59.5595
  2235.7500    137.5790      1.7383     32.1483    -36.9886      3.9143      4.0672      1.9450      0.1608     58.0600
  2235.2500    144.9594      1.7383     31.7262    -43.0465      4.6003      4.7977      2.0498      0.1281     55.2144
  2234.7500    146.5266      1.7383     31.3647    -44.6605      5.8297      6.1131      2.1865      0.1131     52.6828
  2234.2500    144.5395      1.7383     30.9949    -42.8800      7.0579      7.4455      2.2931      0.1231     52.5124
  2233.7500    141.9421      1.7383     30.6341    -45.8820      7.4542      7.8563      2.3254      0.1473     53.5919
  2233.2500    138.6994      1.7383     30.3374    -49.3386      7.3264      7.6429      2.3069      0.1766     54.1105
  2232.7500    134.9047      1.7383     30.1238    -42.6887      7.3230      7.5530      2.2948      0.1887     53.7416
  2232.2500    130.6786      1.7383     29.9421    -34.6059      7.8262      7.9963      2.3201      0.1833     52.9724
  2231.7500    124.7218      1.7383     29.7400    -38.3666      9.0080      9.1258      2.3589      0.1828     52.0835
  2231.2500    118.9765      1.7383     29.5800    -47.1426     10.7247     10.7891      2.3722      0.1874     51.2442
  2230.7500    116.1589      1.7383     29.5910    -48.7067     12.5973     12.6502      2.3654      0.1901     50.8279
  2230.2500    115.2610      1.7377     29.7334    -43.3469     13.8552     14.1205      2.3638      0.1914     51.0243
  2229.7500    114.6570      1.7286     29.7575    -36.9538     12.4017     13.1430      2.3692      0.1849     51.8814
  2229.2500    114.6364      1.7103     29.5076    -31.9103      9.1414      9.8693      2.3667      0.1753     53.8923
  2228.7500    114.4035      1.7046     29.1003    -28.5050      6.8882      7.3001      2.3339      0.1882     56.9223
  2228.2500    113.8205      1.7194     28.6906    -27.2661      5.8019      6.0081      2.2746      0.2006     58.9490
  2227.7500    112.6564      1.7349     28.2788    -24.5116      5.4660      5.5938      2.2419      0.1823     58.1812
  2227.2500    109.2396      1.7383     27.8405    -17.9941      5.7146      5.8084      2.2794      0.1529     55.4857
  2226.7500    103.6869      1.7383     27.4368    -11.5760      6.3883      6.4284      2.3663      0.1524     52.7669
  2226.2500     98.8755      1.7383     27.2135    -13.5100      7.1495      7.1277      2.4395      0.1664     50.7330
  2225.7500     95.9399      1.7383     27.2018    -21.7383      7.8967      7.8355      2.4660      0.1663     49.3318
  2225.2500     94.9886      1.7383     27.2674    -28.1683      8.8031      8.7403      2.4606      0.1630     48.7041
  2224.7500     97.0397      1.7383     27.2857    -28.0963      9.6967      9.7086      2.4388      0.1704     49.0684
  2224.2500    100.0338      1.7383     27.2358    -26.9998      9.8953     10.0910      2.4070      0.1919     50.2701
  2223.7500    101.1445      1.7383     27.1517    -28.3009      9.0883      9.4371      2.3726      0.2119     51.7560
  2223.2500    100.4568      1.7383     27.0622    -30.4539      8.0586      8.3910      2.3440      0.2165     52.9093
  2222.7500     96.4873      1.7383     26.9816    -35.2510      7.5084      7.7622      2.3262      0.2048     53.1956
  2222.2500     87.8028      1.7383     26.8951    -40.9658      7.5934      7.8056      2.3164      0.1858     52.4199
  2221.7500     80.1442      1.7383     26.8320    -40.9057      8.3108      8.5366      2.3090      0.1816     51.2973
  2221.2500     78.8556      1.7383     26.8093    -35.3190      9.4418      9.7403      2.3046      0.1986     50.5606
  2220.7500     80.8857      1.7383     26.7923    -30.3750     10.2480     10.6739      2.3090      0.2147     50.0022
  2220.2500     82.3373      1.7383     26.7659    -29.1870     10.3161     10.8196      2.3248      0.2169     49.5090
  2219.7500     84.8281      1.7383     26.8620    -29.8330     10.2605     10.7684      2.3457      0.2118     49.3262
  2219.2500     89.2430      1.7383     27.1388    -30.2136     10.6002     11.1463      2.3607      0.2046     49.3062
  2218.7500     90.8202      1.7383     27.3940    -30.0593     11.1856     11.8539      2.3671      0.1974     49.4953
  2218.2500     87.8223      1.7383     27.4366    -29.6585     11.3582     12.1807      2.3715      0.1926     49.7932
  2217.7500     85.2296      1.7383     27.3055    -27.1822     10.7258     11.6144      2.3774      0.1898     49.4217
  2217.2500     86.3241      1.7383     27.1595    -28.3437      9.7103     10.5390      2.3863      0.1896     48.2944
  2216.7500     88.3177      1.7383     27.1212    -31.6416      8.9066      9.6186      2.3999      0.1949     47.6718
  2216.2500     87.8861      1.7383     27.1618    -28.7643      8.5767      9.1764      2.4121      0.2014     48.0544
  2215.7500     85.1603      1.7383     27.1949    -23.2087      8.7266      9.2480      2.4128      0.2042     48.3808
  2215.2500     81.8376      1.7383     27.2652    -23.9901      9.2510      9.7440      2.4024      0.2073     48.1792
  2214.7500     79.9954      1.7383     27.4043    -28.3229      9.9410     10.4662      2.3903      0.2156     47.8562
  2214.2500     80.8636      1.7383     27.5085    -29.4468     10.3705     10.9843      2.3842      0.2250     47.6591
  2213.7500     85.4263      1.7383     27.5565    -28.1091     10.1314     10.8129      2.3831      0.2270     47.8326
  2213.2500     91.2413      1.7383     27.6386    -27.8258      9.3631     10.0014      2.3818      0.2209     48.7486
  2212.7500     94.2800      1.7383     27.7752    -30.8810      8.5571      9.0734      2.3803      0.2192     49.8904
  2212.2500     93.8617      1.7383     27.9458    -31.2292      8.0571      8.4561      2.3800      0.2266     50.5009
  2211.7500     92.1470      1.7383     28.2072    -28.4745      7.9668      8.2881      2.3783      0.2342     50.7678
  2211.2500     90.3775      1.7383     28.6098    -25.7091      8.2407      8.5191      2.3735      0.2358     50.9140
  2210.7500     90.3349      1.7383     29.0182    -24.8413      8.6681      8.9465      2.3678      0.2318     50.9371
  2210.2500     92.5566      1.7383     29.2351    -22.4019      8.6990      9.0381      2.3628      0.2248     52.0527
  2209.7500     94.9275      1.7383     29.2155    -17.6458      7.9127      8.2859      2.3536      0.2212     54.9528
  2209.2500     96.2280      1.7383     29.0336    -13.6466      6.8222      7.1130      2.3287      0.2270     57.4388
  2208.7500     96.5059      1.7383     28.7431    -16.6518      6.0447      6.2139      2.2896      0.2328     57.0025
  2208.2500     96.4342      1.7383     28.3962    -22.1973      5.7797      5.8592      2.2616      0.2328     54.6186
  2207.7500     95.2673      1.7383     28.0685    -24.0755      6.0979      6.1201      2.2631      0.2347     52.9731
  2207.2500     93.3631      1.7383     27.8194    -24.2258      6.9954      6.9759      2.2818      0.2439     52.6457
