~Version Information
 VERS.                1.20:   CWLS log ASCII Standard -VERSION 1.20
 WRAP.                  NO:   One line per frame
~Well Information Block
#MNEM.UNIT       Data Type    Information
#---------    -------------   -------------------------------
 STRT.F          5623.7500:   Starting Depth
 STOP.F           -24.0000:   Ending Depth
 STEP.F            -0.5000:   Level Spacing
 NULL.           -999.2500:   Absent Value
 COMP.             COMPANY:   FLUOR DANIEL (NPOSR), INC.
 WELL.                WELL:   73 X 10
 FLD .               FIELD:   
 LOC .            LOCATION:   
 CNTY.              COUNTY:   
 STAT.               STATE:   
 SRVC.     SERVICE COMPANY:   
 LIC .      LICENSE NUMBER:   
 DATE.            LOG DATE:   
 API .          API NUMBER:   
~Curve Information Block
#MNEM.UNIT       API Codes    Curve Description
#---------    -------------   -------------------------------
 DEPT.F        0   1  0  1:   Depth
 GR  .API      0 310  1  1:   Gamma ray counts
 CAL .IN       0 280 99  1:   Caliper (for 4CAL: from C13 and/or C24)
 SP  .MV       0  10  1  1:   Spontaneous Potential
 TEN .LBF      0 635 99  1:   Differential Tension
 RS  .OHMM     0 220  9  1:   Logarithmic Resistivity from ES, IS
 RD  .OHMM     0 220 10  1:   Logarithmic Resistivity from ED, ID
 ZDEN.G/C3     0 350  1  1:   ZDL Bulk Density
 ZCOR.G/C3     0 356 99  1:   ZDL Correction
 CNC .PU       0 995 99  1:   Corrected Neutron Porosity from CN
#  Curve Data
~A   DEPT        GR          CAL         SP          TEN         RS          RD          ZDEN        ZCOR        CNC 
# ...
   364.2500     39.4054      1.7383     68.8596    -16.1958   1596.5828   1002.0955      2.2612      0.0179     68.5025
   363.7500     39.4974      1.7383     69.2617    -17.8843   1593.5564   1001.5515      2.2621      0.0231     67.5721
   363.2500     40.9091      1.7383     69.4530    -19.6731   1594.5278   1001.0337      2.2638      0.0315     66.5177
   362.7500     41.9203      1.7383     69.3206    -18.2411   1598.4937   1001.1431      2.2642      0.0416     65.4029
   362.2500     42.0001      1.7383     69.0154    -12.4162   1600.8406   1001.2703      2.2639      0.0533     64.1983
   361.7500     41.7135      1.7377     68.8729     -8.7773   1598.6062   1000.7720      2.2613      0.0569     62.7142
   361.2500     41.1423      1.7286     69.0820    -13.7372   1594.5496   1000.4556      2.2583      0.0494     61.2286
   360.7500     39.8105      1.7103     69.4885    -20.9331   1594.0691   1000.7104      2.2586      0.0476     59.3538
   360.2500     37.6229      1.7046     69.7387    -23.6985   1597.7795   1001.1960      2.2614      0.0590     56.3065
   359.7500     35.3240      1.7194     69.5139    -27.2585   1600.8306   1001.8518      2.2633      0.0669     52.8283
   359.2500     33.8249      1.7349     68.7467    -30.4790   1599.1497   1002.4312      2.2656      0.0614     49.9496
   358.7500     32.8096      1.7383     67.6667    -27.9322   1594.5100   1002.4900      2.2651      0.0505     47.7244
   358.2500     32.9963      1.7383     66.6235    -23.2739   1592.2808   1002.2891      2.2487      0.0355     48.8227
   357.7500     35.8907      1.7383     65.7354    -23.1773   1594.2502   1002.0955      2.2190      0.0157     51.4410
   357.2500     40.8713      1.7383     64.9592    -27.1712   1596.2463   1001.5515      2.2016      0.0027     54.1677
   356.7500     45.3604      1.7383     64.3728    -31.7151   1595.1277   1000.9170      2.2080      0.0035     56.4751
   356.2500     47.9105      1.7383     64.0753    -32.4392   1593.9241   1000.5779      2.2204      0.0106     57.7439
   355.7500     49.4274      1.7383     63.9610    -28.0216   1595.9961   1000.5784      2.2218      0.0184     58.5992
   355.2500     49.9916      1.7383     63.8443    -26.7799   1599.1228   1000.4417      2.2137      0.0323     59.5679
   354.7500     49.8838      1.7383     63.7198    -30.9981   1599.0151    999.9238      2.2019      0.0489     60.7860
   354.2500     50.4631      1.7383     63.8675    -33.2807   1595.7036    999.2712      2.1888      0.0578     62.6749
   353.7500     51.7229      1.7383     64.5779    -27.9700   1593.4587    998.9531      2.1797      0.0609     64.6568
   353.2500     50.9490      1.7383     65.6858    -22.6743   1595.4043    999.0503      2.1811      0.0653     66.1183
   352.7500     47.7640      1.7383     66.7403    -22.1790   1598.6956    999.7043      2.1977      0.0576     66.4058
   352.2500     45.9013      1.7383     67.5760    -24.9881   1598.5117   1000.8757      2.2288      0.0256     64.4064
   351.7500     47.4806      1.7383     68.2955    -28.7051   1595.0281   1001.7590      2.2594      0.0058     64.0575
   351.2500     50.1376      1.7383     68.9044    -29.3675   1592.7278   1001.5896      2.2646      0.0271     66.2163
   350.7500     50.3127      1.7383     69.2752    -24.8642   1594.4656   1000.7913      2.2405      0.0517     67.5218
   350.2500     48.8969      1.7383     69.3464    -17.1084   1598.0928   1000.4292      2.2122      0.0523     67.7561
   349.7500     48.5911      1.7383     69.1649    -13.8476   1598.8650   1000.4456      2.1988      0.0448     67.4551
   349.2500     49.4706      1.7383     68.8002    -16.4697   1595.7998   1000.2764      2.1969      0.0370     67.2000
   348.7500     49.1730      1.7383     68.3617    -18.1289   1593.3572   1000.4590      2.1988      0.0264     67.1157
   348.2500     47.8307      1.7383     67.9464    -16.8586   1594.9026   1001.2627      2.2052      0.0197     67.2319
   347.7500     47.2777      1.7383     67.5775    -15.5886   1598.2119   1001.3726      2.2142      0.0178     67.4189
   347.2500     48.0083      1.7383     67.2907    -16.0278   1598.6985   1000.3230      2.2208      0.0148     67.1830
   346.7500     49.8892      1.7383     66.9964    -15.4379   1595.6858    999.4114      2.2262      0.0091     66.1792
   346.2500     52.0014      1.7383     66.6138    -15.7282   1593.3501    999.7234      2.2328      0.0046     65.3910
   345.7500     52.2531      1.7383     66.3726    -17.4368   1594.6846   1000.7588      2.2392      0.0100     65.6673
   345.2500     50.1800      1.7383     66.4608    -17.5915   1596.8767   1001.0762      2.2433      0.0218     66.1455
   344.7500     48.1059      1.7383     66.9691    -17.5601   1595.8940   1000.3591      2.2447      0.0304     66.2689
   344.2500     47.1196      1.7383     68.4233    -21.6980   1592.8914   1000.0613      2.2457      0.0338     65.7890
   343.7500     46.1094      1.7383     71.0646    -30.6214   1592.5347   1000.8042      2.2483      0.0344     64.1416
   343.2500     45.7443      1.7383     74.0257    -37.0956   1596.0803   1001.3677      2.2508      0.0355     61.5452
   342.7500     47.5751      1.7383     76.2433    -39.3804   1599.2163   1001.3372      2.2535      0.0431     57.4879
   342.2500     49.8247      1.7383     77.4505    -35.4739   1598.2732   1001.2371      2.2595      0.0583     55.0282
   341.7500     50.3882      1.7383     77.9573    -27.4110   1595.2834   1001.2876      2.2659      0.0759     59.6478
   341.2500     50.0724      1.7383     78.2533    -23.1681   1594.5640   1001.0071      2.2656      0.0904     70.4203
   340.7500     49.9499      1.7383     78.7309    -23.8577   1596.9182   1000.3672      2.2598      0.0970     73.0341
   340.2500     49.8633      1.7383     79.5040    -19.9973   1599.8347   1000.2974      2.2575      0.1020     71.6592
   339.7500     49.4693      1.7383     80.3253    -13.6253   1600.4326   1001.3125      2.2614      0.1115     74.0973
   339.2500     48.5564      1.7383     80.8906    -16.5545   1598.4211   1002.2175      2.2659      0.1223     75.6083
   338.7500     48.0533      1.7383     81.2406    -25.6264   1597.0542   1001.7114      2.2683      0.1260     74.6220
   338.2500     48.5357      1.7383     81.5763    -30.3396   1598.1208   1000.4592      2.2704      0.1181     73.5577
   337.7500     47.9976      1.7383     81.8874    -29.8635   1598.4248   1000.0657      2.2711      0.1068     73.6072
   337.2500     45.5727      1.7383     82.1082    -30.5079   1595.6675   1000.7778      2.2685      0.1038     73.3489
   336.7500     44.1306      1.7383     82.2000    -34.5345   1593.3926   1001.1025      2.2655      0.1090     71.9191
   336.2500     45.1845      1.7383     81.9339    -40.4766   1595.1868   1000.4165      2.2659      0.1153     69.7458
   335.7500     45.9312      1.7383     81.1198    -43.9038   1598.8865    999.7029      2.2688      0.1171     67.7522
   335.2500     44.1418      1.7383     80.0552    -42.5258   1599.4902    999.4370      2.2710      0.1109     66.8981
   334.7500     41.7046      1.7383     79.4597    -36.3978   1596.1692    999.3462      2.2716      0.1013     67.5820
   334.2500     41.1972      1.7383     79.8765    -30.2215   1593.6995    999.7849      2.2723      0.0987     68.9811
   333.7500     43.8729      1.7383     81.1767    -25.6993   1595.9141   1000.7629      2.2737      0.0961     69.3186
   333.2500     48.0650      1.7383     82.6657    -19.9863   1599.1794   1001.1934      2.2752      0.0853     68.4616
   332.7500     50.6880      1.7383     83.6534    -19.4148   1598.3677   1000.9241      2.2757      0.0758     68.1100
   332.2500     50.0269      1.7383     84.0010    -27.8114   1594.7876   1000.7522      2.2735      0.0787     68.5010
   331.7500     47.8150      1.7377     84.0306    -33.2404   1593.3198   1001.1082      2.2681      0.0861     68.0076
   331.2500     46.9527      1.7286     83.9704    -30.0492   1595.0454   1001.5820      2.2624      0.0864     66.2466
