~Version Information
 VERS.                1.20:   CWLS log ASCII Standard -VERSION 1.20
 WRAP.                  NO:   One line per frame
~Well Information Block
#MNEM.UNIT       Data Type    Information
#---------    -------------   -------------------------------
 STRT.F          5623.7500:   Starting Depth
 STOP.F           -24.0000:   Ending Depth
 STEP.F            -0.5000:   Level Spacing
 NULL.           -999.2500:   Absent Value
 COMP.             COMPANY:   FLUOR DANIEL (NPOSR), INC.
 WELL.                WELL:   73 X 10
 FLD .               FIELD:   
 LOC .            LOCATION:   
 CNTY.              COUNTY:   
 STAT.               STATE:   
 SRVC.     SERVICE COMPANY:   
 LIC .      LICENSE NUMBER:   
 DATE.            LOG DATE:   
 API .          API NUMBER:   
~Curve Information Block
#MNEM.UNIT       API Codes    Curve Description
#---------    -------------   -------------------------------
 DEPT.F        0   1  0  1:   Depth
 GR  .API      0 310  1  1:   Gamma ray counts
 CAL .IN       0 280 99  1:   Caliper (for 4CAL: from C13 and/or C24)
 SP  .MV       0  10  1  1:   Spontaneous Potential
 TEN .LBF      0 635 99  1:   Differential Tension
 RS  .OHMM     0 220  9  1:   Logarithmic Resistivity from ES, IS
 RD  .OHMM     0 220 10  1:   Logarithmic Resistivity from ED, ID
 ZDEN.G/C3     0 350  1  1:   ZDL Bulk Density
 ZCOR.G/C3     0 356 99  1:   ZDL Correction
 CNC .PU       0 995 99  1:   Corrected Neutron Porosity from CN
#  Curve Data
~A   DEPT        GR          CAL         SP          TEN         RS          RD          ZDEN        ZCOR        CNC 
# ...
  1503.2500     89.7128      1.7383     29.2003    -48.5396      7.3643      8.6477      2.4885      0.2028     50.5525
  1502.7500     89.8058      1.7383     29.1302    -47.5873      7.2765      8.5572      2.4682      0.1987     50.9781
  1502.2500     89.4957      1.7383     29.0353    -40.7986      7.2347      8.5401      2.4558      0.1948     52.1517
  1501.7500     89.5294      1.7383     28.9540    -34.8865      7.2094      8.5321      2.4541      0.2001     53.0761
  1501.2500     88.9819      1.7383     28.9464    -36.6372      7.2031      8.5266      2.4571      0.2051     52.9528
  1500.7500     87.5606      1.7383     29.0254    -44.2640      7.2373      8.5572      2.4567      0.1998     52.6515
  1500.2500     86.6744      1.7383     29.1872    -47.1460      7.2809      8.5912      2.4527      0.1920     51.8143
  1499.7500     86.6630      1.7383     29.4115    -46.2264      7.2321      8.5212      2.4480      0.1912     51.6797
  1499.2500     85.7880      1.7383     29.6182    -47.2241      7.0505      8.3053      2.4367      0.1927     52.7267
  1498.7500     84.7086      1.7383     29.8033    -44.1786      6.8357      8.0513      2.4138      0.1971     53.6201
  1498.2500     85.4702      1.7383     29.9927    -36.3755      6.7107      7.9018      2.3907      0.2088     53.1120
  1497.7500     86.7459      1.7383     30.1303    -32.0165      6.7236      7.9148      2.3817      0.2209     51.7451
  1497.2500     86.8287      1.7383     30.1355    -32.5926      6.8600      8.0687      2.3845      0.2308     50.2791
  1496.7500     87.6320      1.7383     30.0806    -33.4652      7.0677      8.3047      2.3875      0.2349     48.7189
  1496.2500     90.5708      1.7383     30.0711    -33.4896      7.2678      8.5343      2.3827      0.2303     47.3431
  1495.7500     94.8053      1.7383     30.0978    -35.6911      7.4064      8.6975      2.3659      0.2291     46.7918
  1495.2500     96.6811      1.7383     30.0633    -34.9127      7.4425      8.7341      2.3382      0.2397     47.1262
  1494.7500     93.8397      1.7383     29.9112    -28.4592      7.3413      8.5830      2.3079      0.2498     47.6895
  1494.2500     89.7804      1.7383     29.6668    -24.5528      7.1414      8.3047      2.2816      0.2504     48.2450
  1493.7500     89.1006      1.7383     29.4720    -24.6714      6.9061      8.0146      2.2590      0.2461     49.2014
  1493.2500     89.8144      1.7383     29.4515    -21.7624      6.6686      7.7500      2.2380      0.2440     50.4100
  1492.7500     89.4667      1.7383     29.5363    -20.3273      6.4763      7.5376      2.2178      0.2486     51.1662
  1492.2500     88.9603      1.7383     29.5952    -26.1135      6.4121      7.4739      2.1983      0.2535     51.2758
  1491.7500     88.8501      1.7383     29.5809    -29.8973      6.4963      7.6055      2.1830      0.2547     50.6933
  1491.2500     88.8586      1.7383     29.5557    -27.2713      6.6351      7.8290      2.1762      0.2540     49.5276
  1490.7500     88.5560      1.7383     29.5611    -27.0468      6.7061      7.9612      2.1708      0.2529     48.9319
  1490.2500     88.2440      1.7383     29.5785    -33.2734      6.6675      7.9166      2.1511      0.2492     49.6828
  1489.7500     88.6492      1.7383     29.6154    -37.6538      6.5621      7.7683      2.1203      0.2386     50.1217
  1489.2500     89.2436      1.7383     29.7580    -35.2318      6.4683      7.6385      2.1024      0.2248     49.3249
  1488.7500     88.4805      1.7383     29.9714    -31.6309      6.4357      7.5772      2.1045      0.2202     49.1661
  1488.2500     85.5068      1.7383     30.0801    -30.1428      6.4499      7.5590      2.1069      0.2268     49.2420
  1487.7500     83.1614      1.7383     30.0533    -28.9838      6.4960      7.5878      2.0984      0.2280     46.7114
  1487.2500     84.4125      1.7383     30.0449    -27.5619      6.5778      7.6766      2.0918      0.2258     46.4362
  1486.7500     86.4151      1.7383     30.1940    -25.7188      6.6557      7.7639      2.0929      0.2330     47.4123
  1486.2500     85.2462      1.7383     30.4598    -22.7384      6.6337      7.7354      2.0886      0.2447     47.2149
  1485.7500     83.1498      1.7383     30.6854    -22.5944      6.4141      7.4998      2.0725      0.2463     47.3575
  1485.2500     82.0276      1.7383     30.7767    -24.5010      6.0206      7.0690      2.0500      0.2395     49.1704
  1484.7500     82.0734      1.7383     30.7302    -26.4932      5.6129      6.5879      2.0186      0.2303     52.4098
  1484.2500     83.8652      1.7383     30.5668    -28.4126      5.3511      6.2453      1.9749      0.2152     55.1708
  1483.7500     85.2179      1.7383     30.3338    -28.2457      5.3156      6.1723      1.9334      0.1962     56.2639
  1483.2500     84.8754      1.7383     30.1282    -24.6510      5.4937      6.3719      1.9129      0.1812     55.4948
  1482.7500     86.2382      1.7383     29.9708    -17.2914      5.8118      6.7444      1.9203      0.1810     53.4489
  1482.2500     89.7611      1.7383     29.8080     -9.2708      6.1643      7.1485      1.9473      0.1971     52.0077
  1481.7500     92.9224      1.7383     29.6512     -8.8734      6.4476      7.4671      1.9760      0.2188     52.3386
  1481.2500     94.6127      1.7383     29.5735    -17.4283      6.6248      7.6805      1.9950      0.2321     53.2757
  1480.7500     94.4223      1.7383     29.5749    -24.8133      6.6985      7.8007      2.0090      0.2363     52.9116
  1480.2500     94.2372      1.7383     29.6409    -25.0216      6.6718      7.7988      2.0174      0.2363     52.1974
  1479.7500     94.2754      1.7383     29.8685    -22.4453      6.6132      7.7180      2.0073      0.2331     52.6733
  1479.2500     92.5589      1.7383     30.2757    -25.6548      6.6091      7.6842      1.9827      0.2236     53.4027
  1478.7500     90.9893      1.7383     30.6146    -34.2643      6.6533      7.7286      1.9721      0.2119     53.4595
  1478.2500     93.2697      1.7383     30.6595    -38.4706      6.6703      7.7578      1.9884      0.2123     53.3357
  1477.7500     96.1926      1.7383     30.4267    -34.6864      6.5758      7.6521      2.0096      0.2287     53.5441
  1477.2500     94.5492      1.7383     30.0727    -30.7550      6.3493      7.3811      2.0137      0.2404     54.1937
  1476.7500     90.0321      1.7383     29.8033    -31.6242      6.1116      7.0853      2.0092      0.2364     55.2074
  1476.2500     86.9662      1.7383     29.7801    -32.2098      6.0187      6.9380      2.0102      0.2272     55.9110
  1475.7500     86.2133      1.7383     29.9456    -29.9589      6.1667      7.0624      2.0178      0.2217     55.0325
  1475.2500     85.4588      1.7383     30.0343    -28.0576      6.5984      7.5500      2.0315      0.2222     52.2013
  1474.7500     84.8132      1.7383     29.9434    -26.6903      7.2349      8.3433      2.0526      0.2306     49.0991
  1474.2500     86.2733      1.7383     29.7924    -25.4739      7.7766      9.0862      2.0750      0.2428     47.9711
  1473.7500     89.0153      1.7383     29.7424    -26.8549      7.8570      9.3013      2.0891      0.2500     48.8674
  1473.2500     91.1591      1.7383     29.8300    -29.4496      7.4443      8.8767      2.0964      0.2489     50.1438
  1472.7500     91.3710      1.7383     29.9348    -31.1356      6.8948      8.2071      2.1076      0.2468     51.1182
  1472.2500     89.7586      1.7383     29.8153    -31.8661      6.5247      7.7170      2.1270      0.2500     52.2171
  1471.7500     88.6695      1.7383     29.4406    -30.9294      6.3909      7.5116      2.1486      0.2525     51.4441
  1471.2500     89.3948      1.7383     29.1224    -29.4127      6.4235      7.5064      2.1665      0.2488     47.4407
  1470.7500     88.3224      1.7383     29.0715    -22.2668      6.5743      7.6549      2.1823      0.2416     46.9798
  1470.2500     85.1577      1.7383     29.1365    -13.4966      6.7739      7.8980      2.2052      0.2337     48.0477
