~Version Information
 VERS.                1.20:   CWLS log ASCII Standard -VERSION 1.20
 WRAP.                  NO:   One line per frame
~Well Information Block
#MNEM.UNIT       Data Type    Information
#---------    -------------   -------------------------------
 STRT.F          5623.7500:   Starting Depth
 STOP.F           -24.0000:   Ending Depth
 STEP.F            -0.5000:   Level Spacing
 NULL.           -999.2500:   Absent Value
 COMP.             COMPANY:   FLUOR DANIEL (NPOSR), INC.
 WELL.                WELL:   73 X 10
 FLD .               FIELD:   
 LOC .            LOCATION:   
 CNTY.              COUNTY:   
 STAT.               STATE:   
 SRVC.     SERVICE COMPANY:   
 LIC .      LICENSE NUMBER:   
 DATE.            LOG DATE:   
 API .          API NUMBER:   
~Curve Information Block
#MNEM.UNIT       API Codes    Curve Description
#---------    -------------   -------------------------------
 DEPT.F        0   1  0  1:   Depth
 GR  .API      0 310  1  1:   Gamma ray counts
 CAL .IN       0 280 99  1:   Caliper (for 4CAL: from C13 and/or C24)
 SP  .MV       0  10  1  1:   Spontaneous Potential
 TEN .LBF      0 635 99  1:   Differential Tension
 RS  .OHMM     0 220  9  1:   Logarithmic Resistivity from ES, IS
 RD  .OHMM     0 220 10  1:   Logarithmic Resistivity from ED, ID
 ZDEN.G/C3     0 350  1  1:   ZDL Bulk Density
 ZCOR.G/C3     0 356 99  1:   ZDL Correction
 CNC .PU       0 995 99  1:   Corrected Neutron Porosity from CN
#  Curve Data
~A   DEPT        GR          CAL         SP          TEN         RS          RD          ZDEN        ZCOR        CNC 
# ...
  1134.7500     85.1835      1.7383     31.6820    -44.3623      7.8518      9.0024      2.2975      0.2493     53.6154
  1134.2500     83.8079      1.7383     31.1727    -42.7247      8.0001      9.1610      2.3069      0.2427     52.3694
  1133.7500     83.0082      1.7383     30.8096    -39.9312      8.1502      9.3277      2.3192      0.2346     51.5578
  1133.2500     84.4316      1.7383     30.8753    -35.9961      8.2339      9.4179      2.3341      0.2288     51.2153
  1132.7500     89.0743      1.7383     31.2103    -34.1765      8.2254      9.3962      2.3484      0.2267     51.4990
  1132.2500     92.2494      1.7383     31.6698    -35.8768      8.1525      9.3039      2.3592      0.2271     52.2196
  1131.7500     90.6475      1.7383     32.1290    -36.7211      8.0559      9.1935      2.3673      0.2260     52.3237
  1131.2500     87.4854      1.7383     32.4484    -35.7924      7.9784      9.1062      2.3744      0.2250     51.7890
  1130.7500     86.4537      1.7383     32.6415    -34.5626      7.9406      9.0607      2.3779      0.2252     51.1688
  1130.2500     86.1665      1.7383     32.6358    -33.6293      7.9396      9.0632      2.3769      0.2284     50.3716
  1129.7500     84.0358      1.7383     32.3228    -35.0055      7.9797      9.1210      2.3750      0.2322     49.3834
  1129.2500     81.3288      1.7383     31.9323    -39.2114      8.0755      9.2309      2.3744      0.2329     48.9407
  1128.7500     80.5205      1.7383     31.8927    -42.4160      8.2183      9.3819      2.3733      0.2280     48.9716
  1128.2500     81.0587      1.7383     32.2434    -39.8086      8.3781      9.5617      2.3680      0.2224     48.3760
  1127.7500     81.3691      1.7383     32.6666    -31.0697      8.5151      9.7329      2.3562      0.2202     47.9243
  1127.2500     82.0566      1.7383     32.8967    -19.1662      8.5730      9.8179      2.3442      0.2189     48.3459
  1126.7500     83.3164      1.7383     32.8292     -9.3129      8.5233      9.7809      2.3425      0.2177     49.1386
  1126.2500     84.3771      1.7383     32.5372     -8.7584      8.3903      9.6388      2.3498      0.2189     49.9308
  1125.7500     85.2353      1.7383     32.2030    -19.2678      8.2298      9.4431      2.3563      0.2213     51.0004
  1125.2500     86.4226      1.7383     31.9568    -30.5186      8.1165      9.2975      2.3578      0.2213     51.4463
  1124.7500     87.4427      1.7383     31.8908    -31.7987      8.0991      9.2772      2.3565      0.2215     51.2374
  1124.2500     87.7338      1.7383     32.0460    -24.3884      8.1593      9.3593      2.3531      0.2226     51.4602
  1123.7500     86.9130      1.7383     32.1843    -20.2959      8.2351      9.4734      2.3477      0.2215     52.0227
  1123.2500     85.3746      1.7383     32.0708    -26.1498      8.2572      9.5386      2.3405      0.2199     52.4012
  1122.7500     83.9832      1.7383     31.8076    -35.6121      8.2015      9.5091      2.3288      0.2191     52.5374
  1122.2500     83.1025      1.7383     31.7373    -42.2660      8.1299      9.4387      2.3091      0.2175     52.4033
  1121.7500     82.7515      1.7383     32.0563    -44.2238      8.1263      9.4294      2.2855      0.2202     51.9420
  1121.2500     81.8716      1.7383     32.5765    -39.9129      8.2004      9.5102      2.2634      0.2278     51.4409
  1120.7500     80.1992      1.7383     32.8329    -31.9616      8.2887      9.6145      2.2415      0.2309     50.9597
  1120.2500     79.3352      1.7383     32.5522    -27.9035      8.3169      9.6483      2.2183      0.2259     50.3245
  1119.7500     80.6783      1.7383     32.0141    -28.0429      8.2625      9.5764      2.1960      0.2235     49.7978
  1119.2500     84.2229      1.7383     31.7375    -27.9276      8.1831      9.4677      2.1762      0.2326     49.9397
  1118.7500     88.4263      1.7383     31.9598    -26.0128      8.1615      9.4266      2.1597      0.2469     50.6073
  1118.2500     91.1691      1.7383     32.4347    -24.0904      8.2066      9.4892      2.1458      0.2517     51.2461
  1117.7500     90.1741      1.7383     32.7609    -25.3928      8.2621      9.5925      2.1334      0.2456     51.7437
  1117.2500     86.3666      1.7383     32.7889    -28.9808      8.3107      9.6819      2.1253      0.2413     51.8851
  1116.7500     83.7714      1.7383     32.7164    -31.7636      8.3811      9.7737      2.1237      0.2432     51.5737
  1116.2500     84.1778      1.7383     32.7485    -34.5846      8.4731      9.8849      2.1256      0.2444     51.3912
  1115.7500     84.9978      1.7383     32.9082    -41.7832      8.5676      9.9961      2.1281      0.2452     51.4871
  1115.2500     84.8640      1.7383     33.1274    -49.0721      8.6642     10.1024      2.1328      0.2513     51.3715
  1114.7500     84.1885      1.7383     33.2843    -47.5815      8.7712     10.2224      2.1386      0.2611     50.9368
  1114.2500     83.6984      1.7383     33.2741    -39.2541      8.8944     10.3666      2.1428      0.2648     50.6272
  1113.7500     84.6066      1.7383     33.1460    -32.0317      9.0104     10.5059      2.1471      0.2626     50.7691
  1113.2500     86.4174      1.7383     33.0468    -29.2623      9.0361     10.5480      2.1520      0.2637     51.0983
  1112.7500     87.0177      1.7383     33.0570    -31.0505      8.9040     10.4235      2.1522      0.2675     51.1570
  1112.2500     86.1037      1.7383     33.1255    -35.7192      8.6953     10.2187      2.1439      0.2637     51.0959
  1111.7500     85.5077      1.7383     33.0909    -39.8455      8.5459     10.0603      2.1304      0.2544     51.5809
  1111.2500     86.4355      1.7383     32.8977    -43.0584      8.5058      9.9892      2.1198      0.2510     52.4678
  1110.7500     88.4127      1.7383     32.6600    -46.7879      8.5703     10.0180      2.1186      0.2552     52.7750
  1110.2500     88.9146      1.7383     32.4499    -46.7455      8.7168     10.1514      2.1229      0.2591     52.2432
  1109.7500     86.9944      1.7383     32.3365    -39.3578      8.8872     10.3532      2.1251      0.2561     51.5021
  1109.2500     84.6394      1.7383     32.3186    -30.2685      9.0382     10.5722      2.1263      0.2526     51.0280
  1108.7500     83.2376      1.7377     32.3493    -28.9500      9.1751     10.7783      2.1284      0.2515     50.5888
  1108.2500     83.4468      1.7286     32.4017    -35.0012      9.3006     10.9614      2.1271      0.2467     50.0791
  1107.7500     85.3013      1.7103     32.4299    -40.5705      9.3973     11.1214      2.1213      0.2402     49.6884
  1107.2500     86.1026      1.7046     32.2872    -41.8686      9.4529     11.2368      2.1145      0.2442     49.6641
  1106.7500     84.5139      1.7194     32.0401    -40.5583      9.4646     11.2726      2.1077      0.2564     49.8826
  1106.2500     84.0331      1.7349     31.8766    -38.0393      9.4663     11.2589      2.1004      0.2638     49.8784
  1105.7500     86.2490      1.7383     31.8304    -35.3434      9.5197     11.2999      2.0926      0.2634     49.4941
  1105.2500     88.5746      1.7383     31.8589    -32.1979      9.6390     11.4512      2.0848      0.2592     49.0314
  1104.7500     90.1450      1.7383     31.8855    -26.7153      9.7764     11.6502      2.0789      0.2532     49.0409
  1104.2500     89.2815      1.7383     31.8120    -23.6460      9.8891     11.8182      2.0757      0.2479     49.5052
  1103.7500     85.1791      1.7383     31.5871    -28.4034      9.9729     11.9643      2.0740      0.2465     49.4976
  1103.2500     82.0369      1.7383     31.3088    -36.1084     10.0592     12.1271      2.0729      0.2490     48.4857
  1102.7500     82.5657      1.7383     31.1390    -40.1014     10.1949     12.3271      2.0724      0.2518     47.3345
  1102.2500     83.4153      1.7383     31.2007    -43.3079     10.3956     12.5963      2.0723      0.2514     46.8852
  1101.7500     82.2334      1.7383     31.3145    -46.7401     10.6257     12.9283      2.0740      0.2487     46.9653
