~Version Information
 VERS.                1.20:   CWLS log ASCII Standard -VERSION 1.20
 WRAP.                  NO:   One line per frame
~Well Information Block
#MNEM.UNIT       Data Type    Information
#---------    -------------   -------------------------------
 STRT.F          5623.7500:   Starting Depth
 STOP.F           -24.0000:   Ending Depth
 STEP.F            -0.5000:   Level Spacing
 NULL.           -999.2500:   Absent Value
 COMP.             COMPANY:   FLUOR DANIEL (NPOSR), INC.
 WELL.                WELL:   73 X 10
 FLD .               FIELD:   
 LOC .            LOCATION:   
 CNTY.              COUNTY:   
 STAT.               STATE:   
 SRVC.     SERVICE COMPANY:   
 LIC .      LICENSE NUMBER:   
 DATE.            LOG DATE:   
 API .          API NUMBER:   
~Curve Information Block
#MNEM.UNIT       API Codes    Curve Description
#---------    -------------   -------------------------------
 DEPT.F        0   1  0  1:   Depth
 GR  .API      0 310  1  1:   Gamma ray counts
 CAL .IN       0 280 99  1:   Caliper (for 4CAL: from C13 and/or C24)
 SP  .MV       0  10  1  1:   Spontaneous Potential
 TEN .LBF      0 635 99  1:   Differential Tension
 RS  .OHMM     0 220  9  1:   Logarithmic Resistivity from ES, IS
 RD  .OHMM     0 220 10  1:   Logarithmic Resistivity from ED, ID
 ZDEN.G/C3     0 350  1  1:   ZDL Bulk Density
 ZCOR.G/C3     0 356 99  1:   ZDL Correction
 CNC .PU       0 995 99  1:   Corrected Neutron Porosity from CN
#  Curve Data
~A   DEPT        GR          CAL         SP          TEN         RS          RD          ZDEN        ZCOR        CNC 
# ...
  4116.2500     83.3441     10.2016     21.9851    -77.9260      4.2799      4.6555      2.4325      0.1917     30.1607
  4115.7500     81.9855     10.1952     22.0998    -70.6298      4.3308      4.7245      2.4404      0.1914     29.8883
  4115.2500     80.1226     10.1924     22.2259    -52.6592      4.3653      4.7704      2.4472      0.1825     29.9540
  4114.7500     79.2474     10.1869     22.1805    -44.0420      4.4622      4.8779      2.4475      0.1768     30.4931
  4114.2500     79.5713     10.1817     21.9388    -49.4289      4.6162      5.0591      2.4449      0.1875     30.6271
  4113.7500     79.3751     10.1881     21.6591    -46.2160      4.7548      5.2320      2.4496      0.1800     29.9252
  4113.2500     78.2115     10.2035     21.5811    -21.3308      4.8183      5.3154      2.4606      0.1445     29.0997
  4112.7500     76.3576     10.2154     21.6961     -3.0283      4.7497      5.2458      2.4521      0.1334     29.2666
  4112.2500     73.8368     10.2182     21.7798    -22.1085      4.6089      5.0993      2.4066      0.1844     30.3923
  4111.7500     70.1756     10.2148     21.7225    -51.6713      4.5861      5.0938      2.3467      0.2341     29.4284
  4111.2500     65.9786     10.1960     21.6714    -58.8607      4.8591      5.4341      2.3093      0.2193     25.3759
  4110.7500     62.1808     10.1595     21.7322    -53.9374      5.4296      6.1211      2.3132      0.1693     22.5578
  4110.2500     60.2038     10.1223     21.8740    -54.3333      6.0273      6.8464      2.3604      0.1310     21.8611
  4109.7500     59.9695     10.1041     21.9460    -51.9122      6.3479      7.2619      2.4318      0.0995     21.8375
  4109.2500     60.1033     10.1001     21.7957    -42.8793      6.3524      7.3019      2.4764      0.1034     20.7594
  4108.7500     60.4846     10.1035     21.5483    -39.2822      6.3519      7.3142      2.4657      0.1342     18.6783
  4108.2500     60.2662     10.1121     21.4476    -42.8171      6.7669      7.8255      2.4523      0.1458     16.4787
  4107.7500     58.5926     10.1184     21.5081    -41.1213      7.5470      8.8630      2.4732      0.1257     15.3085
  4107.2500     58.9255     10.1121     21.5839    -31.9103      7.5046      9.1087      2.5107      0.1001     16.7158
  4106.7500     66.0130     10.1069     21.6423    -31.8188      6.1811      7.7030      2.5326      0.0994     20.4972
  4106.2500     77.0802     10.1223     21.6289    -37.9383      4.8287      6.0002      2.5043      0.1702     24.2063
  4105.7500     83.9964     10.1595     21.4258    -36.3063      4.0357      4.9409      2.4385      0.2251     25.2357
  4105.2500     83.9479     10.1960     20.9885    -36.1465      3.7945      4.6124      2.3995      0.2106     26.1094
  4104.7500     80.4784     10.2148     20.4457    -40.7996      4.0129      4.8796      2.4209      0.1738     29.1108
  4104.2500     77.0876     10.2188     20.1161    -37.0520      4.5349      5.5174      2.4782      0.1602     28.1693
  4103.7500     72.7897     10.2251     20.1081    -34.9143      5.2043      6.3293      2.5330      0.1366     24.6715
  4103.2500     66.2552     10.2343     20.1850    -41.2787      6.0933      7.4256      2.5697      0.0959     21.5754
  4102.7500     59.8831     10.2343     20.1374    -36.3502      7.2803      8.9329      2.5976      0.0667     20.4566
  4102.2500     57.3792     10.2251     19.9958    -21.2445      8.4987     10.5510      2.6213      0.0520     19.8597
  4101.7500     58.9329     10.2188     19.9069    -15.4293      9.3196     11.7615      2.6339      0.0500     17.9809
  4101.2500     62.6074     10.2182     19.9582    -21.3244      9.4001     12.1350      2.6381      0.0487     15.9351
  4100.7500     66.7350     10.2210     20.1009    -31.6181      8.7190     11.5271      2.6420      0.0450     14.7957
  4100.2500     71.3566     10.2301     20.2854    -36.8226      7.5711     10.1809      2.6416      0.0402     14.8256
  4099.7500     76.2808     10.2364     20.4293    -31.4794      6.2630      8.4561      2.6302      0.0416     16.0263
  4099.2500     81.1489     10.2404     20.4214    -27.7721      5.1930      6.9482      2.6054      0.0646     18.0283
  4098.7500     86.4619     10.2593     20.3903    -35.4209      4.5303      5.9757      2.5710      0.1030     20.7686
  4098.2500     90.5411     10.2902     20.4333    -47.2756      4.2255      5.5035      2.5440      0.1134     23.1528
  4097.7500     91.0348     10.3091     20.4403    -51.1064      4.2016      5.4220      2.5432      0.0874     24.0295
  4097.2500     88.9648     10.3124     20.4492    -46.5817      4.3913      5.6236      2.5658      0.0643     23.7149
  4096.7500     87.3604     10.3124     20.6060    -46.4308      4.6485      5.9138      2.5898      0.0664     23.1406
  4096.2500     85.9540     10.3124     20.8952    -48.4837      4.8092      6.0860      2.6003      0.0657     22.4942
  4095.7500     84.2880     10.3124     21.2017    -43.2634      4.8793      6.1586      2.5986      0.0667     22.0722
  4095.2500     83.2710     10.3124     21.5102    -29.7997      4.8965      6.2011      2.5932      0.0962     22.5959
  4094.7500     83.3183     10.3124     21.7853    -19.1040      4.6768      5.9800      2.5874      0.1219     22.6226
  4094.2500     83.3171     10.3124     21.8958    -18.0868      4.1121      5.2851      2.5752      0.1097     23.5178
  4093.7500     84.1551     10.3124     21.7206    -22.1491      3.5522      4.5228      2.5259      0.1264     25.3550
  4093.2500     86.5137     10.3124     21.3615    -27.3283      3.2818      4.1114      2.4417      0.2095     26.3189
  4092.7500     88.0350     10.3124     21.0093    -41.3803      3.3820      4.2058      2.3854      0.2512     25.2806
  4092.2500     86.5286     10.3124     20.7741    -63.2137      3.9277      4.8904      2.4045      0.1919     24.5962
  4091.7500     83.6311     10.3124     20.6854    -71.4139      4.8609      6.0475      2.4726      0.0957     24.5107
  4091.2500     82.1660     10.3124     20.7082    -62.2151      5.5847      6.9395      2.5545      0.0574     22.9819
  4090.7500     82.8100     10.3124     20.7882    -49.3664      5.6580      7.0354      2.6107      0.0653     21.2995
  4090.2500     83.8605     10.3124     20.9232    -47.0289      5.4042      6.7355      2.6226      0.0658     20.9874
  4089.7500     83.9631     10.3124     21.1385    -57.6847      5.0597      6.3419      2.6214      0.0560     21.7126
  4089.2500     83.6033     10.3124     21.3706    -56.3817      4.7148      5.9484      2.6259      0.0530     22.3531
  4088.7500     83.1599     10.3124     21.5119    -36.6933      4.4542      5.6378      2.6198      0.0609     23.0127
  4088.2500     82.6481     10.3124     21.5452    -24.1612      4.3535      5.5165      2.5894      0.0928     24.1273
  4087.7500     80.7227     10.3124     21.5101    -24.6120      4.4464      5.6511      2.5513      0.1275     24.6516
  4087.2500     76.4202     10.3124     21.4542    -24.2014      4.7526      6.0667      2.5299      0.1236     23.5775
  4086.7500     72.7816     10.3124     21.3980    -25.6935      5.2536      6.7232      2.5400      0.0882     21.9456
  4086.2500     73.5676     10.3124     21.2962    -31.1826      5.7288      7.3346      2.5735      0.0805     21.1550
  4085.7500     76.9505     10.3124     21.1166    -35.5981      5.7907      7.4095      2.6029      0.0958     21.2962
  4085.2500     79.8798     10.3124     20.9263    -32.7823      5.4364      6.9254      2.6121      0.0876     21.7919
  4084.7500     81.9484     10.3119     20.8703    -21.6303      5.0552      6.3917      2.6048      0.0716     22.5202
  4084.2500     81.9184     10.3021     21.0521    -12.3934      4.8585      6.0996      2.5813      0.1017     23.3577
  4083.7500     79.4975     10.2747     21.3616      4.4042      4.8209      6.0223      2.5559      0.1585     23.6240
  4083.2500     77.8779     10.2474     21.5918     30.5564      4.8419      6.0343      2.5595      0.1668     23.0358
