~Version Information
 VERS.                1.20:   CWLS log ASCII Standard -VERSION 1.20
 WRAP.                  NO:   One line per frame
~Well Information Block
#MNEM.UNIT       Data Type    Information
#---------    -------------   -------------------------------
 STRT.F          5629.5000:   Starting Depth
 STOP.F          5293.7500:   Ending Depth
 STEP.F            -0.5000:   Level Spacing
 NULL.           -999.2500:   Absent Value
 COMP.             COMPANY:   FLUOR DANIEL (NPOSR), INC.
 WELL.                WELL:   73 X 10
 FLD .               FIELD:   
 LOC .            LOCATION:   
 CNTY.              COUNTY:   
 STAT.               STATE:   
 SRVC.     SERVICE COMPANY:   
 LIC .      LICENSE NUMBER:   
 DATE.            LOG DATE:   
 API .          API NUMBER:   
~Curve Information Block
#MNEM.UNIT       API Codes    Curve Description
#---------    -------------   -------------------------------
 DEPT.F        0   1  0  1:   Depth
 P2HS.DEG      0 134  9  1:   Phase Difference, 200 MHz
 P4HS.DEG      0 134  9  1:   Phase Difference, 47 MHz
 GR  .API      0 310  1  1:   Gamma ray counts
 TEN .LBF      0 635 99  1:   Differential Tension
 D2EC.DIM      0 132 99  1:   Dielectric Constant, 200 MHz
 D4EC.DIM      0 132 99  1:   Dielectric Constant, 47 MHz
 R2SL.OHMM     0 995 99  1:   Logarithnic Resistivity (200 MHz tool)
 R4SL.OHMM     0 995 99  1:   Logarithmic Resistivity (47 MHz tool)
#  Curve Data
~A   DEPT        P2HS        P4HS        GR          TEN         D2EC        D4EC        R2SL        R4SL
# ...
  5479.5000     60.4213     43.7383     22.4514    -18.8597      9.5776     15.0509     11.7750     34.5707
  5479.0000     61.1024     45.0969     22.9796    -12.8353      9.6331     15.9868     10.8888     33.2781
  5478.5000     61.7631     46.4637     24.2170     -9.5800      9.7024     16.8981     10.2093     31.6377
  5478.0000     62.5380     46.7957     25.0540    -16.1287      9.8624     16.9698      9.7239     30.2444
  5477.5000     63.1484     46.3997     24.9776    -24.1502     10.0210     16.5283      9.4490     29.6157
  5477.0000     63.3359     46.3772     24.4958    -23.9928     10.0149     16.5253      9.2361     29.7108
  5476.5000     62.9882     46.6074     24.0664    -18.6434      9.7720     16.8150      9.0359     30.2786
  5476.0000     62.0405     46.3153     24.0446    -15.8478      9.3118     16.6684      8.9500     30.9233
  5475.5000     60.7689     44.9021     23.4992    -15.8127      8.8321     15.5963      9.1108     31.6311
  5475.0000     59.6168     42.7698     22.5612    -15.7966      8.5525     14.0551      9.5846     32.9282
  5474.5000     59.1373     41.5486     22.0897    -19.4642      8.6831     13.4112     10.4495     35.2558
  5474.0000     59.5001     41.8198     22.3784    -25.9506      9.1739     13.9753     11.6422     38.4227
  5473.5000     59.7279     42.3027     22.9326    -27.1667      9.5290     14.4373     12.9186     39.4201
  5473.0000     59.1845     41.8308     23.2004    -20.0052      9.4137     13.7004     13.5083     35.8199
  5472.5000     58.7035     39.5976     22.6226    -12.2384      9.1948     11.4863     13.3122     32.5753
  5472.0000     58.9600     36.1616     21.4957    -12.7612      9.2764      9.1402     13.2033     34.2645
  5471.5000     59.7770     35.7521     20.2626    -21.7913      9.5857      9.3445     13.1364     37.4286
  5471.0000     60.9330     40.9339     19.0774    -28.4650      9.9228     12.9469     12.4416     35.3482
  5470.5000     61.9024     47.0831     18.0773    -24.1649     10.1123     17.2707     11.4632     30.6052
  5470.0000     62.0681     48.5366     17.7500    -15.1365      9.9825     17.7109     10.6976     26.1437
  5469.5000     61.8965     45.9864     18.0087    -14.2112      9.6742     14.2089      9.9629     22.2874
  5469.0000     61.9010     43.5278     18.2379    -19.9949      9.4782     10.8349      9.4516     20.1981
  5468.5000     61.9604     43.5035     18.0618    -21.5272      9.4329     10.8220      9.2860     20.2162
  5468.0000     62.0441     45.3659     17.9036    -15.5590      9.4439     13.1563      9.2282     21.2241
  5467.5000     62.1977     47.2998     17.9488     -6.6566      9.4625     15.2036      9.1209     21.7044
  5467.0000     62.4108     48.6717     18.0224      0.3517      9.5084     16.3710      9.0183     21.3692
  5466.5000     62.7928     50.2067     18.4242      0.0970      9.6088     17.5442      8.8754     20.6267
  5466.0000     63.3103     52.9600     19.2423     -9.2552      9.7579     19.6748      8.7116     19.2675
  5465.5000     63.8346     57.2243     19.6038    -19.7954      9.8992     23.0513      8.5295     17.1666
  5465.0000     64.3465     60.8360     19.1886    -24.6254     10.0224     25.8000      8.3297     15.1931
  5464.5000     65.0952     61.2005     18.8377    -25.1720     10.2104     25.4011      8.0616     14.1697
  5464.0000     65.8947     59.3996     18.5901    -24.2219     10.3955     23.4143      7.7643     14.3011
  5463.5000     66.2806     58.5692     18.2396    -21.2881     10.3959     23.2683      7.5018     15.2595
  5463.0000     65.9362     58.8966     18.4275    -21.9746     10.0938     24.3797      7.3223     16.3279
  5462.5000     65.4200     57.6815     19.3515    -25.6789      9.8049     23.4663      7.2732     17.0268
  5462.0000     65.8472     53.0534     20.1087    -23.4319     10.0972     19.1636      7.3813     18.0953
  5461.5000     68.1755     47.7263     19.9740    -14.7626     11.3104     14.8020      7.5054     19.9577
  5461.0000     71.7270     47.4877     19.5389    -13.3901     12.9064     14.7590      7.2910     20.3302
  5460.5000     74.3854     53.7786     19.4463    -23.6848     13.7126     19.4940      6.5749     17.3732
  5460.0000     75.1458     61.5176     19.1943    -30.7547     13.1007     24.9601      5.6304     13.3226
  5459.5000     74.9521     65.5732     17.7470    -27.4939     11.8578     25.9240      4.9404     10.3946
  5459.0000     74.8602     65.6210     16.0725    -22.0369     11.1484     22.8372      4.6424      9.0719
  5458.5000     74.8934     63.1977     16.6050    -18.7276     10.9623     20.2393      4.5593      9.3748
  5458.0000     75.7916     58.3624     19.1077    -12.6706     11.3295     18.4034      4.4909     11.4326
  5457.5000     78.3518     52.0298     20.9505     -5.5412     12.5681     15.5662      4.3661     14.8860
  5457.0000     80.6888     49.5360     20.6839     -0.7042     13.6646     15.2003      4.2342     17.5995
  5456.5000     79.8865     55.2608     18.9230      2.8883     12.8107     21.1100      4.1138     17.4484
  5456.0000     76.5898     63.4151     17.2336      5.9548     10.5361     29.3476      4.0604     16.1144
  5455.5000     74.0872     64.6170     16.9728      8.3790      9.4002     30.1160      4.1950     15.0834
  5455.0000     73.5248     58.8021     17.6019      7.1538     10.2539     23.7140      4.6043     15.5020
  5454.5000     73.7870     53.4515     17.3843      2.1448     11.5013     19.6766      5.1026     18.2757
  5454.0000     74.5487     52.1479     15.6465      1.6040     12.2781     20.7300      5.2998     24.8352
  5453.5000     76.4681     53.5170     13.4066     13.1601     13.0564     23.4294      5.1149     35.5203
  5453.0000     78.2766     56.4819     12.5122     25.0954     13.5623     26.3839      4.8199     39.2791
  5452.5000     78.2155     61.6573     14.0089     25.2589     12.8899     30.9865      4.5271     32.2680
  5452.0000     76.4328     66.7501     16.8278     22.2632     11.2056     35.5332      4.3028     24.2438
  5451.5000     74.5950     66.4372     19.2271     21.3131      9.9854     33.8898      4.2775     18.5871
  5451.0000     73.4255     59.1457     20.7261     14.7690      9.9661     25.2442      4.5181     17.3642
  5450.5000     71.2106     49.8308     21.8219      5.0078      9.9743     17.4258      5.0739     21.2226
  5450.0000     66.6172     43.1469     21.6936     -0.9138      9.0281     14.0192      5.9987     30.8129
  5449.5000     61.4250     38.6875     19.9150     -3.4218      7.9088     12.3563      7.2955     46.9829
  5449.0000     57.7914     34.9534     18.5820     -4.8291      7.7069     10.7129      9.4326     66.4821
  5448.5000     55.7787     33.3652     18.1911     -5.2121      8.1227     10.0737     13.5825     80.8494
  5448.0000     55.2335     34.3813     16.6351     -5.3625      8.6428     10.7293     21.5310     84.0434
  5447.5000     55.7487     34.9357     14.1186     -4.8077      9.1294     10.8290     36.5377     71.4266
  5447.0000     56.2995     33.5791     13.3654     -2.7563      9.4262      9.2961     64.7765     53.0811
  5446.5000     56.2474     32.6128     14.6364      2.0905      9.4379      7.9879     99.3559     44.4236
  5446.0000     55.9650     33.7633     15.7496      7.9404      9.3473      8.7467    111.0462     44.2249
  5445.5000     55.8013     36.4096     15.6604     12.2708      9.2908     11.0375    106.0531     51.0875
  5445.0000     55.7852     39.1611     14.8579     12.5148      9.2833     13.3071    100.6595     61.4901
  5444.5000     55.9338     41.0609     13.7561      8.5623      9.3327     14.6033     99.8726     61.0226
  5444.0000     56.4117     42.7758     12.7989      8.4302      9.4930     15.4656     98.5420     50.1666
  5443.5000     56.7871     45.5557     13.0001     15.3998      9.6161     17.0050     90.1225     39.8345
  5443.0000     55.9203     47.7227     14.0154     22.2467      9.3141     18.0893     77.7664     32.6203
  5442.5000     54.3143     44.3895     14.1974     27.1636      8.7686     14.7126     66.4885     29.0061
