~Version Information
 VERS.                1.20:   CWLS log ASCII Standard -VERSION 1.20
 WRAP.                  NO:   One line per frame
~Well Information Block
#MNEM.UNIT       Data Type    Information
#---------    -------------   -------------------------------
 STRT.F          5623.7500:   Starting Depth
 STOP.F           -24.0000:   Ending Depth
 STEP.F            -0.5000:   Level Spacing
 NULL.           -999.2500:   Absent Value
 COMP.             COMPANY:   FLUOR DANIEL (NPOSR), INC.
 WELL.                WELL:   73 X 10
 FLD .               FIELD:   
 LOC .            LOCATION:   
 CNTY.              COUNTY:   
 STAT.               STATE:   
 SRVC.     SERVICE COMPANY:   
 LIC .      LICENSE NUMBER:   
 DATE.            LOG DATE:   
 API .          API NUMBER:   
~Curve Information Block
#MNEM.UNIT       API Codes    Curve Description
#---------    -------------   -------------------------------
 DEPT.F        0   1  0  1:   Depth
 GR  .API      0 310  1  1:   Gamma ray counts
 CAL .IN       0 280 99  1:   Caliper (for 4CAL: from C13 and/or C24)
 SP  .MV       0  10  1  1:   Spontaneous Potential
 TEN .LBF      0 635 99  1:   Differential Tension
 RS  .OHMM     0 220  9  1:   Logarithmic Resistivity from ES, IS
 RD  .OHMM     0 220 10  1:   Logarithmic Resistivity from ED, ID
 ZDEN.G/C3     0 350  1  1:   ZDL Bulk Density
 ZCOR.G/C3     0 356 99  1:   ZDL Correction
 CNC .PU       0 995 99  1:   Corrected Neutron Porosity from CN
#  Curve Data
~A   DEPT        GR          CAL         SP          TEN         RS          RD          ZDEN        ZCOR        CNC 
# ...
  4484.7500    130.4117      9.9355     18.6668    -56.4223     16.8162     16.6265      2.6676      0.0324     20.6172
  4484.2500    131.8750      9.9355     18.8011    -49.0467     16.7740     16.4440      2.6699      0.0328     21.5058
  4483.7500    125.8067      9.9355     18.9628    -65.8248     18.0774     17.6238      2.6707      0.0273     20.7322
  4483.2500    110.5725      9.9355     18.9668    -78.3878     20.2820     19.7068      2.6730      0.0259     18.6338
  4482.7500     92.2062      9.9355     18.7755    -86.8469     22.6770     21.9960      2.6696      0.0357     16.0768
  4482.2500     78.8348      9.9355     18.7296    -90.6893     24.5555     23.8555      2.6524      0.0468     13.7889
  4481.7500     73.1936      9.9355     19.0045    -77.0473     25.4636     24.8934      2.6258      0.0471     12.4715
  4481.2500     71.7185      9.9355     19.5346    -65.8812     25.6131     25.2377      2.6023      0.0419     11.7783
  4480.7500     70.3800      9.9355     20.1830    -72.9761     25.9977     25.7916      2.5872      0.0403     11.2246
  4480.2500     67.6062      9.9355     20.7937    -79.8039     27.3981     27.3776      2.5787      0.0391     10.6235
  4479.7500     64.1946      9.9350     21.2907    -77.0113     30.1739     30.4173      2.5768      0.0366      9.9141
  4479.2500     60.1220      9.9253     21.7731    -72.4265     34.6373     35.2252      2.5809      0.0350      9.0156
  4478.7500     55.8636      9.8973     22.2579    -65.6211     41.3639     42.3482      2.5875      0.0316      8.1688
  4478.2500     51.5062      9.8635     22.6001    -51.0973     51.0273     52.4918      2.5956      0.0267      7.1814
  4477.7500     45.7978      9.8447     22.6974    -31.8374     64.3682     66.3538      2.6087      0.0229      6.0402
  4477.2500     38.5847      9.8413     22.7295    -15.9119     84.3609     86.2536      2.6296      0.0157      5.1019
  4476.7500     31.7157      9.8413     22.9993     -6.1442    118.8990    118.2446      2.6570      0.0051      4.3678
  4476.2500     27.1679      9.8413     23.5785     -5.4876    178.8729    170.3193      2.6833      0.0023      3.7828
  4475.7500     25.2219      9.8413     24.1937    -11.2539    264.1394    243.9087      2.6982      0.0112      3.2838
  4475.2500     24.4441      9.8413     24.5614    -18.1472    345.5576    323.8750      2.6999      0.0206      2.6853
  4474.7500     22.8979      9.8413     24.8458    -20.9120    392.7976    388.4036      2.6968      0.0224      2.2144
  4474.2500     20.8433      9.8413     25.3555    -15.6810    416.5198    434.9421      2.7001      0.0235      2.0460
  4473.7500     18.9832      9.8413     25.9641     -6.5325    444.6948    482.8816      2.7100      0.0284      2.0517
  4473.2500     17.0746      9.8413     26.5042     -7.9950    483.8850    544.0415      2.7163      0.0300      2.0293
  4472.7500     15.8359      9.8413     27.0154    -21.2622    524.1387    611.1401      2.7160      0.0273      2.0174
  4472.2500     16.6319      9.8413     27.5978    -41.8494    552.1140    667.2205      2.7157      0.0271      2.0454
  4471.7500     19.0924      9.8413     28.2009    -70.5974    549.7710    690.6018      2.7169      0.0288      2.0772
  4471.2500     22.2529      9.8413     28.5077    -97.5408    502.4102    658.2378      2.7162      0.0264      2.1075
  4470.7500     25.6181      9.8413     28.1949   -109.6994    426.8347    577.1716      2.7147      0.0230      2.2378
  4470.2500     27.0555      9.8413     27.6273   -109.8729    359.5947    491.1819      2.7119      0.0226      2.5978
  4469.7500     24.6399      9.8413     27.4592   -105.4879    317.7805    429.2495      2.7067      0.0256      3.0784
  4469.2500     20.2456      9.8413     27.6984   -102.1994    300.7078    394.6965      2.7033      0.0264      3.4780
  4468.7500     17.4543      9.8413     28.0583   -105.2967    298.6504    376.4844      2.7046      0.0219      3.7651
  4468.2500     17.2827      9.8380     28.5254   -105.0286    290.5259    352.7415      2.7052      0.0165      4.1066
  4467.7500     19.3077      9.8191     29.0745    -82.7178    249.2226    298.4260      2.7040      0.0242      4.7214
  4467.2500     21.8600      9.7854     29.3527    -52.7089    170.5316    206.3764      2.7044      0.0504      5.8181
  4466.7500     23.0234      9.7540     29.3657    -47.4748    102.1868    122.9124      2.7010      0.0750      7.3675
  4466.2500     22.7457      9.7260     29.5304    -58.1510     68.1006     79.3998      2.6817      0.0779      9.3422
  4465.7500     21.5706      9.7014     29.8753    -57.9930     56.0042     62.8448      2.6510      0.0633     10.8654
  4465.2500     19.5078      9.7014     30.0966    -50.6837     56.8324     61.6221      2.6305      0.0427     10.9026
  4464.7500     18.0993      9.7254     30.2342    -42.6954     68.4286     72.1766      2.6315      0.0189     10.0082
  4464.2500     19.0106      9.7437     30.3920    -40.8974     93.8822     96.8333      2.6484      0.0050      8.5811
  4463.7500     20.3197      9.7471     30.5066    -52.3850    137.7148    141.5392      2.6714      0.0122      7.1184
  4463.2500     20.0293      9.7471     30.5562    -57.3452    192.3345    207.3456      2.6934      0.0283      6.1496
  4462.7500     20.0320      9.7471     30.5271    -53.8435    230.9953    275.2144      2.7072      0.0310      5.5079
  4462.2500     21.5601      9.7471     30.3730    -65.2319    247.9906    327.0947      2.7111      0.0224      4.9628
  4461.7500     22.2605      9.7471     30.1973    -79.0755    262.1570    377.4768      2.7104      0.0196      4.4153
  4461.2500     21.4168      9.7471     29.9907    -75.8029    282.0371    436.2195      2.7110      0.0269      3.9310
  4460.7500     20.8942      9.7471     29.6337    -68.9849    310.7480    504.1152      2.7151      0.0333      3.5078
  4460.2500     20.8342      9.7471     29.2384    -69.6208    342.3276    572.7556      2.7214      0.0359      3.0616
  4459.7500     20.7557      9.7471     29.0326    -72.6388    361.4604    618.8242      2.7274      0.0406      2.6454
  4459.2500     21.1712      9.7471     29.0167    -72.8230    361.6150    628.4385      2.7327      0.0459      2.4375
  4458.7500     21.8972      9.7471     28.9597    -69.6257    350.1843    612.1812      2.7368      0.0461      2.4205
  4458.2500     21.9720      9.7471     28.6904    -69.4168    335.1021    585.4080      2.7369      0.0447      2.4923
  4457.7500     21.5585      9.7471     28.3563    -76.5687    317.5808    554.1914      2.7339      0.0447      2.5524
  4457.2500     21.7478      9.7471     28.1268    -87.2318    275.9490    490.0132      2.7339      0.0439      2.7268
  4456.7500     24.1993      9.7471     28.0304    -88.8795    200.6516    370.3054      2.7399      0.0438      3.2389
  4456.2500     29.5777      9.7471     28.0547    -71.0360    132.2514    250.1917      2.7472      0.0437      3.8929
  4455.7500     36.3190      9.7471     28.1133    -58.3163     82.1863    154.5916      2.7418      0.0400      4.7751
  4455.2500     43.0520      9.7471     28.0276    -77.9119     47.9444     87.5504      2.7139      0.0382      6.0066
  4454.7500     50.0284      9.7471     27.8844    -98.8615     29.1921     51.5751      2.6743      0.0461      7.7992
  4454.2500     55.3750      9.7471     27.7838    -88.3857     20.2007     34.5397      2.6397      0.0577      9.8362
  4453.7500     55.5544      9.7471     27.7528    -78.0684     15.0477     24.8786      2.6111      0.0659     11.5640
  4453.2500     50.9291      9.7471     27.9119    -94.5640     11.0743     17.7220      2.5777      0.0712     12.8610
  4452.7500     45.0151      9.7471     28.2607   -108.0060      8.3107     12.9212      2.5339      0.0708     13.8745
  4452.2500     40.7305      9.7471     28.5805    -94.7580      6.7334     10.1932      2.4862      0.0686     14.9955
  4451.7500     39.0656      9.7443     28.7094    -74.4594      5.8846      8.7019      2.4371      0.0633     16.4192
