~Version Information
 VERS.                1.20:   CWLS log ASCII Standard -VERSION 1.20
 WRAP.                  NO:   One line per frame
~Well Information Block
#MNEM.UNIT       Data Type    Information
#---------    -------------   -------------------------------
 STRT.F          5623.7500:   Starting Depth
 STOP.F           -24.0000:   Ending Depth
 STEP.F            -0.5000:   Level Spacing
 NULL.           -999.2500:   Absent Value
 COMP.             COMPANY:   FLUOR DANIEL (NPOSR), INC.
 WELL.                WELL:   73 X 10
 FLD .               FIELD:   
 LOC .            LOCATION:   
 CNTY.              COUNTY:   
 STAT.               STATE:   
 SRVC.     SERVICE COMPANY:   
 LIC .      LICENSE NUMBER:   
 DATE.            LOG DATE:   
 API .          API NUMBER:   
~Curve Information Block
#MNEM.UNIT       API Codes    Curve Description
#---------    -------------   -------------------------------
 DEPT.F        0   1  0  1:   Depth
 GR  .API      0 310  1  1:   Gamma ray counts
 CAL .IN       0 280 99  1:   Caliper (for 4CAL: from C13 and/or C24)
 SP  .MV       0  10  1  1:   Spontaneous Potential
 TEN .LBF      0 635 99  1:   Differential Tension
 RS  .OHMM     0 220  9  1:   Logarithmic Resistivity from ES, IS
 RD  .OHMM     0 220 10  1:   Logarithmic Resistivity from ED, ID
 ZDEN.G/C3     0 350  1  1:   ZDL Bulk Density
 ZCOR.G/C3     0 356 99  1:   ZDL Correction
 CNC .PU       0 995 99  1:   Corrected Neutron Porosity from CN
#  Curve Data
~A   DEPT        GR          CAL         SP          TEN         RS          RD          ZDEN        ZCOR        CNC 
# ...
  5255.2500     24.7532      9.4764     33.2330    -38.3852   2815.9971   2519.6631      2.8441      0.0057      3.6158
  5254.7500     20.0955      9.4821     33.1007    -52.8556   1215.9458   1396.0027      2.8863     -0.0049      2.6435
  5254.2500     23.1362      9.4797     33.1626    -60.2942    387.1277    430.3149      2.9266     -0.0033      2.1217
  5253.7500     37.2453      9.4861     33.1789    -61.0717    164.8409    164.6252      2.9386      0.0027      2.4580
  5253.2500     55.8721      9.5015     32.9915    -63.6947     94.6401     85.1042      2.9072      0.0153      3.8381
  5252.7500     69.0676      9.5146     32.6807    -65.8391     67.5137     55.5214      2.8428      0.0383      6.3071
  5252.2500     74.8454      9.5301     32.3521    -64.0424     55.9573     43.1065      2.7729      0.0491      9.5157
  5251.7500     77.3064      9.5489     32.0713    -61.0802     51.5004     38.1722      2.7238      0.0380     11.6397
  5251.2500     78.4068      9.5581     31.8479    -57.0225     50.5519     36.8918      2.7032      0.0244     12.0515
  5250.7500     77.2032      9.5587     31.5869    -50.1185     51.2487     37.4547      2.6975      0.0181     11.6022
  5250.2500     71.0969      9.5587     31.2011    -47.7438     54.8530     40.5903      2.6964      0.0109     10.6445
  5249.7500     57.6134      9.5587     30.6740    -56.6919     66.1760     50.0929      2.7066      0.0055      8.6062
  5249.2500     39.4282      9.5587     29.9852    -61.8415     94.2106     73.5638      2.7424      0.0025      5.6025
  5248.7500     23.3036      9.5587     29.2991    -52.2984    162.4460    128.7282      2.8094     -0.0039      3.1942
  5248.2500     14.0109      9.5587     28.8419    -45.3072    357.6702    266.3652      2.8920     -0.0018      1.3574
  5247.7500     11.0446      9.5587     28.6218    -49.4198   1129.8464    668.3440      2.9546      0.0157      0.3964
  5247.2500     12.7652      9.5587     28.5658    -53.6156   4086.7705   1737.8005      2.9738      0.0231      0.0129
  5246.7500     18.5194      9.5587     28.5307    -47.9792   2650.0674   2050.5488      2.9666      0.0131      0.0657
  5246.2500     26.5036      9.5587     28.3446    -33.5082    883.3149    953.4138      2.9549      0.0111      0.5006
  5245.7500     31.7061      9.5587     28.0963    -22.8488    407.1013    449.3376      2.9324      0.0238      1.2897
  5245.2500     29.6079      9.5587     27.9704    -25.5968    264.9817    283.1418      2.8918      0.0339      2.2590
  5244.7500     22.0514      9.5587     27.8648    -28.6730    227.6159    233.8261      2.8536      0.0269      2.9097
  5244.2500     15.2753      9.5587     27.7277    -18.8039    247.4600    243.6468      2.8439      0.0031      2.7555
  5243.7500     12.5394      9.5587     27.6827    -10.1358    342.6521    318.7520      2.8641     -0.0189      1.9679
  5243.2500     12.5840      9.5587     27.6073    -20.5735    606.9548    523.9946      2.8927     -0.0259      1.1632
  5242.7500     13.9794      9.5587     27.3770    -36.3478   1006.0645    902.5757      2.9101     -0.0252      0.7479
  5242.2500     17.1596      9.5587     27.1546    -34.5132    747.1887    898.4995      2.9175     -0.0223      0.8219
  5241.7500     21.4060      9.5587     27.0946    -18.5766    418.4148    568.0679      2.9225     -0.0116      1.2928
  5241.2500     23.2121      9.5587     26.9974    -12.3519    293.8662    397.0330      2.9208      0.0040      1.8779
  5240.7500     20.9607      9.5587     26.7161    -18.0609    264.6333    346.2505      2.9099      0.0136      2.1749
  5240.2500     18.3010      9.5587     26.4089    -12.0371    275.5415    356.2209      2.9046      0.0163      2.1637
  5239.7500     20.6191      9.5587     26.3144      1.5424    207.2153    302.9353      2.9177      0.0128      2.1319
  5239.2500     30.4391      9.5587     26.4274     -9.5617     84.8389    137.8160      2.9345      0.0074      2.6370
  5238.7500     46.0284      9.5587     26.5929    -34.3753     38.4543     61.4814      2.9216      0.0136      4.2037
  5238.2500     62.2217      9.5587     26.6763    -40.4458     23.6787     36.3037      2.8668      0.0339      7.3244
  5237.7500     74.0124      9.5587     26.6242    -38.3492     18.3850     27.0490      2.7945      0.0497     11.9722
  5237.2500     79.9130      9.5587     26.5359    -35.7378     16.4368     23.4306      2.7363      0.0470     16.9914
  5236.7500     81.3990      9.5587     26.5884    -14.6897     16.0340     22.3485      2.7034      0.0280     19.7098
  5236.2500     80.7029      9.5587     26.8166      3.9580     16.5797     22.7472      2.6928      0.0102     19.8908
  5235.7500     79.6272      9.5587     27.0212     -7.3298     17.6610     23.9579      2.6984      0.0084     19.5907
  5235.2500     79.0787      9.5587     26.9788    -18.7313     18.8128     25.3317      2.7099      0.0193     19.2420
  5234.7500     79.6387      9.5587     26.7367     -1.8623     19.4549     26.1665      2.7155      0.0276     19.0112
  5234.2500     81.2153      9.5587     26.5577     22.7377     19.5219     26.3593      2.7132      0.0308     18.7834
  5233.7500     83.0831      9.5587     26.5579     22.4626     19.3342     26.3121      2.7091      0.0321     18.6622
  5233.2500     84.6724      9.5587     26.6872     -0.0717     18.9918     26.1875      2.7075      0.0289     18.7960
  5232.7500     86.2479      9.5587     26.8257     -6.0265     18.5802     26.0056      2.7102      0.0244     18.9628
  5232.2500     88.0970      9.5587     26.8767     16.8943     18.2336     25.8211      2.7157      0.0308     18.9518
  5231.7500     90.2361      9.5587     26.8502     22.1442     18.0051     25.7385      2.7210      0.0470     18.7356
  5231.2500     91.1713      9.5587     26.8280     -5.8773     17.9122     25.8675      2.7255      0.0561     18.4872
  5230.7500     90.2755      9.5587     26.8654    -19.1482     17.9689     26.1989      2.7304      0.0515     18.4298
  5230.2500     90.0880      9.5587     26.9517     -2.1664     18.1126     26.5968      2.7304      0.0395     18.4813
  5229.7500     92.1674      9.5587     27.0530     10.5670     18.2765     27.0073      2.7218      0.0279     18.4928
  5229.2500     94.1875      9.5587     27.1152      5.3442     18.4642     27.4885      2.7121      0.0216     18.4043
  5228.7500     94.2064      9.5587     27.1234     -1.2054     18.6713     28.0383      2.7098      0.0248     18.2820
  5228.2500     92.3366      9.5587     27.1481      2.5687     18.9072     28.6282      2.7116      0.0308     18.1685
  5227.7500     90.8563      9.5587     27.2166     -0.3355     19.3158     29.4327      2.7092      0.0283     17.9974
  5227.2500     91.9312      9.5587     27.1955    -19.0552     20.1145     30.8357      2.7014      0.0205     17.6888
  5226.7500     93.7479      9.5587     27.0262    -34.1030     21.2958     32.9131      2.6943      0.0201     17.0732
  5226.2500     93.1742      9.5587     26.8363    -36.6442     22.5911     35.2148      2.6924      0.0258     16.2046
  5225.7500     91.1282      9.5587     26.7104    -36.0815     23.7482     37.2430      2.6942      0.0292     15.5085
  5225.2500     89.4169      9.5587     26.6285    -33.4564     24.6478     38.8038      2.6972      0.0295     15.2580
  5224.7500     88.1050      9.5587     26.6552    -31.9759     25.2986     39.9194      2.7016      0.0279     15.3342
  5224.2500     87.0103      9.5587     26.7431    -42.4011     25.9552     40.9500      2.7092      0.0289     15.5357
  5223.7500     86.6560      9.5587     26.7624    -55.7247     26.7180     42.0666      2.7169      0.0324     15.4721
  5223.2500     88.0741      9.5587     26.7101    -56.4381     27.1705     42.6465      2.7174      0.0325     15.1961
  5222.7500     92.3104      9.5587     26.6762    -48.6008     26.8873     41.9904      2.7112      0.0267     15.1286
  5222.2500     97.7187      9.5587     26.6562    -48.6191     25.9228     40.1002      2.7056      0.0204     15.5193
