~Version Information
 VERS.                1.20:   CWLS log ASCII Standard -VERSION 1.20
 WRAP.                  NO:   One line per frame
~Well Information Block
#MNEM.UNIT       Data Type    Information
#---------    -------------   -------------------------------
 STRT.F          5629.5000:   Starting Depth
 STOP.F          5293.7500:   Ending Depth
 STEP.F            -0.5000:   Level Spacing
 NULL.           -999.2500:   Absent Value
 COMP.             COMPANY:   FLUOR DANIEL (NPOSR), INC.
 WELL.                WELL:   73 X 10
 FLD .               FIELD:   
 LOC .            LOCATION:   
 CNTY.              COUNTY:   
 STAT.               STATE:   
 SRVC.     SERVICE COMPANY:   
 LIC .      LICENSE NUMBER:   
 DATE.            LOG DATE:   
 API .          API NUMBER:   
~Curve Information Block
#MNEM.UNIT       API Codes    Curve Description
#---------    -------------   -------------------------------
 DEPT.F        0   1  0  1:   Depth
 P2HS.DEG      0 134  9  1:   Phase Difference, 200 MHz
 P4HS.DEG      0 134  9  1:   Phase Difference, 47 MHz
 GR  .API      0 310  1  1:   Gamma ray counts
 TEN .LBF      0 635 99  1:   Differential Tension
 D2EC.DIM      0 132 99  1:   Dielectric Constant, 200 MHz
 D4EC.DIM      0 132 99  1:   Dielectric Constant, 47 MHz
 R2SL.OHMM     0 995 99  1:   Logarithnic Resistivity (200 MHz tool)
 R4SL.OHMM     0 995 99  1:   Logarithmic Resistivity (47 MHz tool)
#  Curve Data
~A   DEPT        P2HS        P4HS        GR          TEN         D2EC        D4EC        R2SL        R4SL
# ...
  5554.5000     54.4709     39.8287     25.8474    132.7207      8.8461     13.8633     94.8610     65.4709
  5554.0000     56.7394     40.4796     27.9078    131.5797      9.6071     13.7191    106.0258     48.5587
  5553.5000     58.7883     41.4497     31.5199    132.6027     10.3138     13.7883     99.6373     39.4078
  5553.0000     59.2556     43.8488     36.2686    132.4579     10.4585     15.0804     69.4352     34.0978
  5552.5000     58.6662     46.1054     41.4689    124.8569     10.2024     16.4902     47.2233     30.9138
  5552.0000     58.3609     46.5724     45.4711    111.8984     10.0589     16.7170     39.8895     29.8610
  5551.5000     58.2552     45.8878     45.4076    108.3521     10.0276     16.2723     40.8897     30.6903
  5551.0000     57.4857     44.6402     39.7534    111.9643      9.7738     15.5767     43.7886     32.9981
  5550.5000     56.0179     42.0792     30.9719    115.0435      9.2751     13.9671     44.8120     36.4535
  5550.0000     55.0330     38.0350     23.8304    117.6696      8.9556     11.4538     47.3166     41.3494
  5549.5000     55.6178     34.6667     20.1727    114.2942      9.1647      9.6474     50.9433     47.6297
  5549.0000     57.5003     36.5670     19.1001    102.7093      9.8175     10.9500     54.8191     47.9203
  5548.5000     58.8071     43.8442     19.1992     97.2858     10.2769     15.7258     55.6295     40.6788
  5548.0000     56.9297     50.1122     19.8308     94.7369      9.6067     19.9325     49.9590     30.8860
  5547.5000     52.4118     49.3706     20.4644     87.3959      8.0496     17.5824     38.7855     22.8679
  5547.0000     49.0263     41.7774     21.1486     80.3132      6.9193      9.3488     32.4658     20.5613
  5546.5000     48.9556     33.4593     21.9686     79.4958      6.9277      3.7402     34.4388     24.5955
  5546.0000     51.0672     30.5337     22.2673     79.9323      7.6703      4.6777     45.2011     33.6143
  5545.5000     54.5060     32.5761     21.5755     80.0271      8.7951      8.0802     50.9563     45.6017
  5545.0000     59.8603     36.1000     20.6272     85.7578     10.5582     10.9539     34.8468     53.4010
  5544.5000     65.8768     40.9456     19.7496     95.8789     12.5856     13.7996     19.9994     44.2747
  5544.0000     67.8307     48.6770     18.6461    100.1858     12.8345     18.4047     12.6325     29.0717
  5543.5000     62.5653     60.2608     17.6750     98.5943      9.8448     26.7326      9.6467     17.9250
  5543.0000     54.7744     71.9823     16.9039    101.0721      6.2761     36.1757      9.1530     11.5169
  5542.5000     51.6763     73.5116     15.8319    103.4447      5.7392     33.8170     10.6278      8.9097
  5542.0000     53.4312     61.7927     14.7253     99.8936      7.4565     17.6880     14.8241      9.1959
  5541.5000     55.2439     49.1707     14.3027     93.5594      8.6536      6.3276     21.6967     11.4585
  5541.0000     55.2032     44.5585     14.3407     87.9592      8.6997      5.3836     23.2268     13.8795
  5540.5000     54.7924     43.7723     14.5062     85.3131      8.3869      7.3792     19.5599     15.8861
  5540.0000     54.8447     42.0588     14.9173     88.5525      8.2592      8.3335     17.5092     18.7251
  5539.5000     54.9207     40.4111     15.5066     97.2209      8.2611      9.2922     17.2169     22.8261
  5539.0000     54.4267     38.8415     15.6483    106.0131      8.0849      9.8106     17.2062     27.8799
  5538.5000     52.9346     37.9189     14.7875    108.8496      7.5813     10.0347     17.4165     31.8652
  5538.0000     50.6590     39.5033     13.6849    100.8492      6.8759     11.6384     18.1929     33.9272
  5537.5000     49.1459     42.7134     13.9721     86.0304      6.5324     14.4380     20.1692     36.2527
  5537.0000     50.1253     43.7980     15.2271     73.7664      7.0624     15.5698     24.4746     39.1844
  5536.5000     53.0015     43.1059     15.4440     66.2615      8.1414     15.0014     30.5713     38.8271
  5536.0000     55.1615     44.3358     14.4386     61.2376      8.8867     15.3307     32.4658     33.0122
  5535.5000     54.6754     46.7370     13.7705     57.8381      8.6714     16.4472     29.1377     27.6508
  5535.0000     52.3702     46.8042     14.3251     54.5017      7.8761     16.1536     27.5923     26.0901
  5534.5000     50.5114     44.8226     15.6610     47.7462      7.3478     14.6873     30.7423     27.1904
  5534.0000     50.3070     42.5572     16.5394     42.0580      7.3982     13.3532     39.8216     29.8419
  5533.5000     51.2094     40.1842     15.7647     44.3671      7.7504     12.2017     53.4161     34.1647
  5533.0000     52.7205     38.9498     13.8188     53.9069      8.2524     11.8572     64.7488     38.7697
  5532.5000     54.4362     39.8703     12.3113     59.5735      8.8190     12.9456     74.4547     43.3046
  5532.0000     55.8633     42.0887     12.0368     60.3723      9.2969     14.9315     79.9641     49.5182
  5531.5000     56.5799     43.8834     12.4195     64.8839      9.5343     16.4975     75.1443     56.0221
  5531.0000     56.8368     44.3228     12.9712     65.0400      9.6101     16.8971     65.5755     58.6288
  5530.5000     56.9502     43.2543     13.9754     51.0164      9.6326     16.0205     56.7345     55.6227
  5530.0000     56.7910     41.5426     15.0870     34.5071      9.5638     14.5741     51.4029     50.3868
  5529.5000     56.0643     39.4695     15.4706     34.3887      9.3168     13.0047     51.4785     48.6279
  5529.0000     55.0526     35.8596     15.1552     52.0577      8.9914     10.9003     56.2649     55.5959
  5528.5000     54.2757     30.5900     14.6959     68.2520      8.7555      8.4324     66.1532     78.6978
  5528.0000     53.9952     25.9783     14.2551     70.0554      8.6853      6.8478     85.2660    153.4847
  5527.5000     53.8500     24.4085     14.1752     67.4090      8.6552      6.6963    123.9171  -1729.8105
  5527.0000     53.4288     25.6874     14.6168     69.2011      8.5277      7.2695    176.6755   -452.5464
  5526.5000     53.4050     27.3265     14.9035     66.6593      8.5207      7.9859    184.4268   -466.8296
  5526.0000     54.9805     27.3181     14.8401     60.7194      9.0212      7.9821    114.5396   -466.7566
  5525.5000     58.4041     26.9458     14.9244     57.2762     10.1245      7.8160     51.6629   -463.5205
  5525.0000     62.7062     28.5972     15.1293     55.4490     11.5072      8.5245     26.2710 -38104.1172
  5524.5000     66.3964     32.4991     14.6348     50.9945     12.5858     10.0763     16.0618    135.0048
  5524.0000     68.6313     38.1278     13.0323     46.0550     12.8837     12.5826     10.9471     60.5029
  5523.5000     69.2944     47.4517     11.3752     44.8627     12.2129     17.9421      8.1108     33.2996
  5523.0000     68.1032     61.9843     10.9010     46.2273     10.6731     29.2587      6.7609     19.6031
  5522.5000     64.5583     75.4934     11.2538     43.2112      8.5443     42.1667      6.4407     12.9116
  5522.0000     59.2148     77.6496     11.4530     36.8156      6.6496     41.9878      7.0974     10.0458
  5521.5000     53.6362     67.1667     11.3912     36.6528      5.8268     26.9741      9.2108      9.8483
  5521.0000     49.3906     51.5801     11.2979     44.9088      5.9425     12.7205     14.3334     13.0858
  5520.5000     46.8074     35.1996     11.2245     56.5379      6.1167      5.5719     26.6847     25.0018
  5520.0000     45.4050     19.2355     11.2685     61.0585      6.0441      1.7579     52.3095     68.9427
  5519.5000     44.7128     11.8746     11.6797     54.3992      5.9087      1.1428     70.0769    168.6250
  5519.0000     44.4340     22.6871     12.5435     44.8319      5.7994      5.2259     57.4441    133.8031
  5518.5000     44.3092     39.2009     13.4060     39.8754      5.6797     14.1226     42.5543    154.1923
  5518.0000     44.5147     40.3572     14.3306     37.2265      5.6239     14.7088     33.7013    107.3767
  5517.5000     45.8177     31.0967     15.1909     35.5130      5.8808      7.5700     28.5437     50.9309
