~Version Information
 VERS.                1.20:   CWLS log ASCII Standard -VERSION 1.20
 WRAP.                  NO:   One line per frame
~Well Information Block
#MNEM.UNIT       Data Type    Information
#---------    -------------   -------------------------------
 STRT.F          5623.7500:   Starting Depth
 STOP.F           -24.0000:   Ending Depth
 STEP.F            -0.5000:   Level Spacing
 NULL.           -999.2500:   Absent Value
 COMP.             COMPANY:   FLUOR DANIEL (NPOSR), INC.
 WELL.                WELL:   73 X 10
 FLD .               FIELD:   
 LOC .            LOCATION:   
 CNTY.              COUNTY:   
 STAT.               STATE:   
 SRVC.     SERVICE COMPANY:   
 LIC .      LICENSE NUMBER:   
 DATE.            LOG DATE:   
 API .          API NUMBER:   
~Curve Information Block
#MNEM.UNIT       API Codes    Curve Description
#---------    -------------   -------------------------------
 DEPT.F        0   1  0  1:   Depth
 GR  .API      0 310  1  1:   Gamma ray counts
 CAL .IN       0 280 99  1:   Caliper (for 4CAL: from C13 and/or C24)
 SP  .MV       0  10  1  1:   Spontaneous Potential
 TEN .LBF      0 635 99  1:   Differential Tension
 RS  .OHMM     0 220  9  1:   Logarithmic Resistivity from ES, IS
 RD  .OHMM     0 220 10  1:   Logarithmic Resistivity from ED, ID
 ZDEN.G/C3     0 350  1  1:   ZDL Bulk Density
 ZCOR.G/C3     0 356 99  1:   ZDL Correction
 CNC .PU       0 995 99  1:   Corrected Neutron Porosity from CN
#  Curve Data
~A   DEPT        GR          CAL         SP          TEN         RS          RD          ZDEN        ZCOR        CNC 
# ...
  4886.7500     73.4867     10.0298     14.6829     -5.9716     27.9034     31.2513      2.7068      0.0442      9.7670
  4886.2500     72.0627     10.0298     14.6455     -9.6127     29.6858     33.5277      2.7068      0.0369      8.9959
  4885.7500     73.5490     10.0298     14.5486     -6.8915     31.6850     36.0885      2.7013      0.0291      8.6038
  4885.2500     76.7619     10.0298     14.5526     -3.2763     32.8712     37.6989      2.6926      0.0210      8.5584
  4884.7500     80.8543     10.0298     14.6407     -0.0232     32.2584     37.1009      2.6839      0.0116      8.9402
  4884.2500     84.9984     10.0298     14.5624      4.9050     29.9563     34.3349      2.6815      0.0087      9.7106
  4883.7500     90.1118     10.0298     14.2915      4.5463     26.8512     30.5235      2.6862      0.0121     10.9177
  4883.2500     97.5536     10.0298     14.0127     -0.4252     23.5323     26.4859      2.6905      0.0150     12.5513
  4882.7500    106.7622     10.0298     13.7964     -0.3752     20.4876     22.8149      2.6910      0.0203     14.1114
  4882.2500    114.5109     10.0298     13.6175      1.9572     18.1387     19.9864      2.6899      0.0370     15.5376
  4881.7500    117.6964     10.0298     13.5087     -3.5353     16.6519     18.1880      2.6849      0.0541     16.6680
  4881.2500    115.3355     10.0298     13.4523    -11.9209     16.0372     17.4152      2.6773      0.0528     17.0884
  4880.7500    108.2014     10.0298     13.4529    -17.0285     16.3593     17.7095      2.6776      0.0390     16.4665
  4880.2500     98.4460     10.0298     13.5773    -20.9602     17.7299     19.1851      2.6876      0.0291     14.8510
  4879.7500     87.2644     10.0298     13.7013    -19.4541     20.2000     21.9296      2.6964      0.0291     12.8237
  4879.2500     76.8508     10.0298     13.7344     -9.0832     23.7199     25.9404      2.6963      0.0322     11.0566
  4878.7500     70.4304     10.0298     13.8237     -2.4452     28.1064     31.0896      2.6897      0.0321      9.6867
  4878.2500     68.6367     10.0298     14.0967     -2.8868     32.8591     36.9543      2.6850      0.0301      8.7244
  4877.7500     68.2262     10.0298     14.3846     -1.6918     36.9948     42.5078      2.6877      0.0313      8.0476
  4877.2500     67.6994     10.0298     14.5756      1.3881     39.8371     46.8051      2.6959      0.0351      7.5230
  4876.7500     68.0615     10.0298     14.7747      1.9493     41.5834     49.7953      2.7049      0.0399      7.1648
  4876.2500     69.4550     10.0298     14.9889      4.3664     42.5084     51.6152      2.7063      0.0388      7.0391
  4875.7500     69.7779     10.0298     15.0382      8.5839     42.4613     51.9824      2.6966      0.0249      7.0797
  4875.2500     70.1086     10.0298     14.8766      8.7736     41.2374     50.6336      2.6888      0.0107      7.3169
  4874.7500     73.8528     10.0298     14.7112      7.6378     38.8586     47.6162      2.6953      0.0125      7.8493
  4874.2500     79.9815     10.0298     14.6335     15.1317     36.0549     43.8526      2.7065      0.0227      8.6124
  4873.7500     85.5618     10.0298     14.5397     28.2891     33.4286     40.2492      2.7078      0.0246      9.3285
  4873.2500     91.1501     10.0298     14.4056     33.4539     30.3596     36.2165      2.7024      0.0199     10.2630
  4872.7500     97.9055     10.0298     14.3026     36.3773     26.6674     31.5212      2.7002      0.0203     11.6614
  4872.2500    105.2960     10.0298     14.2253     51.8387     23.1157     27.0275      2.7008      0.0269     13.3757
  4871.7500    111.1356     10.0298     14.1110     66.9008     20.0302     23.1326      2.6981      0.0307     15.2245
  4871.2500    113.0176     10.0298     13.8670     59.1947     17.6100     20.0673      2.6904      0.0266     16.6935
  4870.7500    111.2182     10.0298     13.5186     28.8414     16.2678     18.2935      2.6820      0.0188     17.2780
  4870.2500    107.5500     10.0298     13.1526     -1.7202     16.0875     17.8979      2.6764      0.0148     16.9165
  4869.7500    102.7509     10.0298     12.8314    -13.7314     16.8021     18.5636      2.6734      0.0126     16.0900
  4869.2500     97.4184     10.0298     12.6604    -12.5996     18.1078     19.9527      2.6740      0.0127     15.1734
  4868.7500     92.7652     10.0298     12.5958    -13.5002     19.6681     21.7096      2.6815      0.0234     14.2711
  4868.2500     89.1846     10.0298     12.5090    -17.2203     21.1156     23.4224      2.6901      0.0353     13.4535
  4867.7500     87.5728     10.0298     12.5337    -19.4349     22.1366     24.7295      2.6916      0.0333     12.9017
  4867.2500     88.5065     10.0298     12.8639    -22.7808     22.5228     25.3819      2.6913      0.0304     12.7095
  4866.7500     91.2167     10.0298     13.2819    -29.2413     22.2763     25.3146      2.6968      0.0374     12.8056
  4866.2500     93.4756     10.0298     13.4750    -35.2528     21.7399     24.8455      2.7048      0.0416     13.0435
  4865.7500     93.1796     10.0326     13.4994    -37.6986     21.2746     24.3858      2.7077      0.0382     13.2210
  4865.2500     90.4907     10.0417     13.6116    -38.4672     21.0281     24.1320      2.7016      0.0338     13.2349
  4864.7500     88.7666     10.0474     13.8514    -39.5838     21.0572     24.1659      2.6897      0.0301     13.1455
  4864.2500     90.6567     10.0417     14.0693    -37.5132     21.2760     24.3954      2.6797      0.0278     12.9725
  4863.7500     92.8852     10.0326     14.1656    -28.8222     21.5608     24.6845      2.6760      0.0251     12.7127
  4863.2500     91.6455     10.0298     14.0853    -13.7375     21.9234     25.0770      2.6803      0.0222     12.4486
  4862.7500     88.2014     10.0298     13.9054      5.7047     22.2602     25.4959      2.6917      0.0268     12.2517
  4862.2500     87.2942     10.0298     13.8091     12.4779     22.1557     25.4427      2.6985      0.0359     12.2414
  4861.7500     89.9360     10.0298     13.8030     -1.3749     21.5483     24.7475      2.6904      0.0353     12.5245
  4861.2500     92.0932     10.0298     13.6919    -17.4640     21.0086     24.0285      2.6769      0.0255     12.8499
  4860.7500     89.6751     10.0298     13.4150    -19.9552     21.1429     24.0254      2.6728      0.0215     12.7861
  4860.2500     85.5454     10.0298     13.1579    -21.0374     22.2683     25.1442      2.6744      0.0227     12.3348
  4859.7500     85.5613     10.0298     13.0545    -29.0070     23.8466     26.8221      2.6748      0.0244     11.9554
  4859.2500     90.9215     10.0298     12.9788    -33.6266     24.2362     27.2272      2.6788      0.0276     12.1070
  4858.7500     97.9703     10.0298     12.8131    -30.7028     22.5804     25.2923      2.6889      0.0310     12.9433
  4858.2500    103.8594     10.0298     12.6969    -27.7516     19.9597     22.1620      2.6947      0.0306     14.2875
  4857.7500    108.1527     10.0298     12.7247    -29.8458     17.6928     19.3930      2.6902      0.0301     15.7202
  4857.2500    110.8958     10.0298     12.7403    -30.4183     16.4223     17.7675      2.6838      0.0348     16.8089
  4856.7500    110.6188     10.0298     12.7413    -24.7193     16.1697     17.3204      2.6818      0.0390     17.3156
  4856.2500    107.5886     10.0298     12.8949    -16.3828     16.5864     17.6631      2.6839      0.0389     16.9761
  4855.7500    104.6527     10.0298     13.2439    -11.3808     17.3659     18.4455      2.6870      0.0372     16.1402
  4855.2500    101.6656     10.0298     13.6833    -12.1195     18.3968     19.5219      2.6856      0.0350     15.3266
  4854.7500     96.3636     10.0298     14.0763    -18.1078     19.6169     20.8251      2.6794      0.0299     14.5436
  4854.2500     90.3593     10.0298     14.3000    -28.0920     20.9463     22.3208      2.6756      0.0274     13.6716
  4853.7500     86.4259     10.0298     14.3585    -37.0734     22.1884     23.8525      2.6786      0.0321     12.8253
