~Version Information
 VERS.                1.20:   CWLS log ASCII Standard -VERSION 1.20
 WRAP.                  NO:   One line per frame
~Well Information Block
#MNEM.UNIT       Data Type    Information
#---------    -------------   -------------------------------
 STRT.F          3691.5000:   Starting Depth
 STOP.F          3563.7500:   Ending Depth
 STEP.F            -0.5000:   Level Spacing
 NULL.           -999.2500:   Absent Value
 COMP.             COMPANY:   FLUOR DANIEL (NPOSR), INC.
 WELL.                WELL:   73 X 10
 FLD .               FIELD:   
 LOC .            LOCATION:   
 CNTY.              COUNTY:   
 STAT.               STATE:   
 SRVC.     SERVICE COMPANY:   
 LIC .      LICENSE NUMBER:   
 DATE.            LOG DATE:   
 API .          API NUMBER:   
~Curve Information Block
#MNEM.UNIT       API Codes    Curve Description
#---------    -------------   -------------------------------
 DEPT.F        0   1  0  1:   Depth
 P2HS.DEG      0 134  9  1:   Phase Difference, 200 MHz
 P4HS.DEG      0 134  9  1:   Phase Difference, 47 MHz
 GR  .API      0 310  1  1:   Gamma ray counts
 TEN .LBF      0 635 99  1:   Differential Tension
 D2EC.DIM      0 132 99  1:   Dielectric Constant, 200 MHz
 D4EC.DIM      0 132 99  1:   Dielectric Constant, 47 MHz
 R2SL.OHMM     0 995 99  1:   Logarithnic Resistivity (200 MHz tool)
 R4SL.OHMM     0 995 99  1:   Logarithmic Resistivity (47 MHz tool)
#  Curve Data
~A   DEPT        P2HS        P4HS        GR          TEN         D2EC        D4EC        R2SL        R4SL
# ...
  3654.0000    126.6049     71.7925    100.1518     -0.9306     35.5416     42.9793      1.8471   -900.9802
  3653.5000    140.6480     73.2170     94.9582    -21.9652     42.9417     44.6064      1.4535   -916.0493
  3653.0000    154.6851     72.2246     92.6769    -33.9694     47.9317     42.5287      1.0949     32.6833
  3652.5000    165.0876     69.7059     94.0606    -38.9644     51.2859     36.5694      0.9071     15.7246
  3652.0000    173.1197     67.5621     96.1849    -35.4382     57.9249     32.7653      0.8445     13.8377
  3651.5000    180.7182     66.3842     95.3798    -29.2101     65.4121     33.5524      0.8020     17.8164
  3651.0000    185.3615     65.8952     93.2190    -25.3202     67.9809     35.7390      0.7531     38.3999
  3650.5000    186.5060     65.6637     92.1313    -20.8654     64.0958     36.3398      0.6985   -836.6956
  3650.0000    184.1664     65.3751     93.3244     -8.8938     55.7730     36.0417      0.6615   -833.7151
  3649.5000    180.1795     65.1985     95.4301      4.3023     48.7038     35.8599      0.6568   -831.8599
  3649.0000    177.7834     65.1800     95.6082      3.9833     46.4404     35.8409      0.6677   -831.6587
  3648.5000    177.8104     65.1709     93.3479    -12.4138     48.3657     35.8316      0.6812   -831.5532
  3648.0000    175.4003     65.1995     92.0046    -21.5534     47.7243     35.8609      0.7052   -831.8479
  3647.5000    166.7635     65.2219     92.6641     -8.4964     38.8690     35.8840      0.7416   -832.0803
  3647.0000    157.5658     65.1850     94.3882     11.9493     29.0498     35.8460      0.7770   -831.8079
  3646.5000    157.8075     65.1700     96.6943     26.5826     35.1769     35.8307      0.8320   -831.5637
  3646.0000    167.0231     65.1382     99.1592     31.1222     53.7796     35.7979      0.9052   -831.2051
  3645.5000    174.7973     64.9639     99.9527     25.4696     65.1938     35.6192      0.9205   -829.4766
  3645.0000    175.6626     64.8686     98.5096     14.8389     61.3953     35.5216      0.8432   -828.4443
  3644.5000    173.7315     64.9650     97.8587      9.8945     51.0716     35.6202      0.7568   -829.4646
  3644.0000    171.5342     64.9928    100.3248      7.2114     44.7678     35.6487      0.7299   -829.7502
  3643.5000    167.7107     64.7865    103.2646      3.0262     42.4181     35.4376      0.7601   -827.5759
  3643.0000    165.8842     64.5956    103.4475     -8.0569     43.4123     35.2428      0.7958   -825.5718
  3642.5000    170.6089     64.6645    101.4750    -20.8492     50.2756     35.3130      0.7956   -826.2944
  3642.0000    176.4089     64.8672    100.4750    -21.1496     57.2931     35.5201      0.7802   -828.4607
  3641.5000    173.4119     64.9167    100.8566    -16.9263     52.8158     35.5708      0.7792   -828.8896
  3641.0000    163.9478     64.8262     99.8537    -27.2399     39.7145     35.4781      0.7873   -828.0420
  3640.5000    156.9633     64.7608     95.9666    -43.2109     32.0176     35.4113      0.8124   -827.3911
  3640.0000    155.7997     64.7279     92.2281    -38.8134     34.7152     35.3777      0.8584   -826.9631
  3639.5000    154.6455     64.7070     91.6379    -17.2261     37.5845     35.3565      0.9137   -826.7969
  3639.0000    148.6764     64.8042     94.7069      0.2376     33.1057     35.4557      0.9638   -827.7798
  3638.5000    142.4403     64.9479     98.4221      5.1200     27.1645     35.6027      0.9982   -829.2632
  3638.0000    144.5650     65.0086     98.7818      7.5039     30.3604     35.6650      1.0043   -829.8572
  3637.5000    153.0167     65.1369     96.1024     23.1150     41.4348     35.7966      1.0062   -831.2202
  3637.0000    154.5534     65.2571     93.9162     38.6801     43.1928     35.9202      1.0022   -832.4021
  3636.5000    145.5767     65.0457     94.2019     27.3149     28.6047     35.7029      0.9588   -830.3638
  3636.0000    139.5288     64.7994     95.3865      0.8918     13.9405     35.4508      0.8865   -827.7346
  3635.5000    141.2740     64.9549     95.6989    -12.1048     18.2313     35.6099      0.9049   -829.2690
  3635.0000    143.8233     65.0666     95.9264    -12.6901     30.6669     35.7244      1.0247   -830.5342
  3634.5000    145.1778     64.7450     97.1234     -5.0124     36.2797     35.3952      1.0962   -827.1738
  3634.0000    148.1132     64.5867     97.9551     18.7325     38.5419     35.2338      1.0683   -825.5840
  3633.5000    150.1935     64.9662     98.2277     31.4516     38.8252     35.6214      1.0242   -829.4509
  3633.0000    152.1683     65.2269     98.2565     20.7604     38.9200     35.8891      0.9823   -832.1392
  3632.5000    155.7650     64.9976     97.4286      4.6290     40.9863     35.6536      0.9405   -829.7830
  3632.0000    159.6013     64.9030     95.8212      1.7382     44.7749     35.5567      0.9204   -828.7659
  3631.5000    162.8531     65.4207     95.0262      2.2430     47.6314     36.0888      0.8980   -834.2231
  3631.0000    166.0572     65.8135     95.0093     -2.3375     49.6036     36.4952      0.8647   -838.2163
  3630.5000    168.5793     65.5601     93.7117     -7.4002     51.0676     36.2328      0.8384   -835.5933
  3630.0000    171.6012     65.1223     89.1956     -8.3402     53.2139     35.7816      0.8126   -831.1050
  3629.5000    173.3449     65.0317     84.4630    -11.7962     53.9186     35.6886      0.7921   -830.1101
  3629.0000    167.5251     65.1611     83.6559    -17.6729     47.2237     35.8214      0.8110   -831.4761
  3628.5000    147.7319     65.2756     86.4500    -17.3466     28.3479     35.9392      0.9170   -832.7009
  3628.0000    127.0482     65.2418     89.3430    -13.3898     13.4788     35.9044      1.0983   -832.3848
  3627.5000    126.7134     65.0645     89.8412     -8.1706     22.2061     35.7222      1.2786   -830.5598
  3627.0000    141.6515     64.9272     90.0322     -2.9310     43.9614     35.5815      1.4509   -829.0920
  3626.5000    150.1833     65.0172     93.4569     -1.4942     53.5629     35.6737      1.4710   -829.9683
  3626.0000    148.5031     65.2581    101.1333     -2.9606     45.9525     35.9213      1.2396   -832.4854
  3625.5000    148.4957     65.4129    112.5054      2.5657     35.9654     36.0807      1.0124   -834.1064
  3625.0000    154.9160     65.4226    125.9903     17.8166     39.5264     36.0907      0.9357   -834.2012
  3624.5000    163.3951     65.4553    134.0114     27.4497     48.4868     36.1245      0.8997   -834.5305
  3624.0000    163.5813     65.4882    132.0171     17.8019     45.2306     36.1585      0.8531   -834.8867
  3623.5000    156.7738     65.3775    125.5667     -4.3896     31.3521     36.0442      0.8087   -833.6860
  3623.0000    151.6335     65.1886    119.8161    -30.0147     23.1949     35.8498      0.8041   -831.7642
  3622.5000    151.5746     65.0558    113.4312    -43.0401     23.8118     35.7133      0.8104   -830.3198
  3622.0000    146.1064     65.0271    106.3780    -28.3107     17.0635     35.6839      0.8237   -830.1646
  3621.5000    129.3854     65.0240    100.0926     -1.6372      1.3151     35.6807      0.9111   -830.0845
  3621.0000    110.3255     64.9860     93.4374      6.7762     -6.8595     35.6417      1.1342   -829.7095
  3620.5000     99.6044     64.9965     88.0805     -2.3875      2.4305     35.6525      1.5833   -829.7056
  3620.0000     95.5943     65.0871     88.1882    -17.7287     12.8067     35.7455      2.2595   -830.7771
  3619.5000     92.9409     65.1743     93.4029    -29.3739     16.0490     35.8350      2.8316   -831.5129
  3619.0000     91.1237     65.2966     99.4982    -32.9900     16.2522     35.9608      3.0841   -832.8608
  3618.5000     90.7090     65.4668    103.6081    -28.9100     16.4984     36.1364      3.1871   -834.7153
  3618.0000     90.1625     65.7070    105.6647    -22.9409     16.7626     36.3848      3.3232   -837.1357
  3617.5000     86.6591     66.1951    105.7968    -15.7597     15.3640     36.8924      3.5665   -842.2561
  3617.0000     81.9818     66.5364    102.6441    -19.3907     13.2472     37.2496      3.8359   -845.8101
