~Version Information
 VERS.                1.20:   CWLS log ASCII Standard -VERSION 1.20
 WRAP.                  NO:   One line per frame
~Well Information Block
#MNEM.UNIT       Data Type    Information
#---------    -------------   -------------------------------
 STRT.F          3691.5000:   Starting Depth
 STOP.F          3563.7500:   Ending Depth
 STEP.F            -0.5000:   Level Spacing
 NULL.           -999.2500:   Absent Value
 COMP.             COMPANY:   FLUOR DANIEL (NPOSR), INC.
 WELL.                WELL:   73 X 10
 FLD .               FIELD:   
 LOC .            LOCATION:   
 CNTY.              COUNTY:   
 STAT.               STATE:   
 SRVC.     SERVICE COMPANY:   
 LIC .      LICENSE NUMBER:   
 DATE.            LOG DATE:   
 API .          API NUMBER:   
~Curve Information Block
#MNEM.UNIT       API Codes    Curve Description
#---------    -------------   -------------------------------
 DEPT.F        0   1  0  1:   Depth
 P2HS.DEG      0 134  9  1:   Phase Difference, 200 MHz
 P4HS.DEG      0 134  9  1:   Phase Difference, 47 MHz
 GR  .API      0 310  1  1:   Gamma ray counts
 TEN .LBF      0 635 99  1:   Differential Tension
 D2EC.DIM      0 132 99  1:   Dielectric Constant, 200 MHz
 D4EC.DIM      0 132 99  1:   Dielectric Constant, 47 MHz
 R2SL.OHMM     0 995 99  1:   Logarithnic Resistivity (200 MHz tool)
 R4SL.OHMM     0 995 99  1:   Logarithmic Resistivity (47 MHz tool)
#  Curve Data
~A   DEPT        P2HS        P4HS        GR          TEN         D2EC        D4EC        R2SL        R4SL
  3691.5000      0.0000      0.0000      0.0000   -250.0000      0.0000      0.0000      2.0000      2.0000
  3691.0000      0.0000      0.0000      0.0000   -250.0000      0.0000      0.0000      2.0000      2.0000
  3690.5000      0.0000      0.0000      0.0000   -250.0000      0.0000      0.0000      2.0000      2.0000
  3690.0000      0.0000      0.0000      0.0000   -250.0000      0.0000      0.0000      2.0000      2.0000
  3689.5000      0.0000      0.0000      0.0000   -250.0000      0.0000      0.0000      2.0000      2.0000
  3689.0000      0.0000      0.0000      0.0000   -250.0000      0.0000      0.0000      2.0000      2.0000
  3688.5000      0.0000      0.0000      0.0000   -250.0000      0.0000      0.0000      2.0000      2.0000
  3688.0000      0.0000      0.0000      0.0000   -250.0000      0.0000      0.0000      2.0000      2.0000
  3687.5000      0.0000      0.0000      0.0000   -250.0000      0.0000      0.0000      2.0000      2.0000
  3687.0000      0.0000      0.0000      0.0000   -250.0000      0.0000      0.0000      2.0000      2.0000
  3686.5000      0.0000      0.0000      0.0000   -250.0000      0.0000      0.0000      2.0000      2.0000
  3686.0000      0.0000      0.0000      0.0000   -250.0000      0.0000      0.0000      2.0000      2.0000
  3685.5000      0.0000      0.0000      0.0000   -250.0000      0.0000      0.0000      2.0000      2.0000
  3685.0000      0.0000      0.0000      0.0000   -250.0000      0.0000      0.0000      2.0000      2.0000
  3684.5000      0.0000      0.0000      0.0000   -250.0000      0.0000      0.0000      2.0000      2.0000
  3684.0000      0.0000      0.0000      0.0000     11.0962      0.0000      0.0000      2.0000      2.0000
  3683.5000      0.0000      0.0000      0.0000     25.4233      0.0000      0.0000      2.0000      2.0000
  3683.0000      0.0000     65.4789      0.0000     44.1924      0.0000     36.1489      2.0000   -834.7949
  3682.5000      0.0000     65.3941      0.0000     58.5804      0.0000     36.0614      2.0000   -833.9126
  3682.0000      0.0000     65.2470      0.0000     53.4997      0.0000     35.9098      2.0000   -832.4180
  3681.5000      0.0000     65.1823      0.0000     38.0097      0.0000     35.8432      2.0000   -831.7358
  3681.0000      0.0000     65.1277      0.0000     30.7361      0.0000     35.7872      2.0000   -831.1353
  3680.5000      0.0000     65.0662      0.0000     40.9499      0.0000     35.7240      2.0000   -830.5381
  3680.0000      0.0000     65.0311      0.0000     59.3094      0.0000     35.6880      2.0000   -830.1174
  3679.5000      0.0000     65.0455      0.0000     63.8737      0.0000     35.7027      2.0000   -830.3657
  3679.0000      0.0000     65.0885      0.0000     47.2622      0.0000     35.7469      2.0000   -830.7605
  3678.5000      0.0000     65.1584      0.0000     25.5331      0.0000     35.8187      2.0000   -831.3850
  3678.0000      0.0000     65.2561      0.0000     17.0166      0.0000     35.9192      2.0000   -832.4138
  3677.5000      0.0000     65.3816      0.0000     10.0275      0.0000     36.0484      2.0000   -833.7324
  3677.0000      0.0000     65.4826      0.0000      3.0579      0.0000     36.1526      2.0000   -834.8350
  3676.5000      0.0000     65.4376      0.0000      1.3969      0.0000     36.1062      2.0000   -834.3154
  3676.0000      0.0000     65.1701      0.0000      9.5843      0.0000     35.8307      2.0000   -831.5637
  3675.5000      0.0000     64.8701      0.0000     20.1108      0.0000     35.5231      2.0000   -828.4265
  3675.0000      0.0000     64.8816      0.0000     23.6912      0.0000     35.5349      2.0000   -828.6028
  3674.5000      0.0000     65.1388      0.0000     22.5929      0.0000     35.7986      2.0000   -831.3191
  3674.0000    145.2613     65.2893      0.0000     24.9420     28.0011     35.9534      0.9564   -832.8511
  3673.5000    137.7711     65.2386      0.0000     28.0518     23.4745     35.9011      1.0355   -832.3049
  3673.0000    134.4458     65.3105      0.0000     26.9907     24.1692     35.9752      1.1199   -833.0229
  3672.5000    136.8705     65.5621      0.0000     24.1380     29.6304     36.2348      1.1706   -835.5701
  3672.0000    135.8953     65.6916      0.0000     22.6850     30.9409     36.3688      1.2291   -836.9954
  3671.5000    123.8273     65.6531      0.0000     22.9192     21.3581     36.3289      1.3430   -836.6086
  3671.0000    113.2161     65.6017      0.0000     20.0791     12.3199     36.2758      1.4254   -836.0657
  3670.5000    114.8907     65.4903      0.0000     10.4197     13.9147     36.1606      1.4170   -834.9539
  3670.0000    121.6021     65.3430      0.0000     -0.8577     24.3598     36.0087      1.5189   -833.3567
  3669.5000    125.1044     65.3823      0.0000     -8.5165     31.5595     36.0491      1.6852   -833.7244
  3669.0000    126.3583     65.4117      0.0000    -11.8596     31.5551     36.0795      1.6189   -834.1204
  3668.5000    126.5315     65.2791      0.0000    -11.4250     27.5857     35.9428      1.4441   -832.6592
  3668.0000    125.9396     65.2332      0.0000     -1.8273     25.0360     35.8956      1.3811   -832.1602
  3667.5000    122.2645     65.3837      0.0000     15.3638     22.7063     36.0505      1.4354   -833.8140
  3667.0000    113.4023     65.4148      0.0000     27.4527     17.4093     36.0827      1.5820   -834.0833
  3666.5000    104.1292     65.1492      0.0000     28.7536     12.1548     35.8093      1.7556   -831.4172
  3666.0000     99.0860     64.7920     96.8383     26.2550     10.6113     35.4432      1.9184   -827.6262
  3665.5000     97.8831     64.7601     96.7236     22.1884     13.7250     35.4106      2.1765   -827.2788
  3665.0000     98.0964     65.1399    101.1558     10.5804     18.1251     35.7996      2.5710   -831.1853
  3664.5000     97.5917     65.6476    105.6819     -5.7352     19.9907     36.3233      2.8947   -836.5806
  3664.0000     97.3480     65.9384    108.5884    -19.6451     20.0972     36.6250      2.9454   -839.5908
  3663.5000     98.7592     65.9464    112.1695    -19.1519     20.6898     36.6334      2.8628   -839.6165
  3663.0000     97.2933     66.1247    115.7736     -7.8666     19.8993     36.8190      2.9178   -841.4485
  3662.5000     93.1740     67.4225    116.1326      6.0155     17.4708     38.1852      3.0319   -855.1072
  3662.0000     99.4247     69.1493    113.5836     12.8804     21.0703     40.0440      2.8413   -873.1460
  3661.5000    119.6599     70.1215    110.5863     13.6015     35.1430     41.1109      2.4835   -883.3208
  3661.0000    141.6392     71.7431    107.0430      9.1229     52.8441     42.9234      2.1745   -900.4998
  3660.5000    154.5298     73.8623    102.7983     -3.3449     61.7468     43.9829      1.7142     26.1307
  3660.0000    155.9070     72.8842     99.8664    -17.9901     53.6639     38.2825      1.2105     12.3848
  3659.5000    150.6437     68.9738     98.9067    -25.9210     36.5641     26.8233      0.9766      8.7702
  3659.0000    144.4009     66.2324     98.8586    -33.4997     28.9432     20.6124      0.9861      8.1481
  3658.5000    136.5800     65.7750     99.5268    -38.8960     24.8588     26.7558      1.0837     10.6973
  3658.0000    126.6046     65.8362    100.7574    -23.9184     19.5102     35.6029      1.2194     36.7095
  3657.5000    117.8733     65.6956    100.0933      6.6819     17.0952     36.3730      1.4120   -837.0674
  3657.0000    111.1149     65.3470     97.4380     15.3735     17.5926     36.0127      1.6849   -833.4282
  3656.5000    105.6290     65.3021     96.9629     -5.8481     17.8576     35.9665      1.9787   -832.9270
  3656.0000    102.5367     65.8404    101.4453    -23.1342     18.0853     36.5232      2.1966   -838.6252
  3655.5000    101.6873     66.7373    107.4596     -7.2456     18.9283     37.4606      2.3373   -847.9138
  3655.0000    105.7523     67.8413    109.5309     18.8771     22.2272     38.6318      2.3241   -859.3716
  3654.5000    114.6956     69.4910    106.0396     20.4810     28.1318     40.4173      2.1438   -876.7827
